{"status":true,"message":"","result":[{"server_id":9,"name":"Uncletopia | Atlanta | 1 | All Maps","name_short":"atl-1","host":"atl-1.us.uncletopia.com","port":27015,"enabled":true,"region":"us-east","cc":"us","latitude":33.753746,"longitude":-84.38633,"reserved":0,"last_update":"0001-01-01T00:00:00Z","name_a2s":"Uncletopia | Atlanta | 1 | All Maps","protocol":17,"map":"koth_sawmill","folder":"tf","game":"Team Fortress","app_id":440,"player_count":24,"max_players":24,"Bots":0,"server_type":"Dedicated","server_os":"Linux","password":true,"vac":true,"version":"7961495","steam_id":85568392924469982,"keywords":["cp","nocrits","nodmgspread","uncletopia"],"game_id":440,"stv_port":27016,"stv_name":"Uncletopia | Atlanta | 1 | All Maps | STV","players":[{"user_id":427,"name":"creeeeeee","steam_id":76561198392539722,"connected_time":2190000000000,"state":"active","ping":83},{"user_id":437,"name":"Duck","steam_id":76561198303483056,"connected_time":1234000000000,"state":"active","ping":95},{"user_id":452,"name":"Pango","steam_id":76561198069811545,"connected_time":495000000000,"state":"active","ping":45},{"user_id":448,"name":"MONKE","steam_id":76561199211345801,"connected_time":635000000000,"state":"active","ping":54},{"user_id":458,"name":"epicgamertime2008","steam_id":76561199380926595,"connected_time":324000000000,"state":"active","ping":108},{"user_id":441,"name":"ATL1 | cola","steam_id":76561198374390458,"connected_time":828000000000,"state":"active","ping":62},{"user_id":429,"name":"atl1cyy","steam_id":76561198968001329,"connected_time":1896000000000,"state":"active","ping":50},{"user_id":451,"name":"vegicide","steam_id":76561198239286750,"connected_time":561000000000,"state":"active","ping":64},{"user_id":457,"name":"wile","steam_id":76561198125261443,"connected_time":390000000000,"state":"active","ping":117},{"user_id":413,"name":"Heathcliff","steam_id":76561198044288534,"connected_time":2635000000000,"state":"active","ping":78},{"user_id":442,"name":"Crystron","steam_id":76561198880437428,"connected_time":814000000000,"state":"active","ping":85},{"user_id":459,"name":"Divinitas","steam_id":76561199079034911,"connected_time":321000000000,"state":"active","ping":57},{"user_id":443,"name":"lu","steam_id":76561198080731872,"connected_time":773000000000,"state":"active","ping":73},{"user_id":461,"name":"Nerf Clean Hit","steam_id":76561198257691881,"connected_time":233000000000,"state":"active","ping":90},{"user_id":462,"name":"--_Cook_--","steam_id":76561198080855748,"connected_time":10000000000,"state":"active","ping":63},{"user_id":402,"name":"☼ fellini","steam_id":76561198074180953,"connected_time":3243000000000,"state":"active","ping":60},{"user_id":460,"name":"Versuski","steam_id":76561198085193084,"connected_time":317000000000,"state":"active","ping":68},{"user_id":449,"name":"sansa musa","steam_id":76561198163723555,"connected_time":622000000000,"state":"active","ping":64},{"user_id":406,"name":"tgirl swag","steam_id":76561198128164970,"connected_time":3014000000000,"state":"active","ping":103},{"user_id":395,"name":"Kuri","steam_id":76561199037050183,"connected_time":4025000000000,"state":"active","ping":80},{"user_id":422,"name":"tgirl shower water","steam_id":76561198249206656,"connected_time":2316000000000,"state":"active","ping":82},{"user_id":453,"name":"wile smells :3","steam_id":76561197968351430,"connected_time":466000000000,"state":"active","ping":103},{"user_id":417,"name":"StarPlayz","steam_id":76561199017220262,"connected_time":2567000000000,"state":"active","ping":102},{"user_id":455,"name":"Luci the cozy spooder","steam_id":76561198813499618,"connected_time":437000000000,"state":"active","ping":77}]},{"server_id":104,"name":"Uncletopia | Atlanta | 2 | All Maps","name_short":"atl-2","host":"atl-1.us.uncletopia.com","port":27025,"enabled":true,"region":"us-east","cc":"us","latitude":33.753746,"longitude":-84.38633,"reserved":0,"last_update":"0001-01-01T00:00:00Z","name_a2s":"Uncletopia | Atlanta | 2 | All Maps","protocol":17,"map":"pl_pier","folder":"tf","game":"Team Fortress","app_id":440,"player_count":24,"max_players":24,"Bots":0,"server_type":"Dedicated","server_os":"Linux","password":true,"vac":true,"version":"7961495","steam_id":85568392924469983,"keywords":["nocrits","nodmgspread","payload","uncletopia"],"game_id":440,"stv_port":27026,"stv_name":"Uncletopia | Atlanta | 2 | All Maps | STV","players":[{"user_id":601,"name":"simply","steam_id":76561198215728721,"connected_time":1705000000000,"state":"active","ping":47},{"user_id":583,"name":"Monochi","steam_id":76561198093093118,"connected_time":2512000000000,"state":"active","ping":75},{"user_id":613,"name":"Detective Bread Crumbs","steam_id":76561198143630277,"connected_time":1294000000000,"state":"active","ping":61},{"user_id":552,"name":"DlTTO","steam_id":76561199427026752,"connected_time":5085000000000,"state":"active","ping":88},{"user_id":565,"name":"Oxygen User","steam_id":76561199111975528,"connected_time":3278000000000,"state":"active","ping":76},{"user_id":588,"name":"Madame Corgi","steam_id":76561198359214816,"connected_time":2437000000000,"state":"active","ping":70},{"user_id":248,"name":"Lemonty","steam_id":76561198163812778,"connected_time":16166000000000,"state":"active","ping":78},{"user_id":632,"name":"Strangelove","steam_id":76561198353773611,"connected_time":444000000000,"state":"active","ping":87},{"user_id":598,"name":"Bluedime","steam_id":76561198123181025,"connected_time":1977000000000,"state":"active","ping":39},{"user_id":633,"name":"Beau","steam_id":76561198162587622,"connected_time":443000000000,"state":"active","ping":93},{"user_id":635,"name":"chrissweep","steam_id":76561198072826791,"connected_time":204000000000,"state":"active","ping":78},{"user_id":561,"name":"Valentime!","steam_id":76561198093806229,"connected_time":4662000000000,"state":"active","ping":71},{"user_id":634,"name":"Butters495","steam_id":76561197998689042,"connected_time":410000000000,"state":"active","ping":86},{"user_id":580,"name":"duBstep","steam_id":76561198353928965,"connected_time":2684000000000,"state":"active","ping":61},{"user_id":629,"name":"I SEXED THE PUMPKIN","steam_id":76561198152641397,"connected_time":507000000000,"state":"active","ping":69},{"user_id":636,"name":"have blue","steam_id":76561198054260599,"connected_time":58000000000,"state":"active","ping":77},{"user_id":624,"name":"Piss King","steam_id":76561199446367874,"connected_time":987000000000,"state":"active","ping":63},{"user_id":626,"name":"el vengador de la tienda","steam_id":76561199081928341,"connected_time":896000000000,"state":"active","ping":89},{"user_id":623,"name":"comicconcarne","steam_id":76561198005309469,"connected_time":1058000000000,"state":"active","ping":63},{"user_id":597,"name":"SpectreBurn","steam_id":76561198163300780,"connected_time":2008000000000,"state":"active","ping":55},{"user_id":602,"name":"Spirit","steam_id":76561198286792807,"connected_time":1585000000000,"state":"active","ping":87},{"user_id":627,"name":"Oopsie Daisy ❋","steam_id":76561198042144492,"connected_time":891000000000,"state":"active","ping":58},{"user_id":603,"name":"Functional Progaming","steam_id":76561198032310210,"connected_time":1472000000000,"state":"active","ping":70},{"user_id":609,"name":"General Sherman","steam_id":76561198044769376,"connected_time":1402000000000,"state":"active","ping":61}]},{"server_id":400,"name":"Uncletopia | Atlanta | 3 | Stopwatch","name_short":"atl-3","host":"atl-1.us.uncletopia.com","port":27035,"enabled":true,"region":"us-east","cc":"us","latitude":33.753746,"longitude":-84.38633,"reserved":0,"last_update":"0001-01-01T00:00:00Z","name_a2s":"Uncletopia | Atlanta | 3 | Stopwatch","protocol":17,"map":"workshop/pl_vigil_rc10.ugc1266210012","folder":"tf","game":"Team Fortress","app_id":440,"player_count":0,"max_players":24,"Bots":0,"server_type":"Dedicated","server_os":"Linux","password":true,"vac":true,"version":"7961495","steam_id":85568392924515187,"keywords":["nocrits","nodmgspread","payload","uncletopia"],"game_id":440,"stv_port":27036,"stv_name":"Uncletopia | Atlanta | 3 | Stopwatch | STV","players":null},{"server_id":401,"name":"Uncletopia | Atlanta | 4 | Community","name_short":"atl-4","host":"atl-1.us.uncletopia.com","port":27045,"enabled":true,"region":"us-east","cc":"us","latitude":33.753746,"longitude":-84.38633,"reserved":0,"last_update":"0001-01-01T00:00:00Z","name_a2s":"Uncletopia | Atlanta | 4 | Community","protocol":17,"map":"workshop/pl_cactuscanyon_redux_final2.ugc2579644293","folder":"tf","game":"Team Fortress","app_id":440,"player_count":24,"max_players":24,"Bots":0,"server_type":"Dedicated","server_os":"Linux","password":true,"vac":true,"version":"7961495","steam_id":85568392924515188,"keywords":["nocrits","nodmgspread","payload","uncletopia"],"game_id":440,"stv_port":27046,"stv_name":"Uncletopia | Atlanta | 4 | Community | STV","players":[{"user_id":145,"name":"jerry","steam_id":76561198422891994,"connected_time":1749000000000,"state":"active","ping":102},{"user_id":177,"name":"7thelden","steam_id":76561198297428761,"connected_time":364000000000,"state":"active","ping":80},{"user_id":180,"name":"Orange Juice Jones","steam_id":76561198063301080,"connected_time":80000000000,"state":"active","ping":63},{"user_id":176,"name":"Kamin","steam_id":76561198255299559,"connected_time":455000000000,"state":"active","ping":88},{"user_id":149,"name":"Arrow","steam_id":76561198982001655,"connected_time":1472000000000,"state":"active","ping":64},{"user_id":135,"name":"Goblin","steam_id":76561198031334237,"connected_time":3419000000000,"state":"active","ping":83},{"user_id":167,"name":"GoGo","steam_id":76561198023080645,"connected_time":765000000000,"state":"active","ping":85},{"user_id":166,"name":"RainAxe","steam_id":76561198287677637,"connected_time":805000000000,"state":"active","ping":65},{"user_id":130,"name":"dark souls boss","steam_id":76561198316610724,"connected_time":3809000000000,"state":"active","ping":101},{"user_id":156,"name":"lucin","steam_id":76561198258062078,"connected_time":1230000000000,"state":"active","ping":58},{"user_id":118,"name":"JambaJuice","steam_id":76561198806736231,"connected_time":4233000000000,"state":"active","ping":79},{"user_id":141,"name":"green bean","steam_id":76561198113099204,"connected_time":2451000000000,"state":"active","ping":91},{"user_id":110,"name":"Froyo Ding Dong","steam_id":76561198379421700,"connected_time":4633000000000,"state":"active","ping":77},{"user_id":129,"name":"goobert","steam_id":76561198161385366,"connected_time":3831000000000,"state":"active","ping":80},{"user_id":137,"name":"doishe","steam_id":76561198068190834,"connected_time":2595000000000,"state":"active","ping":118},{"user_id":150,"name":"MOVEMENTPLAYER bladeefan12","steam_id":76561198274959371,"connected_time":1461000000000,"state":"active","ping":72},{"user_id":178,"name":"0deity","steam_id":76561199467458076,"connected_time":227000000000,"state":"active","ping":85},{"user_id":112,"name":"stampdawg","steam_id":76561198050500060,"connected_time":4566000000000,"state":"active","ping":86},{"user_id":170,"name":"Carpet enthusiast","steam_id":76561198024040142,"connected_time":656000000000,"state":"active","ping":107},{"user_id":173,"name":"Maxxycat","steam_id":76561198194062681,"connected_time":604000000000,"state":"active","ping":75},{"user_id":126,"name":"Cyclops_672","steam_id":76561198080169497,"connected_time":3954000000000,"state":"active","ping":46},{"user_id":162,"name":"☂","steam_id":76561198001263590,"connected_time":1021000000000,"state":"active","ping":68},{"user_id":179,"name":"Praxeas Busybody","steam_id":76561198035618952,"connected_time":163000000000,"state":"active","ping":47},{"user_id":136,"name":"SPF420","steam_id":76561198083991705,"connected_time":3168000000000,"state":"active","ping":87}]},{"server_id":2,"name":"Uncletopia | Chicago | 1 | All Maps","name_short":"chi-1","host":"chi-1.us.uncletopia.com","port":27015,"enabled":true,"region":"us-central","cc":"us","latitude":41.881832,"longitude":-87.62318,"reserved":0,"last_update":"0001-01-01T00:00:00Z","name_a2s":"Uncletopia | Chicago | 1 | All Maps","protocol":17,"map":"pl_barnblitz","folder":"tf","game":"Team Fortress","app_id":440,"player_count":24,"max_players":24,"Bots":0,"server_type":"Dedicated","server_os":"Linux","password":true,"vac":true,"version":"7961495","steam_id":85568392924469984,"keywords":["nocrits","nodmgspread","payload","uncletopia"],"game_id":440,"stv_port":27016,"stv_name":"Uncletopia | Chicago | 1 | All Maps | STV","players":[{"user_id":436,"name":"daffodil","steam_id":76561198049480053,"connected_time":1375000000000,"state":"active","ping":58},{"user_id":456,"name":"Gabinator32","steam_id":76561198872467183,"connected_time":468000000000,"state":"active","ping":48},{"user_id":452,"name":"Snom","steam_id":76561198333827920,"connected_time":513000000000,"state":"active","ping":103},{"user_id":449,"name":"Whoopsy","steam_id":76561198128103529,"connected_time":990000000000,"state":"active","ping":83},{"user_id":408,"name":"mr beijing","steam_id":76561198044668836,"connected_time":3574000000000,"state":"active","ping":45},{"user_id":450,"name":"Adam (Cursed Confetti Creature)","steam_id":76561198317690197,"connected_time":947000000000,"state":"active","ping":49},{"user_id":457,"name":"MedRed™ #IATAH","steam_id":76561198002962970,"connected_time":466000000000,"state":"active","ping":104},{"user_id":427,"name":"MechaSixVII","steam_id":76561198014927379,"connected_time":1628000000000,"state":"active","ping":70},{"user_id":328,"name":"TheGhostThatWas","steam_id":76561198055836483,"connected_time":10062000000000,"state":"active","ping":60},{"user_id":347,"name":"señora","steam_id":76561199353185652,"connected_time":8779000000000,"state":"active","ping":118},{"user_id":451,"name":"edwinbrood","steam_id":76561198044848769,"connected_time":890000000000,"state":"active","ping":62},{"user_id":440,"name":"*****setget","steam_id":76561198118824188,"connected_time":1315000000000,"state":"active","ping":120},{"user_id":418,"name":"Acro","steam_id":76561198092451804,"connected_time":2679000000000,"state":"active","ping":84},{"user_id":425,"name":"Raizen","steam_id":76561199092445367,"connected_time":1907000000000,"state":"active","ping":50},{"user_id":374,"name":"hej","steam_id":76561197996366940,"connected_time":6351000000000,"state":"active","ping":90},{"user_id":409,"name":"dree","steam_id":76561198079178866,"connected_time":3561000000000,"state":"active","ping":61},{"user_id":460,"name":"Pandora Nyx","steam_id":76561198093475054,"connected_time":40000000000,"state":"active","ping":136},{"user_id":443,"name":"Tobo","steam_id":76561198085846393,"connected_time":1249000000000,"state":"active","ping":86},{"user_id":419,"name":"cxx","steam_id":76561198111995277,"connected_time":2478000000000,"state":"active","ping":61},{"user_id":437,"name":"Ockulus","steam_id":76561199069638460,"connected_time":1373000000000,"state":"active","ping":109},{"user_id":459,"name":"loser","steam_id":76561198259380127,"connected_time":295000000000,"state":"active","ping":59},{"user_id":267,"name":"Lapis","steam_id":76561198042677899,"connected_time":14996000000000,"state":"active","ping":59},{"user_id":229,"name":"Lia_Rein","steam_id":76561198151569597,"connected_time":16693000000000,"state":"active","ping":147},{"user_id":455,"name":"wiiblob","steam_id":76561198109106242,"connected_time":512000000000,"state":"active","ping":136}]},{"server_id":106,"name":"Uncletopia | Chicago | 2 | All Maps","name_short":"chi-2","host":"chi-1.us.uncletopia.com","port":27025,"enabled":true,"region":"us-central","cc":"us","latitude":41.881832,"longitude":-87.62318,"reserved":0,"last_update":"0001-01-01T00:00:00Z","name_a2s":"Uncletopia | Chicago | 2 | All Maps","protocol":17,"map":"koth_highpass","folder":"tf","game":"Team Fortress","app_id":440,"player_count":24,"max_players":24,"Bots":0,"server_type":"Dedicated","server_os":"Linux","password":true,"vac":true,"version":"7961495","steam_id":85568392924469985,"keywords":["cp","nocrits","nodmgspread","uncletopia"],"game_id":440,"stv_port":27026,"stv_name":"Uncletopia | Chicago | 2 | All Maps | STV","players":[{"user_id":103,"name":"TechnoBear2099","steam_id":76561198238863596,"connected_time":1330000000000,"state":"active","ping":68},{"user_id":71,"name":"Hold Your Colour","steam_id":76561198005806915,"connected_time":2695000000000,"state":"active","ping":86},{"user_id":125,"name":"YummerBummer","steam_id":76561198094773987,"connected_time":132000000000,"state":"active","ping":75},{"user_id":86,"name":"c64guy","steam_id":76561198023022744,"connected_time":1873000000000,"state":"active","ping":57},{"user_id":45,"name":"mrappledumb","steam_id":76561199133590774,"connected_time":4588000000000,"state":"active","ping":64},{"user_id":98,"name":"shalankawanak","steam_id":76561198987719376,"connected_time":1418000000000,"state":"active","ping":60},{"user_id":72,"name":"ASmoothCriminal","steam_id":76561199274999129,"connected_time":2630000000000,"state":"active","ping":68},{"user_id":64,"name":"6 million bees","steam_id":76561198400438007,"connected_time":3571000000000,"state":"active","ping":46},{"user_id":124,"name":"LORD water bottle taco","steam_id":76561199207588588,"connected_time":326000000000,"state":"active","ping":101},{"user_id":109,"name":"Nobody121","steam_id":76561199227292137,"connected_time":1046000000000,"state":"active","ping":113},{"user_id":107,"name":"juju","steam_id":76561198863011658,"connected_time":1081000000000,"state":"active","ping":86},{"user_id":84,"name":"GamingJuice42","steam_id":76561198110469437,"connected_time":2102000000000,"state":"active","ping":56},{"user_id":113,"name":"raw chicken enjoyer","steam_id":76561198986943063,"connected_time":737000000000,"state":"active","ping":54},{"user_id":100,"name":"Malta","steam_id":76561198119557272,"connected_time":1397000000000,"state":"active","ping":96},{"user_id":87,"name":"Sunshine","steam_id":76561198885528098,"connected_time":1863000000000,"state":"active","ping":73},{"user_id":97,"name":"gogurt","steam_id":76561199051096093,"connected_time":1424000000000,"state":"active","ping":60},{"user_id":85,"name":"Trapilicious","steam_id":76561198061430457,"connected_time":1975000000000,"state":"active","ping":79},{"user_id":89,"name":"magamum!","steam_id":76561198880304614,"connected_time":1826000000000,"state":"active","ping":60},{"user_id":110,"name":"majorbobfunction","steam_id":76561198042464632,"connected_time":1034000000000,"state":"active","ping":47},{"user_id":117,"name":"くるくるくるりん","steam_id":76561198970370243,"connected_time":434000000000,"state":"active","ping":51},{"user_id":93,"name":"HemoTox","steam_id":76561197999713466,"connected_time":1513000000000,"state":"active","ping":69},{"user_id":127,"name":"JonathanYawnathan","steam_id":76561198079142181,"connected_time":89000000000,"state":"active","ping":65},{"user_id":44,"name":"Goob Oy","steam_id":76561198889932456,"connected_time":4795000000000,"state":"active","ping":48},{"user_id":101,"name":"Reese","steam_id":76561198044035968,"connected_time":1380000000000,"state":"active","ping":73}]},{"server_id":402,"name":"Uncletopia | Chicago | 3 | All Maps","name_short":"chi-3","host":"chi-1.us.uncletopia.com","port":27035,"enabled":true,"region":"us-central","cc":"us","latitude":41.881832,"longitude":-87.62318,"reserved":0,"last_update":"0001-01-01T00:00:00Z","name_a2s":"Uncletopia | Chicago | 3 | All Maps","protocol":17,"map":"pl_borneo","folder":"tf","game":"Team Fortress","app_id":440,"player_count":24,"max_players":24,"Bots":0,"server_type":"Dedicated","server_os":"Linux","password":true,"vac":true,"version":"7961495","steam_id":85568392924515191,"keywords":["nocrits","nodmgspread","payload","uncletopia"],"game_id":440,"stv_port":27036,"stv_name":"Uncletopia | Chicago | 3 | All Maps | STV","players":[{"user_id":271,"name":"󠁳 ⁧homo56K","steam_id":76561198404564240,"connected_time":3497000000000,"state":"active","ping":60},{"user_id":276,"name":"Crazy Insane Proboscis Monkey","steam_id":76561198061011176,"connected_time":3109000000000,"state":"active","ping":88},{"user_id":323,"name":"Big Chad","steam_id":76561198015304658,"connected_time":260000000000,"state":"active","ping":59},{"user_id":311,"name":"GooBer","steam_id":76561198402241505,"connected_time":1249000000000,"state":"active","ping":91},{"user_id":281,"name":"Captain Underbelly","steam_id":76561198811270935,"connected_time":2558000000000,"state":"active","ping":100},{"user_id":324,"name":"SubZeroDestruction","steam_id":76561198145082209,"connected_time":260000000000,"state":"active","ping":63},{"user_id":325,"name":"Zimil","steam_id":76561199187045818,"connected_time":245000000000,"state":"active","ping":114},{"user_id":275,"name":"Nᵧχᵢє ✨","steam_id":76561198074212766,"connected_time":3117000000000,"state":"active","ping":114},{"user_id":304,"name":"shrexy","steam_id":76561198164593271,"connected_time":1570000000000,"state":"active","ping":41},{"user_id":291,"name":"smallerest","steam_id":76561198826409636,"connected_time":2334000000000,"state":"active","ping":102},{"user_id":297,"name":"FrostStorm","steam_id":76561198142685151,"connected_time":2059000000000,"state":"active","ping":60},{"user_id":285,"name":"Jaked0cxTTV","steam_id":76561198357732040,"connected_time":2426000000000,"state":"active","ping":80},{"user_id":272,"name":"kicks","steam_id":76561199228854923,"connected_time":3496000000000,"state":"active","ping":59},{"user_id":322,"name":"Kyle Wisdom","steam_id":76561197983040950,"connected_time":290000000000,"state":"active","ping":59},{"user_id":299,"name":"SomeScuffedKid","steam_id":76561198086113234,"connected_time":1978000000000,"state":"active","ping":69},{"user_id":295,"name":"Sprit ♥","steam_id":76561198268780781,"connected_time":2083000000000,"state":"active","ping":48},{"user_id":287,"name":"Decapitation Station","steam_id":76561198201796098,"connected_time":2360000000000,"state":"active","ping":75},{"user_id":312,"name":"Zero","steam_id":76561198033384990,"connected_time":1032000000000,"state":"active","ping":66},{"user_id":310,"name":"Bear bird","steam_id":76561198166769479,"connected_time":1282000000000,"state":"active","ping":90},{"user_id":289,"name":"NOBODY","steam_id":76561198094578887,"connected_time":2340000000000,"state":"active","ping":52},{"user_id":290,"name":"Mack","steam_id":76561198089361823,"connected_time":2340000000000,"state":"active","ping":120},{"user_id":321,"name":"dilfbot","steam_id":76561198099988165,"connected_time":301000000000,"state":"active","ping":72},{"user_id":279,"name":"ℱℯѕтινℯ Batty","steam_id":76561198019918687,"connected_time":2663000000000,"state":"active","ping":83},{"user_id":293,"name":"Goldensliv","steam_id":76561198161673891,"connected_time":2322000000000,"state":"active","ping":90}]},{"server_id":403,"name":"Uncletopia | Chicago | 4 | All Maps","name_short":"chi-4","host":"chi-1.us.uncletopia.com","port":27045,"enabled":true,"region":"us-central","cc":"us","latitude":41.881832,"longitude":-87.62318,"reserved":0,"last_update":"0001-01-01T00:00:00Z","name_a2s":"Uncletopia | Chicago | 4 | All Maps","protocol":17,"map":"pl_badwater","folder":"tf","game":"Team Fortress","app_id":440,"player_count":24,"max_players":24,"Bots":0,"server_type":"Dedicated","server_os":"Linux","password":true,"vac":true,"version":"7961495","steam_id":85568392924515193,"keywords":["nocrits","nodmgspread","payload","uncletopia"],"game_id":440,"stv_port":27046,"stv_name":"Uncletopia | Chicago | 4 | All Maps | STV","players":[{"user_id":386,"name":"notdoxed","steam_id":76561197992591404,"connected_time":1226000000000,"state":"active","ping":52},{"user_id":387,"name":"lil' Wayne","steam_id":76561198050136796,"connected_time":1215000000000,"state":"active","ping":82},{"user_id":405,"name":"shaq$","steam_id":76561198045246504,"connected_time":217000000000,"state":"active","ping":50},{"user_id":335,"name":"Yarman53","steam_id":76561198099889202,"connected_time":4686000000000,"state":"active","ping":39},{"user_id":391,"name":"MMAD","steam_id":76561198026446420,"connected_time":1147000000000,"state":"active","ping":84},{"user_id":409,"name":"(Ô)Ô)Wandering Singer(Ô(Ô)","steam_id":76561198126477141,"connected_time":160000000000,"state":"active","ping":72},{"user_id":317,"name":"Ojen","steam_id":76561197998414482,"connected_time":6387000000000,"state":"active","ping":67},{"user_id":410,"name":"Stupid? Probably :(","steam_id":76561198298310744,"connected_time":158000000000,"state":"active","ping":64},{"user_id":376,"name":"Aeris","steam_id":76561198287271028,"connected_time":2504000000000,"state":"active","ping":62},{"user_id":330,"name":"toritora","steam_id":76561198023859737,"connected_time":5225000000000,"state":"active","ping":67},{"user_id":401,"name":"Cheesi","steam_id":76561199417190840,"connected_time":525000000000,"state":"active","ping":77},{"user_id":389,"name":"Kantamoe","steam_id":76561198046661611,"connected_time":1208000000000,"state":"active","ping":86},{"user_id":378,"name":"Tero","steam_id":76561198073147972,"connected_time":2335000000000,"state":"active","ping":160},{"user_id":407,"name":"NAEM CHEGG","steam_id":76561199074984482,"connected_time":193000000000,"state":"active","ping":62},{"user_id":392,"name":"astrobob911","steam_id":76561199099110654,"connected_time":1127000000000,"state":"active","ping":70},{"user_id":382,"name":"303","steam_id":76561199052840531,"connected_time":1841000000000,"state":"active","ping":63},{"user_id":411,"name":"Crouching Noob Hidden Sniper","steam_id":76561197971328473,"connected_time":149000000000,"state":"active","ping":93},{"user_id":370,"name":"JxyGREED","steam_id":76561198345026653,"connected_time":2990000000000,"state":"active","ping":62},{"user_id":403,"name":"Jerumbo","steam_id":76561198920780345,"connected_time":485000000000,"state":"active","ping":55},{"user_id":406,"name":"skid","steam_id":76561198057536994,"connected_time":206000000000,"state":"active","ping":81},{"user_id":394,"name":"He rolls his own","steam_id":76561198058162684,"connected_time":1100000000000,"state":"active","ping":86},{"user_id":399,"name":"ooblz","steam_id":76561198361326855,"connected_time":741000000000,"state":"active","ping":73},{"user_id":412,"name":"Finland","steam_id":76561198375763699,"connected_time":134000000000,"state":"active","ping":73},{"user_id":408,"name":"Odyessy","steam_id":76561198051564419,"connected_time":183000000000,"state":"active","ping":78}]},{"server_id":36,"name":"Uncletopia | Chicago | 5 | All Maps","name_short":"chi-5","host":"chi-2.us.uncletopia.com","port":27015,"enabled":true,"region":"us-central","cc":"us","latitude":41.881832,"longitude":-87.62318,"reserved":0,"last_update":"0001-01-01T00:00:00Z","name_a2s":"Uncletopia | Chicago | 5 | All Maps","protocol":17,"map":"pl_pier","folder":"tf","game":"Team Fortress","app_id":440,"player_count":24,"max_players":24,"Bots":0,"server_type":"Dedicated","server_os":"Linux","password":true,"vac":true,"version":"7961495","steam_id":85568392924866362,"keywords":["nocrits","nodmgspread","payload","uncletopia"],"game_id":440,"stv_port":27016,"stv_name":"Uncletopia | Chicago | 5 | All Maps | STV","players":[{"user_id":162,"name":"Pie","steam_id":76561198054721133,"connected_time":312000000000,"state":"active","ping":91},{"user_id":141,"name":"sergeant major cone tits","steam_id":76561198333985626,"connected_time":3717000000000,"state":"active","ping":62},{"user_id":148,"name":"Mega_Man23","steam_id":76561198138341391,"connected_time":2479000000000,"state":"active","ping":62},{"user_id":145,"name":"Syrup_Bottle","steam_id":76561198869174481,"connected_time":2897000000000,"state":"active","ping":91},{"user_id":146,"name":"99 problems you're all of them","steam_id":76561198089516781,"connected_time":2494000000000,"state":"active","ping":94},{"user_id":155,"name":"Molten Monarch","steam_id":76561199047102418,"connected_time":1791000000000,"state":"active","ping":118},{"user_id":160,"name":"Piyono","steam_id":76561197962188504,"connected_time":1022000000000,"state":"active","ping":71},{"user_id":152,"name":"brains","steam_id":76561198197388678,"connected_time":2319000000000,"state":"active","ping":60},{"user_id":88,"name":"Screwball","steam_id":76561198142102141,"connected_time":7319000000000,"state":"active","ping":48},{"user_id":149,"name":"Hazeyboi","steam_id":76561198130687838,"connected_time":2474000000000,"state":"active","ping":61},{"user_id":130,"name":"graham crackr","steam_id":76561199072720886,"connected_time":4436000000000,"state":"active","ping":63},{"user_id":134,"name":"gaming elliptical","steam_id":76561198013456569,"connected_time":4120000000000,"state":"active","ping":51},{"user_id":165,"name":"דניאל","steam_id":76561198046278452,"connected_time":119000000000,"state":"active","ping":108},{"user_id":139,"name":"_hooded_","steam_id":76561198023595873,"connected_time":3930000000000,"state":"active","ping":94},{"user_id":150,"name":"DerpyNate","steam_id":76561198100249037,"connected_time":2459000000000,"state":"active","ping":48},{"user_id":164,"name":"nonagon infinity","steam_id":76561198397662124,"connected_time":285000000000,"state":"active","ping":92},{"user_id":157,"name":"BigBubble42","steam_id":76561198136286123,"connected_time":1528000000000,"state":"active","ping":54},{"user_id":72,"name":"reis","steam_id":76561199232952016,"connected_time":9016000000000,"state":"active","ping":193},{"user_id":166,"name":"Jaguar","steam_id":76561197971152439,"connected_time":103000000000,"state":"active","ping":62},{"user_id":151,"name":"Maximum Flame","steam_id":76561198073682529,"connected_time":2458000000000,"state":"active","ping":45},{"user_id":167,"name":"hdspanda","steam_id":76561198181897718,"connected_time":88000000000,"state":"active","ping":60},{"user_id":159,"name":"TheColdChiliPepper","steam_id":76561199027155811,"connected_time":1487000000000,"state":"active","ping":109},{"user_id":168,"name":"SmugCoffeeMan","steam_id":76561198040765030,"connected_time":10000000000,"state":"spawning","ping":62},{"user_id":163,"name":"PK","steam_id":76561198368722500,"connected_time":312000000000,"state":"active","ping":80}]},{"server_id":37,"name":"Uncletopia | Chicago | 6 | All Maps","name_short":"chi-6","host":"chi-2.us.uncletopia.com","port":27025,"enabled":true,"region":"us-central","cc":"us","latitude":41.881832,"longitude":-87.62318,"reserved":0,"last_update":"0001-01-01T00:00:00Z","name_a2s":"Uncletopia | Chicago | 6 | All Maps","protocol":17,"map":"koth_highpass","folder":"tf","game":"Team Fortress","app_id":440,"player_count":0,"max_players":24,"Bots":0,"server_type":"Dedicated","server_os":"Linux","password":true,"vac":true,"version":"7961495","steam_id":85568392924866363,"keywords":["cp","nocrits","nodmgspread","uncletopia"],"game_id":440,"stv_port":27026,"stv_name":"Uncletopia | Chicago | 6 | All Maps | STV","players":null},{"server_id":38,"name":"Uncletopia | Chicago | 7 | Stopwatch","name_short":"chi-7","host":"chi-2.us.uncletopia.com","port":27035,"enabled":true,"region":"us-central","cc":"us","latitude":41.881832,"longitude":-87.62318,"reserved":0,"last_update":"0001-01-01T00:00:00Z","name_a2s":"Uncletopia | Chicago | 7 | Stopwatch","protocol":17,"map":"pl_badwater","folder":"tf","game":"Team Fortress","app_id":440,"player_count":0,"max_players":24,"Bots":0,"server_type":"Dedicated","server_os":"Linux","password":true,"vac":true,"version":"7961495","steam_id":85568392924866364,"keywords":["nocrits","nodmgspread","payload","uncletopia"],"game_id":440,"stv_port":27036,"stv_name":"Uncletopia | Chicago | 7 | Stopwatch | STV","players":null},{"server_id":39,"name":"Uncletopia | Chicago | 8 | Community","name_short":"chi-8","host":"chi-2.us.uncletopia.com","port":27045,"enabled":true,"region":"us-central","cc":"us","latitude":41.881832,"longitude":-87.62318,"reserved":0,"last_update":"0001-01-01T00:00:00Z","name_a2s":"Uncletopia | Chicago | 8 | Community","protocol":17,"map":"workshop/pl_cactuscanyon_redux_final2.ugc2579644293","folder":"tf","game":"Team Fortress","app_id":440,"player_count":10,"max_players":24,"Bots":0,"server_type":"Dedicated","server_os":"Linux","password":true,"vac":true,"version":"7961495","steam_id":85568392924866365,"keywords":["nocrits","nodmgspread","payload","uncletopia"],"game_id":440,"stv_port":27046,"stv_name":"Uncletopia | Chicago | 8 | Community | STV","players":[{"user_id":17,"name":"the pest","steam_id":76561198826298849,"connected_time":1377000000000,"state":"active","ping":87},{"user_id":21,"name":"Mom","steam_id":76561198207936000,"connected_time":973000000000,"state":"active","ping":88},{"user_id":18,"name":"RexCreeper456","steam_id":76561199319578396,"connected_time":1343000000000,"state":"active","ping":64},{"user_id":20,"name":"ShadowWasUhOh","steam_id":76561198400361935,"connected_time":1145000000000,"state":"active","ping":89},{"user_id":23,"name":"snarl7711","steam_id":76561199249582561,"connected_time":564000000000,"state":"active","ping":80},{"user_id":24,"name":"Chucklenuts (F2P) | trade.tf","steam_id":76561199180340440,"connected_time":527000000000,"state":"active","ping":125},{"user_id":28,"name":"The Hose on Upward","steam_id":76561197965092192,"connected_time":157000000000,"state":"active","ping":85},{"user_id":27,"name":"Pie™","steam_id":76561198158312625,"connected_time":392000000000,"state":"active","ping":120},{"user_id":29,"name":"bologna forklift 2012","steam_id":76561198199061206,"connected_time":68000000000,"state":"active","ping":44},{"user_id":30,"name":"who is gavin?","steam_id":76561198069415057,"connected_time":40000000000,"state":"active","ping":66}]},{"server_id":8,"name":"Uncletopia | Dallas | 1 | All Maps","name_short":"dal-1","host":"dal-1.us.uncletopia.com","port":27015,"enabled":true,"region":"us-central","cc":"us","latitude":32.779167,"longitude":-96.80889,"reserved":0,"last_update":"0001-01-01T00:00:00Z","name_a2s":"Uncletopia | Dallas | 1 | All Maps","protocol":17,"map":"pl_badwater","folder":"tf","game":"Team Fortress","app_id":440,"player_count":24,"max_players":24,"Bots":0,"server_type":"Dedicated","server_os":"Linux","password":true,"vac":true,"version":"7961495","steam_id":85568392924469986,"keywords":["nocrits","nodmgspread","payload","uncletopia"],"game_id":440,"stv_port":27016,"stv_name":"Uncletopia | Dallas | 1 | All Maps | STV","players":[{"user_id":336,"name":"titan","steam_id":76561198961972464,"connected_time":1835000000000,"state":"active","ping":67},{"user_id":337,"name":"♥Neko Girlfriend♥","steam_id":76561198143422702,"connected_time":1686000000000,"state":"active","ping":94},{"user_id":345,"name":"Novu","steam_id":76561198886997024,"connected_time":1322000000000,"state":"active","ping":103},{"user_id":325,"name":"Delsym Sipper","steam_id":76561198206177593,"connected_time":2895000000000,"state":"active","ping":76},{"user_id":335,"name":"Snowlith","steam_id":76561198287262177,"connected_time":1996000000000,"state":"active","ping":51},{"user_id":338,"name":"Drake from State Farm","steam_id":76561199069029812,"connected_time":1654000000000,"state":"active","ping":100},{"user_id":257,"name":"cumgoblin","steam_id":76561198113270138,"connected_time":6714000000000,"state":"active","ping":56},{"user_id":339,"name":"FluttyPutty","steam_id":76561198218446556,"connected_time":1644000000000,"state":"active","ping":69},{"user_id":340,"name":"Junipyre","steam_id":76561198044819364,"connected_time":1623000000000,"state":"active","ping":82},{"user_id":333,"name":"errant","steam_id":76561197961758410,"connected_time":2064000000000,"state":"active","ping":41},{"user_id":308,"name":"Snivy64","steam_id":76561198423445376,"connected_time":4034000000000,"state":"active","ping":78},{"user_id":275,"name":"Just_Bland","steam_id":76561198403482191,"connected_time":5785000000000,"state":"active","ping":83},{"user_id":328,"name":"Smug","steam_id":76561198448205229,"connected_time":2837000000000,"state":"active","ping":72},{"user_id":290,"name":"Greasy Guavas","steam_id":76561198089650428,"connected_time":4842000000000,"state":"active","ping":61},{"user_id":344,"name":"lettuce, ground beef, tomatoes","steam_id":76561198046948758,"connected_time":1436000000000,"state":"active","ping":66},{"user_id":346,"name":"BoxOfStaples","steam_id":76561198834773017,"connected_time":666000000000,"state":"active","ping":95},{"user_id":342,"name":"λ T O M I C S P E E D","steam_id":76561198378581038,"connected_time":1603000000000,"state":"active","ping":88},{"user_id":347,"name":"Nicklouse","steam_id":76561198852629024,"connected_time":663000000000,"state":"active","ping":167},{"user_id":343,"name":"Artemisia (She/They)","steam_id":76561198265616793,"connected_time":1595000000000,"state":"active","ping":69},{"user_id":300,"name":"King Cotton","steam_id":76561198292444376,"connected_time":4527000000000,"state":"active","ping":71},{"user_id":331,"name":"remedu","steam_id":76561198005152587,"connected_time":2122000000000,"state":"active","ping":46},{"user_id":330,"name":"Monte","steam_id":76561198097499917,"connected_time":2337000000000,"state":"active","ping":71},{"user_id":282,"name":"Warzard","steam_id":76561199154051413,"connected_time":5420000000000,"state":"active","ping":96},{"user_id":320,"name":"djjones1999","steam_id":76561199121937746,"connected_time":3247000000000,"state":"active","ping":81}]},{"server_id":108,"name":"Uncletopia | Dallas | 2 | All Maps","name_short":"dal-2","host":"dal-1.us.uncletopia.com","port":27025,"enabled":true,"region":"us-central","cc":"us","latitude":32.779167,"longitude":-96.80889,"reserved":0,"last_update":"0001-01-01T00:00:00Z","name_a2s":"Uncletopia | Dallas | 2 | All Maps","protocol":17,"map":"cp_mountainlab","folder":"tf","game":"Team Fortress","app_id":440,"player_count":24,"max_players":24,"Bots":0,"server_type":"Dedicated","server_os":"Linux","password":true,"vac":true,"version":"7961495","steam_id":85568392924469988,"keywords":["cp","nocrits","nodmgspread","uncletopia"],"game_id":440,"stv_port":27026,"stv_name":"Uncletopia | Dallas | 2 | All Maps | STV","players":[{"user_id":454,"name":"Your Loyal Familiar","steam_id":76561198106476075,"connected_time":1093000000000,"state":"active","ping":73},{"user_id":460,"name":"scoobert","steam_id":76561199215184828,"connected_time":860000000000,"state":"active","ping":95},{"user_id":471,"name":"Robert Nutbar","steam_id":76561198062334757,"connected_time":273000000000,"state":"active","ping":102},{"user_id":449,"name":"LordKirby","steam_id":76561198006938286,"connected_time":1430000000000,"state":"active","ping":96},{"user_id":458,"name":"2.5 Oz of Paprika","steam_id":76561198174647666,"connected_time":889000000000,"state":"active","ping":111},{"user_id":437,"name":"Derblitz","steam_id":76561198040953176,"connected_time":2687000000000,"state":"active","ping":87},{"user_id":459,"name":"rickyrickyricky","steam_id":76561198041765918,"connected_time":888000000000,"state":"active","ping":83},{"user_id":470,"name":"D1N0","steam_id":76561199016887480,"connected_time":367000000000,"state":"active","ping":77},{"user_id":452,"name":"A Gamer [F2P]","steam_id":76561198138712892,"connected_time":1230000000000,"state":"active","ping":40},{"user_id":417,"name":"shadowtaco69","steam_id":76561198112453714,"connected_time":4154000000000,"state":"active","ping":67},{"user_id":462,"name":"augh","steam_id":76561198131532406,"connected_time":792000000000,"state":"active","ping":87},{"user_id":451,"name":"Rurigade Towers","steam_id":76561198148598905,"connected_time":1265000000000,"state":"active","ping":93},{"user_id":448,"name":"ImmenseWraith","steam_id":76561198963757884,"connected_time":1643000000000,"state":"active","ping":73},{"user_id":463,"name":"Raz","steam_id":76561198002426150,"connected_time":773000000000,"state":"active","ping":54},{"user_id":424,"name":"Mocha Josie","steam_id":76561198066452726,"connected_time":3887000000000,"state":"active","ping":75},{"user_id":466,"name":"Talented","steam_id":76561198800259660,"connected_time":596000000000,"state":"active","ping":66},{"user_id":468,"name":"LordOfTheNoobs","steam_id":76561197962697523,"connected_time":411000000000,"state":"active","ping":68},{"user_id":469,"name":"Kay ☭","steam_id":76561198353432576,"connected_time":406000000000,"state":"active","ping":64},{"user_id":467,"name":"Doctor Sex","steam_id":76561198378542321,"connected_time":510000000000,"state":"active","ping":77},{"user_id":439,"name":"LumaDooma","steam_id":76561198076875817,"connected_time":2553000000000,"state":"active","ping":46},{"user_id":464,"name":"TriggerPullPone","steam_id":76561198071789810,"connected_time":771000000000,"state":"active","ping":68},{"user_id":384,"name":"what","steam_id":76561198082336619,"connected_time":6030000000000,"state":"active","ping":99},{"user_id":465,"name":"ihave80hp","steam_id":76561199251621911,"connected_time":650000000000,"state":"active","ping":75},{"user_id":453,"name":"Dragorf2010","steam_id":76561199238402270,"connected_time":1178000000000,"state":"active","ping":72}]},{"server_id":404,"name":"Uncletopia | Dallas | 3 | All Maps","name_short":"dal-3","host":"dal-1.us.uncletopia.com","port":27035,"enabled":true,"region":"us-central","cc":"us","latitude":32.779167,"longitude":-96.80889,"reserved":0,"last_update":"0001-01-01T00:00:00Z","name_a2s":"Uncletopia | Dallas | 3 | All Maps","protocol":17,"map":"koth_lakeside_final","folder":"tf","game":"Team Fortress","app_id":440,"player_count":2,"max_players":24,"Bots":0,"server_type":"Dedicated","server_os":"Linux","password":true,"vac":true,"version":"7961495","steam_id":85568392924515219,"keywords":["cp","nocrits","nodmgspread","uncletopia"],"game_id":440,"stv_port":27036,"stv_name":"Uncletopia | Dallas | 3 | All Maps | STV","players":[{"user_id":39,"name":"Agent Bowtie","steam_id":76561198175839279,"connected_time":685000000000,"state":"active","ping":52},{"user_id":40,"name":"elephantofdoom","steam_id":76561198062436835,"connected_time":372000000000,"state":"active","ping":84}]},{"server_id":405,"name":"Uncletopia | Dallas | 4 | Community","name_short":"dal-4","host":"dal-1.us.uncletopia.com","port":27045,"enabled":true,"region":"us-central","cc":"us","latitude":32.779167,"longitude":-96.80889,"reserved":0,"last_update":"0001-01-01T00:00:00Z","name_a2s":"Uncletopia | Dallas | 4 | Community","protocol":17,"map":"workshop/koth_product_final.ugc454272353","folder":"tf","game":"Team Fortress","app_id":440,"player_count":0,"max_players":24,"Bots":0,"server_type":"Dedicated","server_os":"Linux","password":true,"vac":true,"version":"7961495","steam_id":85568392924515220,"keywords":["cp","nocrits","nodmgspread","uncletopia"],"game_id":440,"stv_port":27046,"stv_name":"Uncletopia | Dallas | 4 | Community | STV","players":null},{"server_id":5,"name":"Uncletopia | Frankfurt | 1 | All Maps","name_short":"frk-1","host":"frk-1.de.uncletopia.com","port":27015,"enabled":true,"region":"eu","cc":"de","latitude":50.110924,"longitude":8.682127,"reserved":0,"last_update":"0001-01-01T00:00:00Z","name_a2s":"Uncletopia | Frankfurt | 1 | All Maps","protocol":17,"map":"koth_cascade","folder":"tf","game":"Team Fortress","app_id":440,"player_count":1,"max_players":24,"Bots":0,"server_type":"Dedicated","server_os":"Linux","password":true,"vac":true,"version":"7961495","steam_id":85568392924469989,"keywords":["cp","nocrits","nodmgspread","uncletopia"],"game_id":440,"stv_port":27016,"stv_name":"Uncletopia | Frankfurt | 1 | All Maps | STV","players":[{"user_id":894,"name":"transfem spy","steam_id":76561198451638173,"connected_time":355000000000,"state":"active","ping":70}]},{"server_id":110,"name":"Uncletopia | Frankfurt | 2 | All Maps","name_short":"frk-2","host":"frk-1.de.uncletopia.com","port":27025,"enabled":true,"region":"eu","cc":"de","latitude":50.110924,"longitude":8.682127,"reserved":0,"last_update":"0001-01-01T00:00:00Z","name_a2s":"Uncletopia | Frankfurt | 2 | All Maps","protocol":17,"map":"koth_lakeside_final","folder":"tf","game":"Team Fortress","app_id":440,"player_count":0,"max_players":24,"Bots":0,"server_type":"Dedicated","server_os":"Linux","password":true,"vac":true,"version":"7961495","steam_id":85568392924469990,"keywords":["cp","nocrits","nodmgspread","uncletopia"],"game_id":440,"stv_port":27026,"stv_name":"Uncletopia | Frankfurt | 2 | All Maps | STV","players":null},{"server_id":308,"name":"Uncletopia | Frankfurt | 3 | All Maps","name_short":"frk-3","host":"frk-1.de.uncletopia.com","port":27035,"enabled":true,"region":"eu","cc":"de","latitude":50.110924,"longitude":8.682127,"reserved":0,"last_update":"0001-01-01T00:00:00Z","name_a2s":"Uncletopia | Frankfurt | 3 | All Maps","protocol":17,"map":"koth_cascade","folder":"tf","game":"Team Fortress","app_id":440,"player_count":0,"max_players":24,"Bots":0,"server_type":"Dedicated","server_os":"Linux","password":true,"vac":true,"version":"7961495","steam_id":85568392924504274,"keywords":["cp","nocrits","nodmgspread","uncletopia"],"game_id":440,"stv_port":27036,"stv_name":"Uncletopia | Frankfurt | 3 | All Maps | STV","players":null},{"server_id":309,"name":"Uncletopia | Frankfurt | 4 | All Maps","name_short":"frk-4","host":"frk-1.de.uncletopia.com","port":27045,"enabled":true,"region":"eu","cc":"de","latitude":50.110924,"longitude":8.682127,"reserved":0,"last_update":"0001-01-01T00:00:00Z","name_a2s":"Uncletopia | Frankfurt | 4 | All Maps","protocol":17,"map":"cp_sunshine","folder":"tf","game":"Team Fortress","app_id":440,"player_count":0,"max_players":24,"Bots":0,"server_type":"Dedicated","server_os":"Linux","password":true,"vac":true,"version":"7961495","steam_id":85568392924504275,"keywords":["cp","nocrits","nodmgspread","uncletopia"],"game_id":440,"stv_port":27046,"stv_name":"Uncletopia | Frankfurt | 4 | All Maps | STV","players":null},{"server_id":310,"name":"Uncletopia | Frankfurt | 5 | All Maps","name_short":"frk-5","host":"frk-1.de.uncletopia.com","port":27055,"enabled":true,"region":"eu","cc":"de","latitude":50.110924,"longitude":8.682127,"reserved":0,"last_update":"0001-01-01T00:00:00Z","name_a2s":"Uncletopia | Frankfurt | 5 | All Maps","protocol":17,"map":"cp_sunshine","folder":"tf","game":"Team Fortress","app_id":440,"player_count":0,"max_players":24,"Bots":0,"server_type":"Dedicated","server_os":"Linux","password":true,"vac":true,"version":"7961495","steam_id":85568392924504277,"keywords":["cp","nocrits","nodmgspread","uncletopia"],"game_id":440,"stv_port":27056,"stv_name":"Uncletopia | Frankfurt | 5 | All Maps | STV","players":null},{"server_id":311,"name":"Uncletopia | Frankfurt | 6 | All Maps","name_short":"frk-6","host":"frk-1.de.uncletopia.com","port":27065,"enabled":true,"region":"eu","cc":"de","latitude":50.110924,"longitude":8.682127,"reserved":0,"last_update":"0001-01-01T00:00:00Z","name_a2s":"Uncletopia | Frankfurt | 6 | All Maps","protocol":17,"map":"koth_lakeside_final","folder":"tf","game":"Team Fortress","app_id":440,"player_count":0,"max_players":24,"Bots":0,"server_type":"Dedicated","server_os":"Linux","password":true,"vac":true,"version":"7961495","steam_id":85568392924504278,"keywords":["cp","nocrits","nodmgspread","uncletopia"],"game_id":440,"stv_port":27066,"stv_name":"Uncletopia | Frankfurt | 6 | All Maps | STV","players":null},{"server_id":23,"name":"Uncletopia | Frankfurt | 7 | Stopwatch","name_short":"frk-7","host":"frk-1.de.uncletopia.com","port":27075,"enabled":true,"region":"eu","cc":"de","latitude":50.110924,"longitude":8.682127,"reserved":0,"last_update":"0001-01-01T00:00:00Z","name_a2s":"Uncletopia | Frankfurt | 7 | Stopwatch","protocol":17,"map":"workshop/koth_ramjam_rc1.ugc459778887","folder":"tf","game":"Team Fortress","app_id":440,"player_count":0,"max_players":24,"Bots":0,"server_type":"Dedicated","server_os":"Linux","password":true,"vac":true,"version":"7961495","steam_id":85568392924742827,"keywords":["cp","nocrits","nodmgspread","uncletopia"],"game_id":440,"stv_port":27076,"stv_name":"Uncletopia | Frankfurt | 7 | Stopwatch | STV","players":null},{"server_id":24,"name":"Uncletopia | Frankfurt | 8 | Community","name_short":"frk-8","host":"frk-1.de.uncletopia.com","port":27085,"enabled":true,"region":"eu","cc":"de","latitude":50.110924,"longitude":8.682127,"reserved":0,"last_update":"0001-01-01T00:00:00Z","name_a2s":"Uncletopia | Frankfurt | 8 | Community","protocol":17,"map":"workshop/koth_ramjam_rc1.ugc459778887","folder":"tf","game":"Team Fortress","app_id":440,"player_count":0,"max_players":24,"Bots":0,"server_type":"Dedicated","server_os":"Linux","password":true,"vac":true,"version":"7961495","steam_id":85568392924742828,"keywords":["cp","nocrits","nodmgspread","uncletopia"],"game_id":440,"stv_port":27086,"stv_name":"Uncletopia | Frankfurt | 8 | Community | STV","players":null},{"server_id":202,"name":"Uncletopia | Hong Kong | 1 | All Maps","name_short":"hgk-1","host":"hgk-1.hk.uncletopia.com","port":27015,"enabled":true,"region":"asia","cc":"hk","latitude":22.302711,"longitude":114.177216,"reserved":0,"last_update":"0001-01-01T00:00:00Z","name_a2s":"Uncletopia | Hong Kong | 1 | All Maps","protocol":17,"map":"pl_frontier_final","folder":"tf","game":"Team Fortress","app_id":440,"player_count":2,"max_players":24,"Bots":0,"server_type":"Dedicated","server_os":"Linux","password":true,"vac":true,"version":"7961495","steam_id":85568392924494504,"keywords":["nocrits","nodmgspread","payload","uncletopia"],"game_id":440,"stv_port":27016,"stv_name":"Uncletopia | Hong Kong | 1 | All Maps | STV","players":[{"user_id":4,"name":"Lady D.","steam_id":76561199225360457,"connected_time":1356000000000,"state":"active","ping":67}]},{"server_id":1,"name":"Uncletopia | Los Angeles | 1 | All Maps","name_short":"lax-1","host":"lax-1.us.uncletopia.com","port":27015,"enabled":true,"region":"us-west","cc":"us","latitude":33.94279,"longitude":-118.41004,"reserved":0,"last_update":"0001-01-01T00:00:00Z","name_a2s":"Uncletopia | Los Angeles | 1 | All Maps","protocol":17,"map":"koth_viaduct","folder":"tf","game":"Team Fortress","app_id":440,"player_count":0,"max_players":24,"Bots":0,"server_type":"Dedicated","server_os":"Linux","password":true,"vac":true,"version":"7961495","steam_id":85568392924469991,"keywords":["cp","nocrits","nodmgspread","uncletopia"],"game_id":440,"stv_port":27016,"stv_name":"Uncletopia | Los Angeles | 1 | All Maps | STV","players":null},{"server_id":112,"name":"Uncletopia | Los Angeles | 2 | All Maps","name_short":"lax-2","host":"lax-1.us.uncletopia.com","port":27025,"enabled":true,"region":"us-west","cc":"us","latitude":33.94279,"longitude":-118.41004,"reserved":0,"last_update":"0001-01-01T00:00:00Z","name_a2s":"Uncletopia | Los Angeles | 2 | All Maps","protocol":17,"map":"koth_viaduct","folder":"tf","game":"Team Fortress","app_id":440,"player_count":0,"max_players":24,"Bots":0,"server_type":"Dedicated","server_os":"Linux","password":true,"vac":true,"version":"7961495","steam_id":85568392924469992,"keywords":["cp","nocrits","nodmgspread","uncletopia"],"game_id":440,"stv_port":27026,"stv_name":"Uncletopia | Los Angeles | 2 | All Maps | STV","players":null},{"server_id":324,"name":"Uncletopia | Los Angeles | 3 | All Maps","name_short":"lax-3","host":"lax-1.us.uncletopia.com","port":27035,"enabled":true,"region":"us-west","cc":"us","latitude":33.94279,"longitude":-118.41004,"reserved":0,"last_update":"0001-01-01T00:00:00Z","name_a2s":"Uncletopia | Los Angeles | 3 | All Maps","protocol":17,"map":"pl_barnblitz","folder":"tf","game":"Team Fortress","app_id":440,"player_count":0,"max_players":24,"Bots":0,"server_type":"Dedicated","server_os":"Linux","password":true,"vac":true,"version":"7961495","steam_id":85568392924510198,"keywords":["nocrits","nodmgspread","payload","uncletopia"],"game_id":440,"stv_port":27036,"stv_name":"Uncletopia | Los Angeles | 3 | All Maps | STV","players":null},{"server_id":25,"name":"Uncletopia | Los Angeles | 4 | Stopwatch","name_short":"lax-4","host":"lax-1.us.uncletopia.com","port":27045,"enabled":true,"region":"us-west","cc":"us","latitude":33.94279,"longitude":-118.41004,"reserved":0,"last_update":"0001-01-01T00:00:00Z","name_a2s":"Uncletopia | Los Angeles | 4 | Stopwatch","protocol":17,"map":"cp_metalworks","folder":"tf","game":"Team Fortress","app_id":440,"player_count":0,"max_players":24,"Bots":0,"server_type":"Dedicated","server_os":"Linux","password":true,"vac":true,"version":"7961495","steam_id":85568392924510199,"keywords":["cp","nocrits","nodmgspread","uncletopia"],"game_id":440,"stv_port":27046,"stv_name":"Uncletopia | Los Angeles | 4 | Stopwatch | STV","players":null},{"server_id":11,"name":"Uncletopia | London | 1 | All Maps","name_short":"lon-1","host":"lon-1.uk.uncletopia.com","port":27015,"enabled":true,"region":"eu","cc":"gb","latitude":51.509865,"longitude":-0.118092,"reserved":0,"last_update":"0001-01-01T00:00:00Z","name_a2s":"Uncletopia | London | 1 | All Maps","protocol":17,"map":"pl_barnblitz","folder":"tf","game":"Team Fortress","app_id":440,"player_count":24,"max_players":24,"Bots":0,"server_type":"Dedicated","server_os":"Linux","password":true,"vac":true,"version":"7961495","steam_id":85568392924367362,"keywords":["nocrits","nodmgspread","payload","uncletopia"],"game_id":440,"stv_port":27016,"stv_name":"Uncletopia | London | 1 | All Maps | STV","players":[{"user_id":937,"name":"Vershal Smershal","steam_id":76561198116223995,"connected_time":4188000000000,"state":"active","ping":53},{"user_id":925,"name":"Marquis de Hoto","steam_id":76561198080687708,"connected_time":6588000000000,"state":"active","ping":74},{"user_id":939,"name":"Urtaras","steam_id":76561198085604412,"connected_time":4021000000000,"state":"active","ping":51},{"user_id":940,"name":"Leftovers","steam_id":76561198046041079,"connected_time":4005000000000,"state":"active","ping":130},{"user_id":848,"name":"sora (live :3)","steam_id":76561198096547662,"connected_time":14194000000000,"state":"active","ping":48},{"user_id":936,"name":"goop","steam_id":76561198190073005,"connected_time":4283000000000,"state":"active","ping":44},{"user_id":891,"name":"BOT Jeremus","steam_id":76561198072981684,"connected_time":10204000000000,"state":"active","ping":45},{"user_id":938,"name":"agent youppii","steam_id":76561198055264447,"connected_time":4051000000000,"state":"active","ping":53},{"user_id":958,"name":"vegetable_lover_45","steam_id":76561198361621766,"connected_time":756000000000,"state":"active","ping":44},{"user_id":948,"name":"BreadBubbles","steam_id":76561198174332826,"connected_time":2713000000000,"state":"active","ping":48},{"user_id":949,"name":"Jeff","steam_id":76561198074722832,"connected_time":2697000000000,"state":"active","ping":59},{"user_id":879,"name":"shooer!","steam_id":76561198110531281,"connected_time":11196000000000,"state":"active","ping":69},{"user_id":952,"name":"xanes","steam_id":76561198000051004,"connected_time":2364000000000,"state":"active","ping":65},{"user_id":932,"name":"Coca162","steam_id":76561198230656540,"connected_time":5016000000000,"state":"active","ping":42},{"user_id":935,"name":"gibb (heLP HELP HELP)","steam_id":76561198074097655,"connected_time":4525000000000,"state":"active","ping":78},{"user_id":954,"name":"Kristianma","steam_id":76561198021772843,"connected_time":1709000000000,"state":"active","ping":67},{"user_id":951,"name":"Robinson Crusoé","steam_id":76561198088472674,"connected_time":2631000000000,"state":"active","ping":66},{"user_id":953,"name":"Clown :o)","steam_id":76561198074657015,"connected_time":2213000000000,"state":"active","ping":57},{"user_id":961,"name":"skela","steam_id":76561199503182358,"connected_time":337000000000,"state":"active","ping":85},{"user_id":924,"name":"albert","steam_id":76561198353496134,"connected_time":6994000000000,"state":"active","ping":53},{"user_id":878,"name":"LILY-CHAN","steam_id":76561198035085893,"connected_time":11715000000000,"state":"active","ping":103},{"user_id":944,"name":"wG silentes","steam_id":76561197999595616,"connected_time":3269000000000,"state":"active","ping":38},{"user_id":957,"name":"sticks","steam_id":76561198127099299,"connected_time":820000000000,"state":"active","ping":41},{"user_id":963,"name":"I might knife you","steam_id":76561199267543998,"connected_time":50000000000,"state":"active","ping":71}]},{"server_id":114,"name":"Uncletopia | London | 2 | All Maps","name_short":"lon-2","host":"lon-1.uk.uncletopia.com","port":27025,"enabled":true,"region":"eu","cc":"gb","latitude":51.509865,"longitude":-0.118092,"reserved":0,"last_update":"0001-01-01T00:00:00Z","name_a2s":"Uncletopia | London | 2 | All Maps","protocol":17,"map":"koth_highpass","folder":"tf","game":"Team Fortress","app_id":440,"player_count":0,"max_players":24,"Bots":0,"server_type":"Dedicated","server_os":"Linux","password":true,"vac":true,"version":"7961495","steam_id":85568392924470941,"keywords":["cp","nocrits","nodmgspread","uncletopia"],"game_id":440,"stv_port":27026,"stv_name":"Uncletopia | London | 2 | All Maps | STV","players":null},{"server_id":320,"name":"Uncletopia | London | 3 | All Maps","name_short":"lon-3","host":"lon-1.uk.uncletopia.com","port":27035,"enabled":true,"region":"eu","cc":"gb","latitude":51.509865,"longitude":-0.118092,"reserved":0,"last_update":"0001-01-01T00:00:00Z","name_a2s":"Uncletopia | London | 3 | All Maps","protocol":17,"map":"koth_highpass","folder":"tf","game":"Team Fortress","app_id":440,"player_count":0,"max_players":24,"Bots":0,"server_type":"Dedicated","server_os":"Linux","password":true,"vac":true,"version":"7961495","steam_id":85568392924510192,"keywords":["cp","nocrits","nodmgspread","uncletopia"],"game_id":440,"stv_port":27036,"stv_name":"Uncletopia | London | 3 | All Maps | STV","players":null},{"server_id":321,"name":"Uncletopia | London | 4 | All Maps","name_short":"lon-4","host":"lon-1.uk.uncletopia.com","port":27045,"enabled":true,"region":"eu","cc":"gb","latitude":51.509865,"longitude":-0.118092,"reserved":0,"last_update":"0001-01-01T00:00:00Z","name_a2s":"Uncletopia | London | 4 | All Maps","protocol":17,"map":"pl_borneo","folder":"tf","game":"Team Fortress","app_id":440,"player_count":0,"max_players":24,"Bots":0,"server_type":"Dedicated","server_os":"Linux","password":true,"vac":true,"version":"7961495","steam_id":85568392924510193,"keywords":["nocrits","nodmgspread","payload","uncletopia"],"game_id":440,"stv_port":27046,"stv_name":"Uncletopia | London | 4 | All Maps | STV","players":null},{"server_id":21,"name":"Uncletopia | London | 5 | All Maps","name_short":"lon-5","host":"lon-1.uk.uncletopia.com","port":27055,"enabled":true,"region":"eu","cc":"gb","latitude":51.509865,"longitude":-0.118092,"reserved":0,"last_update":"0001-01-01T00:00:00Z","name_a2s":"Uncletopia | London | 5 | All Maps","protocol":17,"map":"plr_bananabay","folder":"tf","game":"Team Fortress","app_id":440,"player_count":0,"max_players":24,"Bots":0,"server_type":"Dedicated","server_os":"Linux","password":true,"vac":true,"version":"7961495","steam_id":85568392924742829,"keywords":["nocrits","nodmgspread","payload","uncletopia"],"game_id":440,"stv_port":27056,"stv_name":"Uncletopia | London | 5 | All Maps | STV","players":null},{"server_id":22,"name":"Uncletopia | London | 6 | All Maps","name_short":"lon-6","host":"lon-1.uk.uncletopia.com","port":27065,"enabled":true,"region":"eu","cc":"gb","latitude":51.509865,"longitude":-0.118092,"reserved":0,"last_update":"0001-01-01T00:00:00Z","name_a2s":"Uncletopia | London | 6 | All Maps","protocol":17,"map":"pl_upward","folder":"tf","game":"Team Fortress","app_id":440,"player_count":22,"max_players":24,"Bots":0,"server_type":"Dedicated","server_os":"Linux","password":true,"vac":true,"version":"7961495","steam_id":85568392924742830,"keywords":["nocrits","nodmgspread","payload","uncletopia"],"game_id":440,"stv_port":27066,"stv_name":"Uncletopia | London | 6 | All Maps | STV","players":[{"user_id":349,"name":"Industrial Revolution","steam_id":76561198230811124,"connected_time":325000000000,"state":"active","ping":65},{"user_id":335,"name":"AMDA10SERIES","steam_id":76561198869269479,"connected_time":1490000000000,"state":"active","ping":37},{"user_id":301,"name":"Worm","steam_id":76561198296497176,"connected_time":2827000000000,"state":"active","ping":51},{"user_id":332,"name":"Peekatew","steam_id":76561198024712439,"connected_time":1596000000000,"state":"active","ping":54},{"user_id":351,"name":"JujuBalu","steam_id":76561198207253071,"connected_time":254000000000,"state":"active","ping":23},{"user_id":352,"name":"Martiquin","steam_id":76561198158049829,"connected_time":245000000000,"state":"active","ping":55},{"user_id":284,"name":"King Nugget","steam_id":76561198134037464,"connected_time":4268000000000,"state":"active","ping":58},{"user_id":346,"name":"Jumping off my balcony","steam_id":76561198819871606,"connected_time":335000000000,"state":"active","ping":101},{"user_id":347,"name":"Penis Contortionist","steam_id":76561198073663784,"connected_time":334000000000,"state":"active","ping":34},{"user_id":348,"name":"Piss Man","steam_id":76561198089957950,"connected_time":334000000000,"state":"active","ping":59},{"user_id":304,"name":"alternative","steam_id":76561199089684702,"connected_time":2613000000000,"state":"active","ping":75},{"user_id":356,"name":"Zedifo","steam_id":76561198044032070,"connected_time":91000000000,"state":"active","ping":45},{"user_id":329,"name":"Shax","steam_id":76561197984366231,"connected_time":1705000000000,"state":"active","ping":79},{"user_id":357,"name":"Vinnidict","steam_id":76561198037087000,"connected_time":84000000000,"state":"active","ping":124},{"user_id":308,"name":"SirDirtbag","steam_id":76561198091890855,"connected_time":2439000000000,"state":"active","ping":77},{"user_id":309,"name":"Vito","steam_id":76561198103978102,"connected_time":2424000000000,"state":"active","ping":74},{"user_id":281,"name":"the rat","steam_id":76561198079101313,"connected_time":4486000000000,"state":"active","ping":55},{"user_id":337,"name":"ุ","steam_id":76561197992023317,"connected_time":1444000000000,"state":"active","ping":84},{"user_id":358,"name":"Iris","steam_id":76561198430295815,"connected_time":63000000000,"state":"active","ping":58},{"user_id":355,"name":"[HOL] Solringen","steam_id":76561198003584681,"connected_time":179000000000,"state":"active","ping":75},{"user_id":331,"name":"JWO","steam_id":76561198001625925,"connected_time":1620000000000,"state":"active","ping":59},{"user_id":330,"name":"Blacksp00n","steam_id":76561198040454235,"connected_time":1679000000000,"state":"active","ping":88}]},{"server_id":40,"name":"Uncletopia | London | 7 | Stopwatch","name_short":"lon-7","host":"lon-1.uk.uncletopia.com","port":27075,"enabled":true,"region":"eu","cc":"gb","latitude":51.509865,"longitude":-0.118092,"reserved":0,"last_update":"0001-01-01T00:00:00Z","name_a2s":"Uncletopia | London | 7 | Stopwatch","protocol":17,"map":"workshop/pl_vigil_rc10.ugc1266210012","folder":"tf","game":"Team Fortress","app_id":440,"player_count":0,"max_players":24,"Bots":0,"server_type":"Dedicated","server_os":"Linux","password":true,"vac":true,"version":"7961495","steam_id":85568392924964314,"keywords":["nocrits","nodmgspread","payload","uncletopia"],"game_id":440,"stv_port":27076,"stv_name":"Uncletopia | London | 7 | Stopwatch | STV","players":null},{"server_id":41,"name":"Uncletopia | London | 8 | Community","name_short":"lon-8","host":"lon-1.uk.uncletopia.com","port":27085,"enabled":true,"region":"eu","cc":"gb","latitude":51.509865,"longitude":-0.118092,"reserved":0,"last_update":"0001-01-01T00:00:00Z","name_a2s":"Uncletopia | London | 8 | Community","protocol":17,"map":"workshop/pl_cactuscanyon_redux_final2.ugc2579644293","folder":"tf","game":"Team Fortress","app_id":440,"player_count":0,"max_players":24,"Bots":0,"server_type":"Dedicated","server_os":"Linux","password":true,"vac":true,"version":"7961495","steam_id":85568392924964315,"keywords":["nocrits","nodmgspread","payload","uncletopia"],"game_id":440,"stv_port":27086,"stv_name":"Uncletopia | London | 8 | Community | STV","players":null},{"server_id":300,"name":"Uncletopia | Montréal | 1 | One Thousand Uncles","name_short":"mtl-1","host":"mtl-1.ca.uncletopia.com","port":27015,"enabled":true,"region":"us-east","cc":"ca","latitude":45.50889,"longitude":-73.56167,"reserved":0,"last_update":"0001-01-01T00:00:00Z","name_a2s":"","protocol":0,"map":"","folder":"","game":"","app_id":0,"player_count":1,"max_players":0,"Bots":0,"server_type":"","server_os":"","password":false,"vac":false,"version":"","steam_id":0,"keywords":null,"game_id":0,"stv_port":0,"stv_name":"","players":[{"user_id":258,"name":"Darklypure52","steam_id":76561198985729794,"connected_time":43000000000,"state":"spawning","ping":69}]},{"server_id":301,"name":"Uncletopia | Montréal | 2 | One Thousand Uncles","name_short":"mtl-2","host":"mtl-1.ca.uncletopia.com","port":27025,"enabled":true,"region":"us-east","cc":"ca","latitude":45.50889,"longitude":-73.56167,"reserved":0,"last_update":"0001-01-01T00:00:00Z","name_a2s":"","protocol":0,"map":"","folder":"","game":"","app_id":0,"player_count":0,"max_players":0,"Bots":0,"server_type":"","server_os":"","password":false,"vac":false,"version":"","steam_id":0,"keywords":null,"game_id":0,"stv_port":0,"stv_name":"","players":null},{"server_id":302,"name":"Uncletopia | Montréal | 3 | One Thousand Uncles","name_short":"mtl-3","host":"mtl-1.ca.uncletopia.com","port":27035,"enabled":true,"region":"us-east","cc":"ca","latitude":45.50889,"longitude":-73.56167,"reserved":0,"last_update":"0001-01-01T00:00:00Z","name_a2s":"","protocol":0,"map":"","folder":"","game":"","app_id":0,"player_count":1,"max_players":0,"Bots":0,"server_type":"","server_os":"","password":false,"vac":false,"version":"","steam_id":0,"keywords":null,"game_id":0,"stv_port":0,"stv_name":"","players":[{"user_id":19,"name":"Pyrrhic Evolution","steam_id":76561198122053439,"connected_time":113000000000,"state":"active","ping":107}]},{"server_id":13,"name":"Uncletopia | New York City | 1 | All Maps","name_short":"nyc-1","host":"nyc-1.us.uncletopia.com","port":27015,"enabled":true,"region":"us-east","cc":"us","latitude":40.73061,"longitude":-73.93524,"reserved":0,"last_update":"0001-01-01T00:00:00Z","name_a2s":"Uncletopia | New York City | 1 | All Maps","protocol":17,"map":"cp_dustbowl","folder":"tf","game":"Team Fortress","app_id":440,"player_count":24,"max_players":24,"Bots":0,"server_type":"Dedicated","server_os":"Linux","password":true,"vac":true,"version":"7961495","steam_id":85568392924469993,"keywords":["cp","nocrits","nodmgspread","uncletopia"],"game_id":440,"stv_port":27016,"stv_name":"Uncletopia | New York City | 1 | All Maps | STV","players":[{"user_id":292,"name":"you forgot the sauce","steam_id":76561198387016713,"connected_time":2115000000000,"state":"active","ping":61},{"user_id":219,"name":"Sone","steam_id":76561198069601032,"connected_time":5848000000000,"state":"active","ping":57},{"user_id":307,"name":"DeMarc0","steam_id":76561198150900434,"connected_time":1321000000000,"state":"active","ping":48},{"user_id":181,"name":"Jango","steam_id":76561198084589742,"connected_time":8718000000000,"state":"active","ping":79},{"user_id":222,"name":"Owen","steam_id":76561198025446908,"connected_time":5828000000000,"state":"active","ping":46},{"user_id":281,"name":"CRAZY engineer","steam_id":76561198887937902,"connected_time":2506000000000,"state":"active","ping":57},{"user_id":312,"name":"bootlore","steam_id":76561198129538164,"connected_time":932000000000,"state":"active","ping":65},{"user_id":293,"name":"the glunk","steam_id":76561199020292844,"connected_time":1988000000000,"state":"active","ping":86},{"user_id":303,"name":"wheresgeorge","steam_id":76561198986281248,"connected_time":1532000000000,"state":"active","ping":82},{"user_id":305,"name":"Detrimental","steam_id":76561199152388008,"connected_time":1467000000000,"state":"active","ping":71},{"user_id":313,"name":"kit","steam_id":76561198047403448,"connected_time":790000000000,"state":"active","ping":45},{"user_id":300,"name":"Discourse","steam_id":76561198984286678,"connected_time":1837000000000,"state":"active","ping":75},{"user_id":263,"name":"Gordon Statueman","steam_id":76561199273437544,"connected_time":3610000000000,"state":"active","ping":53},{"user_id":270,"name":"Lemon Soda","steam_id":76561198140208761,"connected_time":3091000000000,"state":"active","ping":54},{"user_id":240,"name":"AverageEnjoyer6","steam_id":76561199272751788,"connected_time":5147000000000,"state":"active","ping":47},{"user_id":316,"name":"Nerrrd_","steam_id":76561198870129960,"connected_time":13000000000,"state":"spawning","ping":40},{"user_id":302,"name":"Bootes","steam_id":76561197968255551,"connected_time":1603000000000,"state":"active","ping":50},{"user_id":304,"name":"Tristen0808","steam_id":76561198154235444,"connected_time":1471000000000,"state":"active","ping":64},{"user_id":296,"name":"Vault Girl","steam_id":76561198053335880,"connected_time":1960000000000,"state":"active","ping":62},{"user_id":291,"name":"Alexthegreat","steam_id":76561197996796222,"connected_time":2310000000000,"state":"active","ping":49},{"user_id":314,"name":"Sky","steam_id":76561198043549371,"connected_time":769000000000,"state":"active","ping":45},{"user_id":297,"name":"Weerk","steam_id":76561199209543551,"connected_time":1958000000000,"state":"active","ping":96},{"user_id":308,"name":"Bubbly","steam_id":76561199014095959,"connected_time":1149000000000,"state":"active","ping":65},{"user_id":289,"name":"Xlander","steam_id":76561199345823430,"connected_time":2350000000000,"state":"active","ping":40}]},{"server_id":14,"name":"Uncletopia | New York City | 2 | All Maps","name_short":"nyc-2","host":"nyc-1.us.uncletopia.com","port":27025,"enabled":true,"region":"us-east","cc":"us","latitude":40.73061,"longitude":-73.93524,"reserved":0,"last_update":"0001-01-01T00:00:00Z","name_a2s":"Uncletopia | New York City | 2 | All Maps","protocol":17,"map":"pl_barnblitz","folder":"tf","game":"Team Fortress","app_id":440,"player_count":24,"max_players":24,"Bots":0,"server_type":"Dedicated","server_os":"Linux","password":true,"vac":true,"version":"7961495","steam_id":85568392924469994,"keywords":["nocrits","nodmgspread","payload","uncletopia"],"game_id":440,"stv_port":27026,"stv_name":"Uncletopia | New York City | 2 | All Maps | STV","players":[{"user_id":335,"name":"Strange Diplomat","steam_id":76561198428191920,"connected_time":1049000000000,"state":"active","ping":52},{"user_id":301,"name":"Grazzunk","steam_id":76561198290227691,"connected_time":2927000000000,"state":"active","ping":54},{"user_id":337,"name":"Ballistic","steam_id":76561197992355477,"connected_time":379000000000,"state":"active","ping":57},{"user_id":311,"name":"Bacchus","steam_id":76561198113244990,"connected_time":2470000000000,"state":"active","ping":62},{"user_id":319,"name":"FemboyNero","steam_id":76561198449565973,"connected_time":2201000000000,"state":"active","ping":70},{"user_id":326,"name":"sleepy","steam_id":76561198060317354,"connected_time":2145000000000,"state":"active","ping":85},{"user_id":328,"name":"Jeffery Jitterson","steam_id":76561199021400714,"connected_time":1986000000000,"state":"active","ping":45},{"user_id":291,"name":"Smartchicken","steam_id":76561198037744517,"connected_time":3735000000000,"state":"active","ping":62},{"user_id":298,"name":"Mr. Milk","steam_id":76561198068902833,"connected_time":3281000000000,"state":"active","ping":87},{"user_id":333,"name":"Steve","steam_id":76561198073299693,"connected_time":1112000000000,"state":"active","ping":100},{"user_id":277,"name":"corntent","steam_id":76561198824847948,"connected_time":5502000000000,"state":"active","ping":43},{"user_id":334,"name":"Riley The lol","steam_id":76561198196153110,"connected_time":1083000000000,"state":"active","ping":82},{"user_id":293,"name":"Shrebbie","steam_id":76561198875230824,"connected_time":3530000000000,"state":"active","ping":59},{"user_id":286,"name":"HOOPLA","steam_id":76561198993451858,"connected_time":4331000000000,"state":"active","ping":73},{"user_id":263,"name":"ThreatLvl 9 (she/her)","steam_id":76561198079410533,"connected_time":6491000000000,"state":"active","ping":96},{"user_id":287,"name":"Cat on Your Porch","steam_id":76561197979078330,"connected_time":4324000000000,"state":"active","ping":62},{"user_id":305,"name":"Lumi","steam_id":76561198089978036,"connected_time":2647000000000,"state":"active","ping":61},{"user_id":325,"name":"mywither","steam_id":76561199057425346,"connected_time":2171000000000,"state":"active","ping":92},{"user_id":338,"name":"Wellink","steam_id":76561198854204494,"connected_time":367000000000,"state":"active","ping":144},{"user_id":303,"name":"Primal","steam_id":76561197983118203,"connected_time":2901000000000,"state":"active","ping":61},{"user_id":313,"name":"[NAME-REDACTED]","steam_id":76561198035682975,"connected_time":2370000000000,"state":"active","ping":70},{"user_id":288,"name":"marisa kirisame","steam_id":76561198070327681,"connected_time":4319000000000,"state":"active","ping":75},{"user_id":329,"name":"tommy","steam_id":76561198111753974,"connected_time":1855000000000,"state":"active","ping":44},{"user_id":331,"name":"meggy","steam_id":76561199084466907,"connected_time":1134000000000,"state":"active","ping":68}]},{"server_id":15,"name":"Uncletopia | New York City | 3 | Stopwatch","name_short":"nyc-3","host":"nyc-1.us.uncletopia.com","port":27035,"enabled":true,"region":"us-east","cc":"us","latitude":40.73061,"longitude":-73.93524,"reserved":0,"last_update":"0001-01-01T00:00:00Z","name_a2s":"Uncletopia | New York City | 3 | Stopwatch","protocol":17,"map":"cp_sunshine","folder":"tf","game":"Team Fortress","app_id":440,"player_count":24,"max_players":24,"Bots":0,"server_type":"Dedicated","server_os":"Linux","password":true,"vac":true,"version":"7961495","steam_id":85568392924742820,"keywords":["cp","nocrits","nodmgspread","uncletopia"],"game_id":440,"stv_port":27036,"stv_name":"Uncletopia | New York City | 3 | Stopwatch | STV","players":[{"user_id":89,"name":"㋛ countblanc","steam_id":76561197993171771,"connected_time":1355000000000,"state":"active","ping":60},{"user_id":105,"name":"tissue box","steam_id":76561199076779603,"connected_time":646000000000,"state":"active","ping":129},{"user_id":106,"name":"Bug Slayer","steam_id":76561198795923860,"connected_time":526000000000,"state":"active","ping":54},{"user_id":107,"name":"Horse","steam_id":76561198004583631,"connected_time":483000000000,"state":"active","ping":93},{"user_id":111,"name":"Big Slime","steam_id":76561198026805895,"connected_time":412000000000,"state":"active","ping":33},{"user_id":118,"name":"Brawns","steam_id":76561198045190199,"connected_time":129000000000,"state":"active","ping":55},{"user_id":108,"name":"MasterAqua","steam_id":76561198044807380,"connected_time":474000000000,"state":"active","ping":56},{"user_id":91,"name":"Krispy","steam_id":76561197994783393,"connected_time":1235000000000,"state":"active","ping":57},{"user_id":109,"name":"Bim","steam_id":76561198155979811,"connected_time":456000000000,"state":"active","ping":61},{"user_id":100,"name":"Pork Soda","steam_id":76561198119575082,"connected_time":839000000000,"state":"active","ping":69},{"user_id":59,"name":"Oofles:(","steam_id":76561198125210816,"connected_time":2945000000000,"state":"active","ping":72},{"user_id":112,"name":"bird who can't aim","steam_id":76561198062360755,"connected_time":412000000000,"state":"active","ping":44},{"user_id":85,"name":"nice tea. good house","steam_id":76561197992669506,"connected_time":1862000000000,"state":"active","ping":75},{"user_id":113,"name":"bony","steam_id":76561198241893988,"connected_time":408000000000,"state":"active","ping":48},{"user_id":79,"name":"vinny6","steam_id":76561198386735728,"connected_time":2070000000000,"state":"active","ping":47},{"user_id":75,"name":"Drake the Pixel","steam_id":76561198131824401,"connected_time":2322000000000,"state":"active","ping":41},{"user_id":114,"name":"void","steam_id":76561199505877588,"connected_time":331000000000,"state":"active","ping":36},{"user_id":115,"name":"The Carl","steam_id":76561199014660026,"connected_time":279000000000,"state":"active","ping":117},{"user_id":57,"name":"Zam","steam_id":76561198087033116,"connected_time":3026000000000,"state":"active","ping":54},{"user_id":88,"name":"Dr. Canada","steam_id":76561198106411900,"connected_time":1691000000000,"state":"active","ping":136},{"user_id":116,"name":"hayes","steam_id":76561198057101042,"connected_time":249000000000,"state":"active","ping":86},{"user_id":117,"name":"Bolbi","steam_id":76561198051811597,"connected_time":238000000000,"state":"active","ping":122},{"user_id":104,"name":"m9","steam_id":76561198125732157,"connected_time":745000000000,"state":"active","ping":40},{"user_id":58,"name":"Kevin_Derr","steam_id":76561198045313112,"connected_time":2969000000000,"state":"active","ping":96}]},{"server_id":16,"name":"Uncletopia | New York City | 4 | Community","name_short":"nyc-4","host":"nyc-1.us.uncletopia.com","port":27045,"enabled":true,"region":"us-east","cc":"us","latitude":40.73061,"longitude":-73.93524,"reserved":0,"last_update":"0001-01-01T00:00:00Z","name_a2s":"Uncletopia | New York City | 4 | Community","protocol":17,"map":"workshop/koth_product_final.ugc454272353","folder":"tf","game":"Team Fortress","app_id":440,"player_count":0,"max_players":24,"Bots":0,"server_type":"Dedicated","server_os":"Linux","password":true,"vac":true,"version":"7961495","steam_id":85568392924742821,"keywords":["cp","nocrits","nodmgspread","uncletopia"],"game_id":440,"stv_port":27046,"stv_name":"Uncletopia | New York City | 4 | Community | STV","players":null},{"server_id":142,"name":"Uncletopia | São Paulo | 1 | All Maps","name_short":"sao-1","host":"sao-1.br.uncletopia.com","port":27015,"enabled":true,"region":"sa","cc":"br","latitude":-23.533773,"longitude":-46.62529,"reserved":0,"last_update":"0001-01-01T00:00:00Z","name_a2s":"Uncletopia | São Paulo | 1 | All Maps","protocol":17,"map":"koth_lakeside_final","folder":"tf","game":"Team Fortress","app_id":440,"player_count":2,"max_players":24,"Bots":0,"server_type":"Dedicated","server_os":"Linux","password":true,"vac":true,"version":"7961495","steam_id":85568392924469996,"keywords":["cp","nocrits","nodmgspread","uncletopia"],"game_id":440,"stv_port":27016,"stv_name":"Uncletopia | São Paulo | 1 | All Maps | STV","players":[{"user_id":14,"name":"guarda-chuva","steam_id":76561198078694330,"connected_time":251000000000,"state":"active","ping":54},{"user_id":15,"name":"Tert_14","steam_id":76561198185952289,"connected_time":247000000000,"state":"active","ping":74}]},{"server_id":143,"name":"Uncletopia | São Paulo | 2 | Community","name_short":"sao-2","host":"sao-2.br.uncletopia.com","port":27015,"enabled":true,"region":"sa","cc":"br","latitude":-23.533773,"longitude":-46.62529,"reserved":0,"last_update":"0001-01-01T00:00:00Z","name_a2s":"Uncletopia | São Paulo | 2 | Community","protocol":17,"map":"workshop/koth_kemptown_rc1.ugc767410655","folder":"tf","game":"Team Fortress","app_id":440,"player_count":0,"max_players":24,"Bots":0,"server_type":"Dedicated","server_os":"Linux","password":true,"vac":true,"version":"7961495","steam_id":85568392924485349,"keywords":["cp","nocrits","nodmgspread","uncletopia"],"game_id":440,"stv_port":27016,"stv_name":"Uncletopia | São Paulo | 2 | Community | STV","players":null},{"server_id":7,"name":"Uncletopia | Seattle | 1 | All Maps","name_short":"sea-1","host":"sea-1.us.uncletopia.com","port":27015,"enabled":true,"region":"us-west","cc":"us","latitude":47.608013,"longitude":-122.33517,"reserved":0,"last_update":"0001-01-01T00:00:00Z","name_a2s":"Uncletopia | Seattle | 1 | All Maps","protocol":17,"map":"cp_dustbowl","folder":"tf","game":"Team Fortress","app_id":440,"player_count":24,"max_players":24,"Bots":0,"server_type":"Dedicated","server_os":"Linux","password":true,"vac":true,"version":"7961495","steam_id":85568392924469997,"keywords":["cp","nocrits","nodmgspread","uncletopia"],"game_id":440,"stv_port":27016,"stv_name":"Uncletopia | Seattle | 1 | All Maps | STV","players":[{"user_id":297,"name":"Sniff","steam_id":76561198010270922,"connected_time":796000000000,"state":"active","ping":74},{"user_id":298,"name":"antler gore","steam_id":76561198059041027,"connected_time":760000000000,"state":"active","ping":45},{"user_id":271,"name":"Flavortown Thanos","steam_id":76561198004853966,"connected_time":2435000000000,"state":"active","ping":33},{"user_id":126,"name":"you just got dyked on","steam_id":76561198018977723,"connected_time":13715000000000,"state":"active","ping":48},{"user_id":285,"name":"tophawkyy","steam_id":76561199075934685,"connected_time":1043000000000,"state":"active","ping":95},{"user_id":313,"name":"Peppy","steam_id":76561198866629645,"connected_time":18000000000,"state":"spawning","ping":101},{"user_id":303,"name":"Meatball Obsessed Demoman","steam_id":76561198253325844,"connected_time":605000000000,"state":"active","ping":49},{"user_id":312,"name":"Henchie!","steam_id":76561198047567464,"connected_time":354000000000,"state":"active","ping":75},{"user_id":272,"name":"Tsunami","steam_id":76561198097188001,"connected_time":2305000000000,"state":"active","ping":43},{"user_id":273,"name":"Mystic man of potatoe","steam_id":76561198027267207,"connected_time":2300000000000,"state":"active","ping":73},{"user_id":282,"name":"Shrimps","steam_id":76561198983016709,"connected_time":1213000000000,"state":"active","ping":63},{"user_id":275,"name":"BlazedBunny","steam_id":76561198243610560,"connected_time":1941000000000,"state":"active","ping":55},{"user_id":311,"name":"Your Local Queer Librarian","steam_id":76561198013077080,"connected_time":426000000000,"state":"active","ping":96},{"user_id":281,"name":"Truffles","steam_id":76561198095868800,"connected_time":1389000000000,"state":"active","ping":101},{"user_id":310,"name":"WaywardFinn","steam_id":76561198040391296,"connected_time":461000000000,"state":"active","ping":123},{"user_id":259,"name":"Nom Skirrett","steam_id":76561198014600788,"connected_time":4379000000000,"state":"active","ping":64},{"user_id":306,"name":"Mediocre Gaming","steam_id":76561199230467980,"connected_time":543000000000,"state":"active","ping":94},{"user_id":284,"name":"goos  e","steam_id":76561198036774894,"connected_time":1100000000000,"state":"active","ping":62},{"user_id":307,"name":"sentry turret","steam_id":76561198327057433,"connected_time":521000000000,"state":"active","ping":125},{"user_id":227,"name":"OxOoxen841","steam_id":76561198297981993,"connected_time":6843000000000,"state":"active","ping":77},{"user_id":308,"name":"Defeat","steam_id":76561198065203818,"connected_time":507000000000,"state":"active","ping":36},{"user_id":280,"name":"mega","steam_id":76561198089520959,"connected_time":1406000000000,"state":"active","ping":92},{"user_id":309,"name":"certified boy lover","steam_id":76561199122281764,"connected_time":489000000000,"state":"active","ping":74},{"user_id":296,"name":"Violet K.","steam_id":76561198062963842,"connected_time":853000000000,"state":"active","ping":68}]},{"server_id":119,"name":"Uncletopia | Seattle | 2 | All Maps","name_short":"sea-2","host":"sea-1.us.uncletopia.com","port":27025,"enabled":true,"region":"us-west","cc":"us","latitude":47.608013,"longitude":-122.33517,"reserved":0,"last_update":"0001-01-01T00:00:00Z","name_a2s":"Uncletopia | Seattle | 2 | All Maps","protocol":17,"map":"cp_mountainlab","folder":"tf","game":"Team Fortress","app_id":440,"player_count":0,"max_players":24,"Bots":0,"server_type":"Dedicated","server_os":"Linux","password":true,"vac":true,"version":"7961495","steam_id":85568392924469998,"keywords":["cp","nocrits","nodmgspread","uncletopia"],"game_id":440,"stv_port":27026,"stv_name":"Uncletopia | Seattle | 2 | All Maps | STV","players":null},{"server_id":406,"name":"Uncletopia | Seattle | 3 | Stopwatch","name_short":"sea-3","host":"sea-1.us.uncletopia.com","port":27035,"enabled":true,"region":"us-west","cc":"us","latitude":47.608013,"longitude":-122.33517,"reserved":0,"last_update":"0001-01-01T00:00:00Z","name_a2s":"Uncletopia | Seattle | 3 | Stopwatch","protocol":17,"map":"cp_gullywash_final1","folder":"tf","game":"Team Fortress","app_id":440,"player_count":17,"max_players":24,"Bots":0,"server_type":"Dedicated","server_os":"Linux","password":true,"vac":true,"version":"7961495","steam_id":85568392924515217,"keywords":["cp","nocrits","nodmgspread","uncletopia"],"game_id":440,"stv_port":27036,"stv_name":"Uncletopia | Seattle | 3 | Stopwatch | STV","players":[{"user_id":36,"name":"hambringer55","steam_id":76561199067067145,"connected_time":4145000000000,"state":"active","ping":57},{"user_id":37,"name":"A Walnut #BUFFTHESPEED","steam_id":76561198136655837,"connected_time":4141000000000,"state":"active","ping":73},{"user_id":88,"name":"luxl1","steam_id":76561198975034056,"connected_time":316000000000,"state":"active","ping":64},{"user_id":85,"name":"uzr","steam_id":76561198799343084,"connected_time":481000000000,"state":"active","ping":77},{"user_id":44,"name":"sobaka","steam_id":76561198116008934,"connected_time":3415000000000,"state":"active","ping":56},{"user_id":93,"name":"Velocircopter","steam_id":76561198847582048,"connected_time":10000000000,"state":"spawning","ping":73},{"user_id":92,"name":"Takehu","steam_id":76561199112079805,"connected_time":55000000000,"state":"active","ping":76},{"user_id":89,"name":"Sgt_Rathbone","steam_id":76561198171705397,"connected_time":308000000000,"state":"active","ping":60},{"user_id":54,"name":"shadow wizzard money gang","steam_id":76561198171203882,"connected_time":2020000000000,"state":"active","ping":123},{"user_id":63,"name":"Balls","steam_id":76561199031925385,"connected_time":1687000000000,"state":"active","ping":74},{"user_id":87,"name":"valefor","steam_id":76561198074777193,"connected_time":377000000000,"state":"active","ping":75},{"user_id":90,"name":"toon","steam_id":76561198087422193,"connected_time":250000000000,"state":"active","ping":74},{"user_id":72,"name":"bcizzo","steam_id":76561197994399953,"connected_time":1202000000000,"state":"active","ping":62},{"user_id":91,"name":"Pananananananananananananananan","steam_id":76561198018608667,"connected_time":168000000000,"state":"active","ping":99},{"user_id":66,"name":"♥ Nagisa Shiota ♥ (Soupcan)","steam_id":76561198056269538,"connected_time":1494000000000,"state":"active","ping":45},{"user_id":67,"name":"b1ank :3!!","steam_id":76561198412466109,"connected_time":1426000000000,"state":"active","ping":114},{"user_id":69,"name":"Tim Shitsby","steam_id":76561198010138349,"connected_time":1366000000000,"state":"active","ping":111}]},{"server_id":17,"name":"Uncletopia | San Francisco | 1 | All Maps","name_short":"sfo-1","host":"sfo-1.us.uncletopia.com","port":27015,"enabled":true,"region":"us-west","cc":"us","latitude":37.77397,"longitude":-122.4313,"reserved":0,"last_update":"0001-01-01T00:00:00Z","name_a2s":"Uncletopia | San Francisco | 1 | All Maps","protocol":17,"map":"koth_cascade","folder":"tf","game":"Team Fortress","app_id":440,"player_count":0,"max_players":24,"Bots":0,"server_type":"Dedicated","server_os":"Linux","password":true,"vac":true,"version":"7961495","steam_id":85568392924469999,"keywords":["cp","nocrits","nodmgspread","uncletopia"],"game_id":440,"stv_port":27016,"stv_name":"Uncletopia | San Francisco | 1 | All Maps | STV","players":null},{"server_id":18,"name":"Uncletopia | San Francisco | 2 | All Maps","name_short":"sfo-2","host":"sfo-1.us.uncletopia.com","port":27025,"enabled":true,"region":"us-west","cc":"us","latitude":37.77397,"longitude":-122.4313,"reserved":0,"last_update":"0001-01-01T00:00:00Z","name_a2s":"Uncletopia | San Francisco | 2 | All Maps","protocol":17,"map":"pl_badwater","folder":"tf","game":"Team Fortress","app_id":440,"player_count":24,"max_players":24,"Bots":0,"server_type":"Dedicated","server_os":"Linux","password":true,"vac":true,"version":"7961495","steam_id":85568392924470000,"keywords":["nocrits","nodmgspread","payload","uncletopia"],"game_id":440,"stv_port":27026,"stv_name":"Uncletopia | San Francisco | 2 | All Maps | STV","players":[{"user_id":383,"name":"Schnitz","steam_id":76561198265484253,"connected_time":1211000000000,"state":"active","ping":66},{"user_id":382,"name":"Harley [Ramiel]","steam_id":76561198079510840,"connected_time":1599000000000,"state":"active","ping":65},{"user_id":379,"name":"KYBB","steam_id":76561198141390049,"connected_time":1800000000000,"state":"active","ping":74},{"user_id":390,"name":"Cat","steam_id":76561198132362099,"connected_time":153000000000,"state":"active","ping":77},{"user_id":354,"name":"rilby","steam_id":76561198132755619,"connected_time":3439000000000,"state":"active","ping":49},{"user_id":362,"name":"Maid 'n' China","steam_id":76561198423392976,"connected_time":2799000000000,"state":"active","ping":51},{"user_id":385,"name":"a chicken","steam_id":76561198313121580,"connected_time":874000000000,"state":"active","ping":54},{"user_id":378,"name":"5oc","steam_id":76561199196300397,"connected_time":1886000000000,"state":"active","ping":74},{"user_id":337,"name":"Engynier Gaimeang (F2P)","steam_id":76561199013888779,"connected_time":4019000000000,"state":"active","ping":58},{"user_id":363,"name":"Seriously Bruh","steam_id":76561198070408485,"connected_time":2791000000000,"state":"active","ping":68},{"user_id":276,"name":"roach :3","steam_id":76561198354811369,"connected_time":8056000000000,"state":"active","ping":51},{"user_id":256,"name":"Lunarthrope","steam_id":76561198292132147,"connected_time":9695000000000,"state":"active","ping":69},{"user_id":325,"name":"MORE BOUNCE TO THE OUNCE","steam_id":76561198243399336,"connected_time":4511000000000,"state":"active","ping":58},{"user_id":298,"name":"JOHN WICK","steam_id":76561198091877422,"connected_time":7066000000000,"state":"active","ping":85},{"user_id":386,"name":"Bob's your Uncle","steam_id":76561197995230744,"connected_time":741000000000,"state":"active","ping":116},{"user_id":369,"name":"copper flavored ice cream","steam_id":76561198065662025,"connected_time":2359000000000,"state":"active","ping":50},{"user_id":375,"name":"Bobby Ray","steam_id":76561198044131188,"connected_time":2063000000000,"state":"active","ping":74},{"user_id":387,"name":"doghouse","steam_id":76561198000319035,"connected_time":736000000000,"state":"active","ping":83},{"user_id":353,"name":"Ethanol Buttchugger","steam_id":76561199127590316,"connected_time":3508000000000,"state":"active","ping":66},{"user_id":216,"name":"Chimp Peen's Revunge","steam_id":76561198165778514,"connected_time":11594000000000,"state":"active","ping":87},{"user_id":367,"name":"Enclave Soundcloud Rapper","steam_id":76561198438876215,"connected_time":2476000000000,"state":"active","ping":111},{"user_id":388,"name":"JACK BRUNO","steam_id":76561198027957690,"connected_time":724000000000,"state":"active","ping":65},{"user_id":368,"name":"The_Epic_Conclusion","steam_id":76561198084250179,"connected_time":2432000000000,"state":"active","ping":115},{"user_id":344,"name":"Thaberii","steam_id":76561198275818707,"connected_time":3709000000000,"state":"active","ping":76}]},{"server_id":19,"name":"Uncletopia | San Francisco | 3 | Stopwatch","name_short":"sfo-3","host":"sfo-1.us.uncletopia.com","port":27035,"enabled":true,"region":"us-west","cc":"us","latitude":37.77397,"longitude":-122.4313,"reserved":0,"last_update":"0001-01-01T00:00:00Z","name_a2s":"Uncletopia | San Francisco | 3 | Stopwatch","protocol":17,"map":"pl_pier","folder":"tf","game":"Team Fortress","app_id":440,"player_count":0,"max_players":24,"Bots":0,"server_type":"Dedicated","server_os":"Linux","password":true,"vac":true,"version":"7961495","steam_id":85568392924742824,"keywords":["nocrits","nodmgspread","payload","uncletopia"],"game_id":440,"stv_port":27036,"stv_name":"Uncletopia | San Francisco | 3 | Stopwatch | STV","players":null},{"server_id":20,"name":"Uncletopia | San Francisco | 4 | Community","name_short":"sfo-4","host":"sfo-1.us.uncletopia.com","port":27045,"enabled":true,"region":"us-west","cc":"us","latitude":37.77397,"longitude":-122.4313,"reserved":0,"last_update":"0001-01-01T00:00:00Z","name_a2s":"Uncletopia | San Francisco | 4 | Community","protocol":17,"map":"pl_pier","folder":"tf","game":"Team Fortress","app_id":440,"player_count":0,"max_players":24,"Bots":0,"server_type":"Dedicated","server_os":"Linux","password":true,"vac":true,"version":"7961495","steam_id":85568392924742826,"keywords":["nocrits","nodmgspread","payload","uncletopia"],"game_id":440,"stv_port":27046,"stv_name":"Uncletopia | San Francisco | 4 | Community | STV","players":null},{"server_id":141,"name":"Uncletopia | Sydney | 1 | All Maps","name_short":"syd-1","host":"syd-1.au.uncletopia.com","port":27015,"enabled":true,"region":"au","cc":"au","latitude":-33.865143,"longitude":151.2099,"reserved":0,"last_update":"0001-01-01T00:00:00Z","name_a2s":"Uncletopia | Sydney | 1 | All Maps","protocol":17,"map":"koth_viaduct","folder":"tf","game":"Team Fortress","app_id":440,"player_count":0,"max_players":24,"Bots":0,"server_type":"Dedicated","server_os":"Linux","password":true,"vac":true,"version":"7961495","steam_id":85568392924470001,"keywords":["cp","nocrits","nodmgspread","uncletopia"],"game_id":440,"stv_port":27016,"stv_name":"Uncletopia | Sydney | 1 | All Maps | STV","players":null},{"server_id":123,"name":"Uncletopia | Sydney | 2 | All Maps","name_short":"syd-2","host":"syd-1.au.uncletopia.com","port":27025,"enabled":true,"region":"au","cc":"au","latitude":-33.865143,"longitude":151.2099,"reserved":0,"last_update":"0001-01-01T00:00:00Z","name_a2s":"Uncletopia | Sydney | 2 | All Maps","protocol":17,"map":"koth_lakeside_final","folder":"tf","game":"Team Fortress","app_id":440,"player_count":0,"max_players":24,"Bots":0,"server_type":"Dedicated","server_os":"Linux","password":true,"vac":true,"version":"7961495","steam_id":85568392924470002,"keywords":["cp","nocrits","nodmgspread","uncletopia"],"game_id":440,"stv_port":27026,"stv_name":"Uncletopia | Sydney | 2 | All Maps | STV","players":null},{"server_id":395,"name":"Uncletopia | Sydney | 3 | All Maps","name_short":"syd-3","host":"syd-1.au.uncletopia.com","port":27035,"enabled":true,"region":"au","cc":"au","latitude":-33.865143,"longitude":151.2099,"reserved":0,"last_update":"0001-01-01T00:00:00Z","name_a2s":"Uncletopia | Sydney | 3 | All Maps","protocol":17,"map":"pl_frontier_final","folder":"tf","game":"Team Fortress","app_id":440,"player_count":0,"max_players":24,"Bots":0,"server_type":"Dedicated","server_os":"Linux","password":true,"vac":true,"version":"7961495","steam_id":85568392925194467,"keywords":["nocrits","nodmgspread","payload","uncletopia"],"game_id":440,"stv_port":27036,"stv_name":"Uncletopia | Sydney | 3 | All Maps | STV","players":null},{"server_id":396,"name":"Uncletopia | Sydney | 4 | All Maps","name_short":"syd-4","host":"syd-1.au.uncletopia.com","port":27045,"enabled":true,"region":"au","cc":"au","latitude":-33.865143,"longitude":151.2099,"reserved":0,"last_update":"0001-01-01T00:00:00Z","name_a2s":"Uncletopia | Sydney | 4 | All Maps","protocol":17,"map":"cp_process_final","folder":"tf","game":"Team Fortress","app_id":440,"player_count":0,"max_players":24,"Bots":0,"server_type":"Dedicated","server_os":"Linux","password":true,"vac":true,"version":"7961495","steam_id":85568392925397958,"keywords":["cp","nocrits","nodmgspread","uncletopia"],"game_id":440,"stv_port":27046,"stv_name":"Uncletopia | Sydney | 4 | All Maps | STV","players":null},{"server_id":58,"name":"Uncletopia | Sydney | 5 | Stopwatch","name_short":"syd-5","host":"syd-1.au.uncletopia.com","port":27055,"enabled":true,"region":"au","cc":"au","latitude":-33.865143,"longitude":151.2099,"reserved":0,"last_update":"0001-01-01T00:00:00Z","name_a2s":"Uncletopia | Sydney | 5 | Stopwatch","protocol":17,"map":"pl_frontier_final","folder":"tf","game":"Team Fortress","app_id":440,"player_count":0,"max_players":24,"Bots":0,"server_type":"Dedicated","server_os":"Linux","password":true,"vac":true,"version":"7961495","steam_id":85568392925397959,"keywords":["nocrits","nodmgspread","payload","uncletopia"],"game_id":440,"stv_port":27056,"stv_name":"Uncletopia | Sydney | 5 | Stopwatch | STV","players":null},{"server_id":59,"name":"Uncletopia | Sydney | 6 | Community","name_short":"syd-6","host":"syd-1.au.uncletopia.com","port":27065,"enabled":true,"region":"au","cc":"au","latitude":-33.865143,"longitude":151.2099,"reserved":0,"last_update":"0001-01-01T00:00:00Z","name_a2s":"Uncletopia | Sydney | 6 | Community","protocol":17,"map":"cp_sunshine","folder":"tf","game":"Team Fortress","app_id":440,"player_count":0,"max_players":24,"Bots":0,"server_type":"Dedicated","server_os":"Linux","password":true,"vac":true,"version":"7961495","steam_id":85568392925397960,"keywords":["cp","nocrits","nodmgspread","uncletopia"],"game_id":440,"stv_port":27066,"stv_name":"Uncletopia | Sydney | 6 | Community | STV","players":null},{"server_id":49,"name":"Uncletopia | Warsaw | 1 | One Thousand Uncles","name_short":"waw-1","host":"waw-1.pl.uncletopia.com","port":27015,"enabled":true,"region":"eu","cc":"pl","latitude":52.2297,"longitude":21.017532,"reserved":0,"last_update":"0001-01-01T00:00:00Z","name_a2s":"Uncletopia | Warsaw | 1 | One Thousand Uncles","protocol":17,"map":"cp_mercenarypark","folder":"tf","game":"Team Fortress","app_id":440,"player_count":18,"max_players":32,"Bots":16,"server_type":"Dedicated","server_os":"Linux","password":true,"vac":true,"version":"7961495","steam_id":85568392925397850,"keywords":["alltalk","bots","cp","danepve","increased_maxplayers","nocrits","norespawntime","uncletopia"],"game_id":440,"stv_port":0,"stv_name":"","players":[{"user_id":706,"name":"JSX","steam_id":76561198039097662,"connected_time":2402000000000,"state":"active","ping":90},{"user_id":708,"name":"RacoonGamer","steam_id":76561198100907657,"connected_time":332000000000,"state":"active","ping":155}]},{"server_id":50,"name":"Uncletopia | Warsaw | 2 | One Thousand Uncles","name_short":"waw-2","host":"waw-1.pl.uncletopia.com","port":27025,"enabled":true,"region":"eu","cc":"pl","latitude":52.2297,"longitude":21.017532,"reserved":0,"last_update":"0001-01-01T00:00:00Z","name_a2s":"Uncletopia | Warsaw | 2 | One Thousand Uncles","protocol":17,"map":"cp_egypt_final","folder":"tf","game":"Team Fortress","app_id":440,"player_count":0,"max_players":32,"Bots":0,"server_type":"Dedicated","server_os":"Linux","password":true,"vac":true,"version":"7961495","steam_id":85568392925397851,"keywords":["alltalk","cp","danepve","increased_maxplayers","nocrits","norespawntime","uncletopia"],"game_id":440,"stv_port":0,"stv_name":"","players":null},{"server_id":51,"name":"Uncletopia | Warsaw | 3 | All Maps","name_short":"waw-3","host":"waw-1.pl.uncletopia.com","port":27035,"enabled":true,"region":"eu","cc":"pl","latitude":52.2297,"longitude":21.017532,"reserved":0,"last_update":"0001-01-01T00:00:00Z","name_a2s":"Uncletopia | Warsaw | 3 | All Maps","protocol":17,"map":"pl_swiftwater_final1","folder":"tf","game":"Team Fortress","app_id":440,"player_count":0,"max_players":24,"Bots":0,"server_type":"Dedicated","server_os":"Linux","password":true,"vac":true,"version":"7961495","steam_id":85568392925397852,"keywords":["nocrits","nodmgspread","payload","uncletopia"],"game_id":440,"stv_port":27036,"stv_name":"Uncletopia | Warsaw | 3 | All Maps | STV","players":null},{"server_id":52,"name":"Uncletopia | Warsaw | 4 | All Maps","name_short":"waw-4","host":"waw-1.pl.uncletopia.com","port":27045,"enabled":true,"region":"eu","cc":"pl","latitude":52.2297,"longitude":21.017532,"reserved":0,"last_update":"0001-01-01T00:00:00Z","name_a2s":"Uncletopia | Warsaw | 4 | All Maps","protocol":17,"map":"koth_cascade","folder":"tf","game":"Team Fortress","app_id":440,"player_count":0,"max_players":24,"Bots":0,"server_type":"Dedicated","server_os":"Linux","password":true,"vac":true,"version":"7961495","steam_id":85568392925397853,"keywords":["cp","nocrits","nodmgspread","uncletopia"],"game_id":440,"stv_port":27046,"stv_name":"Uncletopia | Warsaw | 4 | All Maps | STV","players":null},{"server_id":53,"name":"Uncletopia | Warsaw | 5 | Stopwatch","name_short":"waw-5","host":"waw-1.pl.uncletopia.com","port":27055,"enabled":true,"region":"eu","cc":"pl","latitude":52.2297,"longitude":21.017532,"reserved":0,"last_update":"0001-01-01T00:00:00Z","name_a2s":"Uncletopia | Warsaw | 5 | Stopwatch","protocol":17,"map":"cp_sunshine","folder":"tf","game":"Team Fortress","app_id":440,"player_count":0,"max_players":24,"Bots":0,"server_type":"Dedicated","server_os":"Linux","password":true,"vac":true,"version":"7961495","steam_id":85568392925397854,"keywords":["cp","nocrits","nodmgspread","uncletopia"],"game_id":440,"stv_port":27056,"stv_name":"Uncletopia | Warsaw | 5 | Stopwatch | STV","players":null},{"server_id":54,"name":"Uncletopia | Warsaw | 6 | Community","name_short":"waw-6","host":"waw-1.pl.uncletopia.com","port":27065,"enabled":true,"region":"eu","cc":"pl","latitude":52.2297,"longitude":21.017532,"reserved":0,"last_update":"0001-01-01T00:00:00Z","name_a2s":"Uncletopia | Warsaw | 6 | Community","protocol":17,"map":"workshop/cp_indulge.ugc528106646","folder":"tf","game":"Team Fortress","app_id":440,"player_count":0,"max_players":24,"Bots":0,"server_type":"Dedicated","server_os":"Linux","password":true,"vac":true,"version":"7961495","steam_id":85568392925397856,"keywords":["cp","nocrits","nodmgspread","uncletopia"],"game_id":440,"stv_port":27066,"stv_name":"Uncletopia | Warsaw | 6 | Community | STV","players":null}]}