{"status":true,"message":"","result":[{"server_id":9,"name":"Uncletopia | Atlanta | 1 | All Maps","name_short":"atl-1","host":"atl-1.us.uncletopia.com","port":27015,"enabled":true,"region":"us-east","cc":"us","latitude":33.753746,"longitude":-84.38633,"reserved":0,"last_update":"0001-01-01T00:00:00Z","name_a2s":"Uncletopia | Atlanta | 1 | All Maps","protocol":17,"map":"koth_cascade","folder":"tf","game":"Team Fortress","app_id":440,"player_count":0,"max_players":24,"Bots":0,"server_type":"Dedicated","server_os":"Linux","password":true,"vac":true,"version":"7757534","steam_id":85568392924469982,"keywords":["cp","nocrits","nodmgspread","uncletopia"],"game_id":440,"stv_port":27016,"stv_name":"Uncletopia | Atlanta | 1 | All Maps | STV","players":null},{"server_id":104,"name":"Uncletopia | Atlanta | 2 | All Maps","name_short":"atl-2","host":"atl-1.us.uncletopia.com","port":27025,"enabled":true,"region":"us-east","cc":"us","latitude":33.753746,"longitude":-84.38633,"reserved":0,"last_update":"0001-01-01T00:00:00Z","name_a2s":"Uncletopia | Atlanta | 2 | All Maps","protocol":17,"map":"cp_dustbowl","folder":"tf","game":"Team Fortress","app_id":440,"player_count":0,"max_players":24,"Bots":0,"server_type":"Dedicated","server_os":"Linux","password":true,"vac":true,"version":"7757534","steam_id":85568392924469983,"keywords":["cp","nocrits","nodmgspread","uncletopia"],"game_id":440,"stv_port":27026,"stv_name":"Uncletopia | Atlanta | 2 | All Maps | STV","players":null},{"server_id":400,"name":"Uncletopia | Atlanta | 3 | Community","name_short":"atl-3","host":"atl-1.us.uncletopia.com","port":27035,"enabled":true,"region":"us-east","cc":"us","latitude":33.753746,"longitude":-84.38633,"reserved":0,"last_update":"0001-01-01T00:00:00Z","name_a2s":"Uncletopia | Atlanta | 3 | Community","protocol":17,"map":"cp_snakewater_final1","folder":"tf","game":"Team Fortress","app_id":440,"player_count":0,"max_players":24,"Bots":0,"server_type":"Dedicated","server_os":"Linux","password":true,"vac":true,"version":"7757534","steam_id":85568392924515187,"keywords":["cp","nocrits","nodmgspread","uncletopia"],"game_id":440,"stv_port":27036,"stv_name":"Uncletopia | Atlanta | 3 | Community | STV","players":null},{"server_id":401,"name":"Uncletopia | Atlanta | 4 | No Payload","name_short":"atl-4","host":"atl-1.us.uncletopia.com","port":27045,"enabled":true,"region":"us-east","cc":"us","latitude":33.753746,"longitude":-84.38633,"reserved":0,"last_update":"0001-01-01T00:00:00Z","name_a2s":"","protocol":0,"map":"","folder":"","game":"","app_id":0,"player_count":0,"max_players":0,"Bots":0,"server_type":"","server_os":"","password":false,"vac":false,"version":"","steam_id":0,"keywords":null,"game_id":0,"stv_port":0,"stv_name":"","players":null},{"server_id":2,"name":"Uncletopia | Chicago | 1 | All Maps","name_short":"chi-1","host":"chi-1.us.uncletopia.com","port":27015,"enabled":true,"region":"us-central","cc":"us","latitude":41.881832,"longitude":-87.62318,"reserved":0,"last_update":"0001-01-01T00:00:00Z","name_a2s":"Uncletopia | Chicago | 1 | All Maps","protocol":17,"map":"koth_viaduct","folder":"tf","game":"Team Fortress","app_id":440,"player_count":24,"max_players":24,"Bots":0,"server_type":"Dedicated","server_os":"Linux","password":true,"vac":true,"version":"7757534","steam_id":85568392924469984,"keywords":["cp","nocrits","nodmgspread","uncletopia"],"game_id":440,"stv_port":27016,"stv_name":"Uncletopia | Chicago | 1 | All Maps | STV","players":[{"user_id":954,"name":"CrystalClear","steam_id":76561198344276579,"connected_time":3744000000000,"state":"active","ping":101},{"user_id":948,"name":"Woodstock","steam_id":76561198041442667,"connected_time":4042000000000,"state":"active","ping":111},{"user_id":986,"name":"mrselfdestruct13","steam_id":76561197992054553,"connected_time":1025000000000,"state":"active","ping":77},{"user_id":1000,"name":"Freddie Mercury's Ghost","steam_id":76561198140320704,"connected_time":391000000000,"state":"active","ping":59},{"user_id":1001,"name":"rivera","steam_id":76561198051058706,"connected_time":186000000000,"state":"active","ping":59},{"user_id":956,"name":"CongorCongus","steam_id":76561198370278728,"connected_time":3716000000000,"state":"active","ping":98},{"user_id":976,"name":"Yume","steam_id":76561198018060136,"connected_time":2123000000000,"state":"active","ping":69},{"user_id":962,"name":"Yosh","steam_id":76561198027078899,"connected_time":3372000000000,"state":"active","ping":75},{"user_id":965,"name":"Boo! Boo I Say!","steam_id":76561198272427405,"connected_time":3009000000000,"state":"active","ping":72},{"user_id":990,"name":"Yiff Police","steam_id":76561198103938356,"connected_time":883000000000,"state":"active","ping":93},{"user_id":927,"name":"Antiparticle #SaveTF2","steam_id":76561197990545681,"connected_time":6391000000000,"state":"active","ping":139},{"user_id":983,"name":"Ace Attorney","steam_id":76561198133011705,"connected_time":1232000000000,"state":"active","ping":61},{"user_id":997,"name":"cici","steam_id":76561198056813294,"connected_time":744000000000,"state":"active","ping":66},{"user_id":992,"name":"caribou","steam_id":76561198044916224,"connected_time":818000000000,"state":"active","ping":129},{"user_id":993,"name":"happy new year 2014","steam_id":76561198081220016,"connected_time":817000000000,"state":"active","ping":52},{"user_id":953,"name":"XXXXXXXXXXXXXXXXXXXXXXXXXXXXXXX","steam_id":76561198041499030,"connected_time":3789000000000,"state":"active","ping":58},{"user_id":971,"name":"SaruiiSK","steam_id":76561198868598308,"connected_time":2182000000000,"state":"active","ping":95},{"user_id":967,"name":"The Horselords and Animal Gods","steam_id":76561197975094050,"connected_time":2270000000000,"state":"active","ping":112},{"user_id":980,"name":"reis","steam_id":76561199232952016,"connected_time":1789000000000,"state":"active","ping":196},{"user_id":941,"name":"FraKctured","steam_id":76561198018610010,"connected_time":4813000000000,"state":"active","ping":150},{"user_id":994,"name":"CreativeUsername","steam_id":76561198186045503,"connected_time":815000000000,"state":"active","ping":56},{"user_id":996,"name":"Yummy Kabobz","steam_id":76561198067661705,"connected_time":802000000000,"state":"active","ping":71},{"user_id":982,"name":"KentYardAssociate","steam_id":76561198290499758,"connected_time":1348000000000,"state":"active","ping":75},{"user_id":974,"name":"mike","steam_id":76561198163265338,"connected_time":2168000000000,"state":"active","ping":93}]},{"server_id":106,"name":"Uncletopia | Chicago | 2 | All Maps","name_short":"chi-2","host":"chi-1.us.uncletopia.com","port":27025,"enabled":true,"region":"us-central","cc":"us","latitude":41.881832,"longitude":-87.62318,"reserved":0,"last_update":"0001-01-01T00:00:00Z","name_a2s":"Uncletopia | Chicago | 2 | All Maps","protocol":17,"map":"koth_viaduct","folder":"tf","game":"Team Fortress","app_id":440,"player_count":0,"max_players":24,"Bots":0,"server_type":"Dedicated","server_os":"Linux","password":true,"vac":true,"version":"7757534","steam_id":85568392924469985,"keywords":["cp","nocrits","nodmgspread","uncletopia"],"game_id":440,"stv_port":27026,"stv_name":"Uncletopia | Chicago | 2 | All Maps | STV","players":null},{"server_id":402,"name":"Uncletopia | Chicago | 3 | All Maps","name_short":"chi-3","host":"chi-1.us.uncletopia.com","port":27035,"enabled":true,"region":"us-central","cc":"us","latitude":41.881832,"longitude":-87.62318,"reserved":0,"last_update":"0001-01-01T00:00:00Z","name_a2s":"Uncletopia | Chicago | 3 | All Maps","protocol":17,"map":"cp_mountainlab","folder":"tf","game":"Team Fortress","app_id":440,"player_count":0,"max_players":24,"Bots":0,"server_type":"Dedicated","server_os":"Linux","password":true,"vac":true,"version":"7757534","steam_id":85568392924515191,"keywords":["cp","nocrits","nodmgspread","uncletopia"],"game_id":440,"stv_port":27036,"stv_name":"Uncletopia | Chicago | 3 | All Maps | STV","players":null},{"server_id":403,"name":"Uncletopia | Chicago | 4 | All Maps","name_short":"chi-4","host":"chi-1.us.uncletopia.com","port":27045,"enabled":true,"region":"us-central","cc":"us","latitude":41.881832,"longitude":-87.62318,"reserved":0,"last_update":"0001-01-01T00:00:00Z","name_a2s":"Uncletopia | Chicago | 4 | All Maps","protocol":17,"map":"cp_dustbowl","folder":"tf","game":"Team Fortress","app_id":440,"player_count":0,"max_players":24,"Bots":0,"server_type":"Dedicated","server_os":"Linux","password":true,"vac":true,"version":"7757534","steam_id":85568392924515193,"keywords":["cp","nocrits","nodmgspread","uncletopia"],"game_id":440,"stv_port":27046,"stv_name":"Uncletopia | Chicago | 4 | All Maps | STV","players":null},{"server_id":36,"name":"Uncletopia | Chicago | 5 | All Maps","name_short":"chi-5","host":"chi-2.us.uncletopia.com","port":27015,"enabled":true,"region":"us-central","cc":"us","latitude":41.881832,"longitude":-87.62318,"reserved":0,"last_update":"0001-01-01T00:00:00Z","name_a2s":"Uncletopia | Chicago | 5 | All Maps","protocol":17,"map":"cp_sunshine","folder":"tf","game":"Team Fortress","app_id":440,"player_count":0,"max_players":24,"Bots":0,"server_type":"Dedicated","server_os":"Linux","password":true,"vac":true,"version":"7757534","steam_id":85568392924866362,"keywords":["cp","nocrits","nodmgspread","uncletopia"],"game_id":440,"stv_port":27016,"stv_name":"Uncletopia | Chicago | 5 | All Maps | STV","players":null},{"server_id":37,"name":"Uncletopia | Chicago | 6 | All Maps","name_short":"chi-6","host":"chi-2.us.uncletopia.com","port":27025,"enabled":true,"region":"us-central","cc":"us","latitude":41.881832,"longitude":-87.62318,"reserved":0,"last_update":"0001-01-01T00:00:00Z","name_a2s":"Uncletopia | Chicago | 6 | All Maps","protocol":17,"map":"koth_highpass","folder":"tf","game":"Team Fortress","app_id":440,"player_count":0,"max_players":24,"Bots":0,"server_type":"Dedicated","server_os":"Linux","password":true,"vac":true,"version":"7757534","steam_id":85568392924866363,"keywords":["cp","nocrits","nodmgspread","uncletopia"],"game_id":440,"stv_port":27026,"stv_name":"Uncletopia | Chicago | 6 | All Maps | STV","players":null},{"server_id":38,"name":"Uncletopia | Chicago | 7 | Stopwatch Beta","name_short":"chi-7","host":"chi-2.us.uncletopia.com","port":27035,"enabled":true,"region":"us-central","cc":"us","latitude":41.881832,"longitude":-87.62318,"reserved":0,"last_update":"0001-01-01T00:00:00Z","name_a2s":"Uncletopia | Chicago | 7 | Stopwatch Beta","protocol":17,"map":"workshop/koth_clearcut_b15.ugc2107050255","folder":"tf","game":"Team Fortress","app_id":440,"player_count":0,"max_players":24,"Bots":0,"server_type":"Dedicated","server_os":"Linux","password":true,"vac":true,"version":"7757534","steam_id":85568392924866364,"keywords":["cp","nocrits","nodmgspread","uncletopia"],"game_id":440,"stv_port":27036,"stv_name":"Uncletopia | Chicago | 7 | Stopwatch Beta | STV","players":null},{"server_id":39,"name":"Uncletopia | Chicago | 8 | Community","name_short":"chi-8","host":"chi-2.us.uncletopia.com","port":27045,"enabled":true,"region":"us-central","cc":"us","latitude":41.881832,"longitude":-87.62318,"reserved":0,"last_update":"0001-01-01T00:00:00Z","name_a2s":"Uncletopia | Chicago | 8 | Community","protocol":17,"map":"workshop/cp_bruhstbowl_b5.ugc2878604990","folder":"tf","game":"Team Fortress","app_id":440,"player_count":0,"max_players":24,"Bots":0,"server_type":"Dedicated","server_os":"Linux","password":true,"vac":true,"version":"7757534","steam_id":85568392924866365,"keywords":["cp","nocrits","nodmgspread","uncletopia"],"game_id":440,"stv_port":27046,"stv_name":"Uncletopia | Chicago | 8 | Community | STV","players":null},{"server_id":8,"name":"Uncletopia | Dallas | 1 | All Maps","name_short":"dal-1","host":"dal-1.us.uncletopia.com","port":27015,"enabled":true,"region":"us-central","cc":"us","latitude":32.779167,"longitude":-96.80889,"reserved":0,"last_update":"0001-01-01T00:00:00Z","name_a2s":"Uncletopia | Dallas | 1 | All Maps","protocol":17,"map":"cp_dustbowl","folder":"tf","game":"Team Fortress","app_id":440,"player_count":12,"max_players":24,"Bots":0,"server_type":"Dedicated","server_os":"Linux","password":true,"vac":true,"version":"7757534","steam_id":85568392924469986,"keywords":["cp","nocrits","nodmgspread","uncletopia"],"game_id":440,"stv_port":27016,"stv_name":"Uncletopia | Dallas | 1 | All Maps | STV","players":[{"user_id":827,"name":"益代浅黄","steam_id":76561199225554577,"connected_time":78000000000,"state":"active","ping":81},{"user_id":821,"name":"Chromix","steam_id":76561199383060168,"connected_time":420000000000,"state":"active","ping":48},{"user_id":817,"name":"ryann","steam_id":76561198042996639,"connected_time":774000000000,"state":"active","ping":75},{"user_id":818,"name":"DSM-IVCE","steam_id":76561199438515797,"connected_time":709000000000,"state":"active","ping":117},{"user_id":822,"name":"Yoshimelon","steam_id":76561198253054325,"connected_time":413000000000,"state":"active","ping":37},{"user_id":824,"name":"WorkerDave","steam_id":76561199261017507,"connected_time":384000000000,"state":"active","ping":76},{"user_id":758,"name":"connie kins","steam_id":76561198074701151,"connected_time":5482000000000,"state":"active","ping":73},{"user_id":825,"name":"The Golden Python","steam_id":76561199250203505,"connected_time":308000000000,"state":"active","ping":130},{"user_id":688,"name":"hotpocket","steam_id":76561199070028098,"connected_time":11982000000000,"state":"active","ping":96},{"user_id":788,"name":"LtK","steam_id":76561197993180943,"connected_time":3548000000000,"state":"active","ping":39},{"user_id":800,"name":"Dairy Queen","steam_id":76561198285298576,"connected_time":2643000000000,"state":"active","ping":179},{"user_id":801,"name":"gamble","steam_id":76561198252320278,"connected_time":2570000000000,"state":"active","ping":43}]},{"server_id":108,"name":"Uncletopia | Dallas | 2 | All Maps","name_short":"dal-2","host":"dal-1.us.uncletopia.com","port":27025,"enabled":true,"region":"us-central","cc":"us","latitude":32.779167,"longitude":-96.80889,"reserved":0,"last_update":"0001-01-01T00:00:00Z","name_a2s":"Uncletopia | Dallas | 2 | All Maps","protocol":17,"map":"pl_frontier_final","folder":"tf","game":"Team Fortress","app_id":440,"player_count":0,"max_players":24,"Bots":0,"server_type":"Dedicated","server_os":"Linux","password":true,"vac":true,"version":"7757534","steam_id":85568392924469988,"keywords":["nocrits","nodmgspread","payload","uncletopia"],"game_id":440,"stv_port":27026,"stv_name":"Uncletopia | Dallas | 2 | All Maps | STV","players":null},{"server_id":5,"name":"Uncletopia | Frankfurt | 1 | All Maps","name_short":"frk-1","host":"frk-1.de.uncletopia.com","port":27015,"enabled":true,"region":"eu","cc":"de","latitude":50.110924,"longitude":8.682127,"reserved":0,"last_update":"0001-01-01T00:00:00Z","name_a2s":"Uncletopia | Frankfurt | 1 | All Maps","protocol":17,"map":"pl_barnblitz","folder":"tf","game":"Team Fortress","app_id":440,"player_count":24,"max_players":24,"Bots":0,"server_type":"Dedicated","server_os":"Linux","password":true,"vac":true,"version":"7757534","steam_id":85568392924469989,"keywords":["nocrits","nodmgspread","payload","uncletopia"],"game_id":440,"stv_port":27016,"stv_name":"Uncletopia | Frankfurt | 1 | All Maps | STV","players":[{"user_id":206,"name":"murderwow","steam_id":76561198024566944,"connected_time":670000000000,"state":"active","ping":90},{"user_id":179,"name":"mushroom","steam_id":76561198817034571,"connected_time":2086000000000,"state":"active","ping":82},{"user_id":143,"name":"Lemon","steam_id":76561198188535947,"connected_time":4342000000000,"state":"active","ping":79},{"user_id":212,"name":"Elon Ma","steam_id":76561199018053264,"connected_time":3000000000,"state":"spawning","ping":72},{"user_id":172,"name":"zaleek69","steam_id":76561198058877595,"connected_time":2564000000000,"state":"active","ping":89},{"user_id":155,"name":"REN","steam_id":76561198000596385,"connected_time":3397000000000,"state":"active","ping":66},{"user_id":207,"name":"Soyboy","steam_id":76561198053885716,"connected_time":344000000000,"state":"active","ping":84},{"user_id":189,"name":"lake","steam_id":76561198862328783,"connected_time":1213000000000,"state":"active","ping":51},{"user_id":190,"name":"bigmazi","steam_id":76561198133276643,"connected_time":1200000000000,"state":"active","ping":89},{"user_id":191,"name":"Vidrox #savetf2","steam_id":76561199217854983,"connected_time":1159000000000,"state":"active","ping":83},{"user_id":131,"name":"DMTjoe","steam_id":76561198199804246,"connected_time":5261000000000,"state":"active","ping":106},{"user_id":192,"name":"YBOT554","steam_id":76561198836830645,"connected_time":1152000000000,"state":"active","ping":59},{"user_id":182,"name":"ToniGAM3S","steam_id":76561198128605351,"connected_time":1780000000000,"state":"active","ping":57},{"user_id":108,"name":"Flash","steam_id":76561198067379855,"connected_time":7146000000000,"state":"active","ping":54},{"user_id":193,"name":"Winter Guy","steam_id":76561198326593298,"connected_time":1137000000000,"state":"active","ping":41},{"user_id":109,"name":"Garuda1","steam_id":76561198058244959,"connected_time":7091000000000,"state":"active","ping":67},{"user_id":194,"name":"Myrmodion","steam_id":76561198054746247,"connected_time":1137000000000,"state":"active","ping":58},{"user_id":136,"name":"ThoHost","steam_id":76561198152036600,"connected_time":4930000000000,"state":"active","ping":160},{"user_id":204,"name":"Glenn Quagmire","steam_id":76561199348527880,"connected_time":848000000000,"state":"active","ping":81},{"user_id":208,"name":"Riceman","steam_id":76561198295132727,"connected_time":338000000000,"state":"active","ping":81},{"user_id":169,"name":"Combat Wombat","steam_id":76561197994720068,"connected_time":2688000000000,"state":"active","ping":73},{"user_id":149,"name":"milan","steam_id":76561198858509678,"connected_time":3979000000000,"state":"active","ping":59},{"user_id":184,"name":"Ziltoid","steam_id":76561198020753675,"connected_time":1682000000000,"state":"active","ping":67},{"user_id":209,"name":"the kid named finger","steam_id":76561198449930192,"connected_time":309000000000,"state":"active","ping":93}]},{"server_id":110,"name":"Uncletopia | Frankfurt | 2 | All Maps","name_short":"frk-2","host":"frk-1.de.uncletopia.com","port":27025,"enabled":true,"region":"eu","cc":"de","latitude":50.110924,"longitude":8.682127,"reserved":0,"last_update":"0001-01-01T00:00:00Z","name_a2s":"Uncletopia | Frankfurt | 2 | All Maps","protocol":17,"map":"pl_barnblitz","folder":"tf","game":"Team Fortress","app_id":440,"player_count":24,"max_players":24,"Bots":0,"server_type":"Dedicated","server_os":"Linux","password":true,"vac":true,"version":"7757534","steam_id":85568392924469990,"keywords":["nocrits","nodmgspread","payload","uncletopia"],"game_id":440,"stv_port":27026,"stv_name":"Uncletopia | Frankfurt | 2 | All Maps | STV","players":[{"user_id":131,"name":"wakeupf1lthy","steam_id":76561199232442508,"connected_time":249000000000,"state":"active","ping":71},{"user_id":132,"name":"yeldad","steam_id":76561198447264153,"connected_time":238000000000,"state":"active","ping":115},{"user_id":80,"name":"spajro","steam_id":76561198257383813,"connected_time":4667000000000,"state":"active","ping":45},{"user_id":127,"name":"Chambersite","steam_id":76561198197022399,"connected_time":394000000000,"state":"active","ping":63},{"user_id":129,"name":"Chimay","steam_id":76561197999295203,"connected_time":319000000000,"state":"active","ping":69},{"user_id":114,"name":"Wat Means?","steam_id":76561197966629582,"connected_time":2884000000000,"state":"active","ping":56},{"user_id":130,"name":"LOBZIK","steam_id":76561198114830120,"connected_time":308000000000,"state":"active","ping":76},{"user_id":106,"name":"BasLutnya","steam_id":76561198050575776,"connected_time":3294000000000,"state":"active","ping":76},{"user_id":125,"name":"def","steam_id":76561198857396812,"connected_time":625000000000,"state":"active","ping":50},{"user_id":135,"name":"Saint","steam_id":76561198003296382,"connected_time":66000000000,"state":"active","ping":71},{"user_id":134,"name":"Igames","steam_id":76561198414062544,"connected_time":83000000000,"state":"active","ping":62},{"user_id":117,"name":"Ivander","steam_id":76561198065761053,"connected_time":2356000000000,"state":"active","ping":89},{"user_id":101,"name":"ok","steam_id":76561198044451693,"connected_time":3660000000000,"state":"active","ping":108},{"user_id":111,"name":"MAKENTAKEN","steam_id":76561199127359587,"connected_time":3065000000000,"state":"active","ping":99},{"user_id":133,"name":"Ledze Shuns Dope","steam_id":76561198049945010,"connected_time":154000000000,"state":"active","ping":57},{"user_id":83,"name":"säkkijärven polkka","steam_id":76561198148115584,"connected_time":4633000000000,"state":"active","ping":76},{"user_id":61,"name":"fmdi","steam_id":76561199433879329,"connected_time":5614000000000,"state":"active","ping":72},{"user_id":126,"name":"Stop The Violence","steam_id":76561198044876779,"connected_time":452000000000,"state":"active","ping":73},{"user_id":99,"name":"ุ","steam_id":76561198045466919,"connected_time":3744000000000,"state":"active","ping":66},{"user_id":98,"name":"Fuvuk","steam_id":76561198044458593,"connected_time":3755000000000,"state":"active","ping":89},{"user_id":110,"name":"Pancakes","steam_id":76561198196259989,"connected_time":3231000000000,"state":"active","ping":63},{"user_id":118,"name":"on1on (fried)","steam_id":76561197995304137,"connected_time":1916000000000,"state":"active","ping":67},{"user_id":121,"name":"Canis[Magnus]Pectus","steam_id":76561198363775072,"connected_time":1358000000000,"state":"active","ping":121},{"user_id":52,"name":"SpookyWideTrap (sniper patrol)","steam_id":76561199195772678,"connected_time":5965000000000,"state":"active","ping":72}]},{"server_id":308,"name":"Uncletopia | Frankfurt | 3 | All Maps","name_short":"frk-3","host":"frk-1.de.uncletopia.com","port":27035,"enabled":true,"region":"eu","cc":"de","latitude":50.110924,"longitude":8.682127,"reserved":0,"last_update":"0001-01-01T00:00:00Z","name_a2s":"Uncletopia | Frankfurt | 3 | All Maps","protocol":17,"map":"cp_snakewater_final1","folder":"tf","game":"Team Fortress","app_id":440,"player_count":1,"max_players":24,"Bots":0,"server_type":"Dedicated","server_os":"Linux","password":true,"vac":true,"version":"7757534","steam_id":85568392924504274,"keywords":["cp","nocrits","nodmgspread","uncletopia"],"game_id":440,"stv_port":27036,"stv_name":"Uncletopia | Frankfurt | 3 | All Maps | STV","players":[{"user_id":10,"name":"Eme","steam_id":76561198171619442,"connected_time":15000000000,"state":"spawning","ping":70}]},{"server_id":309,"name":"Uncletopia | Frankfurt | 4 | All Maps","name_short":"frk-4","host":"frk-1.de.uncletopia.com","port":27045,"enabled":true,"region":"eu","cc":"de","latitude":50.110924,"longitude":8.682127,"reserved":0,"last_update":"0001-01-01T00:00:00Z","name_a2s":"Uncletopia | Frankfurt | 4 | All Maps","protocol":17,"map":"koth_viaduct","folder":"tf","game":"Team Fortress","app_id":440,"player_count":0,"max_players":24,"Bots":0,"server_type":"Dedicated","server_os":"Linux","password":true,"vac":true,"version":"7757534","steam_id":85568392924504275,"keywords":["cp","nocrits","nodmgspread","uncletopia"],"game_id":440,"stv_port":27046,"stv_name":"Uncletopia | Frankfurt | 4 | All Maps | STV","players":null},{"server_id":310,"name":"Uncletopia | Frankfurt | 5 | All Maps","name_short":"frk-5","host":"frk-1.de.uncletopia.com","port":27055,"enabled":true,"region":"eu","cc":"de","latitude":50.110924,"longitude":8.682127,"reserved":0,"last_update":"0001-01-01T00:00:00Z","name_a2s":"Uncletopia | Frankfurt | 5 | All Maps","protocol":17,"map":"cp_dustbowl","folder":"tf","game":"Team Fortress","app_id":440,"player_count":22,"max_players":24,"Bots":0,"server_type":"Dedicated","server_os":"Linux","password":true,"vac":true,"version":"7757534","steam_id":85568392924504277,"keywords":["cp","nocrits","nodmgspread","uncletopia"],"game_id":440,"stv_port":27056,"stv_name":"Uncletopia | Frankfurt | 5 | All Maps | STV","players":[{"user_id":87,"name":"Qwerty","steam_id":76561198023525894,"connected_time":19000000000,"state":"active","ping":84},{"user_id":61,"name":"BlackFireHealer","steam_id":76561198035912038,"connected_time":1373000000000,"state":"active","ping":68},{"user_id":26,"name":"Meth","steam_id":76561199300394949,"connected_time":3082000000000,"state":"active","ping":51},{"user_id":78,"name":"high af","steam_id":76561198271955247,"connected_time":843000000000,"state":"active","ping":83},{"user_id":56,"name":"shawty","steam_id":76561198196805409,"connected_time":2032000000000,"state":"spawning","ping":249},{"user_id":88,"name":"unikeko","steam_id":76561199149378965,"connected_time":12000000000,"state":"spawning","ping":58},{"user_id":47,"name":"kornetov.vitalya","steam_id":76561199286034833,"connected_time":2601000000000,"state":"active","ping":92},{"user_id":63,"name":"PearForceOne","steam_id":76561197999091748,"connected_time":1367000000000,"state":"active","ping":135},{"user_id":89,"name":"Concorde","steam_id":76561199141714627,"connected_time":4000000000,"state":"spawning","ping":59},{"user_id":22,"name":"YOUR MOM GAMING","steam_id":76561199429562693,"connected_time":3428000000000,"state":"active","ping":83},{"user_id":79,"name":"♦Silvia♦","steam_id":76561198373039444,"connected_time":773000000000,"state":"active","ping":129},{"user_id":71,"name":"chair 2.0","steam_id":76561199233470150,"connected_time":912000000000,"state":"spawning","ping":53},{"user_id":31,"name":"clems17","steam_id":76561199420685482,"connected_time":3002000000000,"state":"spawning","ping":56},{"user_id":65,"name":"Mr. Shadow | Folfie","steam_id":76561198037028507,"connected_time":1241000000000,"state":"active","ping":81},{"user_id":66,"name":"Own Fart Enjoyer","steam_id":76561199054251054,"connected_time":1181000000000,"state":"active","ping":74},{"user_id":76,"name":"Engi-Nearing","steam_id":76561199221172552,"connected_time":869000000000,"state":"spawning","ping":67},{"user_id":73,"name":"Yaire","steam_id":76561198017343510,"connected_time":899000000000,"state":"active","ping":63},{"user_id":46,"name":"MoeruKurowassan","steam_id":76561198319349647,"connected_time":2669000000000,"state":"active","ping":73},{"user_id":69,"name":"emie","steam_id":76561198122380622,"connected_time":982000000000,"state":"active","ping":112},{"user_id":70,"name":"Hannü","steam_id":76561197969886128,"connected_time":976000000000,"state":"active","ping":64},{"user_id":42,"name":"Kaslu","steam_id":76561199058102308,"connected_time":2795000000000,"state":"active","ping":77},{"user_id":86,"name":"=PB=","steam_id":76561197999146612,"connected_time":33000000000,"state":"active","ping":60}]},{"server_id":311,"name":"Uncletopia | Frankfurt | 6 | All Maps","name_short":"frk-6","host":"frk-1.de.uncletopia.com","port":27065,"enabled":true,"region":"eu","cc":"de","latitude":50.110924,"longitude":8.682127,"reserved":0,"last_update":"0001-01-01T00:00:00Z","name_a2s":"Uncletopia | Frankfurt | 6 | All Maps","protocol":17,"map":"pl_upward","folder":"tf","game":"Team Fortress","app_id":440,"player_count":24,"max_players":24,"Bots":0,"server_type":"Dedicated","server_os":"Linux","password":true,"vac":true,"version":"7757534","steam_id":85568392924504278,"keywords":["nocrits","nodmgspread","payload","uncletopia"],"game_id":440,"stv_port":27066,"stv_name":"Uncletopia | Frankfurt | 6 | All Maps | STV","players":[{"user_id":11,"name":"FingerMan","steam_id":76561198004040091,"connected_time":2872000000000,"state":"active","ping":55},{"user_id":42,"name":"Lil Ari","steam_id":76561198218178180,"connected_time":1596000000000,"state":"active","ping":86},{"user_id":8,"name":"milk and fish gaming \u003e:)","steam_id":76561199203870510,"connected_time":3226000000000,"state":"active","ping":75},{"user_id":69,"name":"\"Long\"","steam_id":76561198126398022,"connected_time":156000000000,"state":"active","ping":71},{"user_id":63,"name":"Impaler","steam_id":76561198081698918,"connected_time":340000000000,"state":"active","ping":76},{"user_id":48,"name":"Ergas","steam_id":76561198860861032,"connected_time":1266000000000,"state":"active","ping":75},{"user_id":64,"name":"skai","steam_id":76561198184881255,"connected_time":324000000000,"state":"active","ping":73},{"user_id":14,"name":"Pies202","steam_id":76561198031772039,"connected_time":2436000000000,"state":"active","ping":78},{"user_id":60,"name":"Your Average Scout Main","steam_id":76561199403752637,"connected_time":671000000000,"state":"active","ping":61},{"user_id":65,"name":"DemoPanMan69","steam_id":76561199030759504,"connected_time":297000000000,"state":"active","ping":55},{"user_id":66,"name":"a dollop of bird","steam_id":76561198089003514,"connected_time":274000000000,"state":"active","ping":45},{"user_id":70,"name":"beer thief","steam_id":76561198126524735,"connected_time":94000000000,"state":"active","ping":70},{"user_id":50,"name":"Rincey-Windey","steam_id":76561198011591682,"connected_time":1194000000000,"state":"active","ping":99},{"user_id":67,"name":"cracker","steam_id":76561198062107879,"connected_time":264000000000,"state":"active","ping":85},{"user_id":68,"name":"Mr_Pulse_","steam_id":76561198095001602,"connected_time":262000000000,"state":"active","ping":265},{"user_id":55,"name":"axl#pizdaaim","steam_id":76561198991661832,"connected_time":1023000000000,"state":"active","ping":99},{"user_id":23,"name":"JC","steam_id":76561198029213352,"connected_time":2223000000000,"state":"active","ping":55},{"user_id":54,"name":"rz-/Atomic Punch","steam_id":76561199195508541,"connected_time":1047000000000,"state":"active","ping":81},{"user_id":56,"name":"Cookies and Bakies","steam_id":76561198017442928,"connected_time":972000000000,"state":"active","ping":68},{"user_id":58,"name":"Acheron","steam_id":76561198306593373,"connected_time":876000000000,"state":"active","ping":75},{"user_id":61,"name":"LIKE A G6","steam_id":76561198188676728,"connected_time":571000000000,"state":"active","ping":91},{"user_id":29,"name":"Kamikrazy","steam_id":76561198044254918,"connected_time":2099000000000,"state":"active","ping":83},{"user_id":44,"name":"rG gG","steam_id":76561198125010818,"connected_time":1530000000000,"state":"active","ping":103},{"user_id":32,"name":"Enigmus","steam_id":76561197994063627,"connected_time":1943000000000,"state":"active","ping":86}]},{"server_id":23,"name":"Uncletopia | Frankfurt | 7 | Stopwatch Beta","name_short":"frk-7","host":"frk-1.de.uncletopia.com","port":27075,"enabled":true,"region":"eu","cc":"de","latitude":50.110924,"longitude":8.682127,"reserved":0,"last_update":"0001-01-01T00:00:00Z","name_a2s":"Uncletopia | Frankfurt | 7 | Stopwatch Beta","protocol":17,"map":"koth_lakeside_final","folder":"tf","game":"Team Fortress","app_id":440,"player_count":2,"max_players":24,"Bots":0,"server_type":"Dedicated","server_os":"Linux","password":true,"vac":true,"version":"7757534","steam_id":85568392924742827,"keywords":["cp","nocrits","nodmgspread","uncletopia"],"game_id":440,"stv_port":27076,"stv_name":"Uncletopia | Frankfurt | 7 | Stopwatch Beta | STV","players":[{"user_id":5,"name":"MRZepp666","steam_id":76561199086153248,"connected_time":1387000000000,"state":"active","ping":61},{"user_id":6,"name":"Gustavo Mollying","steam_id":76561198153618515,"connected_time":1058000000000,"state":"active","ping":71}]},{"server_id":24,"name":"Uncletopia | Frankfurt | 8 | Community","name_short":"frk-8","host":"frk-1.de.uncletopia.com","port":27085,"enabled":true,"region":"eu","cc":"de","latitude":50.110924,"longitude":8.682127,"reserved":0,"last_update":"0001-01-01T00:00:00Z","name_a2s":"Uncletopia | Frankfurt | 8 | Community","protocol":17,"map":"koth_lakeside_final","folder":"tf","game":"Team Fortress","app_id":440,"player_count":0,"max_players":24,"Bots":0,"server_type":"Dedicated","server_os":"Linux","password":true,"vac":true,"version":"7757534","steam_id":85568392924742828,"keywords":["cp","nocrits","nodmgspread","uncletopia"],"game_id":440,"stv_port":27086,"stv_name":"Uncletopia | Frankfurt | 8 | Community | STV","players":null},{"server_id":202,"name":"Uncletopia | Hong Kong | 1 | All Maps","name_short":"hgk-1","host":"hgk-1.hk.uncletopia.com","port":27015,"enabled":true,"region":"asia","cc":"hk","latitude":22.302711,"longitude":114.177216,"reserved":0,"last_update":"0001-01-01T00:00:00Z","name_a2s":"Uncletopia | Hong Kong | 1 | All Maps","protocol":17,"map":"pl_upward","folder":"tf","game":"Team Fortress","app_id":440,"player_count":24,"max_players":24,"Bots":0,"server_type":"Dedicated","server_os":"Linux","password":true,"vac":true,"version":"7757534","steam_id":85568392924494504,"keywords":["nocrits","nodmgspread","payload","uncletopia"],"game_id":440,"stv_port":27016,"stv_name":"Uncletopia | Hong Kong | 1 | All Maps | STV","players":[{"user_id":319,"name":"Cipher(I_Lag_a_lot_bare_with_me","steam_id":76561198796591492,"connected_time":2895000000000,"state":"active","ping":113},{"user_id":335,"name":"17","steam_id":76561198241530712,"connected_time":1350000000000,"state":"active","ping":60},{"user_id":354,"name":"cstr","steam_id":76561199468929890,"connected_time":73000000000,"state":"active","ping":90},{"user_id":334,"name":"LEGS","steam_id":76561199111623890,"connected_time":1595000000000,"state":"active","ping":63},{"user_id":340,"name":"doom","steam_id":76561199231146887,"connected_time":888000000000,"state":"active","ping":60},{"user_id":241,"name":"AmaiToxic(I drew FemPyro tits)","steam_id":76561199122491157,"connected_time":9274000000000,"state":"active","ping":128},{"user_id":300,"name":"Noyour","steam_id":76561198323259830,"connected_time":4014000000000,"state":"active","ping":115},{"user_id":345,"name":"Emergency Food","steam_id":76561198449571610,"connected_time":612000000000,"state":"active","ping":122},{"user_id":347,"name":"corpse_cadaver","steam_id":76561199225360457,"connected_time":453000000000,"state":"active","ping":75},{"user_id":338,"name":"Pls feed my raccoons","steam_id":76561199065007428,"connected_time":1164000000000,"state":"active","ping":88},{"user_id":349,"name":"2005 Ford Fiesta","steam_id":76561199198221353,"connected_time":390000000000,"state":"active","ping":60},{"user_id":314,"name":"Momoxhien","steam_id":76561198414997429,"connected_time":3158000000000,"state":"active","ping":61},{"user_id":352,"name":"Saffron","steam_id":76561199025320247,"connected_time":251000000000,"state":"active","ping":62},{"user_id":321,"name":"Mega 00F","steam_id":76561198962485791,"connected_time":2752000000000,"state":"active","ping":143},{"user_id":271,"name":"tiden2000","steam_id":76561198092969425,"connected_time":6746000000000,"state":"active","ping":109},{"user_id":323,"name":"Revenaline","steam_id":76561198964762311,"connected_time":2450000000000,"state":"active","ping":77},{"user_id":316,"name":"Shernox ( Can't Chat )","steam_id":76561199079307895,"connected_time":3145000000000,"state":"active","ping":59},{"user_id":350,"name":"wombatrat","steam_id":76561199375834537,"connected_time":321000000000,"state":"active","ping":76},{"user_id":336,"name":"Aerotronics","steam_id":76561198821190704,"connected_time":1343000000000,"state":"active","ping":165},{"user_id":355,"name":"Rachugh","steam_id":76561199235852578,"connected_time":53000000000,"state":"active","ping":181},{"user_id":328,"name":"Cloud","steam_id":76561198272454184,"connected_time":2201000000000,"state":"active","ping":94},{"user_id":353,"name":"衣旧罢久鎏岳肆","steam_id":76561198083234925,"connected_time":169000000000,"state":"active","ping":87},{"user_id":296,"name":"DoesHotter","steam_id":76561198959978678,"connected_time":5179000000000,"state":"active","ping":96},{"user_id":311,"name":"owenwong36","steam_id":76561199195120275,"connected_time":3546000000000,"state":"active","ping":98}]},{"server_id":1,"name":"Uncletopia | Los Angeles | 1 | All Maps","name_short":"lax-1","host":"lax-1.us.uncletopia.com","port":27015,"enabled":true,"region":"us-west","cc":"us","latitude":33.94279,"longitude":-118.41004,"reserved":0,"last_update":"0001-01-01T00:00:00Z","name_a2s":"Uncletopia | Los Angeles | 1 | All Maps","protocol":17,"map":"plr_hightower","folder":"tf","game":"Team Fortress","app_id":440,"player_count":0,"max_players":24,"Bots":0,"server_type":"Dedicated","server_os":"Linux","password":true,"vac":true,"version":"7757534","steam_id":85568392924469991,"keywords":["nocrits","nodmgspread","payload","uncletopia"],"game_id":440,"stv_port":27016,"stv_name":"Uncletopia | Los Angeles | 1 | All Maps | STV","players":null},{"server_id":112,"name":"Uncletopia | Los Angeles | 2 | All Maps","name_short":"lax-2","host":"lax-1.us.uncletopia.com","port":27025,"enabled":true,"region":"us-west","cc":"us","latitude":33.94279,"longitude":-118.41004,"reserved":0,"last_update":"0001-01-01T00:00:00Z","name_a2s":"Uncletopia | Los Angeles | 2 | All Maps","protocol":17,"map":"pl_snowycoast","folder":"tf","game":"Team Fortress","app_id":440,"player_count":23,"max_players":24,"Bots":0,"server_type":"Dedicated","server_os":"Linux","password":true,"vac":true,"version":"7757534","steam_id":85568392924469992,"keywords":["nocrits","nodmgspread","payload","uncletopia"],"game_id":440,"stv_port":27026,"stv_name":"Uncletopia | Los Angeles | 2 | All Maps | STV","players":[{"user_id":581,"name":"Vespen","steam_id":76561198259984019,"connected_time":1033000000000,"state":"active","ping":57},{"user_id":572,"name":"peebpoob","steam_id":76561198877442432,"connected_time":1728000000000,"state":"active","ping":86},{"user_id":318,"name":"perc 10","steam_id":76561198116471653,"connected_time":17407000000000,"state":"active","ping":56},{"user_id":556,"name":"endo","steam_id":76561197995204381,"connected_time":2561000000000,"state":"active","ping":66},{"user_id":573,"name":"Rick","steam_id":76561198082608196,"connected_time":1479000000000,"state":"active","ping":93},{"user_id":576,"name":"porksoda","steam_id":76561198021451377,"connected_time":1215000000000,"state":"active","ping":82},{"user_id":527,"name":"..flop","steam_id":76561197989058876,"connected_time":4681000000000,"state":"active","ping":64},{"user_id":582,"name":"Mr Beast","steam_id":76561198206922368,"connected_time":956000000000,"state":"active","ping":60},{"user_id":584,"name":"Ferran, Loathsome Hogsqueezer","steam_id":76561198004480302,"connected_time":919000000000,"state":"active","ping":51},{"user_id":555,"name":"Junkmin","steam_id":76561198152251596,"connected_time":2793000000000,"state":"active","ping":44},{"user_id":585,"name":"nescoceo","steam_id":76561198040801160,"connected_time":919000000000,"state":"active","ping":45},{"user_id":561,"name":"jumbi","steam_id":76561198353456379,"connected_time":2292000000000,"state":"active","ping":79},{"user_id":578,"name":"complete and utter fool","steam_id":76561199476364315,"connected_time":1111000000000,"state":"active","ping":66},{"user_id":550,"name":"ExplosiveGamer21","steam_id":76561198132370955,"connected_time":3127000000000,"state":"active","ping":78},{"user_id":579,"name":"Noodle","steam_id":76561199156137868,"connected_time":1076000000000,"state":"active","ping":94},{"user_id":570,"name":"Myahster","steam_id":76561198082824771,"connected_time":1778000000000,"state":"active","ping":39},{"user_id":571,"name":"David","steam_id":76561198008157353,"connected_time":1765000000000,"state":"active","ping":76},{"user_id":580,"name":"budman","steam_id":76561199059854407,"connected_time":1040000000000,"state":"active","ping":131},{"user_id":586,"name":"koncept","steam_id":76561198027812652,"connected_time":915000000000,"state":"active","ping":49},{"user_id":588,"name":"jackal","steam_id":76561198122571258,"connected_time":840000000000,"state":"active","ping":81},{"user_id":589,"name":"Snoopy_dog","steam_id":76561198065339248,"connected_time":806000000000,"state":"active","ping":52},{"user_id":590,"name":"HOODEDLAWYER285","steam_id":76561198156496197,"connected_time":764000000000,"state":"active","ping":107},{"user_id":524,"name":"FLASH ASSANOVA","steam_id":76561197996266992,"connected_time":4880000000000,"state":"active","ping":57}]},{"server_id":324,"name":"Uncletopia | Los Angeles | 3 | All Maps","name_short":"lax-3","host":"lax-1.us.uncletopia.com","port":27035,"enabled":true,"region":"us-west","cc":"us","latitude":33.94279,"longitude":-118.41004,"reserved":0,"last_update":"0001-01-01T00:00:00Z","name_a2s":"Uncletopia | Los Angeles | 3 | All Maps","protocol":17,"map":"koth_cascade","folder":"tf","game":"Team Fortress","app_id":440,"player_count":0,"max_players":24,"Bots":0,"server_type":"Dedicated","server_os":"Linux","password":true,"vac":true,"version":"7757534","steam_id":85568392924510198,"keywords":["cp","nocrits","nodmgspread","uncletopia"],"game_id":440,"stv_port":27036,"stv_name":"Uncletopia | Los Angeles | 3 | All Maps | STV","players":null},{"server_id":25,"name":"Uncletopia | Los Angeles | 4 | Stopwatch Beta","name_short":"lax-4","host":"lax-1.us.uncletopia.com","port":27045,"enabled":true,"region":"us-west","cc":"us","latitude":33.94279,"longitude":-118.41004,"reserved":0,"last_update":"0001-01-01T00:00:00Z","name_a2s":"Uncletopia | Los Angeles | 4 | Stopwatch Beta","protocol":17,"map":"cp_sunshine","folder":"tf","game":"Team Fortress","app_id":440,"player_count":0,"max_players":24,"Bots":0,"server_type":"Dedicated","server_os":"Linux","password":true,"vac":true,"version":"7757534","steam_id":85568392924510199,"keywords":["cp","nocrits","nodmgspread","uncletopia"],"game_id":440,"stv_port":27046,"stv_name":"Uncletopia | Los Angeles | 4 | Stopwatch Beta | STV","players":null},{"server_id":11,"name":"Uncletopia | London | 1 | All Maps","name_short":"lon-1","host":"lon-1.uk.uncletopia.com","port":27015,"enabled":true,"region":"eu","cc":"gb","latitude":51.509865,"longitude":-0.118092,"reserved":0,"last_update":"0001-01-01T00:00:00Z","name_a2s":"Uncletopia | London | 1 | All Maps","protocol":17,"map":"cp_steel","folder":"tf","game":"Team Fortress","app_id":440,"player_count":25,"max_players":24,"Bots":0,"server_type":"Dedicated","server_os":"Linux","password":true,"vac":true,"version":"7757534","steam_id":85568392924367362,"keywords":["cp","nocrits","nodmgspread","uncletopia"],"game_id":440,"stv_port":27016,"stv_name":"Uncletopia | London | 1 | All Maps | STV","players":[{"user_id":74,"name":"Hoovey™","steam_id":76561198249061128,"connected_time":2406000000000,"state":"active","ping":79},{"user_id":72,"name":"a straight white male","steam_id":76561198381120660,"connected_time":2570000000000,"state":"active","ping":93},{"user_id":93,"name":"SupMan","steam_id":76561199044123799,"connected_time":635000000000,"state":"active","ping":89},{"user_id":95,"name":"JOHN GAMING (depressed)","steam_id":76561199085822219,"connected_time":372000000000,"state":"active","ping":79},{"user_id":86,"name":"1 toke 4 mars bars","steam_id":76561198056460000,"connected_time":1294000000000,"state":"active","ping":48},{"user_id":91,"name":"eoy","steam_id":76561198116511067,"connected_time":743000000000,"state":"active","ping":89},{"user_id":88,"name":"kojitori","steam_id":76561198838072150,"connected_time":1113000000000,"state":"active","ping":45},{"user_id":59,"name":"Amon Ynous","steam_id":76561198034312260,"connected_time":3806000000000,"state":"active","ping":64},{"user_id":94,"name":"Garoiop","steam_id":76561198082326459,"connected_time":601000000000,"state":"active","ping":45},{"user_id":75,"name":"Glitch","steam_id":76561198309789756,"connected_time":2405000000000,"state":"active","ping":74},{"user_id":31,"name":"Roseluck","steam_id":76561198043601838,"connected_time":5423000000000,"state":"active","ping":61},{"user_id":87,"name":"chef","steam_id":76561198148975961,"connected_time":1135000000000,"state":"active","ping":71},{"user_id":26,"name":"y'all","steam_id":76561198106049954,"connected_time":5547000000000,"state":"active","ping":75},{"user_id":89,"name":"Bonduelle#Savetf2","steam_id":76561199041992422,"connected_time":1104000000000,"state":"active","ping":166},{"user_id":43,"name":"sape","steam_id":76561198089322416,"connected_time":5115000000000,"state":"active","ping":100},{"user_id":63,"name":"kryhu","steam_id":76561198293327713,"connected_time":3743000000000,"state":"active","ping":75},{"user_id":83,"name":"The Wolf Leader","steam_id":76561198038007462,"connected_time":1690000000000,"state":"active","ping":77},{"user_id":34,"name":"Lifes Lemons","steam_id":76561199033413195,"connected_time":5383000000000,"state":"active","ping":47},{"user_id":76,"name":"The","steam_id":76561198359311605,"connected_time":2388000000000,"state":"active","ping":83},{"user_id":66,"name":"pfear","steam_id":76561197999207328,"connected_time":3342000000000,"state":"active","ping":90},{"user_id":65,"name":"WHUSSKEY","steam_id":76561198137827441,"connected_time":3722000000000,"state":"active","ping":76},{"user_id":97,"name":"Wyro","steam_id":76561199176835169,"connected_time":6000000000,"state":"spawning","ping":53},{"user_id":96,"name":"vroomvroom","steam_id":76561199117720299,"connected_time":251000000000,"state":"active","ping":97},{"user_id":84,"name":"coygus","steam_id":76561198071751994,"connected_time":1690000000000,"state":"active","ping":54},{"user_id":98,"name":"Big Spoon","steam_id":76561199247250436,"connected_time":5000000000,"state":"spawning","ping":56}]},{"server_id":114,"name":"Uncletopia | London | 2 | All Maps","name_short":"lon-2","host":"lon-1.uk.uncletopia.com","port":27025,"enabled":true,"region":"eu","cc":"gb","latitude":51.509865,"longitude":-0.118092,"reserved":0,"last_update":"0001-01-01T00:00:00Z","name_a2s":"Uncletopia | London | 2 | All Maps","protocol":17,"map":"koth_viaduct","folder":"tf","game":"Team Fortress","app_id":440,"player_count":0,"max_players":24,"Bots":0,"server_type":"Dedicated","server_os":"Linux","password":true,"vac":true,"version":"7757534","steam_id":85568392924470941,"keywords":["cp","nocrits","nodmgspread","uncletopia"],"game_id":440,"stv_port":27026,"stv_name":"Uncletopia | London | 2 | All Maps | STV","players":null},{"server_id":320,"name":"Uncletopia | London | 3 | All Maps","name_short":"lon-3","host":"lon-1.uk.uncletopia.com","port":27035,"enabled":true,"region":"eu","cc":"gb","latitude":51.509865,"longitude":-0.118092,"reserved":0,"last_update":"0001-01-01T00:00:00Z","name_a2s":"Uncletopia | London | 3 | All Maps","protocol":17,"map":"cp_dustbowl","folder":"tf","game":"Team Fortress","app_id":440,"player_count":0,"max_players":24,"Bots":0,"server_type":"Dedicated","server_os":"Linux","password":true,"vac":true,"version":"7757534","steam_id":85568392924510192,"keywords":["cp","nocrits","nodmgspread","uncletopia"],"game_id":440,"stv_port":27036,"stv_name":"Uncletopia | London | 3 | All Maps | STV","players":null},{"server_id":321,"name":"Uncletopia | London | 4 | All Maps","name_short":"lon-4","host":"lon-1.uk.uncletopia.com","port":27045,"enabled":true,"region":"eu","cc":"gb","latitude":51.509865,"longitude":-0.118092,"reserved":0,"last_update":"0001-01-01T00:00:00Z","name_a2s":"Uncletopia | London | 4 | All Maps","protocol":17,"map":"koth_highpass","folder":"tf","game":"Team Fortress","app_id":440,"player_count":7,"max_players":24,"Bots":0,"server_type":"Dedicated","server_os":"Linux","password":true,"vac":true,"version":"7757534","steam_id":85568392924510193,"keywords":["cp","nocrits","nodmgspread","uncletopia"],"game_id":440,"stv_port":27046,"stv_name":"Uncletopia | London | 4 | All Maps | STV","players":[{"user_id":21,"name":"Truegr","steam_id":76561198811912339,"connected_time":1412000000000,"state":"active","ping":79},{"user_id":22,"name":"fried","steam_id":76561198307522022,"connected_time":1397000000000,"state":"active","ping":53},{"user_id":25,"name":"TheViper","steam_id":76561199220156752,"connected_time":731000000000,"state":"active","ping":64},{"user_id":30,"name":"AshPhrog","steam_id":76561198247132442,"connected_time":174000000000,"state":"active","ping":29},{"user_id":28,"name":"Ember (she/her) gaymer","steam_id":76561199403820517,"connected_time":481000000000,"state":"active","ping":54},{"user_id":29,"name":"Silva_mlon","steam_id":76561199310242047,"connected_time":359000000000,"state":"active","ping":60},{"user_id":31,"name":"GMsU | Rebikas","steam_id":76561198077053764,"connected_time":118000000000,"state":"active","ping":46}]},{"server_id":21,"name":"Uncletopia | London | 5 | All Maps","name_short":"lon-5","host":"lon-1.uk.uncletopia.com","port":27055,"enabled":true,"region":"eu","cc":"gb","latitude":51.509865,"longitude":-0.118092,"reserved":0,"last_update":"0001-01-01T00:00:00Z","name_a2s":"Uncletopia | London | 5 | All Maps","protocol":17,"map":"cp_altitude","folder":"tf","game":"Team Fortress","app_id":440,"player_count":0,"max_players":24,"Bots":0,"server_type":"Dedicated","server_os":"Linux","password":true,"vac":true,"version":"7757534","steam_id":85568392924742829,"keywords":["cp","nocrits","nodmgspread","uncletopia"],"game_id":440,"stv_port":27056,"stv_name":"Uncletopia | London | 5 | All Maps | STV","players":null},{"server_id":22,"name":"Uncletopia | London | 6 | All Maps","name_short":"lon-6","host":"lon-1.uk.uncletopia.com","port":27065,"enabled":true,"region":"eu","cc":"gb","latitude":51.509865,"longitude":-0.118092,"reserved":0,"last_update":"0001-01-01T00:00:00Z","name_a2s":"Uncletopia | London | 6 | All Maps","protocol":17,"map":"pl_pier","folder":"tf","game":"Team Fortress","app_id":440,"player_count":0,"max_players":24,"Bots":0,"server_type":"Dedicated","server_os":"Linux","password":true,"vac":true,"version":"7757534","steam_id":85568392924742830,"keywords":["nocrits","nodmgspread","payload","uncletopia"],"game_id":440,"stv_port":27066,"stv_name":"Uncletopia | London | 6 | All Maps | STV","players":null},{"server_id":40,"name":"Uncletopia | London | 7 | No Payload","name_short":"lon-7","host":"lon-1.uk.uncletopia.com","port":27075,"enabled":true,"region":"eu","cc":"gb","latitude":51.509865,"longitude":-0.118092,"reserved":0,"last_update":"0001-01-01T00:00:00Z","name_a2s":"Uncletopia | London | 7 | No Payload","protocol":17,"map":"cp_junction_final","folder":"tf","game":"Team Fortress","app_id":440,"player_count":0,"max_players":24,"Bots":0,"server_type":"Dedicated","server_os":"Linux","password":true,"vac":true,"version":"7757534","steam_id":85568392924964314,"keywords":["cp","nocrits","nodmgspread","uncletopia"],"game_id":440,"stv_port":27076,"stv_name":"Uncletopia | London | 7 | No Payload | STV","players":null},{"server_id":41,"name":"Uncletopia | London | 8 | Community","name_short":"lon-8","host":"lon-1.uk.uncletopia.com","port":27085,"enabled":true,"region":"eu","cc":"gb","latitude":51.509865,"longitude":-0.118092,"reserved":0,"last_update":"0001-01-01T00:00:00Z","name_a2s":"Uncletopia | London | 8 | Community","protocol":17,"map":"pl_barnblitz","folder":"tf","game":"Team Fortress","app_id":440,"player_count":0,"max_players":24,"Bots":0,"server_type":"Dedicated","server_os":"Linux","password":true,"vac":true,"version":"7757534","steam_id":85568392924964315,"keywords":["nocrits","nodmgspread","payload","uncletopia"],"game_id":440,"stv_port":27086,"stv_name":"Uncletopia | London | 8 | Community | STV","players":null},{"server_id":300,"name":"Uncletopia | Montréal | 1 | All Maps","name_short":"mtl-1","host":"mtl-1.ca.uncletopia.com","port":27015,"enabled":true,"region":"us-east","cc":"ca","latitude":45.50889,"longitude":-73.56167,"reserved":0,"last_update":"0001-01-01T00:00:00Z","name_a2s":"Uncletopia | Montréal | 1 | All Maps","protocol":17,"map":"pl_upward","folder":"tf","game":"Team Fortress","app_id":440,"player_count":0,"max_players":24,"Bots":0,"server_type":"Dedicated","server_os":"Linux","password":true,"vac":true,"version":"7757534","steam_id":85568392924500087,"keywords":["nocrits","nodmgspread","payload","uncletopia"],"game_id":440,"stv_port":27016,"stv_name":"Uncletopia | Montréal | 1 | All Maps | STV","players":null},{"server_id":301,"name":"Uncletopia | Montréal | 2 | All Maps","name_short":"mtl-2","host":"mtl-1.ca.uncletopia.com","port":27025,"enabled":true,"region":"us-east","cc":"ca","latitude":45.50889,"longitude":-73.56167,"reserved":0,"last_update":"0001-01-01T00:00:00Z","name_a2s":"Uncletopia | Montréal | 2 | All Maps","protocol":17,"map":"pl_snowycoast","folder":"tf","game":"Team Fortress","app_id":440,"player_count":0,"max_players":24,"Bots":0,"server_type":"Dedicated","server_os":"Linux","password":true,"vac":true,"version":"7757534","steam_id":85568392924500088,"keywords":["nocrits","nodmgspread","payload","uncletopia"],"game_id":440,"stv_port":27026,"stv_name":"Uncletopia | Montréal | 2 | All Maps | STV","players":null},{"server_id":302,"name":"Uncletopia | Montréal | 3 | All Maps","name_short":"mtl-3","host":"mtl-1.ca.uncletopia.com","port":27035,"enabled":true,"region":"us-east","cc":"ca","latitude":45.50889,"longitude":-73.56167,"reserved":0,"last_update":"0001-01-01T00:00:00Z","name_a2s":"Uncletopia | Montréal | 3 | All Maps","protocol":17,"map":"pl_swiftwater_final1","folder":"tf","game":"Team Fortress","app_id":440,"player_count":0,"max_players":24,"Bots":0,"server_type":"Dedicated","server_os":"Linux","password":true,"vac":true,"version":"7757534","steam_id":85568392924500089,"keywords":["nocrits","nodmgspread","payload","uncletopia"],"game_id":440,"stv_port":27036,"stv_name":"Uncletopia | Montréal | 3 | All Maps | STV","players":null},{"server_id":303,"name":"Uncletopia | Montréal | 4 | No Payload","name_short":"mtl-4","host":"mtl-1.ca.uncletopia.com","port":27045,"enabled":true,"region":"us-east","cc":"ca","latitude":45.50889,"longitude":-73.56167,"reserved":0,"last_update":"0001-01-01T00:00:00Z","name_a2s":"Uncletopia | Montréal | 4 | No Payload","protocol":17,"map":"pl_pier","folder":"tf","game":"Team Fortress","app_id":440,"player_count":0,"max_players":24,"Bots":0,"server_type":"Dedicated","server_os":"Linux","password":true,"vac":true,"version":"7757534","steam_id":85568392924500090,"keywords":["nocrits","nodmgspread","payload","uncletopia"],"game_id":440,"stv_port":27046,"stv_name":"Uncletopia | Montréal | 4 | No Payload | STV","players":null},{"server_id":13,"name":"Uncletopia | New York City | 1 | All Maps","name_short":"nyc-1","host":"nyc-1.us.uncletopia.com","port":27015,"enabled":true,"region":"us-east","cc":"us","latitude":40.73061,"longitude":-73.93524,"reserved":0,"last_update":"0001-01-01T00:00:00Z","name_a2s":"Uncletopia | New York City | 1 | All Maps","protocol":17,"map":"koth_viaduct","folder":"tf","game":"Team Fortress","app_id":440,"player_count":0,"max_players":24,"Bots":0,"server_type":"Dedicated","server_os":"Linux","password":true,"vac":true,"version":"7757534","steam_id":85568392924469993,"keywords":["cp","nocrits","nodmgspread","uncletopia"],"game_id":440,"stv_port":27016,"stv_name":"Uncletopia | New York City | 1 | All Maps | STV","players":null},{"server_id":14,"name":"Uncletopia | New York City | 2 | All Maps","name_short":"nyc-2","host":"nyc-1.us.uncletopia.com","port":27025,"enabled":true,"region":"us-east","cc":"us","latitude":40.73061,"longitude":-73.93524,"reserved":0,"last_update":"0001-01-01T00:00:00Z","name_a2s":"Uncletopia | New York City | 2 | All Maps","protocol":17,"map":"pl_badwater","folder":"tf","game":"Team Fortress","app_id":440,"player_count":0,"max_players":24,"Bots":0,"server_type":"Dedicated","server_os":"Linux","password":true,"vac":true,"version":"7757534","steam_id":85568392924469994,"keywords":["nocrits","nodmgspread","payload","uncletopia"],"game_id":440,"stv_port":27026,"stv_name":"Uncletopia | New York City | 2 | All Maps | STV","players":null},{"server_id":15,"name":"Uncletopia | New York City | 3 | Stopwatch Beta","name_short":"nyc-3","host":"nyc-1.us.uncletopia.com","port":27035,"enabled":true,"region":"us-east","cc":"us","latitude":40.73061,"longitude":-73.93524,"reserved":0,"last_update":"0001-01-01T00:00:00Z","name_a2s":"Uncletopia | New York City | 3 | Stopwatch Beta","protocol":17,"map":"pl_upward","folder":"tf","game":"Team Fortress","app_id":440,"player_count":0,"max_players":24,"Bots":0,"server_type":"Dedicated","server_os":"Linux","password":true,"vac":true,"version":"7757534","steam_id":85568392924742820,"keywords":["nocrits","nodmgspread","payload","uncletopia"],"game_id":440,"stv_port":27036,"stv_name":"Uncletopia | New York City | 3 | Stopwatch Beta | STV","players":null},{"server_id":16,"name":"Uncletopia | New York City | 4 | Community","name_short":"nyc-4","host":"nyc-1.us.uncletopia.com","port":27045,"enabled":true,"region":"us-east","cc":"us","latitude":40.73061,"longitude":-73.93524,"reserved":0,"last_update":"0001-01-01T00:00:00Z","name_a2s":"Uncletopia | New York City | 4 | Community","protocol":17,"map":"pl_swiftwater_final1","folder":"tf","game":"Team Fortress","app_id":440,"player_count":0,"max_players":24,"Bots":0,"server_type":"Dedicated","server_os":"Linux","password":true,"vac":true,"version":"7757534","steam_id":85568392924742821,"keywords":["nocrits","nodmgspread","payload","uncletopia"],"game_id":440,"stv_port":27046,"stv_name":"Uncletopia | New York City | 4 | Community | STV","players":null},{"server_id":142,"name":"Uncletopia | São Paulo | 1 | All Maps","name_short":"sao-1","host":"sao-1.br.uncletopia.com","port":27015,"enabled":true,"region":"sa","cc":"br","latitude":-23.533773,"longitude":-46.62529,"reserved":0,"last_update":"0001-01-01T00:00:00Z","name_a2s":"Uncletopia | São Paulo | 1 | All Maps","protocol":17,"map":"koth_lakeside_final","folder":"tf","game":"Team Fortress","app_id":440,"player_count":0,"max_players":24,"Bots":0,"server_type":"Dedicated","server_os":"Linux","password":true,"vac":true,"version":"7757534","steam_id":85568392924469996,"keywords":["cp","nocrits","nodmgspread","uncletopia"],"game_id":440,"stv_port":27016,"stv_name":"Uncletopia | São Paulo | 1 | All Maps | STV","players":null},{"server_id":143,"name":"Uncletopia | São Paulo | 2 | All Maps","name_short":"sao-2","host":"sao-2.br.uncletopia.com","port":27015,"enabled":true,"region":"sa","cc":"br","latitude":-23.533773,"longitude":-46.62529,"reserved":0,"last_update":"0001-01-01T00:00:00Z","name_a2s":"Uncletopia | São Paulo | 2 | All Maps","protocol":17,"map":"pl_borneo","folder":"tf","game":"Team Fortress","app_id":440,"player_count":0,"max_players":24,"Bots":0,"server_type":"Dedicated","server_os":"Linux","password":true,"vac":true,"version":"7757534","steam_id":85568392924485349,"keywords":["nocrits","nodmgspread","payload","uncletopia"],"game_id":440,"stv_port":27016,"stv_name":"Uncletopia | São Paulo | 2 | All Maps | STV","players":null},{"server_id":7,"name":"Uncletopia | Seattle | 1 | All Maps","name_short":"sea-1","host":"sea-1.us.uncletopia.com","port":27015,"enabled":true,"region":"us-west","cc":"us","latitude":47.608013,"longitude":-122.33517,"reserved":0,"last_update":"0001-01-01T00:00:00Z","name_a2s":"Uncletopia | Seattle | 1 | All Maps","protocol":17,"map":"pl_pier","folder":"tf","game":"Team Fortress","app_id":440,"player_count":23,"max_players":24,"Bots":0,"server_type":"Dedicated","server_os":"Linux","password":true,"vac":true,"version":"7757534","steam_id":85568392924469997,"keywords":["nocrits","nodmgspread","payload","uncletopia"],"game_id":440,"stv_port":27016,"stv_name":"Uncletopia | Seattle | 1 | All Maps | STV","players":[{"user_id":876,"name":"Herr Medic","steam_id":76561198085447428,"connected_time":345000000000,"state":"active","ping":161},{"user_id":852,"name":"Sacrificial Wormy","steam_id":76561198054539200,"connected_time":2576000000000,"state":"active","ping":45},{"user_id":842,"name":"ibu","steam_id":76561197968084065,"connected_time":3058000000000,"state":"active","ping":52},{"user_id":878,"name":"Maho","steam_id":76561199076491805,"connected_time":175000000000,"state":"active","ping":89},{"user_id":865,"name":"Yes.","steam_id":76561199012696743,"connected_time":1344000000000,"state":"active","ping":72},{"user_id":864,"name":"Akustin","steam_id":76561198110015463,"connected_time":1357000000000,"state":"active","ping":78},{"user_id":879,"name":"Imitation Caucasian","steam_id":76561198320536166,"connected_time":79000000000,"state":"active","ping":88},{"user_id":821,"name":"BeansMan","steam_id":76561198349672838,"connected_time":5852000000000,"state":"active","ping":122},{"user_id":859,"name":"xX_BUTTERMILK_Xx","steam_id":76561198127660439,"connected_time":1922000000000,"state":"active","ping":86},{"user_id":840,"name":"blizz","steam_id":76561199139715539,"connected_time":3454000000000,"state":"active","ping":55},{"user_id":788,"name":"Rain","steam_id":76561198065612273,"connected_time":9022000000000,"state":"active","ping":46},{"user_id":843,"name":"rorywashere /ᐠ - ˕ -マ Ⳋ","steam_id":76561198065825165,"connected_time":3052000000000,"state":"active","ping":103},{"user_id":880,"name":"DjBallBag","steam_id":76561198118551080,"connected_time":66000000000,"state":"active","ping":128},{"user_id":856,"name":"Hammy","steam_id":76561198113502549,"connected_time":2004000000000,"state":"active","ping":78},{"user_id":870,"name":"Shochu Fiend","steam_id":76561198055193376,"connected_time":848000000000,"state":"active","ping":75},{"user_id":871,"name":"CheeseCake488","steam_id":76561199407617942,"connected_time":790000000000,"state":"active","ping":139},{"user_id":847,"name":"El Duderino","steam_id":76561199427900685,"connected_time":2883000000000,"state":"active","ping":89},{"user_id":873,"name":"psy·cho·so·cial","steam_id":76561197962696818,"connected_time":647000000000,"state":"active","ping":120},{"user_id":831,"name":"AWRD","steam_id":76561198110350838,"connected_time":5019000000000,"state":"active","ping":64},{"user_id":881,"name":"Solifuga","steam_id":76561198119569902,"connected_time":47000000000,"state":"active","ping":45},{"user_id":768,"name":"AzuriousAlex","steam_id":76561198158026405,"connected_time":11030000000000,"state":"active","ping":86},{"user_id":806,"name":"toilet thief","steam_id":76561198057486874,"connected_time":7529000000000,"state":"active","ping":75},{"user_id":861,"name":"They/Them Rattussy","steam_id":76561198238186628,"connected_time":1878000000000,"state":"active","ping":75}]},{"server_id":119,"name":"Uncletopia | Seattle | 2 | All Maps","name_short":"sea-2","host":"sea-1.us.uncletopia.com","port":27025,"enabled":true,"region":"us-west","cc":"us","latitude":47.608013,"longitude":-122.33517,"reserved":0,"last_update":"0001-01-01T00:00:00Z","name_a2s":"Uncletopia | Seattle | 2 | All Maps","protocol":17,"map":"pl_borneo","folder":"tf","game":"Team Fortress","app_id":440,"player_count":0,"max_players":24,"Bots":0,"server_type":"Dedicated","server_os":"Linux","password":true,"vac":true,"version":"7757534","steam_id":85568392924469998,"keywords":["nocrits","nodmgspread","payload","uncletopia"],"game_id":440,"stv_port":27026,"stv_name":"Uncletopia | Seattle | 2 | All Maps | STV","players":null},{"server_id":406,"name":"Uncletopia | Seattle | 3 | Stopwatch Beta","name_short":"sea-3","host":"sea-1.us.uncletopia.com","port":27035,"enabled":true,"region":"us-west","cc":"us","latitude":47.608013,"longitude":-122.33517,"reserved":0,"last_update":"0001-01-01T00:00:00Z","name_a2s":"Uncletopia | Seattle | 3 | Stopwatch Beta","protocol":17,"map":"workshop/pl_vigil_rc9.ugc1266210012","folder":"tf","game":"Team Fortress","app_id":440,"player_count":0,"max_players":24,"Bots":0,"server_type":"Dedicated","server_os":"Linux","password":true,"vac":true,"version":"7757534","steam_id":85568392924515217,"keywords":["nocrits","nodmgspread","payload","uncletopia"],"game_id":440,"stv_port":27036,"stv_name":"Uncletopia | Seattle | 3 | Stopwatch Beta | STV","players":null},{"server_id":17,"name":"Uncletopia | San Francisco | 1 | All Maps","name_short":"sfo-1","host":"sfo-1.us.uncletopia.com","port":27015,"enabled":true,"region":"us-west","cc":"us","latitude":37.77397,"longitude":-122.4313,"reserved":0,"last_update":"0001-01-01T00:00:00Z","name_a2s":"Uncletopia | San Francisco | 1 | All Maps","protocol":17,"map":"pl_snowycoast","folder":"tf","game":"Team Fortress","app_id":440,"player_count":24,"max_players":24,"Bots":0,"server_type":"Dedicated","server_os":"Linux","password":true,"vac":true,"version":"7757534","steam_id":85568392924469999,"keywords":["nocrits","nodmgspread","payload","uncletopia"],"game_id":440,"stv_port":27016,"stv_name":"Uncletopia | San Francisco | 1 | All Maps | STV","players":[{"user_id":894,"name":"🤨","steam_id":76561199365672047,"connected_time":806000000000,"state":"active","ping":139},{"user_id":895,"name":"Coinclever","steam_id":76561198099972692,"connected_time":775000000000,"state":"active","ping":101},{"user_id":901,"name":"Papa Panda","steam_id":76561198159061475,"connected_time":277000000000,"state":"active","ping":59},{"user_id":853,"name":"⧉New Player","steam_id":76561198120814242,"connected_time":4562000000000,"state":"active","ping":48},{"user_id":889,"name":"devion882","steam_id":76561198379034429,"connected_time":1654000000000,"state":"active","ping":86},{"user_id":892,"name":"PN","steam_id":76561198889660451,"connected_time":1118000000000,"state":"active","ping":63},{"user_id":879,"name":"cutebug17","steam_id":76561198058193083,"connected_time":2904000000000,"state":"active","ping":55},{"user_id":844,"name":"Maxx","steam_id":76561198045405304,"connected_time":4730000000000,"state":"active","ping":72},{"user_id":900,"name":"Fluffy \u003c3 [HUGS]","steam_id":76561198119444962,"connected_time":453000000000,"state":"active","ping":77},{"user_id":864,"name":"Oh No! It's Twister!","steam_id":76561198016791916,"connected_time":4063000000000,"state":"active","ping":100},{"user_id":850,"name":"Mak","steam_id":76561198089197922,"connected_time":4642000000000,"state":"active","ping":75},{"user_id":880,"name":"not jeff bezos","steam_id":76561198018177887,"connected_time":2894000000000,"state":"active","ping":47},{"user_id":881,"name":"klopse","steam_id":76561198314981454,"connected_time":2873000000000,"state":"active","ping":102},{"user_id":899,"name":"SuperSandwichGoku","steam_id":76561198438882159,"connected_time":505000000000,"state":"active","ping":105},{"user_id":874,"name":"Tele Guardian","steam_id":76561198071790583,"connected_time":3179000000000,"state":"active","ping":102},{"user_id":876,"name":"Spruce","steam_id":76561198081684676,"connected_time":3077000000000,"state":"active","ping":77},{"user_id":857,"name":"Cornsauce","steam_id":76561198085007342,"connected_time":4504000000000,"state":"active","ping":49},{"user_id":858,"name":"selvhat","steam_id":76561198114225509,"connected_time":4500000000000,"state":"active","ping":55},{"user_id":859,"name":"00","steam_id":76561198041700636,"connected_time":4490000000000,"state":"active","ping":44},{"user_id":860,"name":"Bolbs","steam_id":76561198179880237,"connected_time":4490000000000,"state":"active","ping":56},{"user_id":885,"name":"happy camper","steam_id":76561198209813328,"connected_time":2519000000000,"state":"active","ping":81},{"user_id":875,"name":"smartfrog21","steam_id":76561198063099828,"connected_time":3154000000000,"state":"active","ping":103},{"user_id":891,"name":"【ℭℴℰ】An_Apple","steam_id":76561198054324087,"connected_time":1393000000000,"state":"active","ping":127},{"user_id":886,"name":"Frakelord","steam_id":76561197970316904,"connected_time":2511000000000,"state":"active","ping":66}]},{"server_id":18,"name":"Uncletopia | San Francisco | 2 | All Maps","name_short":"sfo-2","host":"sfo-1.us.uncletopia.com","port":27025,"enabled":true,"region":"us-west","cc":"us","latitude":37.77397,"longitude":-122.4313,"reserved":0,"last_update":"0001-01-01T00:00:00Z","name_a2s":"Uncletopia | San Francisco | 2 | All Maps","protocol":17,"map":"pl_snowycoast","folder":"tf","game":"Team Fortress","app_id":440,"player_count":0,"max_players":24,"Bots":0,"server_type":"Dedicated","server_os":"Linux","password":true,"vac":true,"version":"7757534","steam_id":85568392924470000,"keywords":["nocrits","nodmgspread","payload","uncletopia"],"game_id":440,"stv_port":27026,"stv_name":"Uncletopia | San Francisco | 2 | All Maps | STV","players":null},{"server_id":19,"name":"Uncletopia | San Francisco | 3 | Stopwatch Beta","name_short":"sfo-3","host":"sfo-1.us.uncletopia.com","port":27035,"enabled":true,"region":"us-west","cc":"us","latitude":37.77397,"longitude":-122.4313,"reserved":0,"last_update":"0001-01-01T00:00:00Z","name_a2s":"Uncletopia | San Francisco | 3 | Stopwatch Beta","protocol":17,"map":"workshop/pl_summercoast_rc8e.ugc1761528829","folder":"tf","game":"Team Fortress","app_id":440,"player_count":0,"max_players":24,"Bots":0,"server_type":"Dedicated","server_os":"Linux","password":true,"vac":true,"version":"7757534","steam_id":85568392924742824,"keywords":["nocrits","nodmgspread","payload","uncletopia"],"game_id":440,"stv_port":27036,"stv_name":"Uncletopia | San Francisco | 3 | Stopwatch Beta | STV","players":null},{"server_id":20,"name":"Uncletopia | San Francisco | 4 | Community","name_short":"sfo-4","host":"sfo-1.us.uncletopia.com","port":27045,"enabled":true,"region":"us-west","cc":"us","latitude":37.77397,"longitude":-122.4313,"reserved":0,"last_update":"0001-01-01T00:00:00Z","name_a2s":"Uncletopia | San Francisco | 4 | Community","protocol":17,"map":"workshop/cp_villa_b19.ugc2113052569","folder":"tf","game":"Team Fortress","app_id":440,"player_count":0,"max_players":24,"Bots":0,"server_type":"Dedicated","server_os":"Linux","password":true,"vac":true,"version":"7757534","steam_id":85568392924742826,"keywords":["cp","nocrits","nodmgspread","uncletopia"],"game_id":440,"stv_port":27046,"stv_name":"Uncletopia | San Francisco | 4 | Community | STV","players":null},{"server_id":141,"name":"Uncletopia | Sydney | 1 | All Maps","name_short":"syd-1","host":"syd-1.au.uncletopia.com","port":27015,"enabled":true,"region":"au","cc":"au","latitude":-33.865143,"longitude":151.2099,"reserved":0,"last_update":"0001-01-01T00:00:00Z","name_a2s":"Uncletopia | Sydney | 1 | All Maps","protocol":17,"map":"pl_barnblitz","folder":"tf","game":"Team Fortress","app_id":440,"player_count":20,"max_players":24,"Bots":0,"server_type":"Dedicated","server_os":"Linux","password":true,"vac":true,"version":"7757534","steam_id":85568392924470001,"keywords":["nocrits","nodmgspread","payload","uncletopia"],"game_id":440,"stv_port":27016,"stv_name":"Uncletopia | Sydney | 1 | All Maps | STV","players":[{"user_id":539,"name":"Morterkai","steam_id":76561198048247068,"connected_time":1955000000000,"state":"active","ping":58},{"user_id":553,"name":"Bill Nye","steam_id":76561198312898168,"connected_time":1391000000000,"state":"active","ping":57},{"user_id":568,"name":"KILLER WHALES","steam_id":76561198012422705,"connected_time":573000000000,"state":"active","ping":53},{"user_id":561,"name":"hiccups","steam_id":76561198118878082,"connected_time":945000000000,"state":"active","ping":56},{"user_id":403,"name":"EpicGuy4227","steam_id":76561198094132328,"connected_time":11319000000000,"state":"active","ping":52},{"user_id":571,"name":"ʰᵉˡᵖ","steam_id":76561199015579760,"connected_time":213000000000,"state":"active","ping":51},{"user_id":542,"name":"Batering","steam_id":76561198039849442,"connected_time":1747000000000,"state":"active","ping":49},{"user_id":528,"name":"ahhhhhhhhh","steam_id":76561198083700749,"connected_time":2973000000000,"state":"active","ping":58},{"user_id":563,"name":"RA RA","steam_id":76561198361139900,"connected_time":881000000000,"state":"active","ping":60},{"user_id":506,"name":"BitLauncher","steam_id":76561198070992305,"connected_time":4277000000000,"state":"active","ping":45},{"user_id":566,"name":"bugman54","steam_id":76561197963360921,"connected_time":693000000000,"state":"active","ping":90},{"user_id":514,"name":"Celph","steam_id":76561197993987500,"connected_time":4089000000000,"state":"active","ping":48},{"user_id":567,"name":"DragRiper","steam_id":76561198050917553,"connected_time":684000000000,"state":"active","ping":57},{"user_id":523,"name":"Dimond_bird","steam_id":76561199129051643,"connected_time":3313000000000,"state":"active","ping":54},{"user_id":543,"name":"speed bomb","steam_id":76561198277363788,"connected_time":1744000000000,"state":"active","ping":68},{"user_id":569,"name":"LightningBlock","steam_id":76561198289997742,"connected_time":571000000000,"state":"active","ping":35},{"user_id":560,"name":"jone","steam_id":76561198285234796,"connected_time":1027000000000,"state":"active","ping":80},{"user_id":572,"name":"Apologetic Funyarinpa","steam_id":76561198091447998,"connected_time":118000000000,"state":"active","ping":81},{"user_id":555,"name":"krandlez` (Any/All)","steam_id":76561198044839726,"connected_time":1364000000000,"state":"active","ping":45},{"user_id":544,"name":"piratespy22","steam_id":76561198042198744,"connected_time":1742000000000,"state":"active","ping":58}]},{"server_id":123,"name":"Uncletopia | Sydney | 2 | All Maps","name_short":"syd-2","host":"syd-1.au.uncletopia.com","port":27025,"enabled":true,"region":"au","cc":"au","latitude":-33.865143,"longitude":151.2099,"reserved":0,"last_update":"0001-01-01T00:00:00Z","name_a2s":"Uncletopia | Sydney | 2 | All Maps","protocol":17,"map":"pl_goldrush","folder":"tf","game":"Team Fortress","app_id":440,"player_count":18,"max_players":24,"Bots":0,"server_type":"Dedicated","server_os":"Linux","password":true,"vac":true,"version":"7757534","steam_id":85568392924470002,"keywords":["nocrits","nodmgspread","payload","uncletopia"],"game_id":440,"stv_port":27026,"stv_name":"Uncletopia | Sydney | 2 | All Maps | STV","players":[{"user_id":305,"name":"Thrombus","steam_id":76561199174206703,"connected_time":1354000000000,"state":"active","ping":57},{"user_id":312,"name":"Litfamm123","steam_id":76561199248402833,"connected_time":1211000000000,"state":"active","ping":54},{"user_id":325,"name":"bitch furry","steam_id":76561199057568663,"connected_time":274000000000,"state":"active","ping":59},{"user_id":288,"name":"Good Australian Doctor","steam_id":76561198175470231,"connected_time":2217000000000,"state":"active","ping":99},{"user_id":300,"name":"hive","steam_id":76561199099744527,"connected_time":1518000000000,"state":"active","ping":45},{"user_id":268,"name":"Corrupt","steam_id":76561198008567328,"connected_time":3745000000000,"state":"active","ping":68},{"user_id":301,"name":"Kouler","steam_id":76561197960804719,"connected_time":1490000000000,"state":"active","ping":68},{"user_id":311,"name":"FreeBeers","steam_id":76561198095448607,"connected_time":1220000000000,"state":"active","ping":67},{"user_id":316,"name":"Captain Canadia","steam_id":76561198167967735,"connected_time":632000000000,"state":"active","ping":54},{"user_id":294,"name":"Phobia²","steam_id":76561198038833524,"connected_time":1896000000000,"state":"active","ping":55},{"user_id":298,"name":"Nyatalie :3","steam_id":76561199440190709,"connected_time":1700000000000,"state":"active","ping":62},{"user_id":328,"name":"Luden","steam_id":76561198069165922,"connected_time":72000000000,"state":"active","ping":68},{"user_id":324,"name":"danny","steam_id":76561198086505336,"connected_time":425000000000,"state":"active","ping":121},{"user_id":318,"name":"Sancho","steam_id":76561197995288524,"connected_time":532000000000,"state":"active","ping":77},{"user_id":326,"name":"Top Ramen","steam_id":76561198028969833,"connected_time":224000000000,"state":"active","ping":59},{"user_id":320,"name":"Ethos","steam_id":76561197970514852,"connected_time":498000000000,"state":"active","ping":63},{"user_id":329,"name":"Mbappe Oppa","steam_id":76561198344513761,"connected_time":33000000000,"state":"active","ping":41},{"user_id":269,"name":"Apteryx","steam_id":76561197976460834,"connected_time":3719000000000,"state":"active","ping":60}]},{"server_id":395,"name":"Uncletopia | Sydney | 3 | All Maps","name_short":"syd-3","host":"syd-1.au.uncletopia.com","port":27035,"enabled":true,"region":"au","cc":"au","latitude":-33.865143,"longitude":151.2099,"reserved":0,"last_update":"0001-01-01T00:00:00Z","name_a2s":"Uncletopia | Sydney | 3 | All Maps","protocol":17,"map":"pl_frontier_final","folder":"tf","game":"Team Fortress","app_id":440,"player_count":0,"max_players":24,"Bots":0,"server_type":"Dedicated","server_os":"Linux","password":true,"vac":true,"version":"7757534","steam_id":85568392925194467,"keywords":["nocrits","nodmgspread","payload","uncletopia"],"game_id":440,"stv_port":27036,"stv_name":"Uncletopia | Sydney | 3 | All Maps | STV","players":null},{"server_id":396,"name":"Uncletopia | Sydney | 4 | All Maps","name_short":"syd-4","host":"syd-1.au.uncletopia.com","port":27045,"enabled":true,"region":"au","cc":"au","latitude":-33.865143,"longitude":151.2099,"reserved":0,"last_update":"0001-01-01T00:00:00Z","name_a2s":"Uncletopia | Sydney | 4 | All Maps","protocol":17,"map":"koth_cascade","folder":"tf","game":"Team Fortress","app_id":440,"player_count":3,"max_players":24,"Bots":0,"server_type":"Dedicated","server_os":"Linux","password":true,"vac":true,"version":"7757534","steam_id":85568392925397958,"keywords":["cp","nocrits","nodmgspread","uncletopia"],"game_id":440,"stv_port":27046,"stv_name":"Uncletopia | Sydney | 4 | All Maps | STV","players":[{"user_id":32,"name":"Daniel Chong","steam_id":76561199009189725,"connected_time":798000000000,"state":"active","ping":56},{"user_id":30,"name":"Luscious_Lucifer","steam_id":76561198064993980,"connected_time":2119000000000,"state":"active","ping":103},{"user_id":31,"name":"SoundlessPlum","steam_id":76561198077872547,"connected_time":1335000000000,"state":"active","ping":53}]},{"server_id":58,"name":"Uncletopia | Sydney | 5 | Stopwatch Beta","name_short":"syd-5","host":"syd-1.au.uncletopia.com","port":27055,"enabled":true,"region":"au","cc":"au","latitude":-33.865143,"longitude":151.2099,"reserved":0,"last_update":"0001-01-01T00:00:00Z","name_a2s":"Uncletopia | Sydney | 5 | Stopwatch Beta","protocol":17,"map":"cp_process_final","folder":"tf","game":"Team Fortress","app_id":440,"player_count":0,"max_players":24,"Bots":0,"server_type":"Dedicated","server_os":"Linux","password":true,"vac":true,"version":"7757534","steam_id":85568392925397959,"keywords":["cp","nocrits","nodmgspread","uncletopia"],"game_id":440,"stv_port":27056,"stv_name":"Uncletopia | Sydney | 5 | Stopwatch Beta | STV","players":null},{"server_id":59,"name":"Uncletopia | Sydney | 6 | Community","name_short":"syd-6","host":"syd-1.au.uncletopia.com","port":27065,"enabled":true,"region":"au","cc":"au","latitude":-33.865143,"longitude":151.2099,"reserved":0,"last_update":"0001-01-01T00:00:00Z","name_a2s":"Uncletopia | Sydney | 6 | Community","protocol":17,"map":"workshop/cp_fulgur_rc2a.ugc2068252300","folder":"tf","game":"Team Fortress","app_id":440,"player_count":0,"max_players":24,"Bots":0,"server_type":"Dedicated","server_os":"Linux","password":true,"vac":true,"version":"7757534","steam_id":85568392925397960,"keywords":["cp","nocrits","nodmgspread","uncletopia"],"game_id":440,"stv_port":27066,"stv_name":"Uncletopia | Sydney | 6 | Community | STV","players":null},{"server_id":49,"name":"Uncletopia | Warsaw | 1 | All Maps","name_short":"waw-1","host":"waw-1.pl.uncletopia.com","port":27015,"enabled":true,"region":"eu","cc":"pl","latitude":52.2297,"longitude":21.017532,"reserved":0,"last_update":"0001-01-01T00:00:00Z","name_a2s":"","protocol":0,"map":"","folder":"","game":"","app_id":0,"player_count":0,"max_players":0,"Bots":0,"server_type":"","server_os":"","password":false,"vac":false,"version":"","steam_id":0,"keywords":null,"game_id":0,"stv_port":0,"stv_name":"","players":null},{"server_id":50,"name":"Uncletopia | Warsaw | 2 | All Maps","name_short":"waw-2","host":"waw-1.pl.uncletopia.com","port":27025,"enabled":true,"region":"eu","cc":"pl","latitude":52.2297,"longitude":21.017532,"reserved":0,"last_update":"0001-01-01T00:00:00Z","name_a2s":"Uncletopia | Warsaw | 2 | All Maps","protocol":17,"map":"koth_viaduct","folder":"tf","game":"Team Fortress","app_id":440,"player_count":0,"max_players":24,"Bots":0,"server_type":"Dedicated","server_os":"Linux","password":true,"vac":true,"version":"7757534","steam_id":85568392925397851,"keywords":["cp","nocrits","nodmgspread","uncletopia"],"game_id":440,"stv_port":27026,"stv_name":"Uncletopia | Warsaw | 2 | All Maps | STV","players":null},{"server_id":51,"name":"Uncletopia | Warsaw | 3 | All Maps","name_short":"waw-3","host":"waw-1.pl.uncletopia.com","port":27035,"enabled":true,"region":"eu","cc":"pl","latitude":52.2297,"longitude":21.017532,"reserved":0,"last_update":"0001-01-01T00:00:00Z","name_a2s":"Uncletopia | Warsaw | 3 | All Maps","protocol":17,"map":"cp_dustbowl","folder":"tf","game":"Team Fortress","app_id":440,"player_count":0,"max_players":24,"Bots":0,"server_type":"Dedicated","server_os":"Linux","password":true,"vac":true,"version":"7757534","steam_id":85568392925397852,"keywords":["cp","nocrits","nodmgspread","uncletopia"],"game_id":440,"stv_port":27036,"stv_name":"Uncletopia | Warsaw | 3 | All Maps | STV","players":null},{"server_id":52,"name":"Uncletopia | Warsaw | 4 | All Maps","name_short":"waw-4","host":"waw-1.pl.uncletopia.com","port":27045,"enabled":true,"region":"eu","cc":"pl","latitude":52.2297,"longitude":21.017532,"reserved":0,"last_update":"0001-01-01T00:00:00Z","name_a2s":"Uncletopia | Warsaw | 4 | All Maps","protocol":17,"map":"koth_lakeside_final","folder":"tf","game":"Team Fortress","app_id":440,"player_count":0,"max_players":24,"Bots":0,"server_type":"Dedicated","server_os":"Linux","password":true,"vac":true,"version":"7757534","steam_id":85568392925397853,"keywords":["cp","nocrits","nodmgspread","uncletopia"],"game_id":440,"stv_port":27046,"stv_name":"Uncletopia | Warsaw | 4 | All Maps | STV","players":null},{"server_id":53,"name":"Uncletopia | Warsaw | 5 | Stopwatch Beta","name_short":"waw-5","host":"waw-1.pl.uncletopia.com","port":27055,"enabled":true,"region":"eu","cc":"pl","latitude":52.2297,"longitude":21.017532,"reserved":0,"last_update":"0001-01-01T00:00:00Z","name_a2s":"Uncletopia | Warsaw | 5 | Stopwatch Beta","protocol":17,"map":"pl_borneo","folder":"tf","game":"Team Fortress","app_id":440,"player_count":0,"max_players":24,"Bots":0,"server_type":"Dedicated","server_os":"Linux","password":true,"vac":true,"version":"7757534","steam_id":85568392925397854,"keywords":["nocrits","nodmgspread","payload","uncletopia"],"game_id":440,"stv_port":27056,"stv_name":"Uncletopia | Warsaw | 5 | Stopwatch Beta | STV","players":null},{"server_id":54,"name":"Uncletopia | Warsaw | 6 | Community","name_short":"waw-6","host":"waw-1.pl.uncletopia.com","port":27065,"enabled":true,"region":"eu","cc":"pl","latitude":52.2297,"longitude":21.017532,"reserved":0,"last_update":"0001-01-01T00:00:00Z","name_a2s":"Uncletopia | Warsaw | 6 | Community","protocol":17,"map":"koth_lakeside_final","folder":"tf","game":"Team Fortress","app_id":440,"player_count":0,"max_players":24,"Bots":0,"server_type":"Dedicated","server_os":"Linux","password":true,"vac":true,"version":"7757534","steam_id":85568392925397856,"keywords":["cp","nocrits","nodmgspread","uncletopia"],"game_id":440,"stv_port":27066,"stv_name":"Uncletopia | Warsaw | 6 | Community | STV","players":null}]}