{"status":true,"message":"","result":[{"server_id":9,"name":"Uncletopia | Atlanta | 1 | All Maps","name_short":"atl-1","host":"atl-1.us.uncletopia.com","port":27015,"enabled":true,"region":"us-east","cc":"us","latitude":33.753746,"longitude":-84.38633,"reserved":0,"last_update":"0001-01-01T00:00:00Z","name_a2s":"Uncletopia | Atlanta | 1 | All Maps","protocol":17,"map":"pl_pier","folder":"tf","game":"Team Fortress","app_id":440,"player_count":24,"max_players":24,"Bots":0,"server_type":"Dedicated","server_os":"Linux","password":true,"vac":true,"version":"7757534","steam_id":85568392924469982,"keywords":["nocrits","nodmgspread","payload","uncletopia"],"game_id":440,"stv_port":27016,"stv_name":"Uncletopia | Atlanta | 1 | All Maps | STV","players":[{"user_id":420,"name":"shaderoses","steam_id":76561198070800500,"connected_time":2024000000000,"state":"active","ping":68},{"user_id":437,"name":"atl1icyy","steam_id":76561198968001329,"connected_time":716000000000,"state":"active","ping":45},{"user_id":440,"name":"slashproc","steam_id":76561198035307579,"connected_time":320000000000,"state":"active","ping":74},{"user_id":441,"name":"Scum F*ck Flower Boi","steam_id":76561198397009880,"connected_time":227000000000,"state":"active","ping":49},{"user_id":419,"name":"Vladikr1","steam_id":76561198401495362,"connected_time":2037000000000,"state":"active","ping":84},{"user_id":426,"name":"Albino Jellyfish","steam_id":76561198208561097,"connected_time":1737000000000,"state":"active","ping":64},{"user_id":428,"name":"Karma","steam_id":76561198030565234,"connected_time":1588000000000,"state":"active","ping":71},{"user_id":360,"name":"lil hog","steam_id":76561199230929836,"connected_time":7096000000000,"state":"active","ping":88},{"user_id":393,"name":"Eins","steam_id":76561199030343810,"connected_time":4159000000000,"state":"active","ping":40},{"user_id":424,"name":"xX_HimboSwallower_Xx","steam_id":76561198016029965,"connected_time":1962000000000,"state":"active","ping":71},{"user_id":442,"name":"T Jit","steam_id":76561197993371179,"connected_time":177000000000,"state":"active","ping":46},{"user_id":436,"name":"Kitt(eh) ∑:3","steam_id":76561198110858518,"connected_time":845000000000,"state":"active","ping":75},{"user_id":404,"name":"V!CT!M","steam_id":76561198962721502,"connected_time":3671000000000,"state":"active","ping":146},{"user_id":304,"name":"marguerite","steam_id":76561198170873495,"connected_time":9729000000000,"state":"active","ping":54},{"user_id":423,"name":"hoboways","steam_id":76561198168035195,"connected_time":1966000000000,"state":"active","ping":128},{"user_id":366,"name":"O'Keearns","steam_id":76561198042213797,"connected_time":6140000000000,"state":"active","ping":46},{"user_id":435,"name":"abulo","steam_id":76561199038206884,"connected_time":870000000000,"state":"active","ping":187},{"user_id":431,"name":"CRWND","steam_id":76561198329810027,"connected_time":1028000000000,"state":"active","ping":151},{"user_id":422,"name":"Xuey","steam_id":76561199120960187,"connected_time":2016000000000,"state":"active","ping":83},{"user_id":432,"name":"Onyx","steam_id":76561198275349640,"connected_time":892000000000,"state":"active","ping":75},{"user_id":344,"name":"NovaSc6ut","steam_id":76561198277163301,"connected_time":7905000000000,"state":"active","ping":82},{"user_id":362,"name":"BIG HOG","steam_id":76561198079923652,"connected_time":6383000000000,"state":"active","ping":75},{"user_id":433,"name":"ATL1 | Vee (very cool)","steam_id":76561198330432889,"connected_time":882000000000,"state":"active","ping":67},{"user_id":434,"name":"The Pope","steam_id":76561198313560302,"connected_time":881000000000,"state":"active","ping":44}]},{"server_id":104,"name":"Uncletopia | Atlanta | 2 | All Maps","name_short":"atl-2","host":"atl-1.us.uncletopia.com","port":27025,"enabled":true,"region":"us-east","cc":"us","latitude":33.753746,"longitude":-84.38633,"reserved":0,"last_update":"0001-01-01T00:00:00Z","name_a2s":"Uncletopia | Atlanta | 2 | All Maps","protocol":17,"map":"pl_snowycoast","folder":"tf","game":"Team Fortress","app_id":440,"player_count":24,"max_players":24,"Bots":0,"server_type":"Dedicated","server_os":"Linux","password":true,"vac":true,"version":"7757534","steam_id":85568392924469983,"keywords":["nocrits","nodmgspread","payload","uncletopia"],"game_id":440,"stv_port":27026,"stv_name":"Uncletopia | Atlanta | 2 | All Maps | STV","players":[{"user_id":347,"name":"sofa king","steam_id":76561198353638591,"connected_time":1040000000000,"state":"active","ping":106},{"user_id":319,"name":"Tony Pajamas","steam_id":76561198102299438,"connected_time":3088000000000,"state":"active","ping":82},{"user_id":302,"name":"Baker","steam_id":76561198055196430,"connected_time":4089000000000,"state":"active","ping":85},{"user_id":358,"name":"LoveShark","steam_id":76561198141498508,"connected_time":393000000000,"state":"active","ping":53},{"user_id":359,"name":"bob adams","steam_id":76561199038072811,"connected_time":383000000000,"state":"active","ping":90},{"user_id":345,"name":"M@verick","steam_id":76561198006363519,"connected_time":1141000000000,"state":"active","ping":76},{"user_id":352,"name":"pim","steam_id":76561198095163441,"connected_time":793000000000,"state":"active","ping":63},{"user_id":353,"name":"Serenue","steam_id":76561199040361250,"connected_time":776000000000,"state":"active","ping":100},{"user_id":342,"name":"Viol3tOni","steam_id":76561198079208738,"connected_time":1257000000000,"state":"active","ping":124},{"user_id":321,"name":"monkey goblin ass","steam_id":76561198317510961,"connected_time":2926000000000,"state":"active","ping":68},{"user_id":287,"name":"Brian","steam_id":76561198089908485,"connected_time":5015000000000,"state":"active","ping":66},{"user_id":260,"name":"jerry","steam_id":76561198422891994,"connected_time":7230000000000,"state":"active","ping":148},{"user_id":348,"name":"Babish Gaming","steam_id":76561198038213022,"connected_time":1016000000000,"state":"active","ping":58},{"user_id":343,"name":"Crazy Insane Proboscis Monkey","steam_id":76561198061011176,"connected_time":1223000000000,"state":"active","ping":89},{"user_id":355,"name":"RoboWarrior0410a","steam_id":76561199106531261,"connected_time":727000000000,"state":"active","ping":55},{"user_id":327,"name":"Marlboro Menthol 100s","steam_id":76561198263631055,"connected_time":2501000000000,"state":"active","ping":50},{"user_id":361,"name":"Zhong Xina 钟新娜","steam_id":76561198044022060,"connected_time":241000000000,"state":"active","ping":59},{"user_id":274,"name":"igotmail","steam_id":76561198070631899,"connected_time":6544000000000,"state":"active","ping":83},{"user_id":247,"name":"The sad vanilla","steam_id":76561198268621447,"connected_time":8172000000000,"state":"active","ping":86},{"user_id":356,"name":"Rat","steam_id":76561199102985277,"connected_time":661000000000,"state":"active","ping":82},{"user_id":351,"name":".Thomas","steam_id":76561198162759004,"connected_time":838000000000,"state":"active","ping":75},{"user_id":360,"name":"beethan","steam_id":76561198148199120,"connected_time":298000000000,"state":"active","ping":85},{"user_id":354,"name":"A Can of Arizona Green Tea","steam_id":76561198062481133,"connected_time":771000000000,"state":"active","ping":89},{"user_id":344,"name":"Rain","steam_id":76561198074827140,"connected_time":1203000000000,"state":"active","ping":96}]},{"server_id":400,"name":"Uncletopia | Atlanta | 3 | Community","name_short":"atl-3","host":"atl-1.us.uncletopia.com","port":27035,"enabled":true,"region":"us-east","cc":"us","latitude":33.753746,"longitude":-84.38633,"reserved":0,"last_update":"0001-01-01T00:00:00Z","name_a2s":"Uncletopia | Atlanta | 3 | Community","protocol":17,"map":"workshop/pl_cashworks_final1.ugc2904065412","folder":"tf","game":"Team Fortress","app_id":440,"player_count":0,"max_players":24,"Bots":0,"server_type":"Dedicated","server_os":"Linux","password":true,"vac":true,"version":"7757534","steam_id":85568392924515187,"keywords":["nocrits","nodmgspread","payload","uncletopia"],"game_id":440,"stv_port":27036,"stv_name":"Uncletopia | Atlanta | 3 | Community | STV","players":null},{"server_id":401,"name":"Uncletopia | Atlanta | 4 | No Payload","name_short":"atl-4","host":"atl-1.us.uncletopia.com","port":27045,"enabled":true,"region":"us-east","cc":"us","latitude":33.753746,"longitude":-84.38633,"reserved":0,"last_update":"0001-01-01T00:00:00Z","name_a2s":"","protocol":0,"map":"","folder":"","game":"","app_id":0,"player_count":0,"max_players":0,"Bots":0,"server_type":"","server_os":"","password":false,"vac":false,"version":"","steam_id":0,"keywords":null,"game_id":0,"stv_port":0,"stv_name":"","players":null},{"server_id":2,"name":"Uncletopia | Chicago | 1 | All Maps","name_short":"chi-1","host":"chi-1.us.uncletopia.com","port":27015,"enabled":true,"region":"us-central","cc":"us","latitude":41.881832,"longitude":-87.62318,"reserved":0,"last_update":"0001-01-01T00:00:00Z","name_a2s":"Uncletopia | Chicago | 1 | All Maps","protocol":17,"map":"pl_borneo","folder":"tf","game":"Team Fortress","app_id":440,"player_count":24,"max_players":24,"Bots":0,"server_type":"Dedicated","server_os":"Linux","password":true,"vac":true,"version":"7757534","steam_id":85568392924469984,"keywords":["nocrits","nodmgspread","payload","uncletopia"],"game_id":440,"stv_port":27016,"stv_name":"Uncletopia | Chicago | 1 | All Maps | STV","players":[{"user_id":607,"name":"Astoriae!","steam_id":76561199090168858,"connected_time":1603000000000,"state":"active","ping":99},{"user_id":599,"name":"Yuri","steam_id":76561198071860907,"connected_time":2061000000000,"state":"active","ping":71},{"user_id":576,"name":"Professionally Braindead ツ","steam_id":76561198276714220,"connected_time":4035000000000,"state":"active","ping":60},{"user_id":545,"name":"pipis","steam_id":76561198140971525,"connected_time":5654000000000,"state":"active","ping":60},{"user_id":593,"name":"F0restFerret","steam_id":76561199112458876,"connected_time":2707000000000,"state":"active","ping":66},{"user_id":623,"name":"Lightish Red","steam_id":76561198060879701,"connected_time":741000000000,"state":"active","ping":45},{"user_id":604,"name":"test","steam_id":76561198197388678,"connected_time":1790000000000,"state":"active","ping":95},{"user_id":577,"name":"Sonidad","steam_id":76561198082763204,"connected_time":4016000000000,"state":"active","ping":81},{"user_id":616,"name":"GretaThunbergsPreferredPronouns","steam_id":76561197970814261,"connected_time":1350000000000,"state":"active","ping":76},{"user_id":601,"name":"choccy milk","steam_id":76561198111370355,"connected_time":1993000000000,"state":"active","ping":69},{"user_id":619,"name":"Rec","steam_id":76561198022813906,"connected_time":972000000000,"state":"active","ping":53},{"user_id":513,"name":"i really like this dog :)","steam_id":76561198882404753,"connected_time":7164000000000,"state":"active","ping":74},{"user_id":606,"name":"Superman123389","steam_id":76561198267472539,"connected_time":1604000000000,"state":"active","ping":93},{"user_id":588,"name":"BusterScruggs","steam_id":76561198891626233,"connected_time":2970000000000,"state":"active","ping":63},{"user_id":615,"name":"exov","steam_id":76561198064513362,"connected_time":1364000000000,"state":"active","ping":90},{"user_id":626,"name":"Howard Hamlin","steam_id":76561198881039861,"connected_time":113000000000,"state":"active","ping":56},{"user_id":594,"name":"Chung","steam_id":76561198114928567,"connected_time":2535000000000,"state":"active","ping":83},{"user_id":613,"name":"blahmeme42","steam_id":76561199066577262,"connected_time":1490000000000,"state":"active","ping":108},{"user_id":550,"name":"!","steam_id":76561198116821551,"connected_time":5588000000000,"state":"active","ping":61},{"user_id":608,"name":"fallacy","steam_id":76561198057374871,"connected_time":1601000000000,"state":"active","ping":65},{"user_id":602,"name":"Nolan","steam_id":76561198169648081,"connected_time":1965000000000,"state":"active","ping":84},{"user_id":620,"name":"Jake","steam_id":76561198303046970,"connected_time":878000000000,"state":"active","ping":59},{"user_id":618,"name":"Rukks","steam_id":76561197993918954,"connected_time":1093000000000,"state":"active","ping":87},{"user_id":625,"name":"potion man","steam_id":76561198010547019,"connected_time":548000000000,"state":"active","ping":67}]},{"server_id":106,"name":"Uncletopia | Chicago | 2 | All Maps","name_short":"chi-2","host":"chi-1.us.uncletopia.com","port":27025,"enabled":true,"region":"us-central","cc":"us","latitude":41.881832,"longitude":-87.62318,"reserved":0,"last_update":"0001-01-01T00:00:00Z","name_a2s":"Uncletopia | Chicago | 2 | All Maps","protocol":17,"map":"pl_pier","folder":"tf","game":"Team Fortress","app_id":440,"player_count":24,"max_players":24,"Bots":0,"server_type":"Dedicated","server_os":"Linux","password":true,"vac":true,"version":"7757534","steam_id":85568392924469985,"keywords":["nocrits","nodmgspread","payload","uncletopia"],"game_id":440,"stv_port":27026,"stv_name":"Uncletopia | Chicago | 2 | All Maps | STV","players":[{"user_id":678,"name":"icecoldpopdog","steam_id":76561197968557927,"connected_time":1617000000000,"state":"active","ping":70},{"user_id":698,"name":"ameritech","steam_id":76561198064769089,"connected_time":402000000000,"state":"active","ping":84},{"user_id":685,"name":"reclaim gaming","steam_id":76561198301019618,"connected_time":1100000000000,"state":"active","ping":112},{"user_id":679,"name":"open.gif","steam_id":76561198046055673,"connected_time":1568000000000,"state":"active","ping":75},{"user_id":706,"name":"Hezxp","steam_id":76561198312931111,"connected_time":147000000000,"state":"active","ping":77},{"user_id":701,"name":"MEATBALL","steam_id":76561198028499312,"connected_time":239000000000,"state":"active","ping":60},{"user_id":682,"name":"Path_The_Finder","steam_id":76561198380416031,"connected_time":1240000000000,"state":"active","ping":100},{"user_id":680,"name":"TheCheeseWizard","steam_id":76561198058931315,"connected_time":1495000000000,"state":"active","ping":58},{"user_id":658,"name":"whitneyscience1","steam_id":76561199405650048,"connected_time":2359000000000,"state":"active","ping":126},{"user_id":668,"name":"Not_Douglas","steam_id":76561199024184136,"connected_time":1964000000000,"state":"active","ping":60},{"user_id":700,"name":"Cliff Uppercut","steam_id":76561197999439391,"connected_time":249000000000,"state":"active","ping":80},{"user_id":629,"name":"Mooksym","steam_id":76561198445747560,"connected_time":4242000000000,"state":"active","ping":85},{"user_id":554,"name":"picnic blanket","steam_id":76561198308186037,"connected_time":8200000000000,"state":"active","ping":66},{"user_id":704,"name":"Fetus in a paper bag","steam_id":76561199047286823,"connected_time":213000000000,"state":"active","ping":56},{"user_id":702,"name":"Jorbs3210","steam_id":76561198053222744,"connected_time":231000000000,"state":"active","ping":67},{"user_id":705,"name":"OMGimAnoobLOLOL","steam_id":76561198879677475,"connected_time":165000000000,"state":"active","ping":92},{"user_id":673,"name":"fumblom","steam_id":76561199389283507,"connected_time":1918000000000,"state":"active","ping":74},{"user_id":703,"name":"e7","steam_id":76561198154265084,"connected_time":229000000000,"state":"active","ping":90},{"user_id":697,"name":"remilia","steam_id":76561198069180543,"connected_time":456000000000,"state":"active","ping":79},{"user_id":674,"name":"bredinstead","steam_id":76561199156464551,"connected_time":1910000000000,"state":"active","ping":71},{"user_id":683,"name":"run fast fall down","steam_id":76561198167207112,"connected_time":1223000000000,"state":"active","ping":75},{"user_id":707,"name":"Koehler","steam_id":76561198149331441,"connected_time":31000000000,"state":"active","ping":61},{"user_id":684,"name":"TheFoolOnTheHill","steam_id":76561198088140076,"connected_time":1209000000000,"state":"active","ping":67},{"user_id":686,"name":"Pawn Cushman","steam_id":76561198221635676,"connected_time":1087000000000,"state":"active","ping":67}]},{"server_id":402,"name":"Uncletopia | Chicago | 3 | All Maps","name_short":"chi-3","host":"chi-1.us.uncletopia.com","port":27035,"enabled":true,"region":"us-central","cc":"us","latitude":41.881832,"longitude":-87.62318,"reserved":0,"last_update":"0001-01-01T00:00:00Z","name_a2s":"Uncletopia | Chicago | 3 | All Maps","protocol":17,"map":"pl_upward","folder":"tf","game":"Team Fortress","app_id":440,"player_count":24,"max_players":24,"Bots":0,"server_type":"Dedicated","server_os":"Linux","password":true,"vac":true,"version":"7757534","steam_id":85568392924515191,"keywords":["nocrits","nodmgspread","payload","uncletopia"],"game_id":440,"stv_port":27036,"stv_name":"Uncletopia | Chicago | 3 | All Maps | STV","players":[{"user_id":335,"name":"anger issues","steam_id":76561198059535856,"connected_time":890000000000,"state":"active","ping":87},{"user_id":320,"name":"aquatic ambiance","steam_id":76561198042788986,"connected_time":1547000000000,"state":"active","ping":89},{"user_id":290,"name":"Nefy","steam_id":76561198030017316,"connected_time":2665000000000,"state":"active","ping":86},{"user_id":311,"name":"elso","steam_id":76561198058209902,"connected_time":2299000000000,"state":"active","ping":86},{"user_id":325,"name":"Shelmet","steam_id":76561199090200950,"connected_time":1392000000000,"state":"active","ping":58},{"user_id":307,"name":"NoobleCup","steam_id":76561199021279162,"connected_time":2365000000000,"state":"active","ping":81},{"user_id":297,"name":"Yada #savetf2","steam_id":76561199103981181,"connected_time":2629000000000,"state":"active","ping":76},{"user_id":339,"name":"D.LeBlanc","steam_id":76561198119483989,"connected_time":746000000000,"state":"active","ping":78},{"user_id":300,"name":"Gachalover","steam_id":76561199231552074,"connected_time":2552000000000,"state":"active","ping":75},{"user_id":336,"name":"Waylen","steam_id":76561198945724920,"connected_time":860000000000,"state":"active","ping":80},{"user_id":324,"name":"i cant take it anymore","steam_id":76561198337692867,"connected_time":1454000000000,"state":"active","ping":68},{"user_id":308,"name":"vettacon","steam_id":76561198063550709,"connected_time":2338000000000,"state":"active","ping":56},{"user_id":337,"name":"SomeScuffedKid","steam_id":76561198086113234,"connected_time":830000000000,"state":"active","ping":61},{"user_id":281,"name":"B R O W N","steam_id":76561198084016173,"connected_time":3712000000000,"state":"active","ping":73},{"user_id":277,"name":"Festive Syntax Error","steam_id":76561198101567629,"connected_time":3909000000000,"state":"active","ping":71},{"user_id":331,"name":"The Mad Golfer","steam_id":76561198125572962,"connected_time":953000000000,"state":"active","ping":75},{"user_id":338,"name":"Oni","steam_id":76561198112066584,"connected_time":814000000000,"state":"active","ping":62},{"user_id":332,"name":"e-thug","steam_id":76561198072179483,"connected_time":950000000000,"state":"active","ping":90},{"user_id":299,"name":"Ockulus","steam_id":76561199069638460,"connected_time":2599000000000,"state":"active","ping":101},{"user_id":334,"name":"Floating Peasant","steam_id":76561198000183671,"connected_time":915000000000,"state":"active","ping":62},{"user_id":285,"name":"Fobby #Savetf2","steam_id":76561198047681469,"connected_time":3347000000000,"state":"active","ping":74},{"user_id":310,"name":"Bastee1021","steam_id":76561199456141163,"connected_time":2300000000000,"state":"active","ping":129},{"user_id":276,"name":"Festive Conch Shell","steam_id":76561198042072993,"connected_time":3928000000000,"state":"active","ping":70},{"user_id":342,"name":"Weebmcgee","steam_id":76561198081231557,"connected_time":364000000000,"state":"active","ping":70}]},{"server_id":403,"name":"Uncletopia | Chicago | 4 | All Maps","name_short":"chi-4","host":"chi-1.us.uncletopia.com","port":27045,"enabled":true,"region":"us-central","cc":"us","latitude":41.881832,"longitude":-87.62318,"reserved":0,"last_update":"0001-01-01T00:00:00Z","name_a2s":"Uncletopia | Chicago | 4 | All Maps","protocol":17,"map":"plr_pipeline","folder":"tf","game":"Team Fortress","app_id":440,"player_count":24,"max_players":24,"Bots":0,"server_type":"Dedicated","server_os":"Linux","password":true,"vac":true,"version":"7757534","steam_id":85568392924515193,"keywords":["nocrits","nodmgspread","payload","uncletopia"],"game_id":440,"stv_port":27046,"stv_name":"Uncletopia | Chicago | 4 | All Maps | STV","players":[{"user_id":517,"name":"jordan (the country btw)","steam_id":76561198118212742,"connected_time":356000000000,"state":"active","ping":89},{"user_id":513,"name":"girl dick enjoyer","steam_id":76561198185958641,"connected_time":1090000000000,"state":"active","ping":83},{"user_id":521,"name":"Robbie Rotten","steam_id":76561198125993888,"connected_time":149000000000,"state":"active","ping":76},{"user_id":347,"name":"ohton","steam_id":76561199033233448,"connected_time":14618000000000,"state":"active","ping":102},{"user_id":496,"name":"the ifunny watermark","steam_id":76561198077272494,"connected_time":2551000000000,"state":"active","ping":49},{"user_id":522,"name":"KevCraft","steam_id":76561199000622939,"connected_time":124000000000,"state":"active","ping":77},{"user_id":510,"name":"flboy23","steam_id":76561199294127864,"connected_time":1434000000000,"state":"active","ping":89},{"user_id":503,"name":"birbmanminty","steam_id":76561199159145275,"connected_time":1544000000000,"state":"active","ping":107},{"user_id":445,"name":"pinguez","steam_id":76561199003447981,"connected_time":8049000000000,"state":"active","ping":84},{"user_id":504,"name":"Mizore","steam_id":76561198044565443,"connected_time":1538000000000,"state":"active","ping":72},{"user_id":498,"name":"Sanic","steam_id":76561198083124962,"connected_time":2167000000000,"state":"active","ping":62},{"user_id":485,"name":"Teleporter  (Entrance, Level 3)","steam_id":76561198316927664,"connected_time":3719000000000,"state":"active","ping":71},{"user_id":514,"name":"Also Known As Assteeth","steam_id":76561198049837377,"connected_time":759000000000,"state":"active","ping":46},{"user_id":476,"name":"andyiscolorless","steam_id":76561199239870921,"connected_time":4755000000000,"state":"active","ping":146},{"user_id":523,"name":"Pork Tenderloin","steam_id":76561198138663842,"connected_time":124000000000,"state":"active","ping":52},{"user_id":500,"name":"Rein","steam_id":76561198300340427,"connected_time":1928000000000,"state":"active","ping":63},{"user_id":482,"name":"|WS| Don't_Taze_Me_Bro","steam_id":76561198043289495,"connected_time":3902000000000,"state":"active","ping":74},{"user_id":512,"name":"Mr. Green","steam_id":76561199172956318,"connected_time":1188000000000,"state":"active","ping":80},{"user_id":520,"name":"Doost","steam_id":76561198115785902,"connected_time":156000000000,"state":"active","ping":77},{"user_id":507,"name":"King Cotton","steam_id":76561198292444376,"connected_time":1518000000000,"state":"active","ping":88},{"user_id":453,"name":"Mr.Pan","steam_id":76561198069030613,"connected_time":7433000000000,"state":"active","ping":71},{"user_id":524,"name":"Kilora","steam_id":76561198103356827,"connected_time":119000000000,"state":"active","ping":76},{"user_id":493,"name":"Xxlimit","steam_id":76561199228935759,"connected_time":3030000000000,"state":"active","ping":48},{"user_id":515,"name":"Eblizard","steam_id":76561198111481965,"connected_time":642000000000,"state":"active","ping":77}]},{"server_id":36,"name":"Uncletopia | Chicago | 5 | All Maps","name_short":"chi-5","host":"chi-2.us.uncletopia.com","port":27015,"enabled":true,"region":"us-central","cc":"us","latitude":41.881832,"longitude":-87.62318,"reserved":0,"last_update":"0001-01-01T00:00:00Z","name_a2s":"Uncletopia | Chicago | 5 | All Maps","protocol":17,"map":"cp_dustbowl","folder":"tf","game":"Team Fortress","app_id":440,"player_count":24,"max_players":24,"Bots":0,"server_type":"Dedicated","server_os":"Linux","password":true,"vac":true,"version":"7757534","steam_id":85568392924866362,"keywords":["cp","nocrits","nodmgspread","uncletopia"],"game_id":440,"stv_port":27016,"stv_name":"Uncletopia | Chicago | 5 | All Maps | STV","players":[{"user_id":209,"name":"Owl Pacino","steam_id":76561197979970666,"connected_time":601000000000,"state":"active","ping":57},{"user_id":187,"name":"Real_Ryth","steam_id":76561198024916177,"connected_time":1383000000000,"state":"active","ping":99},{"user_id":186,"name":"FOX927011","steam_id":76561198117831095,"connected_time":1399000000000,"state":"active","ping":88},{"user_id":188,"name":"Spy","steam_id":76561199095040077,"connected_time":1373000000000,"state":"active","ping":60},{"user_id":211,"name":"Once in a Lifetime","steam_id":76561199180652178,"connected_time":522000000000,"state":"active","ping":87},{"user_id":220,"name":"Salad gaming (real)","steam_id":76561198298310744,"connected_time":436000000000,"state":"active","ping":70},{"user_id":217,"name":"MikeLovesRabbit","steam_id":76561197997742625,"connected_time":476000000000,"state":"active","ping":67},{"user_id":228,"name":"Gilded_Warrior","steam_id":76561199055082197,"connected_time":275000000000,"state":"active","ping":112},{"user_id":156,"name":"Joyous Jenny","steam_id":76561198127998866,"connected_time":3741000000000,"state":"active","ping":72},{"user_id":109,"name":"strawberry shortcock","steam_id":76561198032040831,"connected_time":7274000000000,"state":"active","ping":77},{"user_id":182,"name":"BenP18","steam_id":76561198030844446,"connected_time":1913000000000,"state":"active","ping":80},{"user_id":191,"name":"NPC","steam_id":76561198431446386,"connected_time":1297000000000,"state":"active","ping":69},{"user_id":230,"name":"heimdall","steam_id":76561198069380992,"connected_time":214000000000,"state":"active","ping":81},{"user_id":201,"name":"Xenowo","steam_id":76561198120574708,"connected_time":1147000000000,"state":"active","ping":76},{"user_id":225,"name":"unsafequeen","steam_id":76561199088126900,"connected_time":313000000000,"state":"active","ping":84},{"user_id":206,"name":"Mike.Mauro","steam_id":76561198072542619,"connected_time":773000000000,"state":"active","ping":64},{"user_id":208,"name":"You Know What You Did","steam_id":76561198218558897,"connected_time":614000000000,"state":"active","ping":114},{"user_id":226,"name":"Aura","steam_id":76561198010021047,"connected_time":312000000000,"state":"active","ping":87},{"user_id":214,"name":"Driving Cat (real) (can drive)","steam_id":76561199067771554,"connected_time":493000000000,"state":"active","ping":70},{"user_id":133,"name":"Wrum Chum","steam_id":76561199049580624,"connected_time":4992000000000,"state":"active","ping":96},{"user_id":199,"name":"Maxxycat","steam_id":76561198194062681,"connected_time":1188000000000,"state":"active","ping":66},{"user_id":200,"name":"1 Great Wooden Dad","steam_id":76561198377126974,"connected_time":1184000000000,"state":"active","ping":69},{"user_id":215,"name":"Yosh","steam_id":76561198027078899,"connected_time":489000000000,"state":"active","ping":77},{"user_id":218,"name":"Calvin","steam_id":76561199052575110,"connected_time":475000000000,"state":"active","ping":74}]},{"server_id":37,"name":"Uncletopia | Chicago | 6 | All Maps","name_short":"chi-6","host":"chi-2.us.uncletopia.com","port":27025,"enabled":true,"region":"us-central","cc":"us","latitude":41.881832,"longitude":-87.62318,"reserved":0,"last_update":"0001-01-01T00:00:00Z","name_a2s":"Uncletopia | Chicago | 6 | All Maps","protocol":17,"map":"koth_highpass","folder":"tf","game":"Team Fortress","app_id":440,"player_count":24,"max_players":24,"Bots":0,"server_type":"Dedicated","server_os":"Linux","password":true,"vac":true,"version":"7757534","steam_id":85568392924866363,"keywords":["cp","nocrits","nodmgspread","uncletopia"],"game_id":440,"stv_port":27026,"stv_name":"Uncletopia | Chicago | 6 | All Maps | STV","players":[{"user_id":139,"name":"poggerific","steam_id":76561198106813496,"connected_time":1469000000000,"state":"active","ping":69},{"user_id":124,"name":"Mister Fister","steam_id":76561199059653595,"connected_time":2264000000000,"state":"active","ping":97},{"user_id":140,"name":"Peri","steam_id":76561198255311543,"connected_time":1327000000000,"state":"active","ping":114},{"user_id":141,"name":"Festive McGee","steam_id":76561198055965509,"connected_time":1319000000000,"state":"active","ping":89},{"user_id":142,"name":"WAYNE","steam_id":76561198975767994,"connected_time":1316000000000,"state":"active","ping":61},{"user_id":144,"name":"anoobis","steam_id":76561199120731573,"connected_time":1282000000000,"state":"active","ping":62},{"user_id":85,"name":"tyg","steam_id":76561198056246867,"connected_time":3815000000000,"state":"active","ping":65},{"user_id":127,"name":"Plain Toast","steam_id":76561198451580251,"connected_time":2071000000000,"state":"active","ping":75},{"user_id":159,"name":"petrifying","steam_id":76561198841016072,"connected_time":660000000000,"state":"active","ping":108},{"user_id":135,"name":"friend shaped fuckler","steam_id":76561198085423510,"connected_time":1958000000000,"state":"active","ping":75},{"user_id":148,"name":"kiltiepleasures","steam_id":76561199387384980,"connected_time":1193000000000,"state":"active","ping":98},{"user_id":165,"name":"pigswill","steam_id":76561197999081865,"connected_time":112000000000,"state":"active","ping":73},{"user_id":157,"name":"Nihplod_","steam_id":76561199010320094,"connected_time":833000000000,"state":"active","ping":63},{"user_id":164,"name":"Blue-Lobster-Gaming","steam_id":76561199220578772,"connected_time":304000000000,"state":"active","ping":74},{"user_id":163,"name":"luca","steam_id":76561198069235730,"connected_time":369000000000,"state":"active","ping":60},{"user_id":161,"name":"weewa","steam_id":76561198064876090,"connected_time":580000000000,"state":"active","ping":73},{"user_id":151,"name":"Stormz64(But weezer)","steam_id":76561198239036482,"connected_time":1136000000000,"state":"active","ping":48},{"user_id":156,"name":"Cthulwho?","steam_id":76561198165550810,"connected_time":929000000000,"state":"active","ping":60},{"user_id":154,"name":"snougaloogie","steam_id":76561198068787020,"connected_time":1107000000000,"state":"active","ping":57},{"user_id":133,"name":"Dylan","steam_id":76561198265522923,"connected_time":2021000000000,"state":"active","ping":69},{"user_id":134,"name":"rocky","steam_id":76561198162392569,"connected_time":2020000000000,"state":"active","ping":76},{"user_id":136,"name":"lemon","steam_id":76561198086406706,"connected_time":1948000000000,"state":"active","ping":45},{"user_id":155,"name":"PROFILE NAME","steam_id":76561198384238790,"connected_time":1105000000000,"state":"active","ping":65},{"user_id":101,"name":"Hyper","steam_id":76561198976760150,"connected_time":3433000000000,"state":"active","ping":107}]},{"server_id":38,"name":"Uncletopia | Chicago | 7 | Stopwatch Beta","name_short":"chi-7","host":"chi-2.us.uncletopia.com","port":27035,"enabled":true,"region":"us-central","cc":"us","latitude":41.881832,"longitude":-87.62318,"reserved":0,"last_update":"0001-01-01T00:00:00Z","name_a2s":"Uncletopia | Chicago | 7 | Stopwatch Beta","protocol":17,"map":"pl_upward","folder":"tf","game":"Team Fortress","app_id":440,"player_count":23,"max_players":24,"Bots":0,"server_type":"Dedicated","server_os":"Linux","password":true,"vac":true,"version":"7757534","steam_id":85568392924866364,"keywords":["nocrits","nodmgspread","payload","uncletopia"],"game_id":440,"stv_port":27036,"stv_name":"Uncletopia | Chicago | 7 | Stopwatch Beta | STV","players":[{"user_id":60,"name":"PESNT","steam_id":76561198060325519,"connected_time":1445000000000,"state":"active","ping":66},{"user_id":19,"name":"john madden","steam_id":76561198447144089,"connected_time":2630000000000,"state":"active","ping":64},{"user_id":48,"name":"chrischrischris3018@yahoo.com","steam_id":76561198137316053,"connected_time":2054000000000,"state":"active","ping":62},{"user_id":77,"name":"k1tty","steam_id":76561198869348268,"connected_time":492000000000,"state":"active","ping":100},{"user_id":68,"name":"Schwagz","steam_id":76561198038330649,"connected_time":859000000000,"state":"active","ping":83},{"user_id":25,"name":"FRIENDS","steam_id":76561198286579804,"connected_time":2375000000000,"state":"active","ping":113},{"user_id":64,"name":"Red","steam_id":76561198001939529,"connected_time":1095000000000,"state":"active","ping":97},{"user_id":27,"name":"glocklin","steam_id":76561198046386778,"connected_time":2362000000000,"state":"active","ping":155},{"user_id":70,"name":"Aryze #SaveTF2","steam_id":76561198119561581,"connected_time":725000000000,"state":"active","ping":79},{"user_id":61,"name":"Toucharoo","steam_id":76561198064812533,"connected_time":1364000000000,"state":"active","ping":90},{"user_id":83,"name":"Schizo-Soldier","steam_id":76561198083440914,"connected_time":128000000000,"state":"active","ping":67},{"user_id":54,"name":"cooked chicken enjoyer","steam_id":76561198278282836,"connected_time":1865000000000,"state":"active","ping":49},{"user_id":33,"name":"REDACTED.AUDIO.STUDIOS","steam_id":76561198975542044,"connected_time":2249000000000,"state":"active","ping":69},{"user_id":62,"name":"Randombrawl","steam_id":76561198045020108,"connected_time":1342000000000,"state":"active","ping":90},{"user_id":38,"name":"Bocchi the Cock","steam_id":76561198152455316,"connected_time":2204000000000,"state":"active","ping":128},{"user_id":85,"name":"Auld","steam_id":76561198013180268,"connected_time":21000000000,"state":"spawning","ping":121},{"user_id":40,"name":"dudescore","steam_id":76561199091453555,"connected_time":2186000000000,"state":"active","ping":95},{"user_id":41,"name":"relaxerfrog","steam_id":76561199149386444,"connected_time":2180000000000,"state":"active","ping":83},{"user_id":81,"name":"HeroLink","steam_id":76561198051881518,"connected_time":170000000000,"state":"active","ping":65},{"user_id":57,"name":"Zoawsome","steam_id":76561198018758753,"connected_time":1631000000000,"state":"active","ping":53},{"user_id":80,"name":"UberVirginWeeb","steam_id":76561198412980444,"connected_time":270000000000,"state":"active","ping":126},{"user_id":73,"name":"GROOVYROOM","steam_id":76561199153684166,"connected_time":691000000000,"state":"active","ping":55},{"user_id":82,"name":"Z0mbie0975","steam_id":76561199013290525,"connected_time":160000000000,"state":"active","ping":55}]},{"server_id":39,"name":"Uncletopia | Chicago | 8 | Community","name_short":"chi-8","host":"chi-2.us.uncletopia.com","port":27045,"enabled":true,"region":"us-central","cc":"us","latitude":41.881832,"longitude":-87.62318,"reserved":0,"last_update":"0001-01-01T00:00:00Z","name_a2s":"Uncletopia | Chicago | 8 | Community","protocol":17,"map":"workshop/pl_corrode_rc2.ugc546577989","folder":"tf","game":"Team Fortress","app_id":440,"player_count":24,"max_players":24,"Bots":0,"server_type":"Dedicated","server_os":"Linux","password":true,"vac":true,"version":"7757534","steam_id":85568392924866365,"keywords":["nocrits","nodmgspread","payload","uncletopia"],"game_id":440,"stv_port":27046,"stv_name":"Uncletopia | Chicago | 8 | Community | STV","players":[{"user_id":61,"name":"Propaniac Gaming ☑","steam_id":76561198133963270,"connected_time":5015000000000,"state":"active","ping":60},{"user_id":134,"name":"THEDINKY","steam_id":76561198190077399,"connected_time":630000000000,"state":"active","ping":55},{"user_id":114,"name":"The Drunk Rat Bastard","steam_id":76561198994667208,"connected_time":1888000000000,"state":"active","ping":78},{"user_id":143,"name":"Lost CS player","steam_id":76561198892387723,"connected_time":141000000000,"state":"active","ping":82},{"user_id":118,"name":"Project_Counter","steam_id":76561198152786076,"connected_time":1052000000000,"state":"active","ping":80},{"user_id":145,"name":"goop of sex","steam_id":76561199169317887,"connected_time":125000000000,"state":"active","ping":91},{"user_id":117,"name":"Doctor Glocktorpus [NGC]","steam_id":76561198049194645,"connected_time":1541000000000,"state":"active","ping":68},{"user_id":120,"name":"bob","steam_id":76561198261060542,"connected_time":1029000000000,"state":"active","ping":75},{"user_id":139,"name":"Eggster","steam_id":76561198871014814,"connected_time":440000000000,"state":"active","ping":78},{"user_id":89,"name":"J O S H³²","steam_id":76561198122603779,"connected_time":3630000000000,"state":"active","ping":97},{"user_id":110,"name":"SSC1300","steam_id":76561199008625940,"connected_time":2533000000000,"state":"active","ping":94},{"user_id":127,"name":"Apoc","steam_id":76561198376855927,"connected_time":764000000000,"state":"active","ping":78},{"user_id":141,"name":"shrek","steam_id":76561199002363773,"connected_time":212000000000,"state":"active","ping":101},{"user_id":112,"name":"Poptart From Mars","steam_id":76561197979930960,"connected_time":1958000000000,"state":"active","ping":81},{"user_id":94,"name":"Ivan I","steam_id":76561198341781527,"connected_time":3229000000000,"state":"active","ping":71},{"user_id":102,"name":"Toasty Gyro","steam_id":76561198001026643,"connected_time":2775000000000,"state":"active","ping":47},{"user_id":137,"name":"BirBinGo","steam_id":76561198356529600,"connected_time":544000000000,"state":"active","ping":79},{"user_id":129,"name":"caberknight tf2","steam_id":76561199273882768,"connected_time":741000000000,"state":"active","ping":71},{"user_id":142,"name":"Ari","steam_id":76561198319701277,"connected_time":194000000000,"state":"spawning","ping":453},{"user_id":113,"name":"iggy destruction","steam_id":76561198081576799,"connected_time":1957000000000,"state":"active","ping":95},{"user_id":138,"name":"slimeraeljr","steam_id":76561199467491490,"connected_time":499000000000,"state":"active","ping":94},{"user_id":57,"name":"kingding","steam_id":76561198148059714,"connected_time":5239000000000,"state":"active","ping":61},{"user_id":122,"name":"Cee","steam_id":76561199114277048,"connected_time":986000000000,"state":"active","ping":54},{"user_id":132,"name":"Tomoko2001","steam_id":76561198047117990,"connected_time":656000000000,"state":"active","ping":94}]},{"server_id":8,"name":"Uncletopia | Dallas | 1 | All Maps","name_short":"dal-1","host":"dal-1.us.uncletopia.com","port":27015,"enabled":true,"region":"us-central","cc":"us","latitude":32.779167,"longitude":-96.80889,"reserved":0,"last_update":"0001-01-01T00:00:00Z","name_a2s":"Uncletopia | Dallas | 1 | All Maps","protocol":17,"map":"cp_snakewater_final1","folder":"tf","game":"Team Fortress","app_id":440,"player_count":24,"max_players":24,"Bots":0,"server_type":"Dedicated","server_os":"Linux","password":true,"vac":true,"version":"7757534","steam_id":85568392924469986,"keywords":["cp","nocrits","nodmgspread","uncletopia"],"game_id":440,"stv_port":27016,"stv_name":"Uncletopia | Dallas | 1 | All Maps | STV","players":[{"user_id":285,"name":"Nitro","steam_id":76561198044877244,"connected_time":1639000000000,"state":"active","ping":72},{"user_id":299,"name":"ZeZu","steam_id":76561198096687134,"connected_time":749000000000,"state":"active","ping":67},{"user_id":295,"name":"Bogey","steam_id":76561198096227944,"connected_time":1000000000000,"state":"active","ping":43},{"user_id":218,"name":"Stillkill","steam_id":76561198065069057,"connected_time":7301000000000,"state":"active","ping":37},{"user_id":256,"name":"aidan long","steam_id":76561198073022833,"connected_time":4062000000000,"state":"active","ping":40},{"user_id":306,"name":"Biznickel","steam_id":76561199422511230,"connected_time":365000000000,"state":"active","ping":95},{"user_id":292,"name":"Foxyz","steam_id":76561198040642992,"connected_time":1027000000000,"state":"active","ping":164},{"user_id":288,"name":"Streetcleaner","steam_id":76561199160439080,"connected_time":1282000000000,"state":"active","ping":68},{"user_id":293,"name":"BackwardsEagle","steam_id":76561199013712612,"connected_time":1026000000000,"state":"active","ping":99},{"user_id":307,"name":"JimGrimm","steam_id":76561198044573050,"connected_time":359000000000,"state":"active","ping":100},{"user_id":305,"name":"C.A.S.S.I.E (real)","steam_id":76561199040892651,"connected_time":435000000000,"state":"active","ping":63},{"user_id":304,"name":"Das Psycho","steam_id":76561198064615020,"connected_time":550000000000,"state":"active","ping":71},{"user_id":276,"name":"Gelliterate","steam_id":76561198107233070,"connected_time":1707000000000,"state":"active","ping":55},{"user_id":308,"name":"God's Sussiest Baka","steam_id":76561198084335030,"connected_time":354000000000,"state":"active","ping":102},{"user_id":303,"name":"Ryo31337","steam_id":76561198063083553,"connected_time":570000000000,"state":"active","ping":58},{"user_id":302,"name":"Lord Garrard","steam_id":76561198212184303,"connected_time":645000000000,"state":"active","ping":49},{"user_id":290,"name":"SPREAD SPRING GROWTH AND WARMTH","steam_id":76561198800386026,"connected_time":1078000000000,"state":"active","ping":95},{"user_id":249,"name":"KewlKris","steam_id":76561198260738308,"connected_time":4931000000000,"state":"active","ping":42},{"user_id":294,"name":"King Zazarule","steam_id":76561198140929103,"connected_time":1017000000000,"state":"active","ping":84},{"user_id":297,"name":"BurritoBurglar","steam_id":76561198081582127,"connected_time":816000000000,"state":"active","ping":75},{"user_id":283,"name":"Celv","steam_id":76561199231110391,"connected_time":1676000000000,"state":"active","ping":81},{"user_id":281,"name":"BP Oil Spill of 2010","steam_id":76561198127779099,"connected_time":1687000000000,"state":"active","ping":88},{"user_id":275,"name":"Burger","steam_id":76561198124642383,"connected_time":1904000000000,"state":"active","ping":90},{"user_id":284,"name":"Hog Leader","steam_id":76561198812197325,"connected_time":1670000000000,"state":"active","ping":107}]},{"server_id":108,"name":"Uncletopia | Dallas | 2 | All Maps","name_short":"dal-2","host":"dal-1.us.uncletopia.com","port":27025,"enabled":true,"region":"us-central","cc":"us","latitude":32.779167,"longitude":-96.80889,"reserved":0,"last_update":"0001-01-01T00:00:00Z","name_a2s":"Uncletopia | Dallas | 2 | All Maps","protocol":17,"map":"pl_badwater","folder":"tf","game":"Team Fortress","app_id":440,"player_count":24,"max_players":24,"Bots":0,"server_type":"Dedicated","server_os":"Linux","password":true,"vac":true,"version":"7757534","steam_id":85568392924469988,"keywords":["nocrits","nodmgspread","payload","uncletopia"],"game_id":440,"stv_port":27026,"stv_name":"Uncletopia | Dallas | 2 | All Maps | STV","players":[{"user_id":205,"name":"Mr.Hankey the Christmas Poo","steam_id":76561197991018822,"connected_time":3096000000000,"state":"active","ping":101},{"user_id":218,"name":"Sean","steam_id":76561198011422340,"connected_time":1805000000000,"state":"active","ping":60},{"user_id":238,"name":"MsVoxxie","steam_id":76561198083488187,"connected_time":230000000000,"state":"active","ping":94},{"user_id":243,"name":"Donkski","steam_id":76561198406895347,"connected_time":46000000000,"state":"active","ping":68},{"user_id":231,"name":"Yam Jazzy Jim","steam_id":76561198000788950,"connected_time":437000000000,"state":"active","ping":77},{"user_id":226,"name":"pitbull named princess","steam_id":76561198880211576,"connected_time":1434000000000,"state":"active","ping":74},{"user_id":217,"name":"Big Jon","steam_id":76561198402285099,"connected_time":2078000000000,"state":"active","ping":101},{"user_id":210,"name":"Path","steam_id":76561198106831514,"connected_time":2566000000000,"state":"active","ping":102},{"user_id":207,"name":"Doombeetle","steam_id":76561197992079781,"connected_time":2834000000000,"state":"active","ping":73},{"user_id":161,"name":"austintacious","steam_id":76561198054118061,"connected_time":5456000000000,"state":"active","ping":64},{"user_id":105,"name":"J.G. Klaus","steam_id":76561198001111196,"connected_time":10148000000000,"state":"active","ping":58},{"user_id":221,"name":"Bergmann MP18","steam_id":76561198218417512,"connected_time":1579000000000,"state":"active","ping":77},{"user_id":232,"name":"Capt.Swag","steam_id":76561198088340994,"connected_time":431000000000,"state":"active","ping":94},{"user_id":192,"name":"Sup m8","steam_id":76561198081659121,"connected_time":3897000000000,"state":"active","ping":36},{"user_id":240,"name":"purply-ghost","steam_id":76561199204779865,"connected_time":175000000000,"state":"active","ping":50},{"user_id":242,"name":"Wiggee","steam_id":76561197972792989,"connected_time":96000000000,"state":"active","ping":45},{"user_id":229,"name":"chatteringduck","steam_id":76561198131778772,"connected_time":1301000000000,"state":"active","ping":87},{"user_id":193,"name":"ihave80hp","steam_id":76561199251621911,"connected_time":3768000000000,"state":"active","ping":65},{"user_id":227,"name":"minecraft","steam_id":76561198104345201,"connected_time":1335000000000,"state":"active","ping":78},{"user_id":215,"name":"DuckMann","steam_id":76561198197058638,"connected_time":2220000000000,"state":"active","ping":61},{"user_id":164,"name":"Danger McHazard","steam_id":76561198059451274,"connected_time":5254000000000,"state":"active","ping":79},{"user_id":235,"name":"Mirage","steam_id":76561199133903803,"connected_time":374000000000,"state":"active","ping":82},{"user_id":230,"name":"Aerobro","steam_id":76561198033530996,"connected_time":1283000000000,"state":"active","ping":71},{"user_id":239,"name":"Dimension","steam_id":76561198132803810,"connected_time":230000000000,"state":"active","ping":58}]},{"server_id":5,"name":"Uncletopia | Frankfurt | 1 | All Maps","name_short":"frk-1","host":"frk-1.de.uncletopia.com","port":27015,"enabled":true,"region":"eu","cc":"de","latitude":50.110924,"longitude":8.682127,"reserved":0,"last_update":"0001-01-01T00:00:00Z","name_a2s":"Uncletopia | Frankfurt | 1 | All Maps","protocol":17,"map":"cp_sunshine","folder":"tf","game":"Team Fortress","app_id":440,"player_count":24,"max_players":24,"Bots":0,"server_type":"Dedicated","server_os":"Linux","password":true,"vac":true,"version":"7757534","steam_id":85568392924469989,"keywords":["cp","nocrits","nodmgspread","uncletopia"],"game_id":440,"stv_port":27016,"stv_name":"Uncletopia | Frankfurt | 1 | All Maps | STV","players":[{"user_id":566,"name":"Mlanky","steam_id":76561198047796778,"connected_time":1342000000000,"state":"active","ping":44},{"user_id":581,"name":"Tomex999","steam_id":76561198049587675,"connected_time":771000000000,"state":"active","ping":78},{"user_id":576,"name":"mocca","steam_id":76561198045388806,"connected_time":1002000000000,"state":"active","ping":60},{"user_id":500,"name":"hananamanna","steam_id":76561198006570285,"connected_time":5969000000000,"state":"active","ping":107},{"user_id":562,"name":"elsuedi","steam_id":76561198074722832,"connected_time":1842000000000,"state":"active","ping":51},{"user_id":542,"name":"pakin157","steam_id":76561198035125667,"connected_time":3544000000000,"state":"active","ping":91},{"user_id":569,"name":"rock","steam_id":76561198093488870,"connected_time":1245000000000,"state":"active","ping":69},{"user_id":554,"name":"Borat","steam_id":76561198122226417,"connected_time":2325000000000,"state":"active","ping":57},{"user_id":559,"name":"Rolloden","steam_id":76561198069414404,"connected_time":1998000000000,"state":"active","ping":51},{"user_id":585,"name":"Huuvi","steam_id":76561198265451304,"connected_time":555000000000,"state":"active","ping":77},{"user_id":507,"name":"tïger","steam_id":76561198260483157,"connected_time":5672000000000,"state":"active","ping":77},{"user_id":584,"name":"butterscotch","steam_id":76561198929149259,"connected_time":648000000000,"state":"active","ping":44},{"user_id":528,"name":"Phalcon","steam_id":76561197987051394,"connected_time":3967000000000,"state":"active","ping":74},{"user_id":529,"name":"DarthMurloc_OW","steam_id":76561198075577711,"connected_time":3965000000000,"state":"active","ping":77},{"user_id":575,"name":"Toxicò","steam_id":76561199031920676,"connected_time":1026000000000,"state":"active","ping":84},{"user_id":560,"name":"khan bram","steam_id":76561198034596820,"connected_time":1985000000000,"state":"active","ping":49},{"user_id":571,"name":"CarbonPan","steam_id":76561198072169983,"connected_time":1236000000000,"state":"active","ping":90},{"user_id":572,"name":"marceline ♡","steam_id":76561198159593026,"connected_time":1181000000000,"state":"active","ping":50},{"user_id":587,"name":"TidB","steam_id":76561198055342304,"connected_time":147000000000,"state":"active","ping":51},{"user_id":550,"name":"Pestdoktor","steam_id":76561198058159271,"connected_time":3031000000000,"state":"active","ping":85},{"user_id":578,"name":"Kan0_","steam_id":76561198129596771,"connected_time":886000000000,"state":"active","ping":54},{"user_id":586,"name":"Julmuri","steam_id":76561198284843949,"connected_time":524000000000,"state":"active","ping":93},{"user_id":579,"name":"justgvbe","steam_id":76561199193230375,"connected_time":836000000000,"state":"active","ping":59},{"user_id":557,"name":"Leah","steam_id":76561198064681443,"connected_time":2179000000000,"state":"active","ping":69}]},{"server_id":110,"name":"Uncletopia | Frankfurt | 2 | All Maps","name_short":"frk-2","host":"frk-1.de.uncletopia.com","port":27025,"enabled":true,"region":"eu","cc":"de","latitude":50.110924,"longitude":8.682127,"reserved":0,"last_update":"0001-01-01T00:00:00Z","name_a2s":"Uncletopia | Frankfurt | 2 | All Maps","protocol":17,"map":"koth_cascade","folder":"tf","game":"Team Fortress","app_id":440,"player_count":0,"max_players":24,"Bots":0,"server_type":"Dedicated","server_os":"Linux","password":true,"vac":true,"version":"7757534","steam_id":85568392924469990,"keywords":["cp","nocrits","nodmgspread","uncletopia"],"game_id":440,"stv_port":27026,"stv_name":"Uncletopia | Frankfurt | 2 | All Maps | STV","players":null},{"server_id":308,"name":"Uncletopia | Frankfurt | 3 | All Maps","name_short":"frk-3","host":"frk-1.de.uncletopia.com","port":27035,"enabled":true,"region":"eu","cc":"de","latitude":50.110924,"longitude":8.682127,"reserved":0,"last_update":"0001-01-01T00:00:00Z","name_a2s":"Uncletopia | Frankfurt | 3 | All Maps","protocol":17,"map":"pl_frontier_final","folder":"tf","game":"Team Fortress","app_id":440,"player_count":7,"max_players":24,"Bots":0,"server_type":"Dedicated","server_os":"Linux","password":true,"vac":true,"version":"7757534","steam_id":85568392924504274,"keywords":["nocrits","nodmgspread","payload","uncletopia"],"game_id":440,"stv_port":27036,"stv_name":"Uncletopia | Frankfurt | 3 | All Maps | STV","players":[{"user_id":270,"name":"Waffley","steam_id":76561198049646978,"connected_time":132000000000,"state":"active","ping":45},{"user_id":269,"name":"Dzan50","steam_id":76561198059758591,"connected_time":449000000000,"state":"active","ping":81},{"user_id":217,"name":"Joey_","steam_id":76561198049098796,"connected_time":3110000000000,"state":"active","ping":45},{"user_id":267,"name":"✧･ﾟ:* fake gamer kittycat","steam_id":76561198028564023,"connected_time":814000000000,"state":"active","ping":50},{"user_id":260,"name":"Seb, Comrade","steam_id":76561198040279587,"connected_time":1202000000000,"state":"active","ping":97},{"user_id":268,"name":"ganz_lustiger_name","steam_id":76561199240340943,"connected_time":715000000000,"state":"active","ping":67},{"user_id":221,"name":"legossi","steam_id":76561199030821525,"connected_time":3017000000000,"state":"active","ping":57}]},{"server_id":309,"name":"Uncletopia | Frankfurt | 4 | All Maps","name_short":"frk-4","host":"frk-1.de.uncletopia.com","port":27045,"enabled":true,"region":"eu","cc":"de","latitude":50.110924,"longitude":8.682127,"reserved":0,"last_update":"0001-01-01T00:00:00Z","name_a2s":"Uncletopia | Frankfurt | 4 | All Maps","protocol":17,"map":"ctf_2fort","folder":"tf","game":"Team Fortress","app_id":440,"player_count":23,"max_players":24,"Bots":0,"server_type":"Dedicated","server_os":"Linux","password":true,"vac":true,"version":"7757534","steam_id":85568392924504275,"keywords":["ctf","nocrits","nodmgspread","uncletopia"],"game_id":440,"stv_port":27046,"stv_name":"Uncletopia | Frankfurt | 4 | All Maps | STV","players":[{"user_id":451,"name":"Matt","steam_id":76561198263644467,"connected_time":223000000000,"state":"active","ping":70},{"user_id":445,"name":"∞ ammo","steam_id":76561198086759500,"connected_time":382000000000,"state":"active","ping":45},{"user_id":437,"name":"KPL","steam_id":76561198431529348,"connected_time":574000000000,"state":"active","ping":129},{"user_id":414,"name":"thor:)","steam_id":76561198117410968,"connected_time":2123000000000,"state":"active","ping":64},{"user_id":447,"name":"peso enjoyer","steam_id":76561198798177799,"connected_time":351000000000,"state":"active","ping":73},{"user_id":448,"name":"Zmora","steam_id":76561199057422095,"connected_time":328000000000,"state":"active","ping":74},{"user_id":454,"name":"Vermox","steam_id":76561198987661889,"connected_time":163000000000,"state":"active","ping":75},{"user_id":402,"name":"attention freaks it's me","steam_id":76561198025592636,"connected_time":2405000000000,"state":"active","ping":65},{"user_id":431,"name":"sloppy transgirl toppy","steam_id":76561198057092208,"connected_time":1494000000000,"state":"active","ping":67},{"user_id":425,"name":"FluoducK","steam_id":76561198158175778,"connected_time":1634000000000,"state":"active","ping":67},{"user_id":452,"name":"Big Al","steam_id":76561198067692439,"connected_time":192000000000,"state":"active","ping":108},{"user_id":435,"name":"Spetse","steam_id":76561197990649972,"connected_time":1363000000000,"state":"active","ping":84},{"user_id":455,"name":"adam","steam_id":76561199024816404,"connected_time":161000000000,"state":"active","ping":74},{"user_id":453,"name":"Jacov","steam_id":76561198116641786,"connected_time":188000000000,"state":"active","ping":78},{"user_id":457,"name":"subway vergil","steam_id":76561199110064166,"connected_time":109000000000,"state":"active","ping":71},{"user_id":406,"name":"Elf Slut C-./S/.-センはブ\ufffd\ufffd","steam_id":76561198124567224,"connected_time":2377000000000,"state":"active","ping":60},{"user_id":409,"name":"maerd.","steam_id":76561198031942623,"connected_time":2359000000000,"state":"active","ping":81},{"user_id":413,"name":"ЯedЯum","steam_id":76561199174010339,"connected_time":2327000000000,"state":"active","ping":62},{"user_id":361,"name":"Dor_atar","steam_id":76561198973980542,"connected_time":5112000000000,"state":"active","ping":70},{"user_id":378,"name":"aughhh","steam_id":76561199000081676,"connected_time":3799000000000,"state":"active","ping":59},{"user_id":424,"name":"Dungeon Leathernant","steam_id":76561198193347734,"connected_time":1652000000000,"state":"active","ping":99},{"user_id":458,"name":"Grichka Bogdanoff","steam_id":76561199157330506,"connected_time":93000000000,"state":"active","ping":73},{"user_id":392,"name":"lenordhofstadar","steam_id":76561199206159631,"connected_time":2801000000000,"state":"active","ping":60}]},{"server_id":310,"name":"Uncletopia | Frankfurt | 5 | All Maps","name_short":"frk-5","host":"frk-1.de.uncletopia.com","port":27055,"enabled":true,"region":"eu","cc":"de","latitude":50.110924,"longitude":8.682127,"reserved":0,"last_update":"0001-01-01T00:00:00Z","name_a2s":"Uncletopia | Frankfurt | 5 | All Maps","protocol":17,"map":"pl_snowycoast","folder":"tf","game":"Team Fortress","app_id":440,"player_count":14,"max_players":24,"Bots":0,"server_type":"Dedicated","server_os":"Linux","password":true,"vac":true,"version":"7757534","steam_id":85568392924504277,"keywords":["nocrits","nodmgspread","payload","uncletopia"],"game_id":440,"stv_port":27056,"stv_name":"Uncletopia | Frankfurt | 5 | All Maps | STV","players":[{"user_id":15,"name":"Necro :3","steam_id":76561198126417238,"connected_time":2373000000000,"state":"active","ping":46},{"user_id":19,"name":"crolee","steam_id":76561198865817316,"connected_time":2043000000000,"state":"active","ping":54},{"user_id":17,"name":"Ewelinka Zniszczenia","steam_id":76561198307374456,"connected_time":2271000000000,"state":"active","ping":69},{"user_id":25,"name":"Lord Of The Ping","steam_id":76561198133567407,"connected_time":771000000000,"state":"active","ping":116},{"user_id":20,"name":"Din Javel","steam_id":76561198043018352,"connected_time":2025000000000,"state":"active","ping":74},{"user_id":33,"name":"Old School RuneScape Pig","steam_id":76561199131668772,"connected_time":364000000000,"state":"active","ping":195},{"user_id":23,"name":"Krim","steam_id":76561199070070579,"connected_time":1644000000000,"state":"active","ping":68},{"user_id":26,"name":"Lickit Like A Champ","steam_id":76561198332390089,"connected_time":734000000000,"state":"active","ping":137},{"user_id":35,"name":".:Mr. SnipeR:.","steam_id":76561198070091899,"connected_time":237000000000,"state":"active","ping":60},{"user_id":31,"name":"Παστουρμαδόπιτα","steam_id":76561198306191855,"connected_time":593000000000,"state":"active","ping":73},{"user_id":29,"name":"leloraps","steam_id":76561199434036706,"connected_time":656000000000,"state":"active","ping":145},{"user_id":38,"name":"gooch","steam_id":76561198110706893,"connected_time":41000000000,"state":"active","ping":56},{"user_id":36,"name":"Professional facestab","steam_id":76561198258721056,"connected_time":175000000000,"state":"active","ping":53},{"user_id":37,"name":"PizzaPete123","steam_id":76561198089478290,"connected_time":167000000000,"state":"active","ping":55}]},{"server_id":311,"name":"Uncletopia | Frankfurt | 6 | All Maps","name_short":"frk-6","host":"frk-1.de.uncletopia.com","port":27065,"enabled":true,"region":"eu","cc":"de","latitude":50.110924,"longitude":8.682127,"reserved":0,"last_update":"0001-01-01T00:00:00Z","name_a2s":"Uncletopia | Frankfurt | 6 | All Maps","protocol":17,"map":"pl_pier","folder":"tf","game":"Team Fortress","app_id":440,"player_count":4,"max_players":24,"Bots":0,"server_type":"Dedicated","server_os":"Linux","password":true,"vac":true,"version":"7757534","steam_id":85568392924504278,"keywords":["nocrits","nodmgspread","payload","uncletopia"],"game_id":440,"stv_port":27066,"stv_name":"Uncletopia | Frankfurt | 6 | All Maps | STV","players":[{"user_id":572,"name":"Gray Ham","steam_id":76561198133952453,"connected_time":864000000000,"state":"active","ping":149},{"user_id":573,"name":"Jinxbreaker","steam_id":76561199071733981,"connected_time":859000000000,"state":"active","ping":149},{"user_id":575,"name":"Butter","steam_id":76561199027981643,"connected_time":407000000000,"state":"active","ping":160},{"user_id":576,"name":"kokii","steam_id":76561198164675078,"connected_time":394000000000,"state":"active","ping":53}]},{"server_id":23,"name":"Uncletopia | Frankfurt | 7 | Stopwatch Beta","name_short":"frk-7","host":"frk-1.de.uncletopia.com","port":27075,"enabled":true,"region":"eu","cc":"de","latitude":50.110924,"longitude":8.682127,"reserved":0,"last_update":"0001-01-01T00:00:00Z","name_a2s":"Uncletopia | Frankfurt | 7 | Stopwatch Beta","protocol":17,"map":"workshop/koth_bagel_rc6.ugc2514036946","folder":"tf","game":"Team Fortress","app_id":440,"player_count":0,"max_players":24,"Bots":0,"server_type":"Dedicated","server_os":"Linux","password":true,"vac":true,"version":"7757534","steam_id":85568392924742827,"keywords":["cp","nocrits","nodmgspread","uncletopia"],"game_id":440,"stv_port":27076,"stv_name":"Uncletopia | Frankfurt | 7 | Stopwatch Beta | STV","players":null},{"server_id":24,"name":"Uncletopia | Frankfurt | 8 | Community","name_short":"frk-8","host":"frk-1.de.uncletopia.com","port":27085,"enabled":true,"region":"eu","cc":"de","latitude":50.110924,"longitude":8.682127,"reserved":0,"last_update":"0001-01-01T00:00:00Z","name_a2s":"Uncletopia | Frankfurt | 8 | Community","protocol":17,"map":"workshop/cp_hazyfort_rc6.ugc1365963729","folder":"tf","game":"Team Fortress","app_id":440,"player_count":0,"max_players":24,"Bots":0,"server_type":"Dedicated","server_os":"Linux","password":true,"vac":true,"version":"7757534","steam_id":85568392924742828,"keywords":["cp","nocrits","nodmgspread","uncletopia"],"game_id":440,"stv_port":27086,"stv_name":"Uncletopia | Frankfurt | 8 | Community | STV","players":null},{"server_id":202,"name":"Uncletopia | Hong Kong | 1 | All Maps","name_short":"hgk-1","host":"hgk-1.hk.uncletopia.com","port":27015,"enabled":true,"region":"asia","cc":"hk","latitude":22.302711,"longitude":114.177216,"reserved":0,"last_update":"0001-01-01T00:00:00Z","name_a2s":"Uncletopia | Hong Kong | 1 | All Maps","protocol":17,"map":"pl_borneo","folder":"tf","game":"Team Fortress","app_id":440,"player_count":0,"max_players":24,"Bots":0,"server_type":"Dedicated","server_os":"Linux","password":true,"vac":true,"version":"7757534","steam_id":85568392924494504,"keywords":["nocrits","nodmgspread","payload","uncletopia"],"game_id":440,"stv_port":27016,"stv_name":"Uncletopia | Hong Kong | 1 | All Maps | STV","players":null},{"server_id":1,"name":"Uncletopia | Los Angeles | 1 | All Maps","name_short":"lax-1","host":"lax-1.us.uncletopia.com","port":27015,"enabled":true,"region":"us-west","cc":"us","latitude":33.94279,"longitude":-118.41004,"reserved":0,"last_update":"0001-01-01T00:00:00Z","name_a2s":"Uncletopia | Los Angeles | 1 | All Maps","protocol":17,"map":"pl_badwater","folder":"tf","game":"Team Fortress","app_id":440,"player_count":24,"max_players":24,"Bots":0,"server_type":"Dedicated","server_os":"Linux","password":true,"vac":true,"version":"7757534","steam_id":85568392924469991,"keywords":["nocrits","nodmgspread","payload","uncletopia"],"game_id":440,"stv_port":27016,"stv_name":"Uncletopia | Los Angeles | 1 | All Maps | STV","players":[{"user_id":240,"name":"See? Bass!","steam_id":76561198207220181,"connected_time":4395000000000,"state":"active","ping":83},{"user_id":244,"name":"DiscoTraveler","steam_id":76561199240168088,"connected_time":4305000000000,"state":"active","ping":106},{"user_id":291,"name":"Salmon","steam_id":76561198285883040,"connected_time":1138000000000,"state":"active","ping":83},{"user_id":292,"name":"Reef","steam_id":76561199130187039,"connected_time":1108000000000,"state":"active","ping":66},{"user_id":276,"name":"ISurvive5","steam_id":76561198361468812,"connected_time":2396000000000,"state":"active","ping":54},{"user_id":274,"name":"NFL.com","steam_id":76561198113405376,"connected_time":2582000000000,"state":"active","ping":45},{"user_id":270,"name":"MBK®Furryy","steam_id":76561198200785531,"connected_time":2860000000000,"state":"active","ping":40},{"user_id":262,"name":"TheEntirePopulationOfRussia","steam_id":76561198137449383,"connected_time":3451000000000,"state":"active","ping":87},{"user_id":218,"name":"Dongus","steam_id":76561197979056451,"connected_time":5862000000000,"state":"active","ping":68},{"user_id":268,"name":"McSpazatron","steam_id":76561198955942148,"connected_time":3276000000000,"state":"active","ping":124},{"user_id":288,"name":"AAGooseman","steam_id":76561198378941369,"connected_time":1618000000000,"state":"active","ping":34},{"user_id":275,"name":"4ft depressed goth girl add me","steam_id":76561198027711900,"connected_time":2401000000000,"state":"active","ping":54},{"user_id":283,"name":"peter griffindor","steam_id":76561198007867721,"connected_time":1958000000000,"state":"active","ping":45},{"user_id":297,"name":"AmIPlayingHeavy?","steam_id":76561198423047856,"connected_time":126000000000,"state":"active","ping":44},{"user_id":289,"name":"Hotdog Goblin","steam_id":76561198004133638,"connected_time":1360000000000,"state":"active","ping":51},{"user_id":269,"name":"cunt","steam_id":76561198118644686,"connected_time":2972000000000,"state":"active","ping":48},{"user_id":295,"name":"BrightOrangeMango","steam_id":76561198023144607,"connected_time":682000000000,"state":"active","ping":62},{"user_id":293,"name":"cakewalk","steam_id":76561198084080386,"connected_time":1092000000000,"state":"active","ping":111},{"user_id":282,"name":"Nooble","steam_id":76561198114556179,"connected_time":2008000000000,"state":"active","ping":45},{"user_id":278,"name":"Kbass421","steam_id":76561198104684512,"connected_time":2380000000000,"state":"active","ping":84},{"user_id":296,"name":"I hate reaping what I have sow!","steam_id":76561198202254225,"connected_time":604000000000,"state":"active","ping":79},{"user_id":277,"name":"Cracked In A Can","steam_id":76561198153788401,"connected_time":2384000000000,"state":"active","ping":31},{"user_id":290,"name":"squids a Grandmaster","steam_id":76561199200296010,"connected_time":1261000000000,"state":"active","ping":90},{"user_id":287,"name":"Petroleum Jelly","steam_id":76561198118778800,"connected_time":1681000000000,"state":"active","ping":49}]},{"server_id":112,"name":"Uncletopia | Los Angeles | 2 | All Maps","name_short":"lax-2","host":"lax-1.us.uncletopia.com","port":27025,"enabled":true,"region":"us-west","cc":"us","latitude":33.94279,"longitude":-118.41004,"reserved":0,"last_update":"0001-01-01T00:00:00Z","name_a2s":"Uncletopia | Los Angeles | 2 | All Maps","protocol":17,"map":"pl_pier","folder":"tf","game":"Team Fortress","app_id":440,"player_count":24,"max_players":24,"Bots":0,"server_type":"Dedicated","server_os":"Linux","password":true,"vac":true,"version":"7757534","steam_id":85568392924469992,"keywords":["nocrits","nodmgspread","payload","uncletopia"],"game_id":440,"stv_port":27026,"stv_name":"Uncletopia | Los Angeles | 2 | All Maps | STV","players":[{"user_id":16,"name":"Lakhesis","steam_id":76561197969796919,"connected_time":2655000000000,"state":"active","ping":113},{"user_id":17,"name":"FartExploder01","steam_id":76561199124760806,"connected_time":2648000000000,"state":"active","ping":112},{"user_id":42,"name":"TeCon","steam_id":76561198049127236,"connected_time":1825000000000,"state":"active","ping":57},{"user_id":41,"name":"Kanye’s therapist","steam_id":76561198855665947,"connected_time":1834000000000,"state":"active","ping":109},{"user_id":20,"name":"Muppety Man","steam_id":76561198215451145,"connected_time":2176000000000,"state":"active","ping":67},{"user_id":21,"name":"ScrockCat","steam_id":76561198012882208,"connected_time":2171000000000,"state":"active","ping":79},{"user_id":22,"name":"Manly Muppet","steam_id":76561198271100632,"connected_time":2166000000000,"state":"active","ping":65},{"user_id":53,"name":"patjiaviar","steam_id":76561199465783209,"connected_time":650000000000,"state":"active","ping":44},{"user_id":51,"name":"Thunder","steam_id":76561198097721532,"connected_time":1263000000000,"state":"active","ping":45},{"user_id":61,"name":"Spytron 3000","steam_id":76561198067791086,"connected_time":131000000000,"state":"active","ping":32},{"user_id":60,"name":"Dallas","steam_id":76561198066542919,"connected_time":218000000000,"state":"active","ping":83},{"user_id":27,"name":"direct misser","steam_id":76561198828006787,"connected_time":2015000000000,"state":"active","ping":122},{"user_id":29,"name":"itchylol742 (1v1 me in tetris)","steam_id":76561198044917402,"connected_time":1970000000000,"state":"active","ping":129},{"user_id":30,"name":"Percoid","steam_id":76561198039229199,"connected_time":1965000000000,"state":"active","ping":75},{"user_id":58,"name":"FuzzToaster","steam_id":76561199201045563,"connected_time":429000000000,"state":"active","ping":159},{"user_id":32,"name":"sine","steam_id":76561198012038088,"connected_time":1942000000000,"state":"active","ping":101},{"user_id":34,"name":"maxeatpie","steam_id":76561198438294875,"connected_time":1910000000000,"state":"active","ping":107},{"user_id":59,"name":"Billy Yank","steam_id":76561199059733640,"connected_time":288000000000,"state":"active","ping":62},{"user_id":36,"name":"JetpackHamster","steam_id":76561198332390022,"connected_time":1889000000000,"state":"active","ping":110},{"user_id":57,"name":"Bomb Squirtle™","steam_id":76561197998931145,"connected_time":530000000000,"state":"active","ping":130},{"user_id":39,"name":"Prof. Leafeon","steam_id":76561198123549027,"connected_time":1844000000000,"state":"active","ping":86},{"user_id":49,"name":"BoofBoof","steam_id":76561198232403012,"connected_time":1612000000000,"state":"active","ping":103},{"user_id":50,"name":"Gratt","steam_id":76561198134657114,"connected_time":1482000000000,"state":"active","ping":57},{"user_id":55,"name":"MORE BOUNCE TO THE OUNCE","steam_id":76561198243399336,"connected_time":556000000000,"state":"active","ping":74}]},{"server_id":324,"name":"Uncletopia | Los Angeles | 3 | All Maps","name_short":"lax-3","host":"lax-1.us.uncletopia.com","port":27035,"enabled":true,"region":"us-west","cc":"us","latitude":33.94279,"longitude":-118.41004,"reserved":0,"last_update":"0001-01-01T00:00:00Z","name_a2s":"Uncletopia | Los Angeles | 3 | All Maps","protocol":17,"map":"cp_dustbowl","folder":"tf","game":"Team Fortress","app_id":440,"player_count":24,"max_players":24,"Bots":0,"server_type":"Dedicated","server_os":"Linux","password":true,"vac":true,"version":"7757534","steam_id":85568392924510198,"keywords":["cp","nocrits","nodmgspread","uncletopia"],"game_id":440,"stv_port":27036,"stv_name":"Uncletopia | Los Angeles | 3 | All Maps | STV","players":[{"user_id":12,"name":"Birdman743","steam_id":76561198799636748,"connected_time":2786000000000,"state":"active","ping":86},{"user_id":29,"name":"Ducksen","steam_id":76561198063952058,"connected_time":1673000000000,"state":"active","ping":57},{"user_id":51,"name":"Mikey","steam_id":76561198074774153,"connected_time":1175000000000,"state":"active","ping":124},{"user_id":25,"name":"DroidixBacon","steam_id":76561198800392071,"connected_time":1759000000000,"state":"active","ping":114},{"user_id":59,"name":"Stargazer A.","steam_id":76561198035479925,"connected_time":326000000000,"state":"active","ping":41},{"user_id":23,"name":"Feddy","steam_id":76561198364645366,"connected_time":1815000000000,"state":"active","ping":99},{"user_id":30,"name":"KR Illusion","steam_id":76561198058968100,"connected_time":1649000000000,"state":"active","ping":95},{"user_id":52,"name":"QuesaDiaz","steam_id":76561198355667850,"connected_time":1170000000000,"state":"active","ping":46},{"user_id":31,"name":"Paopu","steam_id":76561198069520471,"connected_time":1599000000000,"state":"active","ping":117},{"user_id":32,"name":"Mittens the Rancor","steam_id":76561198028640976,"connected_time":1575000000000,"state":"active","ping":95},{"user_id":60,"name":"DubiousDodo","steam_id":76561198828172686,"connected_time":228000000000,"state":"active","ping":83},{"user_id":34,"name":"Zeus","steam_id":76561198129995083,"connected_time":1551000000000,"state":"active","ping":57},{"user_id":35,"name":"Peyote Peterson","steam_id":76561198071093032,"connected_time":1546000000000,"state":"active","ping":37},{"user_id":53,"name":"An00bis","steam_id":76561198044084508,"connected_time":1161000000000,"state":"active","ping":45},{"user_id":61,"name":"Japanese_Spaghetti","steam_id":76561198081019897,"connected_time":126000000000,"state":"active","ping":62},{"user_id":39,"name":"Registeel","steam_id":76561198187662057,"connected_time":1442000000000,"state":"active","ping":57},{"user_id":55,"name":"samantha","steam_id":76561198299290069,"connected_time":1148000000000,"state":"active","ping":60},{"user_id":57,"name":"GreenHairedVegetable","steam_id":76561198156208997,"connected_time":1073000000000,"state":"active","ping":150},{"user_id":44,"name":"The Chosen One","steam_id":76561199046984627,"connected_time":1332000000000,"state":"active","ping":114},{"user_id":62,"name":"Jasmine Rice","steam_id":76561198163163590,"connected_time":108000000000,"state":"active","ping":81},{"user_id":46,"name":"Firedust19","steam_id":76561198153238631,"connected_time":1277000000000,"state":"active","ping":68},{"user_id":56,"name":"PinHeadLarry","steam_id":76561198055672706,"connected_time":1146000000000,"state":"active","ping":91},{"user_id":48,"name":"eau:","steam_id":76561198110020262,"connected_time":1234000000000,"state":"active","ping":38}]},{"server_id":25,"name":"Uncletopia | Los Angeles | 4 | Stopwatch Beta","name_short":"lax-4","host":"lax-1.us.uncletopia.com","port":27045,"enabled":true,"region":"us-west","cc":"us","latitude":33.94279,"longitude":-118.41004,"reserved":0,"last_update":"0001-01-01T00:00:00Z","name_a2s":"Uncletopia | Los Angeles | 4 | Stopwatch Beta","protocol":17,"map":"pl_swiftwater_final1","folder":"tf","game":"Team Fortress","app_id":440,"player_count":1,"max_players":24,"Bots":0,"server_type":"Dedicated","server_os":"Linux","password":true,"vac":true,"version":"7757534","steam_id":85568392924510199,"keywords":["nocrits","nodmgspread","payload","uncletopia"],"game_id":440,"stv_port":27046,"stv_name":"Uncletopia | Los Angeles | 4 | Stopwatch Beta | STV","players":[{"user_id":6,"name":"LENNYPLAYS4U","steam_id":76561199152591846,"connected_time":96000000000,"state":"active","ping":89}]},{"server_id":11,"name":"Uncletopia | London | 1 | All Maps","name_short":"lon-1","host":"lon-1.uk.uncletopia.com","port":27015,"enabled":true,"region":"eu","cc":"gb","latitude":51.509865,"longitude":-0.118092,"reserved":0,"last_update":"0001-01-01T00:00:00Z","name_a2s":"Uncletopia | London | 1 | All Maps","protocol":17,"map":"pl_pier","folder":"tf","game":"Team Fortress","app_id":440,"player_count":24,"max_players":24,"Bots":0,"server_type":"Dedicated","server_os":"Linux","password":true,"vac":true,"version":"7757534","steam_id":85568392924367362,"keywords":["nocrits","nodmgspread","payload","uncletopia"],"game_id":440,"stv_port":27016,"stv_name":"Uncletopia | London | 1 | All Maps | STV","players":[{"user_id":788,"name":"CookD Bread","steam_id":76561199293209500,"connected_time":2784000000000,"state":"active","ping":75},{"user_id":824,"name":"Snowmotion","steam_id":76561198075022454,"connected_time":133000000000,"state":"spawning","ping":48},{"user_id":797,"name":"Azubalex","steam_id":76561198284653499,"connected_time":2067000000000,"state":"active","ping":57},{"user_id":816,"name":"Cheshireycat","steam_id":76561198067204908,"connected_time":1201000000000,"state":"active","ping":52},{"user_id":822,"name":"Ricky Dicky Doo Dah Grimes","steam_id":76561198143221900,"connected_time":489000000000,"state":"active","ping":132},{"user_id":739,"name":"✪ qua ✪","steam_id":76561198066408333,"connected_time":6545000000000,"state":"active","ping":80},{"user_id":820,"name":"Topia","steam_id":76561198163571788,"connected_time":721000000000,"state":"active","ping":76},{"user_id":823,"name":"Volcyy","steam_id":76561198063979124,"connected_time":385000000000,"state":"active","ping":50},{"user_id":679,"name":"♥ aura ♥","steam_id":76561198066258544,"connected_time":13230000000000,"state":"active","ping":115},{"user_id":831,"name":"LeoAvocado","steam_id":76561198990298263,"connected_time":2000000000,"state":"spawning","ping":129},{"user_id":794,"name":"Kretur","steam_id":76561198161086266,"connected_time":2312000000000,"state":"active","ping":104},{"user_id":825,"name":"Robe Iniesta","steam_id":76561199047081427,"connected_time":88000000000,"state":"spawning","ping":65},{"user_id":826,"name":"robouki","steam_id":76561198168265569,"connected_time":24000000000,"state":"active","ping":37},{"user_id":818,"name":"Silas Inservio Pax","steam_id":76561198891896768,"connected_time":1103000000000,"state":"active","ping":51},{"user_id":828,"name":"Skinny101","steam_id":76561197985599360,"connected_time":15000000000,"state":"spawning","ping":37},{"user_id":829,"name":"kittenkitchen24","steam_id":76561199171056489,"connected_time":11000000000,"state":"spawning","ping":179},{"user_id":802,"name":"MS","steam_id":76561198037560108,"connected_time":1877000000000,"state":"active","ping":36},{"user_id":752,"name":"Making Coffee","steam_id":76561198138281039,"connected_time":5591000000000,"state":"active","ping":72},{"user_id":830,"name":"Pocket Medic","steam_id":76561198171516481,"connected_time":9000000000,"state":"spawning","ping":156},{"user_id":793,"name":"nudjura","steam_id":76561198281986139,"connected_time":2361000000000,"state":"active","ping":44},{"user_id":800,"name":"𝔱𝔴𝔲𝔧𝔰𝔱𝔞\ufffd\ufffd\ufffd","steam_id":76561198155944450,"connected_time":1973000000000,"state":"active","ping":104},{"user_id":815,"name":"cinny","steam_id":76561198832112629,"connected_time":1293000000000,"state":"active","ping":91},{"user_id":753,"name":"Qpangfire","steam_id":76561198094354139,"connected_time":5559000000000,"state":"active","ping":51},{"user_id":799,"name":"noob_STALIN","steam_id":76561198273030727,"connected_time":2037000000000,"state":"active","ping":48}]},{"server_id":114,"name":"Uncletopia | London | 2 | All Maps","name_short":"lon-2","host":"lon-1.uk.uncletopia.com","port":27025,"enabled":true,"region":"eu","cc":"gb","latitude":51.509865,"longitude":-0.118092,"reserved":0,"last_update":"0001-01-01T00:00:00Z","name_a2s":"Uncletopia | London | 2 | All Maps","protocol":17,"map":"pl_pier","folder":"tf","game":"Team Fortress","app_id":440,"player_count":24,"max_players":24,"Bots":0,"server_type":"Dedicated","server_os":"Linux","password":true,"vac":true,"version":"7757534","steam_id":85568392924470941,"keywords":["nocrits","nodmgspread","payload","uncletopia"],"game_id":440,"stv_port":27026,"stv_name":"Uncletopia | London | 2 | All Maps | STV","players":[{"user_id":571,"name":"Sputnik","steam_id":76561198138660241,"connected_time":154000000000,"state":"active","ping":62},{"user_id":559,"name":"Lethal","steam_id":76561198452042648,"connected_time":758000000000,"state":"active","ping":70},{"user_id":529,"name":"Cataleptic","steam_id":76561197997966949,"connected_time":3716000000000,"state":"active","ping":55},{"user_id":567,"name":"wickEd_","steam_id":76561198048068999,"connected_time":408000000000,"state":"active","ping":152},{"user_id":536,"name":"Pixie","steam_id":76561198044038797,"connected_time":2736000000000,"state":"active","ping":87},{"user_id":490,"name":"Sn1perK1ng","steam_id":76561198128065329,"connected_time":5840000000000,"state":"active","ping":58},{"user_id":532,"name":"kojitori","steam_id":76561198838072150,"connected_time":3422000000000,"state":"active","ping":45},{"user_id":574,"name":"Mushy.","steam_id":76561198107247371,"connected_time":106000000000,"state":"active","ping":67},{"user_id":580,"name":"tired","steam_id":76561198046838168,"connected_time":62000000000,"state":"active","ping":62},{"user_id":566,"name":"godmodule","steam_id":76561198165995444,"connected_time":507000000000,"state":"active","ping":76},{"user_id":545,"name":"dio stronzolo","steam_id":76561199233979726,"connected_time":1931000000000,"state":"active","ping":93},{"user_id":569,"name":"The Pestilence","steam_id":76561199081252282,"connected_time":349000000000,"state":"active","ping":172},{"user_id":573,"name":"Jenna Zdravkovich","steam_id":76561198191074514,"connected_time":146000000000,"state":"active","ping":73},{"user_id":576,"name":"rajAs","steam_id":76561198035928111,"connected_time":94000000000,"state":"active","ping":87},{"user_id":568,"name":"Svettiga Gunnar","steam_id":76561197998579531,"connected_time":364000000000,"state":"active","ping":70},{"user_id":502,"name":"Tails8521","steam_id":76561198051747164,"connected_time":5596000000000,"state":"active","ping":53},{"user_id":511,"name":"HurrpNana","steam_id":76561199102156562,"connected_time":5204000000000,"state":"active","ping":91},{"user_id":534,"name":"Makugan Ω","steam_id":76561198064247577,"connected_time":2875000000000,"state":"active","ping":67},{"user_id":577,"name":"idc","steam_id":76561198322087870,"connected_time":84000000000,"state":"active","ping":106},{"user_id":556,"name":"Mr. Fox","steam_id":76561198803610709,"connected_time":1459000000000,"state":"active","ping":115},{"user_id":503,"name":"78","steam_id":76561198208328357,"connected_time":5596000000000,"state":"active","ping":88},{"user_id":579,"name":"Cheesy Weenie","steam_id":76561198332060606,"connected_time":79000000000,"state":"spawning","ping":197},{"user_id":563,"name":"Zixzs","steam_id":76561198055504126,"connected_time":713000000000,"state":"active","ping":157},{"user_id":564,"name":"gGABEsz","steam_id":76561198117199068,"connected_time":706000000000,"state":"active","ping":70}]},{"server_id":320,"name":"Uncletopia | London | 3 | All Maps","name_short":"lon-3","host":"lon-1.uk.uncletopia.com","port":27035,"enabled":true,"region":"eu","cc":"gb","latitude":51.509865,"longitude":-0.118092,"reserved":0,"last_update":"0001-01-01T00:00:00Z","name_a2s":"Uncletopia | London | 3 | All Maps","protocol":17,"map":"pl_barnblitz","folder":"tf","game":"Team Fortress","app_id":440,"player_count":24,"max_players":24,"Bots":0,"server_type":"Dedicated","server_os":"Linux","password":true,"vac":true,"version":"7757534","steam_id":85568392924510192,"keywords":["nocrits","nodmgspread","payload","uncletopia"],"game_id":440,"stv_port":27036,"stv_name":"Uncletopia | London | 3 | All Maps | STV","players":[{"user_id":304,"name":"But Kanye Do This?!","steam_id":76561198044230403,"connected_time":2985000000000,"state":"active","ping":48},{"user_id":325,"name":"RARE ENDANGERED CRAB SPY","steam_id":76561197971010483,"connected_time":453000000000,"state":"active","ping":54},{"user_id":302,"name":"nedilya","steam_id":76561198039692077,"connected_time":3260000000000,"state":"active","ping":62},{"user_id":326,"name":"Fus in Boots","steam_id":76561198053897722,"connected_time":443000000000,"state":"active","ping":53},{"user_id":324,"name":"Professor Page","steam_id":76561198011949134,"connected_time":578000000000,"state":"active","ping":45},{"user_id":310,"name":"Thanks for your opinion, but...","steam_id":76561198130560616,"connected_time":2013000000000,"state":"active","ping":39},{"user_id":311,"name":"Dirty Joe","steam_id":76561198142418870,"connected_time":1996000000000,"state":"active","ping":42},{"user_id":317,"name":"smol","steam_id":76561198136744617,"connected_time":1325000000000,"state":"active","ping":67},{"user_id":303,"name":"Gozzer","steam_id":76561197984155185,"connected_time":3069000000000,"state":"active","ping":71},{"user_id":276,"name":"Grogon","steam_id":76561198203300218,"connected_time":5093000000000,"state":"active","ping":69},{"user_id":333,"name":"kunta kinte","steam_id":76561198033845455,"connected_time":120000000000,"state":"active","ping":98},{"user_id":293,"name":"Mari Christmas","steam_id":76561197997020707,"connected_time":3602000000000,"state":"active","ping":53},{"user_id":266,"name":"Silverdarlin","steam_id":76561198118540970,"connected_time":5406000000000,"state":"active","ping":58},{"user_id":328,"name":"Gramma!","steam_id":76561198340989175,"connected_time":380000000000,"state":"active","ping":168},{"user_id":278,"name":"sora! (live \u003c3)","steam_id":76561198096547662,"connected_time":5004000000000,"state":"active","ping":55},{"user_id":319,"name":"LiterallyRyanGosling","steam_id":76561199017856691,"connected_time":1115000000000,"state":"active","ping":52},{"user_id":329,"name":"lets gooooo","steam_id":76561198083615367,"connected_time":337000000000,"state":"active","ping":36},{"user_id":321,"name":"Sillier-NA","steam_id":76561198112171949,"connected_time":1050000000000,"state":"active","ping":160},{"user_id":296,"name":"eduardo","steam_id":76561198014491925,"connected_time":3561000000000,"state":"active","ping":90},{"user_id":297,"name":"usia","steam_id":76561198120406679,"connected_time":3557000000000,"state":"active","ping":93},{"user_id":314,"name":"ack","steam_id":76561198139796077,"connected_time":1758000000000,"state":"active","ping":59},{"user_id":330,"name":"skill","steam_id":76561198106012909,"connected_time":315000000000,"state":"active","ping":80},{"user_id":332,"name":"Dom","steam_id":76561198029179981,"connected_time":225000000000,"state":"active","ping":59},{"user_id":282,"name":"ChPerette","steam_id":76561198060004887,"connected_time":4953000000000,"state":"active","ping":44}]},{"server_id":321,"name":"Uncletopia | London | 4 | All Maps","name_short":"lon-4","host":"lon-1.uk.uncletopia.com","port":27045,"enabled":true,"region":"eu","cc":"gb","latitude":51.509865,"longitude":-0.118092,"reserved":0,"last_update":"0001-01-01T00:00:00Z","name_a2s":"Uncletopia | London | 4 | All Maps","protocol":17,"map":"pl_badwater","folder":"tf","game":"Team Fortress","app_id":440,"player_count":24,"max_players":24,"Bots":0,"server_type":"Dedicated","server_os":"Linux","password":true,"vac":true,"version":"7757534","steam_id":85568392924510193,"keywords":["nocrits","nodmgspread","payload","uncletopia"],"game_id":440,"stv_port":27046,"stv_name":"Uncletopia | London | 4 | All Maps | STV","players":[{"user_id":384,"name":"elwen","steam_id":76561198025282054,"connected_time":1037000000000,"state":"active","ping":73},{"user_id":366,"name":"Aroo","steam_id":76561198132601368,"connected_time":1719000000000,"state":"active","ping":78},{"user_id":380,"name":"New","steam_id":76561198402195911,"connected_time":1149000000000,"state":"active","ping":108},{"user_id":376,"name":"Loz405 (YouTube)","steam_id":76561198799315884,"connected_time":1325000000000,"state":"active","ping":57},{"user_id":349,"name":"ゆず the nowhere k;ng.","steam_id":76561198042830349,"connected_time":3293000000000,"state":"active","ping":76},{"user_id":383,"name":"Refurbished Boy","steam_id":76561197995834697,"connected_time":1116000000000,"state":"active","ping":99},{"user_id":371,"name":"󠀡󠀡󠀡⁧⁧Bug","steam_id":76561198094108424,"connected_time":1671000000000,"state":"active","ping":66},{"user_id":394,"name":"Dog Faced Boy","steam_id":76561198012351470,"connected_time":134000000000,"state":"active","ping":38},{"user_id":375,"name":"GoldTheAngel","steam_id":76561198094915645,"connected_time":1556000000000,"state":"active","ping":57},{"user_id":368,"name":"Pyromanic8","steam_id":76561198098501206,"connected_time":1692000000000,"state":"active","ping":125},{"user_id":373,"name":"Jayco","steam_id":76561198122497262,"connected_time":1655000000000,"state":"active","ping":58},{"user_id":352,"name":"Toaster The Whaler","steam_id":76561198018826007,"connected_time":3273000000000,"state":"active","ping":57},{"user_id":362,"name":"[NT*] Jack ツ","steam_id":76561198027205980,"connected_time":2641000000000,"state":"active","ping":35},{"user_id":322,"name":"Clear Sights","steam_id":76561198006215683,"connected_time":4314000000000,"state":"active","ping":175},{"user_id":385,"name":"Nekolinku","steam_id":76561198074896201,"connected_time":959000000000,"state":"active","ping":52},{"user_id":381,"name":"Onvee","steam_id":76561198205342551,"connected_time":1135000000000,"state":"active","ping":64},{"user_id":365,"name":"sens","steam_id":76561199441196540,"connected_time":1833000000000,"state":"active","ping":75},{"user_id":329,"name":"[WDB] Treadwell","steam_id":76561198088482914,"connected_time":4179000000000,"state":"active","ping":59},{"user_id":388,"name":"cs_italyjoseon_cso","steam_id":76561199062818404,"connected_time":695000000000,"state":"active","ping":66},{"user_id":379,"name":"yer_nerd","steam_id":76561199435454093,"connected_time":1201000000000,"state":"active","ping":129},{"user_id":386,"name":"Blou1s","steam_id":76561198069226434,"connected_time":869000000000,"state":"active","ping":62},{"user_id":393,"name":"xo","steam_id":76561198226583636,"connected_time":553000000000,"state":"active","ping":75},{"user_id":382,"name":"è","steam_id":76561198102074859,"connected_time":1130000000000,"state":"active","ping":113},{"user_id":387,"name":"Dispenser","steam_id":76561198088898260,"connected_time":794000000000,"state":"active","ping":72}]},{"server_id":21,"name":"Uncletopia | London | 5 | All Maps","name_short":"lon-5","host":"lon-1.uk.uncletopia.com","port":27055,"enabled":true,"region":"eu","cc":"gb","latitude":51.509865,"longitude":-0.118092,"reserved":0,"last_update":"0001-01-01T00:00:00Z","name_a2s":"Uncletopia | London | 5 | All Maps","protocol":17,"map":"koth_harvest_final","folder":"tf","game":"Team Fortress","app_id":440,"player_count":24,"max_players":24,"Bots":0,"server_type":"Dedicated","server_os":"Linux","password":true,"vac":true,"version":"7757534","steam_id":85568392924742829,"keywords":["cp","nocrits","nodmgspread","uncletopia"],"game_id":440,"stv_port":27056,"stv_name":"Uncletopia | London | 5 | All Maps | STV","players":[{"user_id":345,"name":"Thurny","steam_id":76561198084997045,"connected_time":485000000000,"state":"active","ping":77},{"user_id":332,"name":"daphnit (she/they)","steam_id":76561198021596004,"connected_time":1225000000000,"state":"active","ping":47},{"user_id":350,"name":"Hamhog","steam_id":76561198353967566,"connected_time":285000000000,"state":"active","ping":133},{"user_id":355,"name":"Vintage Violet","steam_id":76561199122876946,"connected_time":166000000000,"state":"active","ping":160},{"user_id":308,"name":"ZingyBot_","steam_id":76561198284732624,"connected_time":2346000000000,"state":"active","ping":60},{"user_id":352,"name":"engie?","steam_id":76561198331852832,"connected_time":259000000000,"state":"active","ping":47},{"user_id":257,"name":"Bobo","steam_id":76561198052308399,"connected_time":6041000000000,"state":"active","ping":70},{"user_id":347,"name":"Umby","steam_id":76561198166584580,"connected_time":386000000000,"state":"active","ping":38},{"user_id":302,"name":"sape","steam_id":76561198089322416,"connected_time":2754000000000,"state":"active","ping":96},{"user_id":329,"name":"[Éire] Hype!","steam_id":76561198061449287,"connected_time":1296000000000,"state":"active","ping":52},{"user_id":333,"name":"monitor124","steam_id":76561198276474157,"connected_time":1219000000000,"state":"active","ping":59},{"user_id":348,"name":"walkerarcher2","steam_id":76561199479691952,"connected_time":385000000000,"state":"active","ping":176},{"user_id":330,"name":"spl .davi","steam_id":76561198029015952,"connected_time":1284000000000,"state":"active","ping":61},{"user_id":356,"name":"Dave The Sloth","steam_id":76561199135831355,"connected_time":163000000000,"state":"active","ping":62},{"user_id":357,"name":"Pyro","steam_id":76561199267143939,"connected_time":159000000000,"state":"active","ping":167},{"user_id":293,"name":"beeper","steam_id":76561198130416479,"connected_time":3165000000000,"state":"active","ping":56},{"user_id":358,"name":"buttfiend","steam_id":76561198136239861,"connected_time":158000000000,"state":"active","ping":49},{"user_id":325,"name":"ＴrendyＬemon","steam_id":76561198158957324,"connected_time":1476000000000,"state":"active","ping":62},{"user_id":305,"name":"duplicated","steam_id":76561198344952248,"connected_time":2740000000000,"state":"active","ping":56},{"user_id":360,"name":"roze","steam_id":76561198099591549,"connected_time":38000000000,"state":"active","ping":134},{"user_id":336,"name":"1 toke 4 mars bars","steam_id":76561198056460000,"connected_time":1163000000000,"state":"active","ping":70},{"user_id":342,"name":"sub","steam_id":76561197981917399,"connected_time":907000000000,"state":"active","ping":115},{"user_id":346,"name":"Mc Questionable","steam_id":76561198128290663,"connected_time":481000000000,"state":"active","ping":63},{"user_id":361,"name":".mysery^","steam_id":76561199434776051,"connected_time":37000000000,"state":"active","ping":75}]},{"server_id":22,"name":"Uncletopia | London | 6 | All Maps","name_short":"lon-6","host":"lon-1.uk.uncletopia.com","port":27065,"enabled":true,"region":"eu","cc":"gb","latitude":51.509865,"longitude":-0.118092,"reserved":0,"last_update":"0001-01-01T00:00:00Z","name_a2s":"Uncletopia | London | 6 | All Maps","protocol":17,"map":"koth_cascade","folder":"tf","game":"Team Fortress","app_id":440,"player_count":0,"max_players":24,"Bots":0,"server_type":"Dedicated","server_os":"Linux","password":true,"vac":true,"version":"7757534","steam_id":85568392924742830,"keywords":["cp","nocrits","nodmgspread","uncletopia"],"game_id":440,"stv_port":27066,"stv_name":"Uncletopia | London | 6 | All Maps | STV","players":null},{"server_id":40,"name":"Uncletopia | London | 7 | No Payload","name_short":"lon-7","host":"lon-1.uk.uncletopia.com","port":27075,"enabled":true,"region":"eu","cc":"gb","latitude":51.509865,"longitude":-0.118092,"reserved":0,"last_update":"0001-01-01T00:00:00Z","name_a2s":"Uncletopia | London | 7 | No Payload","protocol":17,"map":"koth_lazarus","folder":"tf","game":"Team Fortress","app_id":440,"player_count":6,"max_players":24,"Bots":0,"server_type":"Dedicated","server_os":"Linux","password":true,"vac":true,"version":"7757534","steam_id":85568392924964314,"keywords":["cp","nocrits","nodmgspread","uncletopia"],"game_id":440,"stv_port":27076,"stv_name":"Uncletopia | London | 7 | No Payload | STV","players":[{"user_id":16,"name":"Vakovah","steam_id":76561198451270237,"connected_time":1656000000000,"state":"active","ping":53},{"user_id":18,"name":"Kairo","steam_id":76561198391378433,"connected_time":1621000000000,"state":"active","ping":130},{"user_id":19,"name":"Turtle","steam_id":76561198278665305,"connected_time":1483000000000,"state":"active","ping":190},{"user_id":23,"name":"Carrot__Bruh","steam_id":76561199070123607,"connected_time":468000000000,"state":"active","ping":57},{"user_id":22,"name":"SoupBananas","steam_id":76561199150774734,"connected_time":576000000000,"state":"active","ping":56},{"user_id":24,"name":"batscovethe2nd","steam_id":76561199109923603,"connected_time":126000000000,"state":"active","ping":132}]},{"server_id":41,"name":"Uncletopia | London | 8 | Community","name_short":"lon-8","host":"lon-1.uk.uncletopia.com","port":27085,"enabled":true,"region":"eu","cc":"gb","latitude":51.509865,"longitude":-0.118092,"reserved":0,"last_update":"0001-01-01T00:00:00Z","name_a2s":"Uncletopia | London | 8 | Community","protocol":17,"map":"pl_barnblitz","folder":"tf","game":"Team Fortress","app_id":440,"player_count":0,"max_players":24,"Bots":0,"server_type":"Dedicated","server_os":"Linux","password":true,"vac":true,"version":"7757534","steam_id":85568392924964315,"keywords":["nocrits","nodmgspread","payload","uncletopia"],"game_id":440,"stv_port":27086,"stv_name":"Uncletopia | London | 8 | Community | STV","players":null},{"server_id":300,"name":"Uncletopia | Montréal | 1 | All Maps","name_short":"mtl-1","host":"mtl-1.ca.uncletopia.com","port":27015,"enabled":true,"region":"us-east","cc":"ca","latitude":45.50889,"longitude":-73.56167,"reserved":0,"last_update":"0001-01-01T00:00:00Z","name_a2s":"Uncletopia | Montréal | 1 | All Maps","protocol":17,"map":"pl_snowycoast","folder":"tf","game":"Team Fortress","app_id":440,"player_count":22,"max_players":24,"Bots":0,"server_type":"Dedicated","server_os":"Linux","password":true,"vac":true,"version":"7757534","steam_id":85568392924500087,"keywords":["nocrits","nodmgspread","payload","uncletopia"],"game_id":440,"stv_port":27016,"stv_name":"Uncletopia | Montréal | 1 | All Maps | STV","players":[{"user_id":74,"name":"obi wan nairobi","steam_id":76561199158477523,"connected_time":1832000000000,"state":"active","ping":59},{"user_id":65,"name":"Pardonk","steam_id":76561198040861687,"connected_time":2487000000000,"state":"active","ping":102},{"user_id":96,"name":"Jerphf","steam_id":76561198328825964,"connected_time":495000000000,"state":"active","ping":183},{"user_id":21,"name":"Silvercoat's Stargazer","steam_id":76561198399525329,"connected_time":5048000000000,"state":"active","ping":73},{"user_id":84,"name":"Inpecular","steam_id":76561198096571237,"connected_time":1511000000000,"state":"active","ping":76},{"user_id":87,"name":"dozy","steam_id":76561199470933385,"connected_time":1252000000000,"state":"active","ping":59},{"user_id":90,"name":"RedTheNamek","steam_id":76561198123823690,"connected_time":1121000000000,"state":"active","ping":55},{"user_id":98,"name":"quite the notorious scoundrel","steam_id":76561198163993775,"connected_time":446000000000,"state":"active","ping":87},{"user_id":99,"name":"MatCat","steam_id":76561198985819306,"connected_time":430000000000,"state":"active","ping":128},{"user_id":100,"name":"sosegar1002","steam_id":76561199471908231,"connected_time":416000000000,"state":"active","ping":140},{"user_id":19,"name":"Chad","steam_id":76561198222313772,"connected_time":5190000000000,"state":"active","ping":83},{"user_id":104,"name":"Frodogorn","steam_id":76561198045539037,"connected_time":198000000000,"state":"active","ping":59},{"user_id":22,"name":"The Winter Medic","steam_id":76561198197112922,"connected_time":5040000000000,"state":"active","ping":69},{"user_id":85,"name":"Basalt","steam_id":76561199173989941,"connected_time":1495000000000,"state":"active","ping":67},{"user_id":59,"name":"veryscaryreaper","steam_id":76561198380018244,"connected_time":2935000000000,"state":"active","ping":88},{"user_id":102,"name":"Ekohtwo","steam_id":76561198067994868,"connected_time":399000000000,"state":"active","ping":85},{"user_id":94,"name":"Pickle-down Rickonomics","steam_id":76561198096318921,"connected_time":813000000000,"state":"active","ping":30},{"user_id":103,"name":"DD_440","steam_id":76561199135978082,"connected_time":391000000000,"state":"active","ping":64},{"user_id":70,"name":"The Enclave","steam_id":76561198257670344,"connected_time":2301000000000,"state":"active","ping":155},{"user_id":82,"name":"WeegeePJ","steam_id":76561199383362382,"connected_time":1631000000000,"state":"active","ping":79},{"user_id":83,"name":"Goomba","steam_id":76561199031935496,"connected_time":1616000000000,"state":"active","ping":75},{"user_id":86,"name":"Amelia Watson Gaming","steam_id":76561198868819185,"connected_time":1488000000000,"state":"active","ping":81}]},{"server_id":301,"name":"Uncletopia | Montréal | 2 | All Maps","name_short":"mtl-2","host":"mtl-1.ca.uncletopia.com","port":27025,"enabled":true,"region":"us-east","cc":"ca","latitude":45.50889,"longitude":-73.56167,"reserved":0,"last_update":"0001-01-01T00:00:00Z","name_a2s":"Uncletopia | Montréal | 2 | All Maps","protocol":17,"map":"pl_badwater","folder":"tf","game":"Team Fortress","app_id":440,"player_count":24,"max_players":24,"Bots":0,"server_type":"Dedicated","server_os":"Linux","password":true,"vac":true,"version":"7757534","steam_id":85568392924500088,"keywords":["nocrits","nodmgspread","payload","uncletopia"],"game_id":440,"stv_port":27026,"stv_name":"Uncletopia | Montréal | 2 | All Maps | STV","players":[{"user_id":3,"name":"「ʙᴀʀɴʙʟɪᴛᴢ」","steam_id":76561198190323610,"connected_time":3044000000000,"state":"active","ping":77},{"user_id":4,"name":"Zenabie","steam_id":76561198088372680,"connected_time":3038000000000,"state":"active","ping":77},{"user_id":5,"name":"Curlytop","steam_id":76561198368845472,"connected_time":3030000000000,"state":"active","ping":75},{"user_id":6,"name":"sylvelune","steam_id":76561198170175641,"connected_time":2986000000000,"state":"active","ping":92},{"user_id":7,"name":"K","steam_id":76561198125357358,"connected_time":2956000000000,"state":"active","ping":67},{"user_id":8,"name":"neckbeard emperor","steam_id":76561198359450966,"connected_time":2951000000000,"state":"active","ping":100},{"user_id":45,"name":"pontiv","steam_id":76561197995384565,"connected_time":455000000000,"state":"active","ping":38},{"user_id":17,"name":"phenom811","steam_id":76561199236145358,"connected_time":2616000000000,"state":"active","ping":72},{"user_id":33,"name":"Eternal Neckbeard","steam_id":76561198201862415,"connected_time":1874000000000,"state":"active","ping":49},{"user_id":12,"name":"Reza The Cool","steam_id":76561198372285506,"connected_time":2738000000000,"state":"active","ping":60},{"user_id":46,"name":"uufyfuu","steam_id":76561198142787212,"connected_time":431000000000,"state":"active","ping":95},{"user_id":27,"name":"Xuulis","steam_id":76561198042810905,"connected_time":2476000000000,"state":"active","ping":82},{"user_id":47,"name":"Beepo Bungus","steam_id":76561199422327903,"connected_time":405000000000,"state":"active","ping":98},{"user_id":18,"name":"cardboardwarrior1","steam_id":76561199145044693,"connected_time":2598000000000,"state":"active","ping":146},{"user_id":19,"name":"Master John Thursday","steam_id":76561197987593154,"connected_time":2597000000000,"state":"active","ping":81},{"user_id":35,"name":"YouArePoetry","steam_id":76561198320024575,"connected_time":1668000000000,"state":"active","ping":74},{"user_id":48,"name":"Pebbled","steam_id":76561199390347605,"connected_time":390000000000,"state":"active","ping":101},{"user_id":49,"name":"ARotisserieChicken","steam_id":76561199390395574,"connected_time":378000000000,"state":"active","ping":81},{"user_id":44,"name":"A_Yellow_Toaster","steam_id":76561199022453946,"connected_time":475000000000,"state":"active","ping":128},{"user_id":25,"name":"Clay Pot","steam_id":76561199030644557,"connected_time":2499000000000,"state":"active","ping":92},{"user_id":43,"name":"shaoer","steam_id":76561198071376804,"connected_time":494000000000,"state":"active","ping":81},{"user_id":28,"name":"ali","steam_id":76561198271449374,"connected_time":2431000000000,"state":"active","ping":67},{"user_id":42,"name":"Malicious Mop","steam_id":76561199117640736,"connected_time":1328000000000,"state":"active","ping":86},{"user_id":38,"name":"Azura","steam_id":76561197996730844,"connected_time":1599000000000,"state":"active","ping":139}]},{"server_id":302,"name":"Uncletopia | Montréal | 3 | All Maps","name_short":"mtl-3","host":"mtl-1.ca.uncletopia.com","port":27035,"enabled":true,"region":"us-east","cc":"ca","latitude":45.50889,"longitude":-73.56167,"reserved":0,"last_update":"0001-01-01T00:00:00Z","name_a2s":"Uncletopia | Montréal | 3 | All Maps","protocol":17,"map":"pl_badwater","folder":"tf","game":"Team Fortress","app_id":440,"player_count":21,"max_players":24,"Bots":0,"server_type":"Dedicated","server_os":"Linux","password":true,"vac":true,"version":"7757534","steam_id":85568392924500089,"keywords":["nocrits","nodmgspread","payload","uncletopia"],"game_id":440,"stv_port":27036,"stv_name":"Uncletopia | Montréal | 3 | All Maps | STV","players":[{"user_id":69,"name":"Huntpk","steam_id":76561198340591674,"connected_time":1604000000000,"state":"spawning","ping":57},{"user_id":54,"name":"Rocky","steam_id":76561198048158539,"connected_time":1850000000000,"state":"spawning","ping":84},{"user_id":90,"name":"SirHipster0p","steam_id":76561198340315145,"connected_time":66000000000,"state":"spawning","ping":78},{"user_id":79,"name":"Game Trooper","steam_id":76561198044979579,"connected_time":972000000000,"state":"spawning","ping":47},{"user_id":70,"name":"いちごまろ","steam_id":76561198166100997,"connected_time":1598000000000,"state":"spawning","ping":98},{"user_id":88,"name":"Alejandro_the_Lucario","steam_id":76561199229731503,"connected_time":448000000000,"state":"spawning","ping":65},{"user_id":60,"name":"griff928","steam_id":76561198149614679,"connected_time":1793000000000,"state":"spawning","ping":48},{"user_id":76,"name":"Casual Costanza","steam_id":76561198024409325,"connected_time":1285000000000,"state":"spawning","ping":62},{"user_id":86,"name":"Holdie","steam_id":76561198070378200,"connected_time":699000000000,"state":"spawning","ping":65},{"user_id":61,"name":"SC|Formuoli","steam_id":76561198254354595,"connected_time":1792000000000,"state":"spawning","ping":61},{"user_id":89,"name":"jazztree14","steam_id":76561199239395356,"connected_time":398000000000,"state":"spawning","ping":77},{"user_id":36,"name":"dog","steam_id":76561198263873491,"connected_time":3530000000000,"state":"spawning","ping":66},{"user_id":92,"name":"Lobotomized By Cyanide","steam_id":76561199102542822,"connected_time":27000000000,"state":"spawning","ping":73},{"user_id":63,"name":"lost in spaaaaace","steam_id":76561199085974120,"connected_time":1791000000000,"state":"spawning","ping":60},{"user_id":78,"name":"float","steam_id":76561198183039354,"connected_time":1197000000000,"state":"spawning","ping":107},{"user_id":73,"name":"Fobic P","steam_id":76561198400544409,"connected_time":1579000000000,"state":"spawning","ping":121},{"user_id":82,"name":"Jeffenthropus","steam_id":76561198134204248,"connected_time":904000000000,"state":"spawning","ping":49},{"user_id":74,"name":"Swifgz","steam_id":76561198162875756,"connected_time":1378000000000,"state":"spawning","ping":54},{"user_id":37,"name":"narcist 🔥","steam_id":76561198255705632,"connected_time":3514000000000,"state":"spawning","ping":56},{"user_id":91,"name":"PapaBluss","steam_id":76561198023499564,"connected_time":29000000000,"state":"spawning","ping":59},{"user_id":87,"name":"The Vat Rat","steam_id":76561198118304685,"connected_time":676000000000,"state":"spawning","ping":54}]},{"server_id":303,"name":"Uncletopia | Montréal | 4 | No Payload","name_short":"mtl-4","host":"mtl-1.ca.uncletopia.com","port":27045,"enabled":true,"region":"us-east","cc":"ca","latitude":45.50889,"longitude":-73.56167,"reserved":0,"last_update":"0001-01-01T00:00:00Z","name_a2s":"Uncletopia | Montréal | 4 | No Payload","protocol":17,"map":"pl_pier","folder":"tf","game":"Team Fortress","app_id":440,"player_count":24,"max_players":24,"Bots":0,"server_type":"Dedicated","server_os":"Linux","password":true,"vac":true,"version":"7757534","steam_id":85568392924500090,"keywords":["nocrits","nodmgspread","payload","uncletopia"],"game_id":440,"stv_port":27046,"stv_name":"Uncletopia | Montréal | 4 | No Payload | STV","players":[{"user_id":6,"name":"Fluffypillow64","steam_id":76561198853272694,"connected_time":1728000000000,"state":"active","ping":85},{"user_id":7,"name":"Canteloupe","steam_id":76561199187764012,"connected_time":1633000000000,"state":"active","ping":60},{"user_id":9,"name":"Mask","steam_id":76561198877649728,"connected_time":900000000000,"state":"active","ping":150},{"user_id":10,"name":"Pinto","steam_id":76561199105386998,"connected_time":863000000000,"state":"active","ping":92},{"user_id":11,"name":"Stone937","steam_id":76561199243372990,"connected_time":842000000000,"state":"active","ping":114},{"user_id":12,"name":"Father David","steam_id":76561199083156736,"connected_time":735000000000,"state":"active","ping":107},{"user_id":13,"name":"Manikin","steam_id":76561198354179323,"connected_time":735000000000,"state":"active","ping":126},{"user_id":14,"name":"buford tobagganson","steam_id":76561198240043930,"connected_time":648000000000,"state":"active","ping":71},{"user_id":15,"name":"Honest Tunnel Salesman","steam_id":76561198059071100,"connected_time":619000000000,"state":"active","ping":50},{"user_id":24,"name":"kits","steam_id":76561198839256184,"connected_time":514000000000,"state":"active","ping":51},{"user_id":33,"name":"A Shiny Meat Bicycle","steam_id":76561198358757709,"connected_time":321000000000,"state":"active","ping":113},{"user_id":37,"name":"niko","steam_id":76561198203732449,"connected_time":174000000000,"state":"active","ping":76},{"user_id":19,"name":"Fairy WeedMother","steam_id":76561198831382303,"connected_time":581000000000,"state":"active","ping":89},{"user_id":21,"name":"Gogo","steam_id":76561198172430633,"connected_time":557000000000,"state":"active","ping":76},{"user_id":22,"name":"Dusaro","steam_id":76561198022303683,"connected_time":541000000000,"state":"active","ping":72},{"user_id":25,"name":"Venk","steam_id":76561198251131422,"connected_time":463000000000,"state":"active","ping":87},{"user_id":38,"name":"Ping","steam_id":76561199206514106,"connected_time":133000000000,"state":"active","ping":73},{"user_id":41,"name":"V_V","steam_id":76561198236031182,"connected_time":60000000000,"state":"spawning","ping":488},{"user_id":35,"name":"craf","steam_id":76561198163535075,"connected_time":216000000000,"state":"active","ping":80},{"user_id":29,"name":"B12","steam_id":76561199052617324,"connected_time":425000000000,"state":"active","ping":88},{"user_id":30,"name":"MetalKidDoc","steam_id":76561198108741986,"connected_time":420000000000,"state":"active","ping":88},{"user_id":31,"name":"oxycodone overdose","steam_id":76561198805511159,"connected_time":360000000000,"state":"active","ping":46},{"user_id":39,"name":"Pizza Steve","steam_id":76561198053755166,"connected_time":89000000000,"state":"active","ping":79},{"user_id":36,"name":"Eden Hazard","steam_id":76561198089241053,"connected_time":185000000000,"state":"active","ping":49}]},{"server_id":13,"name":"Uncletopia | New York City | 1 | All Maps","name_short":"nyc-1","host":"nyc-1.us.uncletopia.com","port":27015,"enabled":true,"region":"us-east","cc":"us","latitude":40.73061,"longitude":-73.93524,"reserved":0,"last_update":"0001-01-01T00:00:00Z","name_a2s":"Uncletopia | New York City | 1 | All Maps","protocol":17,"map":"pl_pier","folder":"tf","game":"Team Fortress","app_id":440,"player_count":24,"max_players":24,"Bots":0,"server_type":"Dedicated","server_os":"Linux","password":true,"vac":true,"version":"7757534","steam_id":85568392924469993,"keywords":["nocrits","nodmgspread","payload","uncletopia"],"game_id":440,"stv_port":27016,"stv_name":"Uncletopia | New York City | 1 | All Maps | STV","players":[{"user_id":419,"name":"Literally Roxy's Wife Tsuyu","steam_id":76561198175421763,"connected_time":2704000000000,"state":"active","ping":74},{"user_id":435,"name":"tokyo","steam_id":76561199013458589,"connected_time":304000000000,"state":"active","ping":61},{"user_id":424,"name":"Sendesius","steam_id":76561198057349433,"connected_time":1715000000000,"state":"active","ping":83},{"user_id":429,"name":"Eraserhead Baby","steam_id":76561198010968514,"connected_time":938000000000,"state":"active","ping":111},{"user_id":431,"name":"Viokik","steam_id":76561198408846602,"connected_time":717000000000,"state":"active","ping":55},{"user_id":441,"name":"goose flower","steam_id":76561198164306336,"connected_time":90000000000,"state":"active","ping":53},{"user_id":372,"name":"MECHANISM MALE","steam_id":76561198855935442,"connected_time":5471000000000,"state":"active","ping":98},{"user_id":427,"name":"Public Masturbator","steam_id":76561198139539447,"connected_time":1092000000000,"state":"active","ping":60},{"user_id":430,"name":"Mongosling","steam_id":76561198081098215,"connected_time":719000000000,"state":"active","ping":44},{"user_id":439,"name":"Big Dundle","steam_id":76561198275625984,"connected_time":209000000000,"state":"active","ping":73},{"user_id":391,"name":"Warrenator","steam_id":76561198132094572,"connected_time":4218000000000,"state":"active","ping":78},{"user_id":423,"name":"WibbyOne","steam_id":76561198052843846,"connected_time":1809000000000,"state":"active","ping":37},{"user_id":373,"name":"Xx-CostcoShopper-xX","steam_id":76561198066429444,"connected_time":5343000000000,"state":"active","ping":50},{"user_id":433,"name":"PieSpie","steam_id":76561198054531169,"connected_time":467000000000,"state":"active","ping":66},{"user_id":350,"name":"Flerkjerk","steam_id":76561199346074410,"connected_time":6913000000000,"state":"active","ping":79},{"user_id":392,"name":"Smitty Werbenjagermanjensen","steam_id":76561198011270237,"connected_time":4205000000000,"state":"active","ping":63},{"user_id":374,"name":"Scam Likely","steam_id":76561198084422657,"connected_time":5204000000000,"state":"active","ping":107},{"user_id":405,"name":"Doppelpunkt","steam_id":76561198102137730,"connected_time":3543000000000,"state":"active","ping":50},{"user_id":397,"name":"james may","steam_id":76561198043857339,"connected_time":3848000000000,"state":"active","ping":113},{"user_id":438,"name":"Lowel Sanda","steam_id":76561199111675700,"connected_time":260000000000,"state":"active","ping":94},{"user_id":420,"name":"cookies^ #ringme","steam_id":76561197985574158,"connected_time":2499000000000,"state":"active","ping":57},{"user_id":428,"name":"WishedFuzzball","steam_id":76561198055642827,"connected_time":1043000000000,"state":"active","ping":85},{"user_id":436,"name":"monkey","steam_id":76561198075858535,"connected_time":287000000000,"state":"active","ping":83},{"user_id":369,"name":"Baron von Whoopsie","steam_id":76561197996691013,"connected_time":5651000000000,"state":"active","ping":64}]},{"server_id":14,"name":"Uncletopia | New York City | 2 | All Maps","name_short":"nyc-2","host":"nyc-1.us.uncletopia.com","port":27025,"enabled":true,"region":"us-east","cc":"us","latitude":40.73061,"longitude":-73.93524,"reserved":0,"last_update":"0001-01-01T00:00:00Z","name_a2s":"Uncletopia | New York City | 2 | All Maps","protocol":17,"map":"pl_borneo","folder":"tf","game":"Team Fortress","app_id":440,"player_count":24,"max_players":24,"Bots":0,"server_type":"Dedicated","server_os":"Linux","password":true,"vac":true,"version":"7757534","steam_id":85568392924469994,"keywords":["nocrits","nodmgspread","payload","uncletopia"],"game_id":440,"stv_port":27026,"stv_name":"Uncletopia | New York City | 2 | All Maps | STV","players":[{"user_id":679,"name":"Goatperson","steam_id":76561198929934256,"connected_time":1739000000000,"state":"active","ping":47},{"user_id":655,"name":"oiba","steam_id":76561198032159126,"connected_time":3090000000000,"state":"active","ping":44},{"user_id":680,"name":"Aurro","steam_id":76561198315692300,"connected_time":1727000000000,"state":"active","ping":56},{"user_id":676,"name":"silly little feller","steam_id":76561198041975003,"connected_time":1892000000000,"state":"active","ping":73},{"user_id":686,"name":"Silly Scientist","steam_id":76561199199886079,"connected_time":1661000000000,"state":"active","ping":53},{"user_id":691,"name":"the lesbianist pyroshark","steam_id":76561198374227766,"connected_time":1241000000000,"state":"active","ping":60},{"user_id":690,"name":"v","steam_id":76561198055984872,"connected_time":1252000000000,"state":"active","ping":96},{"user_id":669,"name":"RobotX","steam_id":76561198237122418,"connected_time":2613000000000,"state":"active","ping":60},{"user_id":696,"name":"SpinetinglingToast","steam_id":76561198099470670,"connected_time":621000000000,"state":"active","ping":56},{"user_id":662,"name":"aimhereisuk","steam_id":76561198966768746,"connected_time":2756000000000,"state":"active","ping":149},{"user_id":649,"name":"Official sephiroth","steam_id":76561198825373404,"connected_time":3671000000000,"state":"active","ping":53},{"user_id":682,"name":"Cicero","steam_id":76561198282272668,"connected_time":1721000000000,"state":"active","ping":82},{"user_id":683,"name":"MurpAMurp","steam_id":76561198374437261,"connected_time":1720000000000,"state":"active","ping":75},{"user_id":697,"name":"gghfgfgfg","steam_id":76561198064823861,"connected_time":333000000000,"state":"active","ping":50},{"user_id":674,"name":"sxcret sxciety","steam_id":76561198044856349,"connected_time":2022000000000,"state":"active","ping":73},{"user_id":599,"name":"Heartz","steam_id":76561198108143973,"connected_time":6579000000000,"state":"active","ping":44},{"user_id":675,"name":"Menacing Pile of Frogs","steam_id":76561198360134800,"connected_time":2001000000000,"state":"active","ping":58},{"user_id":642,"name":"Nyaada the #1 FaN","steam_id":76561198355743918,"connected_time":3876000000000,"state":"active","ping":105},{"user_id":647,"name":"Devin","steam_id":76561198114054429,"connected_time":3699000000000,"state":"active","ping":51},{"user_id":684,"name":"Sprinklingmydoughnut","steam_id":76561198168009092,"connected_time":1720000000000,"state":"active","ping":94},{"user_id":633,"name":"spherewithahat","steam_id":76561199122192660,"connected_time":4672000000000,"state":"active","ping":60},{"user_id":693,"name":"kate♡","steam_id":76561198138087644,"connected_time":1096000000000,"state":"active","ping":111},{"user_id":695,"name":"sioti","steam_id":76561198128796649,"connected_time":1052000000000,"state":"active","ping":50},{"user_id":659,"name":"RomanticOtter","steam_id":76561198099499113,"connected_time":2808000000000,"state":"active","ping":102}]},{"server_id":15,"name":"Uncletopia | New York City | 3 | Stopwatch Beta","name_short":"nyc-3","host":"nyc-1.us.uncletopia.com","port":27035,"enabled":true,"region":"us-east","cc":"us","latitude":40.73061,"longitude":-73.93524,"reserved":0,"last_update":"0001-01-01T00:00:00Z","name_a2s":"Uncletopia | New York City | 3 | Stopwatch Beta","protocol":17,"map":"workshop/koth_ashville_final.ugc2130459942","folder":"tf","game":"Team Fortress","app_id":440,"player_count":24,"max_players":24,"Bots":0,"server_type":"Dedicated","server_os":"Linux","password":true,"vac":true,"version":"7757534","steam_id":85568392924742820,"keywords":["cp","nocrits","nodmgspread","uncletopia"],"game_id":440,"stv_port":27036,"stv_name":"Uncletopia | New York City | 3 | Stopwatch Beta | STV","players":[{"user_id":32,"name":"Rustic","steam_id":76561199065293820,"connected_time":652000000000,"state":"active","ping":125},{"user_id":31,"name":"The Gremlin","steam_id":76561198419066993,"connected_time":653000000000,"state":"active","ping":128},{"user_id":33,"name":"asm_ghost","steam_id":76561199205363547,"connected_time":647000000000,"state":"active","ping":130},{"user_id":34,"name":"XRen10","steam_id":76561199226365046,"connected_time":612000000000,"state":"active","ping":134},{"user_id":35,"name":"jeremimi","steam_id":76561198818225102,"connected_time":586000000000,"state":"active","ping":122},{"user_id":36,"name":"drb","steam_id":76561199239086585,"connected_time":584000000000,"state":"active","ping":64},{"user_id":44,"name":"Gabby Tori","steam_id":76561197981887272,"connected_time":268000000000,"state":"active","ping":76},{"user_id":39,"name":"rabidhyperfocus","steam_id":76561198101495169,"connected_time":558000000000,"state":"active","ping":95},{"user_id":40,"name":"trev","steam_id":76561198372593596,"connected_time":556000000000,"state":"active","ping":124},{"user_id":53,"name":"MR.THE TOASTER","steam_id":76561199109565739,"connected_time":163000000000,"state":"active","ping":94},{"user_id":42,"name":"cultmechanicus4","steam_id":76561199472574539,"connected_time":502000000000,"state":"active","ping":62},{"user_id":46,"name":"TheSmolPopato","steam_id":76561199076606348,"connected_time":248000000000,"state":"active","ping":79},{"user_id":47,"name":"pisssmart","steam_id":76561199097253232,"connected_time":246000000000,"state":"active","ping":43},{"user_id":48,"name":"Thequirka","steam_id":76561198968058652,"connected_time":217000000000,"state":"active","ping":111},{"user_id":49,"name":"American Gamer","steam_id":76561198142292188,"connected_time":214000000000,"state":"active","ping":81},{"user_id":50,"name":"INFINITE","steam_id":76561197971285557,"connected_time":199000000000,"state":"active","ping":55},{"user_id":51,"name":"TF2 need a sex update","steam_id":76561199103964705,"connected_time":175000000000,"state":"active","ping":123},{"user_id":52,"name":"Underachiever Mako","steam_id":76561198207943169,"connected_time":172000000000,"state":"active","ping":54},{"user_id":54,"name":"TheSecretNewbie","steam_id":76561198194671218,"connected_time":148000000000,"state":"active","ping":49},{"user_id":55,"name":"Lucille_Bluth","steam_id":76561198206133916,"connected_time":148000000000,"state":"active","ping":74},{"user_id":56,"name":"ShadyPK","steam_id":76561198014442079,"connected_time":142000000000,"state":"active","ping":45},{"user_id":57,"name":"JoshIsBad","steam_id":76561199119663977,"connected_time":127000000000,"state":"spawning","ping":542},{"user_id":58,"name":"Strangelove","steam_id":76561198353773611,"connected_time":113000000000,"state":"active","ping":82},{"user_id":59,"name":"GeeBee","steam_id":76561198004421830,"connected_time":102000000000,"state":"spawning","ping":172}]},{"server_id":16,"name":"Uncletopia | New York City | 4 | Community","name_short":"nyc-4","host":"nyc-1.us.uncletopia.com","port":27045,"enabled":true,"region":"us-east","cc":"us","latitude":40.73061,"longitude":-73.93524,"reserved":0,"last_update":"0001-01-01T00:00:00Z","name_a2s":"Uncletopia | New York City | 4 | Community","protocol":17,"map":"workshop/pl_cactuscanyon_redux_final2.ugc2579644293","folder":"tf","game":"Team Fortress","app_id":440,"player_count":24,"max_players":24,"Bots":0,"server_type":"Dedicated","server_os":"Linux","password":true,"vac":true,"version":"7757534","steam_id":85568392924742821,"keywords":["nocrits","nodmgspread","payload","uncletopia"],"game_id":440,"stv_port":27046,"stv_name":"Uncletopia | New York City | 4 | Community | STV","players":[{"user_id":175,"name":"Super D Duper","steam_id":76561198078203677,"connected_time":5942000000000,"state":"active","ping":53},{"user_id":228,"name":"t.tv/FamilyGuyFunnyMoments277","steam_id":76561198416047580,"connected_time":3280000000000,"state":"active","ping":71},{"user_id":252,"name":"GuyGoom","steam_id":76561198254522178,"connected_time":1288000000000,"state":"active","ping":81},{"user_id":238,"name":"Bilgecrank","steam_id":76561197967191751,"connected_time":2698000000000,"state":"active","ping":103},{"user_id":260,"name":"saaz :)","steam_id":76561198298605136,"connected_time":650000000000,"state":"active","ping":99},{"user_id":267,"name":"Mogwr","steam_id":76561198124942972,"connected_time":376000000000,"state":"active","ping":62},{"user_id":215,"name":"TheAmazingSpy","steam_id":76561198392222427,"connected_time":4231000000000,"state":"active","ping":86},{"user_id":270,"name":"I C U P","steam_id":76561198349252490,"connected_time":222000000000,"state":"active","ping":61},{"user_id":230,"name":"matheo000","steam_id":76561198961555746,"connected_time":3272000000000,"state":"active","ping":80},{"user_id":231,"name":"Jazz2T","steam_id":76561198154418867,"connected_time":3263000000000,"state":"active","ping":104},{"user_id":173,"name":"Hook, Line, and Sphincter","steam_id":76561198078207743,"connected_time":6017000000000,"state":"active","ping":40},{"user_id":232,"name":"HeX","steam_id":76561198031361490,"connected_time":3151000000000,"state":"active","ping":62},{"user_id":233,"name":"paradise","steam_id":76561198072897202,"connected_time":3150000000000,"state":"active","ping":76},{"user_id":261,"name":"TotalDarkness","steam_id":76561198358350005,"connected_time":645000000000,"state":"active","ping":86},{"user_id":263,"name":"Blitz3k","steam_id":76561198055758741,"connected_time":561000000000,"state":"active","ping":47},{"user_id":258,"name":"help","steam_id":76561199056338917,"connected_time":817000000000,"state":"active","ping":92},{"user_id":251,"name":"DoctorLeft","steam_id":76561198030617999,"connected_time":1650000000000,"state":"active","ping":130},{"user_id":235,"name":"Stupid Tuna","steam_id":76561198048733643,"connected_time":3115000000000,"state":"active","ping":72},{"user_id":254,"name":"Password is Taco","steam_id":76561198026092945,"connected_time":1067000000000,"state":"active","ping":100},{"user_id":225,"name":"Havok","steam_id":76561198063455003,"connected_time":3737000000000,"state":"active","ping":57},{"user_id":268,"name":"Blue⛧Melon","steam_id":76561197970926435,"connected_time":343000000000,"state":"active","ping":58},{"user_id":264,"name":"legalizme223","steam_id":76561198051698391,"connected_time":506000000000,"state":"active","ping":84},{"user_id":266,"name":"Halo","steam_id":76561198200802299,"connected_time":471000000000,"state":"active","ping":84},{"user_id":269,"name":"Whole Wheat Grape","steam_id":76561199025265182,"connected_time":309000000000,"state":"active","ping":52}]},{"server_id":142,"name":"Uncletopia | São Paulo | 1 | All Maps","name_short":"sao-1","host":"sao-1.br.uncletopia.com","port":27015,"enabled":true,"region":"sa","cc":"br","latitude":-23.533773,"longitude":-46.62529,"reserved":0,"last_update":"0001-01-01T00:00:00Z","name_a2s":"Uncletopia | São Paulo | 1 | All Maps","protocol":17,"map":"cp_sunshine","folder":"tf","game":"Team Fortress","app_id":440,"player_count":24,"max_players":24,"Bots":0,"server_type":"Dedicated","server_os":"Linux","password":true,"vac":true,"version":"7757534","steam_id":85568392924469996,"keywords":["cp","nocrits","nodmgspread","uncletopia"],"game_id":440,"stv_port":27016,"stv_name":"Uncletopia | São Paulo | 1 | All Maps | STV","players":[{"user_id":97,"name":"Pathetic","steam_id":76561198051056987,"connected_time":3533000000000,"state":"active","ping":59},{"user_id":126,"name":"Blue9Fairy","steam_id":76561198039942928,"connected_time":224000000000,"state":"active","ping":55},{"user_id":63,"name":"Tigas","steam_id":76561198151597169,"connected_time":5930000000000,"state":"active","ping":47},{"user_id":107,"name":"Pyro","steam_id":76561198256242118,"connected_time":2180000000000,"state":"active","ping":62},{"user_id":60,"name":".fnord","steam_id":76561198119754613,"connected_time":6460000000000,"state":"active","ping":45},{"user_id":19,"name":"ailuros","steam_id":76561198171349369,"connected_time":9573000000000,"state":"active","ping":39},{"user_id":114,"name":"K9 Patata","steam_id":76561198290232171,"connected_time":996000000000,"state":"active","ping":89},{"user_id":93,"name":"FREEDOMFALLER","steam_id":76561198330963493,"connected_time":4018000000000,"state":"active","ping":61},{"user_id":105,"name":"Cherry Cupcake","steam_id":76561198012448942,"connected_time":2742000000000,"state":"active","ping":45},{"user_id":108,"name":"Nikolotro","steam_id":76561198232133128,"connected_time":2150000000000,"state":"active","ping":98},{"user_id":78,"name":"Copa Pistão","steam_id":76561199240099576,"connected_time":4818000000000,"state":"active","ping":43},{"user_id":112,"name":"Bloco","steam_id":76561198059876965,"connected_time":1015000000000,"state":"active","ping":44},{"user_id":110,"name":"JuJiNs","steam_id":76561198088600138,"connected_time":1062000000000,"state":"active","ping":47},{"user_id":100,"name":"niruma","steam_id":76561198067799345,"connected_time":3200000000000,"state":"active","ping":45},{"user_id":113,"name":"jao","steam_id":76561198408082822,"connected_time":1010000000000,"state":"active","ping":60},{"user_id":115,"name":"mimimito","steam_id":76561198002565927,"connected_time":956000000000,"state":"active","ping":39},{"user_id":109,"name":"Stoopid","steam_id":76561198126485401,"connected_time":1223000000000,"state":"active","ping":50},{"user_id":106,"name":"thims","steam_id":76561199252537253,"connected_time":2419000000000,"state":"active","ping":82},{"user_id":84,"name":"Ace","steam_id":76561198112033120,"connected_time":4466000000000,"state":"active","ping":45},{"user_id":103,"name":"♡可愛い Kawaii 可愛い\ufffd\ufffd","steam_id":76561198295959283,"connected_time":3148000000000,"state":"active","ping":47},{"user_id":94,"name":"beyond the river","steam_id":76561198429851354,"connected_time":3813000000000,"state":"active","ping":48},{"user_id":89,"name":"raulbicudo2006","steam_id":76561198872126053,"connected_time":4320000000000,"state":"active","ping":61},{"user_id":104,"name":"kudurista","steam_id":76561198143438576,"connected_time":3134000000000,"state":"active","ping":45},{"user_id":128,"name":"GummyBear","steam_id":76561198327995212,"connected_time":223000000000,"state":"active","ping":55}]},{"server_id":143,"name":"Uncletopia | São Paulo | 2 | All Maps","name_short":"sao-2","host":"sao-2.br.uncletopia.com","port":27015,"enabled":true,"region":"sa","cc":"br","latitude":-23.533773,"longitude":-46.62529,"reserved":0,"last_update":"0001-01-01T00:00:00Z","name_a2s":"Uncletopia | São Paulo | 2 | All Maps","protocol":17,"map":"cp_snakewater_final1","folder":"tf","game":"Team Fortress","app_id":440,"player_count":24,"max_players":24,"Bots":0,"server_type":"Dedicated","server_os":"Linux","password":true,"vac":true,"version":"7757534","steam_id":85568392924485349,"keywords":["cp","nocrits","nodmgspread","uncletopia"],"game_id":440,"stv_port":27016,"stv_name":"Uncletopia | São Paulo | 2 | All Maps | STV","players":[{"user_id":40,"name":"Juice?","steam_id":76561198870082229,"connected_time":4174000000000,"state":"active","ping":29},{"user_id":41,"name":"Voltz Imoral","steam_id":76561198120308404,"connected_time":4123000000000,"state":"active","ping":46},{"user_id":46,"name":"Black Friday","steam_id":76561198055640727,"connected_time":3773000000000,"state":"active","ping":44},{"user_id":56,"name":"Exodus","steam_id":76561198430130306,"connected_time":3474000000000,"state":"active","ping":52},{"user_id":53,"name":"dependência emocional da silva","steam_id":76561198074440500,"connected_time":3574000000000,"state":"active","ping":43},{"user_id":75,"name":"Euja","steam_id":76561198202528573,"connected_time":3099000000000,"state":"active","ping":69},{"user_id":120,"name":"ZeroGames","steam_id":76561198446536866,"connected_time":2007000000000,"state":"active","ping":42},{"user_id":55,"name":"bnuuy","steam_id":76561198032697387,"connected_time":3506000000000,"state":"active","ping":44},{"user_id":133,"name":"Anxiety Dealer","steam_id":76561198137728820,"connected_time":231000000000,"state":"active","ping":96},{"user_id":72,"name":"Consumidor de suco profissional","steam_id":76561198935892698,"connected_time":3219000000000,"state":"active","ping":58},{"user_id":121,"name":"marquioti","steam_id":76561198176657645,"connected_time":1828000000000,"state":"active","ping":45},{"user_id":52,"name":"R3tr0","steam_id":76561198106853817,"connected_time":3628000000000,"state":"active","ping":100},{"user_id":84,"name":"Crimson Boi","steam_id":76561198842181946,"connected_time":2784000000000,"state":"active","ping":99},{"user_id":58,"name":"Shadéchet","steam_id":76561198290546763,"connected_time":3460000000000,"state":"active","ping":90},{"user_id":92,"name":"CJAIME01345","steam_id":76561199091599141,"connected_time":2689000000000,"state":"active","ping":99},{"user_id":62,"name":"Salamander Salad","steam_id":76561199143866999,"connected_time":3366000000000,"state":"active","ping":50},{"user_id":114,"name":"nine","steam_id":76561198208071575,"connected_time":2350000000000,"state":"active","ping":47},{"user_id":129,"name":"BronKari Proto Furiargh","steam_id":76561198070395489,"connected_time":681000000000,"state":"active","ping":53},{"user_id":118,"name":"ＥｎｄｅｒＮｅｃｒｏ","steam_id":76561198044304293,"connected_time":2049000000000,"state":"active","ping":41},{"user_id":130,"name":"telha eternit mofada","steam_id":76561198188487862,"connected_time":616000000000,"state":"active","ping":78},{"user_id":110,"name":"Jabadencio","steam_id":76561198075467836,"connected_time":2434000000000,"state":"active","ping":93},{"user_id":134,"name":"mechanical bride","steam_id":76561198161382276,"connected_time":108000000000,"state":"active","ping":61},{"user_id":132,"name":"saviogustavi","steam_id":76561199250694662,"connected_time":532000000000,"state":"active","ping":43},{"user_id":131,"name":"Werth","steam_id":76561199084693688,"connected_time":604000000000,"state":"active","ping":56}]},{"server_id":7,"name":"Uncletopia | Seattle | 1 | All Maps","name_short":"sea-1","host":"sea-1.us.uncletopia.com","port":27015,"enabled":true,"region":"us-west","cc":"us","latitude":47.608013,"longitude":-122.33517,"reserved":0,"last_update":"0001-01-01T00:00:00Z","name_a2s":"Uncletopia | Seattle | 1 | All Maps","protocol":17,"map":"pl_snowycoast","folder":"tf","game":"Team Fortress","app_id":440,"player_count":24,"max_players":24,"Bots":0,"server_type":"Dedicated","server_os":"Linux","password":true,"vac":true,"version":"7757534","steam_id":85568392924469997,"keywords":["nocrits","nodmgspread","payload","uncletopia"],"game_id":440,"stv_port":27016,"stv_name":"Uncletopia | Seattle | 1 | All Maps | STV","players":[{"user_id":339,"name":"FIRETROOP277","steam_id":76561198418201110,"connected_time":3899000000000,"state":"active","ping":89},{"user_id":394,"name":"Jilmingson","steam_id":76561198865984680,"connected_time":186000000000,"state":"active","ping":46},{"user_id":396,"name":"BobbyLikesCake","steam_id":76561199092313627,"connected_time":167000000000,"state":"active","ping":80},{"user_id":385,"name":"mafia is mafia","steam_id":76561198042574722,"connected_time":1052000000000,"state":"active","ping":49},{"user_id":359,"name":"Thexx ❤","steam_id":76561198113823050,"connected_time":2495000000000,"state":"active","ping":53},{"user_id":389,"name":"Grapos","steam_id":76561198995310086,"connected_time":796000000000,"state":"active","ping":54},{"user_id":391,"name":"Some Retard","steam_id":76561197994544587,"connected_time":628000000000,"state":"active","ping":47},{"user_id":356,"name":"lili ezili","steam_id":76561199391478575,"connected_time":2792000000000,"state":"active","ping":72},{"user_id":358,"name":"[TF2Apples] Intense Green Apple","steam_id":76561198803561622,"connected_time":2759000000000,"state":"active","ping":134},{"user_id":384,"name":"johnny karate","steam_id":76561198165847261,"connected_time":1109000000000,"state":"active","ping":51},{"user_id":386,"name":"doomshroom","steam_id":76561198092827250,"connected_time":998000000000,"state":"active","ping":60},{"user_id":397,"name":"^.^","steam_id":76561198095495769,"connected_time":161000000000,"state":"active","ping":51},{"user_id":363,"name":"Jazzblister","steam_id":76561197996567641,"connected_time":2214000000000,"state":"active","ping":60},{"user_id":366,"name":"Licensed Rizzicist","steam_id":76561199019693549,"connected_time":1750000000000,"state":"active","ping":56},{"user_id":340,"name":"flappyflap2","steam_id":76561198285048973,"connected_time":3897000000000,"state":"active","ping":116},{"user_id":378,"name":"YT_lol","steam_id":76561199070090128,"connected_time":1520000000000,"state":"active","ping":124},{"user_id":388,"name":"daBigBoss","steam_id":76561198120428029,"connected_time":895000000000,"state":"active","ping":75},{"user_id":390,"name":"Tomato","steam_id":76561197996472649,"connected_time":685000000000,"state":"active","ping":121},{"user_id":392,"name":"Dimple #TF2Center","steam_id":76561198980324190,"connected_time":533000000000,"state":"active","ping":49},{"user_id":373,"name":"iphone 7 plus","steam_id":76561198335836405,"connected_time":1713000000000,"state":"active","ping":75},{"user_id":393,"name":"Forg","steam_id":76561198044000292,"connected_time":299000000000,"state":"active","ping":43},{"user_id":398,"name":"Ok then","steam_id":76561198891914787,"connected_time":161000000000,"state":"active","ping":88},{"user_id":273,"name":"lox","steam_id":76561198288531493,"connected_time":8749000000000,"state":"active","ping":55},{"user_id":399,"name":"exephur","steam_id":76561198135763234,"connected_time":128000000000,"state":"active","ping":70}]},{"server_id":119,"name":"Uncletopia | Seattle | 2 | All Maps","name_short":"sea-2","host":"sea-1.us.uncletopia.com","port":27025,"enabled":true,"region":"us-west","cc":"us","latitude":47.608013,"longitude":-122.33517,"reserved":0,"last_update":"0001-01-01T00:00:00Z","name_a2s":"Uncletopia | Seattle | 2 | All Maps","protocol":17,"map":"pl_upward","folder":"tf","game":"Team Fortress","app_id":440,"player_count":22,"max_players":24,"Bots":0,"server_type":"Dedicated","server_os":"Linux","password":true,"vac":true,"version":"7757534","steam_id":85568392924469998,"keywords":["nocrits","nodmgspread","payload","uncletopia"],"game_id":440,"stv_port":27026,"stv_name":"Uncletopia | Seattle | 2 | All Maps | STV","players":[{"user_id":444,"name":"O","steam_id":76561198450073779,"connected_time":3793000000000,"state":"active","ping":72},{"user_id":487,"name":"Rickysuper_52","steam_id":76561198067865179,"connected_time":324000000000,"state":"active","ping":57},{"user_id":488,"name":"momb","steam_id":76561198142234038,"connected_time":146000000000,"state":"active","ping":87},{"user_id":493,"name":"my stomach hurts....","steam_id":76561198233978116,"connected_time":9000000000,"state":"spawning","ping":45},{"user_id":494,"name":"봇치 더 아카이브","steam_id":76561198453203619,"connected_time":7000000000,"state":"spawning","ping":412},{"user_id":418,"name":"GඞMER","steam_id":76561198340389876,"connected_time":5166000000000,"state":"active","ping":86},{"user_id":437,"name":"no vc no c","steam_id":76561197989503095,"connected_time":4106000000000,"state":"active","ping":149},{"user_id":483,"name":"Gamer Mann","steam_id":76561198082457496,"connected_time":804000000000,"state":"active","ping":58},{"user_id":495,"name":"Jaydyn","steam_id":76561198140326797,"connected_time":4000000000,"state":"spawning","ping":124},{"user_id":489,"name":"McTriggered69","steam_id":76561198854334889,"connected_time":46000000000,"state":"active","ping":87},{"user_id":491,"name":"Onett_Boys","steam_id":76561198054735682,"connected_time":18000000000,"state":"active","ping":47},{"user_id":492,"name":"Uncle Feathers McGraw","steam_id":76561198046442707,"connected_time":18000000000,"state":"spawning","ping":246},{"user_id":474,"name":"Treekincko","steam_id":76561198047995911,"connected_time":1376000000000,"state":"active","ping":39},{"user_id":426,"name":"C^a^L","steam_id":76561198241124222,"connected_time":4522000000000,"state":"active","ping":61},{"user_id":484,"name":"dog","steam_id":76561198090737207,"connected_time":468000000000,"state":"active","ping":41},{"user_id":461,"name":"The Horselords and Animal Gods","steam_id":76561197975094050,"connected_time":2400000000000,"state":"active","ping":81},{"user_id":428,"name":"Owl of Delos","steam_id":76561198437116566,"connected_time":4514000000000,"state":"active","ping":55},{"user_id":471,"name":"Queen of hearts","steam_id":76561198798234935,"connected_time":1692000000000,"state":"active","ping":63},{"user_id":486,"name":"Thrackerzod","steam_id":76561198130870200,"connected_time":346000000000,"state":"active","ping":116},{"user_id":464,"name":"Mcfool","steam_id":76561197991778316,"connected_time":1884000000000,"state":"active","ping":44},{"user_id":477,"name":"cats go b00m","steam_id":76561199013955638,"connected_time":1227000000000,"state":"active","ping":83},{"user_id":441,"name":"Seesawz","steam_id":76561199222588200,"connected_time":3918000000000,"state":"active","ping":64}]},{"server_id":406,"name":"Uncletopia | Seattle | 3 | Stopwatch Beta","name_short":"sea-3","host":"sea-1.us.uncletopia.com","port":27035,"enabled":true,"region":"us-west","cc":"us","latitude":47.608013,"longitude":-122.33517,"reserved":0,"last_update":"0001-01-01T00:00:00Z","name_a2s":"Uncletopia | Seattle | 3 | Stopwatch Beta","protocol":17,"map":"workshop/koth_bagel_rc6.ugc2514036946","folder":"tf","game":"Team Fortress","app_id":440,"player_count":0,"max_players":24,"Bots":0,"server_type":"Dedicated","server_os":"Linux","password":true,"vac":true,"version":"7757534","steam_id":85568392924515217,"keywords":["cp","nocrits","nodmgspread","uncletopia"],"game_id":440,"stv_port":27036,"stv_name":"Uncletopia | Seattle | 3 | Stopwatch Beta | STV","players":null},{"server_id":17,"name":"Uncletopia | San Francisco | 1 | All Maps","name_short":"sfo-1","host":"sfo-1.us.uncletopia.com","port":27015,"enabled":true,"region":"us-west","cc":"us","latitude":37.77397,"longitude":-122.4313,"reserved":0,"last_update":"0001-01-01T00:00:00Z","name_a2s":"Uncletopia | San Francisco | 1 | All Maps","protocol":17,"map":"pl_borneo","folder":"tf","game":"Team Fortress","app_id":440,"player_count":24,"max_players":24,"Bots":0,"server_type":"Dedicated","server_os":"Linux","password":true,"vac":true,"version":"7757534","steam_id":85568392924469999,"keywords":["nocrits","nodmgspread","payload","uncletopia"],"game_id":440,"stv_port":27016,"stv_name":"Uncletopia | San Francisco | 1 | All Maps | STV","players":[{"user_id":53,"name":"goopest","steam_id":76561198209550437,"connected_time":2307000000000,"state":"active","ping":65},{"user_id":49,"name":"Guest","steam_id":76561198241004916,"connected_time":2448000000000,"state":"active","ping":39},{"user_id":24,"name":"Chorizo Joe","steam_id":76561199230035279,"connected_time":3136000000000,"state":"active","ping":116},{"user_id":66,"name":"Cheff cook","steam_id":76561198451203268,"connected_time":1456000000000,"state":"active","ping":55},{"user_id":21,"name":"connie kins","steam_id":76561198074701151,"connected_time":3259000000000,"state":"active","ping":54},{"user_id":82,"name":"yogi","steam_id":76561198067986753,"connected_time":784000000000,"state":"active","ping":63},{"user_id":77,"name":"Garry115","steam_id":76561198039459581,"connected_time":1105000000000,"state":"active","ping":67},{"user_id":75,"name":"a_10warthog5_56","steam_id":76561199388748730,"connected_time":1151000000000,"state":"active","ping":77},{"user_id":70,"name":"doorlarkeded","steam_id":76561199439227968,"connected_time":1419000000000,"state":"active","ping":129},{"user_id":78,"name":"Termiite ◄BG-M►","steam_id":76561198052911020,"connected_time":1098000000000,"state":"active","ping":81},{"user_id":29,"name":"gay porn","steam_id":76561198102454261,"connected_time":3005000000000,"state":"active","ping":53},{"user_id":87,"name":"CR3EP","steam_id":76561198071554862,"connected_time":641000000000,"state":"active","ping":45},{"user_id":31,"name":"Cooki","steam_id":76561198051705314,"connected_time":2983000000000,"state":"active","ping":129},{"user_id":65,"name":"Captain Falcon real","steam_id":76561198171082595,"connected_time":1501000000000,"state":"active","ping":57},{"user_id":76,"name":"27 blends","steam_id":76561197997100185,"connected_time":1149000000000,"state":"active","ping":66},{"user_id":72,"name":"Letseatsomepizza","steam_id":76561199029814963,"connected_time":1404000000000,"state":"active","ping":74},{"user_id":99,"name":"radioactive_sheep","steam_id":76561199064901058,"connected_time":136000000000,"state":"active","ping":74},{"user_id":97,"name":"urotsuki","steam_id":76561197995200743,"connected_time":228000000000,"state":"active","ping":45},{"user_id":86,"name":"精液Blev Blev精液","steam_id":76561198208972565,"connected_time":755000000000,"state":"active","ping":131},{"user_id":80,"name":"Temmie500","steam_id":76561199067942631,"connected_time":866000000000,"state":"active","ping":45},{"user_id":89,"name":"God's Goofiest Goober","steam_id":76561198418288939,"connected_time":487000000000,"state":"active","ping":62},{"user_id":79,"name":"corbenis","steam_id":76561199012442511,"connected_time":1025000000000,"state":"active","ping":60},{"user_id":100,"name":"CrackedSanity","steam_id":76561198279841251,"connected_time":135000000000,"state":"active","ping":62},{"user_id":56,"name":"fortnite.jimmy.2014","steam_id":76561199177672325,"connected_time":1939000000000,"state":"active","ping":94}]},{"server_id":18,"name":"Uncletopia | San Francisco | 2 | All Maps","name_short":"sfo-2","host":"sfo-1.us.uncletopia.com","port":27025,"enabled":true,"region":"us-west","cc":"us","latitude":37.77397,"longitude":-122.4313,"reserved":0,"last_update":"0001-01-01T00:00:00Z","name_a2s":"Uncletopia | San Francisco | 2 | All Maps","protocol":17,"map":"pl_swiftwater_final1","folder":"tf","game":"Team Fortress","app_id":440,"player_count":24,"max_players":24,"Bots":0,"server_type":"Dedicated","server_os":"Linux","password":true,"vac":true,"version":"7757534","steam_id":85568392924470000,"keywords":["nocrits","nodmgspread","payload","uncletopia"],"game_id":440,"stv_port":27026,"stv_name":"Uncletopia | San Francisco | 2 | All Maps | STV","players":[{"user_id":161,"name":"DIZ","steam_id":76561199065119525,"connected_time":2040000000000,"state":"active","ping":128},{"user_id":169,"name":"WrongKeyo360","steam_id":76561198346752693,"connected_time":1759000000000,"state":"active","ping":123},{"user_id":140,"name":"Taffy","steam_id":76561198276612538,"connected_time":3626000000000,"state":"active","ping":45},{"user_id":166,"name":"Farmer caboose","steam_id":76561198117370670,"connected_time":1954000000000,"state":"active","ping":84},{"user_id":163,"name":"Cat snack","steam_id":76561199477091791,"connected_time":2026000000000,"state":"active","ping":170},{"user_id":178,"name":"someone had to break the ice","steam_id":76561198293502053,"connected_time":1082000000000,"state":"active","ping":104},{"user_id":100,"name":"bonk schnoffer","steam_id":76561198301598124,"connected_time":6086000000000,"state":"active","ping":109},{"user_id":173,"name":"Spoofle","steam_id":76561199003655066,"connected_time":1692000000000,"state":"active","ping":130},{"user_id":157,"name":"Spy achungus","steam_id":76561198135651070,"connected_time":2242000000000,"state":"active","ping":127},{"user_id":164,"name":"anipe10","steam_id":76561199084698417,"connected_time":2013000000000,"state":"active","ping":73},{"user_id":151,"name":"Doof","steam_id":76561198034031819,"connected_time":2467000000000,"state":"active","ping":100},{"user_id":180,"name":"Terminator69","steam_id":76561198809283651,"connected_time":602000000000,"state":"active","ping":109},{"user_id":128,"name":"big fish","steam_id":76561198186479818,"connected_time":3973000000000,"state":"active","ping":72},{"user_id":152,"name":"Eugene Hinkle","steam_id":76561198046266326,"connected_time":2457000000000,"state":"active","ping":58},{"user_id":154,"name":"MCJD931","steam_id":76561198336028626,"connected_time":2417000000000,"state":"active","ping":69},{"user_id":165,"name":"fear","steam_id":76561198954859895,"connected_time":2000000000000,"state":"active","ping":154},{"user_id":156,"name":"Walter Hartwell White","steam_id":76561199280185357,"connected_time":2250000000000,"state":"active","ping":49},{"user_id":113,"name":"jadesouledout","steam_id":76561198866936507,"connected_time":4900000000000,"state":"active","ping":70},{"user_id":177,"name":"LEEEEEETS GOOOOOOO","steam_id":76561199432577769,"connected_time":1424000000000,"state":"active","ping":126},{"user_id":175,"name":"Chuck Tucson`","steam_id":76561197991896434,"connected_time":1640000000000,"state":"active","ping":59},{"user_id":153,"name":"Training Arc","steam_id":76561198038832034,"connected_time":2447000000000,"state":"active","ping":75},{"user_id":97,"name":"CaptainPikachu","steam_id":76561198075667401,"connected_time":6677000000000,"state":"active","ping":83},{"user_id":179,"name":"Totally not Gibby","steam_id":76561198843052828,"connected_time":739000000000,"state":"active","ping":117},{"user_id":95,"name":"Anthid","steam_id":76561198074493797,"connected_time":6881000000000,"state":"active","ping":73}]},{"server_id":19,"name":"Uncletopia | San Francisco | 3 | Stopwatch Beta","name_short":"sfo-3","host":"sfo-1.us.uncletopia.com","port":27035,"enabled":true,"region":"us-west","cc":"us","latitude":37.77397,"longitude":-122.4313,"reserved":0,"last_update":"0001-01-01T00:00:00Z","name_a2s":"Uncletopia | San Francisco | 3 | Stopwatch Beta","protocol":17,"map":"workshop/pl_barnblitz_pro7.ugc582280235","folder":"tf","game":"Team Fortress","app_id":440,"player_count":1,"max_players":24,"Bots":0,"server_type":"Dedicated","server_os":"Linux","password":true,"vac":true,"version":"7757534","steam_id":85568392924742824,"keywords":["nocrits","nodmgspread","payload","uncletopia"],"game_id":440,"stv_port":27036,"stv_name":"Uncletopia | San Francisco | 3 | Stopwatch Beta | STV","players":[{"user_id":5,"name":"Illyozo","steam_id":76561199362742854,"connected_time":313000000000,"state":"active","ping":143}]},{"server_id":20,"name":"Uncletopia | San Francisco | 4 | Community","name_short":"sfo-4","host":"sfo-1.us.uncletopia.com","port":27045,"enabled":true,"region":"us-west","cc":"us","latitude":37.77397,"longitude":-122.4313,"reserved":0,"last_update":"0001-01-01T00:00:00Z","name_a2s":"Uncletopia | San Francisco | 4 | Community","protocol":17,"map":"workshop/pl_corrode_rc2.ugc546577989","folder":"tf","game":"Team Fortress","app_id":440,"player_count":24,"max_players":24,"Bots":0,"server_type":"Dedicated","server_os":"Linux","password":true,"vac":true,"version":"7757534","steam_id":85568392924742826,"keywords":["nocrits","nodmgspread","payload","uncletopia"],"game_id":440,"stv_port":27046,"stv_name":"Uncletopia | San Francisco | 4 | Community | STV","players":[{"user_id":17,"name":"Metronome","steam_id":76561198170355043,"connected_time":1739000000000,"state":"active","ping":79},{"user_id":18,"name":"MasterMaxym","steam_id":76561199015287651,"connected_time":1728000000000,"state":"active","ping":151},{"user_id":13,"name":"Buswolley","steam_id":76561197995205571,"connected_time":2398000000000,"state":"active","ping":54},{"user_id":51,"name":"Rookie","steam_id":76561199051578556,"connected_time":480000000000,"state":"active","ping":148},{"user_id":20,"name":"Jason.","steam_id":76561199172692062,"connected_time":1484000000000,"state":"active","ping":152},{"user_id":45,"name":"ExpDelta","steam_id":76561199126443129,"connected_time":838000000000,"state":"active","ping":92},{"user_id":23,"name":"Matte :)","steam_id":76561198070631073,"connected_time":1167000000000,"state":"active","ping":45},{"user_id":56,"name":"Surfing Garchomp","steam_id":76561199107236884,"connected_time":156000000000,"state":"active","ping":83},{"user_id":27,"name":"boob knight","steam_id":76561199007245822,"connected_time":1050000000000,"state":"active","ping":182},{"user_id":28,"name":"BazMiltonFelix","steam_id":76561199233683848,"connected_time":1034000000000,"state":"active","ping":62},{"user_id":29,"name":"Natsuki the Scunt","steam_id":76561199175922684,"connected_time":1025000000000,"state":"active","ping":118},{"user_id":30,"name":"TheFireRanger","steam_id":76561198970305585,"connected_time":994000000000,"state":"active","ping":85},{"user_id":43,"name":"SawseBawse","steam_id":76561199438562789,"connected_time":860000000000,"state":"active","ping":146},{"user_id":32,"name":"apple","steam_id":76561198066369260,"connected_time":947000000000,"state":"active","ping":106},{"user_id":48,"name":"look us up","steam_id":76561198970447142,"connected_time":589000000000,"state":"active","ping":105},{"user_id":41,"name":"Slacker","steam_id":76561198133123977,"connected_time":887000000000,"state":"active","ping":113},{"user_id":58,"name":"WM1 PYRO","steam_id":76561198045893896,"connected_time":102000000000,"state":"active","ping":74},{"user_id":54,"name":"TheWiznerd","steam_id":76561198110173379,"connected_time":368000000000,"state":"active","ping":99},{"user_id":53,"name":"A Very Confused Gentleman","steam_id":76561198051686391,"connected_time":434000000000,"state":"active","ping":110},{"user_id":55,"name":"Voxsd","steam_id":76561199121402477,"connected_time":218000000000,"state":"active","ping":127},{"user_id":40,"name":"FrenchVanilla","steam_id":76561198971019094,"connected_time":906000000000,"state":"active","ping":63},{"user_id":57,"name":"NathanSomething","steam_id":76561198927509821,"connected_time":149000000000,"state":"active","ping":96},{"user_id":44,"name":"iRockSnapback","steam_id":76561198114892254,"connected_time":853000000000,"state":"active","ping":142},{"user_id":46,"name":"jagg","steam_id":76561198068161480,"connected_time":830000000000,"state":"active","ping":54}]},{"server_id":141,"name":"Uncletopia | Sydney | 1 | All Maps","name_short":"syd-1","host":"syd-1.au.uncletopia.com","port":27015,"enabled":true,"region":"au","cc":"au","latitude":-33.865143,"longitude":151.2099,"reserved":0,"last_update":"0001-01-01T00:00:00Z","name_a2s":"Uncletopia | Sydney | 1 | All Maps","protocol":17,"map":"pl_snowycoast","folder":"tf","game":"Team Fortress","app_id":440,"player_count":18,"max_players":24,"Bots":0,"server_type":"Dedicated","server_os":"Linux","password":true,"vac":true,"version":"7757534","steam_id":85568392924470001,"keywords":["nocrits","nodmgspread","payload","uncletopia"],"game_id":440,"stv_port":27016,"stv_name":"Uncletopia | Sydney | 1 | All Maps | STV","players":[{"user_id":34,"name":"Fauntleroy","steam_id":76561198116935982,"connected_time":852000000000,"state":"active","ping":56},{"user_id":27,"name":"V3CTOR Gaminf","steam_id":76561199233035882,"connected_time":1381000000000,"state":"active","ping":215},{"user_id":25,"name":"Lukey","steam_id":76561197999887960,"connected_time":1509000000000,"state":"active","ping":54},{"user_id":42,"name":"0","steam_id":76561198415350737,"connected_time":404000000000,"state":"active","ping":45},{"user_id":51,"name":"Fish","steam_id":76561199205146795,"connected_time":13000000000,"state":"spawning","ping":280},{"user_id":28,"name":"toaster","steam_id":76561198402898375,"connected_time":1326000000000,"state":"active","ping":44},{"user_id":29,"name":"Dimond_bird","steam_id":76561199129051643,"connected_time":1325000000000,"state":"spawning","ping":45},{"user_id":46,"name":"Hvmfofi","steam_id":76561199136313157,"connected_time":118000000000,"state":"active","ping":208},{"user_id":36,"name":"Fishling","steam_id":76561198207127099,"connected_time":773000000000,"state":"active","ping":66},{"user_id":47,"name":"violetinreal","steam_id":76561198328882575,"connected_time":82000000000,"state":"active","ping":299},{"user_id":23,"name":"[MORB] oh crumbs...","steam_id":76561198110462830,"connected_time":1686000000000,"state":"active","ping":65},{"user_id":43,"name":"Hertog van Damme","steam_id":76561198152470958,"connected_time":383000000000,"state":"active","ping":58},{"user_id":39,"name":"ya boi","steam_id":76561199063936804,"connected_time":658000000000,"state":"active","ping":382},{"user_id":41,"name":"HazDaddySlim","steam_id":76561198140262325,"connected_time":561000000000,"state":"active","ping":51},{"user_id":44,"name":"Fancy hailey","steam_id":76561198047999599,"connected_time":348000000000,"state":"active","ping":54},{"user_id":48,"name":"some potato","steam_id":76561198243377724,"connected_time":66000000000,"state":"active","ping":309},{"user_id":50,"name":"Mr Elliott","steam_id":76561198043821248,"connected_time":51000000000,"state":"spawning","ping":63},{"user_id":52,"name":"Toody","steam_id":76561198212656752,"connected_time":2000000000,"state":"spawning","ping":43}]},{"server_id":123,"name":"Uncletopia | Sydney | 2 | All Maps","name_short":"syd-2","host":"syd-1.au.uncletopia.com","port":27025,"enabled":true,"region":"au","cc":"au","latitude":-33.865143,"longitude":151.2099,"reserved":0,"last_update":"0001-01-01T00:00:00Z","name_a2s":"Uncletopia | Sydney | 2 | All Maps","protocol":17,"map":"pl_swiftwater_final1","folder":"tf","game":"Team Fortress","app_id":440,"player_count":0,"max_players":24,"Bots":0,"server_type":"Dedicated","server_os":"Linux","password":true,"vac":true,"version":"7757534","steam_id":85568392924470002,"keywords":["nocrits","nodmgspread","payload","uncletopia"],"game_id":440,"stv_port":27026,"stv_name":"Uncletopia | Sydney | 2 | All Maps | STV","players":null},{"server_id":395,"name":"Uncletopia | Sydney | 3 | All Maps","name_short":"syd-3","host":"syd-1.au.uncletopia.com","port":27035,"enabled":true,"region":"au","cc":"au","latitude":-33.865143,"longitude":151.2099,"reserved":0,"last_update":"0001-01-01T00:00:00Z","name_a2s":"Uncletopia | Sydney | 3 | All Maps","protocol":17,"map":"pl_swiftwater_final1","folder":"tf","game":"Team Fortress","app_id":440,"player_count":0,"max_players":24,"Bots":0,"server_type":"Dedicated","server_os":"Linux","password":true,"vac":true,"version":"7757534","steam_id":85568392925194467,"keywords":["nocrits","nodmgspread","payload","uncletopia"],"game_id":440,"stv_port":27036,"stv_name":"Uncletopia | Sydney | 3 | All Maps | STV","players":null},{"server_id":396,"name":"Uncletopia | Sydney | 4 | All Maps","name_short":"syd-4","host":"syd-1.au.uncletopia.com","port":27045,"enabled":true,"region":"au","cc":"au","latitude":-33.865143,"longitude":151.2099,"reserved":0,"last_update":"0001-01-01T00:00:00Z","name_a2s":"Uncletopia | Sydney | 4 | All Maps","protocol":17,"map":"koth_highpass","folder":"tf","game":"Team Fortress","app_id":440,"player_count":0,"max_players":24,"Bots":0,"server_type":"Dedicated","server_os":"Linux","password":true,"vac":true,"version":"7757534","steam_id":85568392925397958,"keywords":["cp","nocrits","nodmgspread","uncletopia"],"game_id":440,"stv_port":27046,"stv_name":"Uncletopia | Sydney | 4 | All Maps | STV","players":null},{"server_id":58,"name":"Uncletopia | Sydney | 5 | Stopwatch Beta","name_short":"syd-5","host":"syd-1.au.uncletopia.com","port":27055,"enabled":true,"region":"au","cc":"au","latitude":-33.865143,"longitude":151.2099,"reserved":0,"last_update":"0001-01-01T00:00:00Z","name_a2s":"Uncletopia | Sydney | 5 | Stopwatch Beta","protocol":17,"map":"koth_cascade","folder":"tf","game":"Team Fortress","app_id":440,"player_count":0,"max_players":24,"Bots":0,"server_type":"Dedicated","server_os":"Linux","password":true,"vac":true,"version":"7757534","steam_id":85568392925397959,"keywords":["cp","nocrits","nodmgspread","uncletopia"],"game_id":440,"stv_port":27056,"stv_name":"Uncletopia | Sydney | 5 | Stopwatch Beta | STV","players":null},{"server_id":59,"name":"Uncletopia | Sydney | 6 | Community","name_short":"syd-6","host":"syd-1.au.uncletopia.com","port":27065,"enabled":true,"region":"au","cc":"au","latitude":-33.865143,"longitude":151.2099,"reserved":0,"last_update":"0001-01-01T00:00:00Z","name_a2s":"Uncletopia | Sydney | 6 | Community","protocol":17,"map":"workshop/pl_emerge_rc2.ugc888027758","folder":"tf","game":"Team Fortress","app_id":440,"player_count":0,"max_players":24,"Bots":0,"server_type":"Dedicated","server_os":"Linux","password":true,"vac":true,"version":"7757534","steam_id":85568392925397960,"keywords":["nocrits","nodmgspread","payload","uncletopia"],"game_id":440,"stv_port":27066,"stv_name":"Uncletopia | Sydney | 6 | Community | STV","players":null},{"server_id":49,"name":"Uncletopia | Warsaw | 1 | All Maps","name_short":"waw-1","host":"waw-1.pl.uncletopia.com","port":27015,"enabled":true,"region":"eu","cc":"pl","latitude":52.2297,"longitude":21.017532,"reserved":0,"last_update":"0001-01-01T00:00:00Z","name_a2s":"","protocol":0,"map":"","folder":"","game":"","app_id":0,"player_count":0,"max_players":0,"Bots":0,"server_type":"","server_os":"","password":false,"vac":false,"version":"","steam_id":0,"keywords":null,"game_id":0,"stv_port":0,"stv_name":"","players":null},{"server_id":50,"name":"Uncletopia | Warsaw | 2 | All Maps","name_short":"waw-2","host":"waw-1.pl.uncletopia.com","port":27025,"enabled":true,"region":"eu","cc":"pl","latitude":52.2297,"longitude":21.017532,"reserved":0,"last_update":"0001-01-01T00:00:00Z","name_a2s":"Uncletopia | Warsaw | 2 | All Maps","protocol":17,"map":"koth_viaduct","folder":"tf","game":"Team Fortress","app_id":440,"player_count":0,"max_players":24,"Bots":0,"server_type":"Dedicated","server_os":"Linux","password":true,"vac":true,"version":"7757534","steam_id":85568392925397851,"keywords":["cp","nocrits","nodmgspread","uncletopia"],"game_id":440,"stv_port":27026,"stv_name":"Uncletopia | Warsaw | 2 | All Maps | STV","players":null},{"server_id":51,"name":"Uncletopia | Warsaw | 3 | All Maps","name_short":"waw-3","host":"waw-1.pl.uncletopia.com","port":27035,"enabled":true,"region":"eu","cc":"pl","latitude":52.2297,"longitude":21.017532,"reserved":0,"last_update":"0001-01-01T00:00:00Z","name_a2s":"Uncletopia | Warsaw | 3 | All Maps","protocol":17,"map":"pl_barnblitz","folder":"tf","game":"Team Fortress","app_id":440,"player_count":0,"max_players":24,"Bots":0,"server_type":"Dedicated","server_os":"Linux","password":true,"vac":true,"version":"7757534","steam_id":85568392925397852,"keywords":["nocrits","nodmgspread","payload","uncletopia"],"game_id":440,"stv_port":27036,"stv_name":"Uncletopia | Warsaw | 3 | All Maps | STV","players":null},{"server_id":52,"name":"Uncletopia | Warsaw | 4 | All Maps","name_short":"waw-4","host":"waw-1.pl.uncletopia.com","port":27045,"enabled":true,"region":"eu","cc":"pl","latitude":52.2297,"longitude":21.017532,"reserved":0,"last_update":"0001-01-01T00:00:00Z","name_a2s":"Uncletopia | Warsaw | 4 | All Maps","protocol":17,"map":"koth_lakeside_final","folder":"tf","game":"Team Fortress","app_id":440,"player_count":0,"max_players":24,"Bots":0,"server_type":"Dedicated","server_os":"Linux","password":true,"vac":true,"version":"7757534","steam_id":85568392925397853,"keywords":["cp","nocrits","nodmgspread","uncletopia"],"game_id":440,"stv_port":27046,"stv_name":"Uncletopia | Warsaw | 4 | All Maps | STV","players":null},{"server_id":53,"name":"Uncletopia | Warsaw | 5 | Stopwatch Beta","name_short":"waw-5","host":"waw-1.pl.uncletopia.com","port":27055,"enabled":true,"region":"eu","cc":"pl","latitude":52.2297,"longitude":21.017532,"reserved":0,"last_update":"0001-01-01T00:00:00Z","name_a2s":"Uncletopia | Warsaw | 5 | Stopwatch Beta","protocol":17,"map":"pl_borneo","folder":"tf","game":"Team Fortress","app_id":440,"player_count":0,"max_players":24,"Bots":0,"server_type":"Dedicated","server_os":"Linux","password":true,"vac":true,"version":"7757534","steam_id":85568392925397854,"keywords":["nocrits","nodmgspread","payload","uncletopia"],"game_id":440,"stv_port":27056,"stv_name":"Uncletopia | Warsaw | 5 | Stopwatch Beta | STV","players":null},{"server_id":54,"name":"Uncletopia | Warsaw | 6 | Community","name_short":"waw-6","host":"waw-1.pl.uncletopia.com","port":27065,"enabled":true,"region":"eu","cc":"pl","latitude":52.2297,"longitude":21.017532,"reserved":0,"last_update":"0001-01-01T00:00:00Z","name_a2s":"Uncletopia | Warsaw | 6 | Community","protocol":17,"map":"koth_lakeside_final","folder":"tf","game":"Team Fortress","app_id":440,"player_count":0,"max_players":24,"Bots":0,"server_type":"Dedicated","server_os":"Linux","password":true,"vac":true,"version":"7757534","steam_id":85568392925397856,"keywords":["cp","nocrits","nodmgspread","uncletopia"],"game_id":440,"stv_port":27066,"stv_name":"Uncletopia | Warsaw | 6 | Community | STV","players":null}]}