{"status":true,"message":"","result":[{"server_id":2,"name":"Uncletopia | Chicago | 1 | All Maps","name_short":"chi-1","host":"chi-1.us.uncletopia.com","port":27015,"enabled":true,"region":"us-central","cc":"us","latitude":41.881832,"longitude":-87.62318,"reserved":0,"last_update":"0001-01-01T00:00:00Z","name_a2s":"Uncletopia | Chicago | 1 | All Maps","protocol":17,"map":"pl_upward","folder":"tf","game":"Team Fortress","app_id":440,"player_count":24,"max_players":24,"Bots":0,"server_type":"Dedicated","server_os":"Linux","password":true,"vac":true,"version":"7932396","steam_id":85568392924469984,"keywords":["nocrits","nodmgspread","payload","uncletopia"],"game_id":440,"stv_port":27016,"stv_name":"Uncletopia | Chicago | 1 | All Maps | STV","players":[{"user_id":3,"name":"kermitcreeper(ZAZA)","steam_id":76561199222829972,"connected_time":7055000000000,"state":"active","ping":54},{"user_id":110,"name":"Deluxe_Taco34","steam_id":76561199037653437,"connected_time":3503000000000,"state":"active","ping":100},{"user_id":89,"name":"Ojen","steam_id":76561197998414482,"connected_time":5090000000000,"state":"active","ping":60},{"user_id":68,"name":"Obelisk","steam_id":76561198049416866,"connected_time":5602000000000,"state":"active","ping":77},{"user_id":138,"name":"CheeseCake488","steam_id":76561199407617942,"connected_time":302000000000,"state":"active","ping":134},{"user_id":9,"name":"coffee bagel","steam_id":76561198141198352,"connected_time":7051000000000,"state":"active","ping":44},{"user_id":123,"name":"Kartyac","steam_id":76561197991069005,"connected_time":2173000000000,"state":"active","ping":75},{"user_id":116,"name":"PocketTieAMPLFY","steam_id":76561199080485881,"connected_time":3073000000000,"state":"active","ping":116},{"user_id":122,"name":"Moist_Twerk_Fart","steam_id":76561198118752845,"connected_time":2256000000000,"state":"active","ping":73},{"user_id":119,"name":"rizzard of oz","steam_id":76561198040907214,"connected_time":2457000000000,"state":"active","ping":60},{"user_id":128,"name":"ùí•ùëúùìáùìâùìà","steam_id":76561198111878431,"connected_time":1433000000000,"state":"active","ping":114},{"user_id":130,"name":"Rays","steam_id":76561198072462009,"connected_time":1077000000000,"state":"active","ping":59},{"user_id":121,"name":"Epifiny","steam_id":76561198027958086,"connected_time":2414000000000,"state":"active","ping":68},{"user_id":132,"name":"Gotta Move That Gear Up","steam_id":76561197993467034,"connected_time":325000000000,"state":"active","ping":69},{"user_id":141,"name":"hot guy","steam_id":76561198083063005,"connected_time":283000000000,"state":"active","ping":134},{"user_id":143,"name":"mikey","steam_id":76561198095803763,"connected_time":277000000000,"state":"active","ping":92},{"user_id":131,"name":"crispy","steam_id":76561198971106376,"connected_time":689000000000,"state":"active","ping":55},{"user_id":135,"name":"Rappitor","steam_id":76561198105613110,"connected_time":310000000000,"state":"active","ping":53},{"user_id":99,"name":"Fletcher","steam_id":76561198317846538,"connected_time":4613000000000,"state":"active","ping":70},{"user_id":144,"name":"LevChem","steam_id":76561198065057515,"connected_time":184000000000,"state":"active","ping":48},{"user_id":136,"name":"Your Local Queer Librarian","steam_id":76561198013077080,"connected_time":310000000000,"state":"active","ping":57},{"user_id":27,"name":"Asmodeus","steam_id":76561198072923642,"connected_time":7006000000000,"state":"active","ping":72},{"user_id":115,"name":"Draconic Ballad","steam_id":76561198027191515,"connected_time":3207000000000,"state":"active","ping":45},{"user_id":125,"name":"cakgamin","steam_id":76561199088909749,"connected_time":2036000000000,"state":"active","ping":65}]},{"server_id":106,"name":"Uncletopia | Chicago | 2 | All Maps","name_short":"chi-2","host":"chi-1.us.uncletopia.com","port":27025,"enabled":true,"region":"us-central","cc":"us","latitude":41.881832,"longitude":-87.62318,"reserved":0,"last_update":"0001-01-01T00:00:00Z","name_a2s":"Uncletopia | Chicago | 2 | All Maps","protocol":17,"map":"pl_snowycoast","folder":"tf","game":"Team Fortress","app_id":440,"player_count":0,"max_players":24,"Bots":0,"server_type":"Dedicated","server_os":"Linux","password":true,"vac":true,"version":"7932396","steam_id":85568392924469985,"keywords":["nocrits","nodmgspread","payload","uncletopia"],"game_id":440,"stv_port":27026,"stv_name":"Uncletopia | Chicago | 2 | All Maps | STV","players":null},{"server_id":402,"name":"Uncletopia | Chicago | 3 | All Maps","name_short":"chi-3","host":"chi-1.us.uncletopia.com","port":27035,"enabled":true,"region":"us-central","cc":"us","latitude":41.881832,"longitude":-87.62318,"reserved":0,"last_update":"0001-01-01T00:00:00Z","name_a2s":"Uncletopia | Chicago | 3 | All Maps","protocol":17,"map":"pl_swiftwater_final1","folder":"tf","game":"Team Fortress","app_id":440,"player_count":0,"max_players":24,"Bots":0,"server_type":"Dedicated","server_os":"Linux","password":true,"vac":true,"version":"7932396","steam_id":85568392924515191,"keywords":["nocrits","nodmgspread","payload","uncletopia"],"game_id":440,"stv_port":27036,"stv_name":"Uncletopia | Chicago | 3 | All Maps | STV","players":null},{"server_id":403,"name":"Uncletopia | Chicago | 4 | All Maps","name_short":"chi-4","host":"chi-1.us.uncletopia.com","port":27045,"enabled":true,"region":"us-central","cc":"us","latitude":41.881832,"longitude":-87.62318,"reserved":0,"last_update":"0001-01-01T00:00:00Z","name_a2s":"Uncletopia | Chicago | 4 | All Maps","protocol":17,"map":"cp_process_final","folder":"tf","game":"Team Fortress","app_id":440,"player_count":0,"max_players":24,"Bots":0,"server_type":"Dedicated","server_os":"Linux","password":true,"vac":true,"version":"7932396","steam_id":85568392924515193,"keywords":["cp","nocrits","nodmgspread","uncletopia"],"game_id":440,"stv_port":27046,"stv_name":"Uncletopia | Chicago | 4 | All Maps | STV","players":null},{"server_id":36,"name":"Uncletopia | Chicago | 5 | All Maps","name_short":"chi-5","host":"chi-2.us.uncletopia.com","port":27015,"enabled":true,"region":"us-central","cc":"us","latitude":41.881832,"longitude":-87.62318,"reserved":0,"last_update":"0001-01-01T00:00:00Z","name_a2s":"Uncletopia | Chicago | 5 | All Maps","protocol":17,"map":"cp_altitude","folder":"tf","game":"Team Fortress","app_id":440,"player_count":0,"max_players":24,"Bots":0,"server_type":"Dedicated","server_os":"Linux","password":true,"vac":true,"version":"7932396","steam_id":85568392924866362,"keywords":["cp","nocrits","nodmgspread","uncletopia"],"game_id":440,"stv_port":27016,"stv_name":"Uncletopia | Chicago | 5 | All Maps | STV","players":null},{"server_id":37,"name":"Uncletopia | Chicago | 6 | All Maps","name_short":"chi-6","host":"chi-2.us.uncletopia.com","port":27025,"enabled":true,"region":"us-central","cc":"us","latitude":41.881832,"longitude":-87.62318,"reserved":0,"last_update":"0001-01-01T00:00:00Z","name_a2s":"Uncletopia | Chicago | 6 | All Maps","protocol":17,"map":"koth_viaduct","folder":"tf","game":"Team Fortress","app_id":440,"player_count":0,"max_players":24,"Bots":0,"server_type":"Dedicated","server_os":"Linux","password":true,"vac":true,"version":"7932396","steam_id":85568392924866363,"keywords":["cp","nocrits","nodmgspread","uncletopia"],"game_id":440,"stv_port":27026,"stv_name":"Uncletopia | Chicago | 6 | All Maps | STV","players":null},{"server_id":38,"name":"Uncletopia | Chicago | 7 | Stopwatch Beta","name_short":"chi-7","host":"chi-2.us.uncletopia.com","port":27035,"enabled":true,"region":"us-central","cc":"us","latitude":41.881832,"longitude":-87.62318,"reserved":0,"last_update":"0001-01-01T00:00:00Z","name_a2s":"Uncletopia | Chicago | 7 | Stopwatch Beta","protocol":17,"map":"pl_borneo","folder":"tf","game":"Team Fortress","app_id":440,"player_count":0,"max_players":24,"Bots":0,"server_type":"Dedicated","server_os":"Linux","password":true,"vac":true,"version":"7932396","steam_id":85568392924866364,"keywords":["nocrits","nodmgspread","payload","uncletopia"],"game_id":440,"stv_port":27036,"stv_name":"Uncletopia | Chicago | 7 | Stopwatch Beta | STV","players":null},{"server_id":39,"name":"Uncletopia | Chicago | 8 | Community","name_short":"chi-8","host":"chi-2.us.uncletopia.com","port":27045,"enabled":true,"region":"us-central","cc":"us","latitude":41.881832,"longitude":-87.62318,"reserved":0,"last_update":"0001-01-01T00:00:00Z","name_a2s":"Uncletopia | Chicago | 8 | Community","protocol":17,"map":"koth_viaduct","folder":"tf","game":"Team Fortress","app_id":440,"player_count":0,"max_players":24,"Bots":0,"server_type":"Dedicated","server_os":"Linux","password":true,"vac":true,"version":"7932396","steam_id":85568392924866365,"keywords":["cp","nocrits","nodmgspread","uncletopia"],"game_id":440,"stv_port":27046,"stv_name":"Uncletopia | Chicago | 8 | Community | STV","players":null},{"server_id":8,"name":"Uncletopia | Dallas | 1 | All Maps","name_short":"dal-1","host":"dal-1.us.uncletopia.com","port":27015,"enabled":true,"region":"us-central","cc":"us","latitude":32.779167,"longitude":-96.80889,"reserved":0,"last_update":"0001-01-01T00:00:00Z","name_a2s":"Uncletopia | Dallas | 1 | All Maps","protocol":17,"map":"cp_snakewater_final1","folder":"tf","game":"Team Fortress","app_id":440,"player_count":0,"max_players":24,"Bots":0,"server_type":"Dedicated","server_os":"Linux","password":true,"vac":true,"version":"7932396","steam_id":85568392924469986,"keywords":["cp","nocrits","nodmgspread","uncletopia"],"game_id":440,"stv_port":27016,"stv_name":"Uncletopia | Dallas | 1 | All Maps | STV","players":null},{"server_id":108,"name":"Uncletopia | Dallas | 2 | All Maps","name_short":"dal-2","host":"dal-1.us.uncletopia.com","port":27025,"enabled":true,"region":"us-central","cc":"us","latitude":32.779167,"longitude":-96.80889,"reserved":0,"last_update":"0001-01-01T00:00:00Z","name_a2s":"Uncletopia | Dallas | 2 | All Maps","protocol":17,"map":"cp_snakewater_final1","folder":"tf","game":"Team Fortress","app_id":440,"player_count":0,"max_players":24,"Bots":0,"server_type":"Dedicated","server_os":"Linux","password":true,"vac":true,"version":"7932396","steam_id":85568392924469988,"keywords":["cp","nocrits","nodmgspread","uncletopia"],"game_id":440,"stv_port":27026,"stv_name":"Uncletopia | Dallas | 2 | All Maps | STV","players":null},{"server_id":5,"name":"Uncletopia | Frankfurt | 1 | All Maps","name_short":"frk-1","host":"frk-1.de.uncletopia.com","port":27015,"enabled":true,"region":"eu","cc":"de","latitude":50.110924,"longitude":8.682127,"reserved":0,"last_update":"0001-01-01T00:00:00Z","name_a2s":"Uncletopia | Frankfurt | 1 | All Maps","protocol":17,"map":"koth_cascade","folder":"tf","game":"Team Fortress","app_id":440,"player_count":15,"max_players":24,"Bots":0,"server_type":"Dedicated","server_os":"Linux","password":true,"vac":true,"version":"7932396","steam_id":85568392924469989,"keywords":["cp","nocrits","nodmgspread","uncletopia"],"game_id":440,"stv_port":27016,"stv_name":"Uncletopia | Frankfurt | 1 | All Maps | STV","players":[{"user_id":47,"name":"Poggito","steam_id":76561198838001276,"connected_time":25000000000,"state":"spawning","ping":48},{"user_id":25,"name":"AdThGu","steam_id":76561198259308832,"connected_time":1617000000000,"state":"active","ping":77},{"user_id":35,"name":"Paladin","steam_id":76561198042593027,"connected_time":713000000000,"state":"active","ping":84},{"user_id":27,"name":"Nickel","steam_id":76561199037745941,"connected_time":1216000000000,"state":"active","ping":125},{"user_id":33,"name":"RocketBoy08","steam_id":76561198833978944,"connected_time":845000000000,"state":"active","ping":99},{"user_id":29,"name":"Pa(i)n","steam_id":76561198285357256,"connected_time":1122000000000,"state":"active","ping":83},{"user_id":36,"name":"‚ó¢‚ó§ Joker ‚ó¢‚ó§","steam_id":76561198038325384,"connected_time":698000000000,"state":"active","ping":59},{"user_id":38,"name":"Mase","steam_id":76561199005591075,"connected_time":537000000000,"state":"active","ping":75},{"user_id":39,"name":"MoreIsMore","steam_id":76561198050973207,"connected_time":492000000000,"state":"active","ping":75},{"user_id":40,"name":"Talent","steam_id":76561198153880354,"connected_time":449000000000,"state":"active","ping":71},{"user_id":41,"name":"player with 0 skill","steam_id":76561198002451113,"connected_time":379000000000,"state":"active","ping":90},{"user_id":44,"name":"Krefa12","steam_id":76561198268375393,"connected_time":127000000000,"state":"active","ping":75},{"user_id":43,"name":"Jorji Costava","steam_id":76561198308441483,"connected_time":213000000000,"state":"active","ping":69},{"user_id":45,"name":"Runyohell","steam_id":76561198309876860,"connected_time":75000000000,"state":"spawning","ping":94},{"user_id":46,"name":"small-brained bipedal primate","steam_id":76561198061220702,"connected_time":64000000000,"state":"active","ping":57}]},{"server_id":110,"name":"Uncletopia | Frankfurt | 2 | All Maps","name_short":"frk-2","host":"frk-1.de.uncletopia.com","port":27025,"enabled":true,"region":"eu","cc":"de","latitude":50.110924,"longitude":8.682127,"reserved":0,"last_update":"0001-01-01T00:00:00Z","name_a2s":"Uncletopia | Frankfurt | 2 | All Maps","protocol":17,"map":"pl_pier","folder":"tf","game":"Team Fortress","app_id":440,"player_count":2,"max_players":24,"Bots":0,"server_type":"Dedicated","server_os":"Linux","password":true,"vac":true,"version":"7932396","steam_id":85568392924469990,"keywords":["nocrits","nodmgspread","payload","uncletopia"],"game_id":440,"stv_port":27026,"stv_name":"Uncletopia | Frankfurt | 2 | All Maps | STV","players":[{"user_id":6,"name":"TonTon","steam_id":76561198145468895,"connected_time":1155000000000,"state":"active","ping":49},{"user_id":7,"name":"HwK!","steam_id":76561198287835588,"connected_time":1140000000000,"state":"active","ping":84}]},{"server_id":308,"name":"Uncletopia | Frankfurt | 3 | All Maps","name_short":"frk-3","host":"frk-1.de.uncletopia.com","port":27035,"enabled":true,"region":"eu","cc":"de","latitude":50.110924,"longitude":8.682127,"reserved":0,"last_update":"0001-01-01T00:00:00Z","name_a2s":"Uncletopia | Frankfurt | 3 | All Maps","protocol":17,"map":"pl_barnblitz","folder":"tf","game":"Team Fortress","app_id":440,"player_count":24,"max_players":24,"Bots":0,"server_type":"Dedicated","server_os":"Linux","password":true,"vac":true,"version":"7932396","steam_id":85568392924504274,"keywords":["nocrits","nodmgspread","payload","uncletopia"],"game_id":440,"stv_port":27036,"stv_name":"Uncletopia | Frankfurt | 3 | All Maps | STV","players":[{"user_id":220,"name":"cuddle","steam_id":76561198805181599,"connected_time":2894000000000,"state":"active","ping":68},{"user_id":244,"name":"Deacon Dracul","steam_id":76561198046880663,"connected_time":484000000000,"state":"active","ping":91},{"user_id":172,"name":"Operunter","steam_id":76561198059937616,"connected_time":5702000000000,"state":"active","ping":67},{"user_id":184,"name":"Fizik","steam_id":76561198065548086,"connected_time":5345000000000,"state":"active","ping":54},{"user_id":223,"name":"Ducky[WADZ]","steam_id":76561198060341245,"connected_time":2682000000000,"state":"active","ping":57},{"user_id":246,"name":"Miraak","steam_id":76561198173825737,"connected_time":184000000000,"state":"active","ping":71},{"user_id":230,"name":"BONVH","steam_id":76561199080666656,"connected_time":2066000000000,"state":"active","ping":125},{"user_id":205,"name":"efffcraft","steam_id":76561198306317166,"connected_time":3721000000000,"state":"active","ping":98},{"user_id":175,"name":"Teathling","steam_id":76561198061580505,"connected_time":5658000000000,"state":"active","ping":57},{"user_id":217,"name":"Floris Kakadoris","steam_id":76561198258458741,"connected_time":2941000000000,"state":"active","ping":68},{"user_id":158,"name":"Cuthbert","steam_id":76561198204649481,"connected_time":7269000000000,"state":"active","ping":90},{"user_id":240,"name":"Jerry Cotton","steam_id":76561198089991130,"connected_time":766000000000,"state":"active","ping":57},{"user_id":235,"name":"‚ò≠TheDevilsEye‚ò≠","steam_id":76561198017379398,"connected_time":1396000000000,"state":"active","ping":70},{"user_id":239,"name":"peruna","steam_id":76561198000721196,"connected_time":878000000000,"state":"active","ping":90},{"user_id":207,"name":"Gamlader","steam_id":76561198306177608,"connected_time":3636000000000,"state":"active","ping":71},{"user_id":238,"name":"Electro","steam_id":76561198891588213,"connected_time":1101000000000,"state":"active","ping":59},{"user_id":204,"name":"show the wrench up my ass","steam_id":76561198084128305,"connected_time":3779000000000,"state":"active","ping":75},{"user_id":226,"name":"CS 2","steam_id":76561198972902040,"connected_time":2605000000000,"state":"active","ping":89},{"user_id":228,"name":"Sir P. P. Cumsalot","steam_id":76561198006549800,"connected_time":2149000000000,"state":"active","ping":121},{"user_id":241,"name":".::[SerafeTTiN]::.","steam_id":76561198009471724,"connected_time":524000000000,"state":"active","ping":90},{"user_id":242,"name":"LoneWolf","steam_id":76561198067866619,"connected_time":516000000000,"state":"active","ping":64},{"user_id":232,"name":"Kurage","steam_id":76561198021221288,"connected_time":1629000000000,"state":"active","ping":57},{"user_id":215,"name":"costco-pilled individual","steam_id":76561198818037965,"connected_time":3087000000000,"state":"active","ping":117},{"user_id":219,"name":"Door","steam_id":76561198111462976,"connected_time":2935000000000,"state":"active","ping":70}]},{"server_id":309,"name":"Uncletopia | Frankfurt | 4 | All Maps","name_short":"frk-4","host":"frk-1.de.uncletopia.com","port":27045,"enabled":true,"region":"eu","cc":"de","latitude":50.110924,"longitude":8.682127,"reserved":0,"last_update":"0001-01-01T00:00:00Z","name_a2s":"Uncletopia | Frankfurt | 4 | All Maps","protocol":17,"map":"pl_rumford_event","folder":"tf","game":"Team Fortress","app_id":440,"player_count":18,"max_players":24,"Bots":0,"server_type":"Dedicated","server_os":"Linux","password":true,"vac":true,"version":"7932396","steam_id":85568392924504275,"keywords":["nocrits","nodmgspread","payload","uncletopia"],"game_id":440,"stv_port":27046,"stv_name":"Uncletopia | Frankfurt | 4 | All Maps | STV","players":[{"user_id":77,"name":"puuksu_mees7","steam_id":76561198022616643,"connected_time":414000000000,"state":"active","ping":74},{"user_id":78,"name":"fecal incident","steam_id":76561198086770023,"connected_time":389000000000,"state":"active","ping":59},{"user_id":83,"name":"goblin (real)","steam_id":76561198868286775,"connected_time":109000000000,"state":"active","ping":89},{"user_id":79,"name":"laza's boy","steam_id":76561199074095198,"connected_time":380000000000,"state":"active","ping":107},{"user_id":74,"name":"Mury","steam_id":76561198069743049,"connected_time":630000000000,"state":"active","ping":145},{"user_id":65,"name":"Spinya","steam_id":76561198086653667,"connected_time":1347000000000,"state":"active","ping":62},{"user_id":84,"name":"Amandus","steam_id":76561198036281079,"connected_time":23000000000,"state":"spawning","ping":55},{"user_id":85,"name":"ympo","steam_id":76561198202441870,"connected_time":21000000000,"state":"spawning","ping":61},{"user_id":72,"name":"C11H15NO2","steam_id":76561198066146016,"connected_time":797000000000,"state":"active","ping":68},{"user_id":86,"name":"Mr. Luigi","steam_id":76561198167312951,"connected_time":19000000000,"state":"spawning","ping":107},{"user_id":60,"name":"Doggo225","steam_id":76561198166707002,"connected_time":1440000000000,"state":"active","ping":51},{"user_id":18,"name":"Psychicpie","steam_id":76561198126065206,"connected_time":2826000000000,"state":"active","ping":45},{"user_id":59,"name":"MpJens","steam_id":76561198000347669,"connected_time":1450000000000,"state":"active","ping":45},{"user_id":36,"name":" ≤·∂†·µç ‚ú´","steam_id":76561199062437546,"connected_time":2419000000000,"state":"active","ping":50},{"user_id":57,"name":"Ed","steam_id":76561198184360615,"connected_time":1463000000000,"state":"active","ping":96},{"user_id":71,"name":"dinorno","steam_id":76561198146276830,"connected_time":950000000000,"state":"active","ping":67},{"user_id":63,"name":"Gorzel","steam_id":76561198828273330,"connected_time":1427000000000,"state":"active","ping":72},{"user_id":76,"name":"El`Capitano Flex","steam_id":76561198061813730,"connected_time":530000000000,"state":"active","ping":66}]},{"server_id":310,"name":"Uncletopia | Frankfurt | 5 | All Maps","name_short":"frk-5","host":"frk-1.de.uncletopia.com","port":27055,"enabled":true,"region":"eu","cc":"de","latitude":50.110924,"longitude":8.682127,"reserved":0,"last_update":"0001-01-01T00:00:00Z","name_a2s":"Uncletopia | Frankfurt | 5 | All Maps","protocol":17,"map":"koth_cascade","folder":"tf","game":"Team Fortress","app_id":440,"player_count":0,"max_players":24,"Bots":0,"server_type":"Dedicated","server_os":"Linux","password":true,"vac":true,"version":"7932396","steam_id":85568392924504277,"keywords":["cp","nocrits","nodmgspread","uncletopia"],"game_id":440,"stv_port":27056,"stv_name":"Uncletopia | Frankfurt | 5 | All Maps | STV","players":null},{"server_id":311,"name":"Uncletopia | Frankfurt | 6 | All Maps","name_short":"frk-6","host":"frk-1.de.uncletopia.com","port":27065,"enabled":true,"region":"eu","cc":"de","latitude":50.110924,"longitude":8.682127,"reserved":0,"last_update":"0001-01-01T00:00:00Z","name_a2s":"Uncletopia | Frankfurt | 6 | All Maps","protocol":17,"map":"koth_viaduct","folder":"tf","game":"Team Fortress","app_id":440,"player_count":0,"max_players":24,"Bots":0,"server_type":"Dedicated","server_os":"Linux","password":true,"vac":true,"version":"7932396","steam_id":85568392924504278,"keywords":["cp","nocrits","nodmgspread","uncletopia"],"game_id":440,"stv_port":27066,"stv_name":"Uncletopia | Frankfurt | 6 | All Maps | STV","players":null},{"server_id":23,"name":"Uncletopia | Frankfurt | 7 | Stopwatch Beta","name_short":"frk-7","host":"frk-1.de.uncletopia.com","port":27075,"enabled":true,"region":"eu","cc":"de","latitude":50.110924,"longitude":8.682127,"reserved":0,"last_update":"0001-01-01T00:00:00Z","name_a2s":"Uncletopia | Frankfurt | 7 | Stopwatch Beta","protocol":17,"map":"pl_snowycoast","folder":"tf","game":"Team Fortress","app_id":440,"player_count":0,"max_players":24,"Bots":0,"server_type":"Dedicated","server_os":"Linux","password":true,"vac":true,"version":"7932396","steam_id":85568392924742827,"keywords":["nocrits","nodmgspread","payload","uncletopia"],"game_id":440,"stv_port":27076,"stv_name":"Uncletopia | Frankfurt | 7 | Stopwatch Beta | STV","players":null},{"server_id":24,"name":"Uncletopia | Frankfurt | 8 | Community","name_short":"frk-8","host":"frk-1.de.uncletopia.com","port":27085,"enabled":true,"region":"eu","cc":"de","latitude":50.110924,"longitude":8.682127,"reserved":0,"last_update":"0001-01-01T00:00:00Z","name_a2s":"Uncletopia | Frankfurt | 8 | Community","protocol":17,"map":"workshop/koth_bagel_rc6.ugc2514036946","folder":"tf","game":"Team Fortress","app_id":440,"player_count":0,"max_players":24,"Bots":0,"server_type":"Dedicated","server_os":"Linux","password":true,"vac":true,"version":"7932396","steam_id":85568392924742828,"keywords":["cp","nocrits","nodmgspread","uncletopia"],"game_id":440,"stv_port":27086,"stv_name":"Uncletopia | Frankfurt | 8 | Community | STV","players":null},{"server_id":202,"name":"Uncletopia | Hong Kong | 1 | All Maps","name_short":"hgk-1","host":"hgk-1.hk.uncletopia.com","port":27015,"enabled":true,"region":"asia","cc":"hk","latitude":22.302711,"longitude":114.177216,"reserved":0,"last_update":"0001-01-01T00:00:00Z","name_a2s":"Uncletopia | Hong Kong | 1 | All Maps","protocol":17,"map":"cp_dustbowl","folder":"tf","game":"Team Fortress","app_id":440,"player_count":24,"max_players":24,"Bots":0,"server_type":"Dedicated","server_os":"Linux","password":true,"vac":true,"version":"7932396","steam_id":85568392924494504,"keywords":["cp","nocrits","nodmgspread","uncletopia"],"game_id":440,"stv_port":27016,"stv_name":"Uncletopia | Hong Kong | 1 | All Maps | STV","players":[{"user_id":212,"name":"Headmouth","steam_id":76561198019789855,"connected_time":172000000000,"state":"active","ping":123},{"user_id":187,"name":"Saw dust sniffer","steam_id":76561198168418395,"connected_time":1928000000000,"state":"active","ping":31},{"user_id":207,"name":"P","steam_id":76561198304514505,"connected_time":880000000000,"state":"active","ping":70},{"user_id":174,"name":"Nice","steam_id":76561199180653046,"connected_time":2392000000000,"state":"active","ping":132},{"user_id":209,"name":"Pizza_Jammies1345","steam_id":76561199228950246,"connected_time":837000000000,"state":"active","ping":150},{"user_id":171,"name":"Human cannonball enjoyer","steam_id":76561198074762858,"connected_time":2639000000000,"state":"active","ping":151},{"user_id":189,"name":"ConHoshi","steam_id":76561199387718733,"connected_time":1792000000000,"state":"active","ping":78},{"user_id":208,"name":"I LOVE FRANK OCEAN","steam_id":76561198400698408,"connected_time":860000000000,"state":"active","ping":90},{"user_id":175,"name":"Morningstar_","steam_id":76561198065756804,"connected_time":2377000000000,"state":"active","ping":75},{"user_id":194,"name":"SECT","steam_id":76561199122367855,"connected_time":1362000000000,"state":"active","ping":77},{"user_id":193,"name":"tfolz","steam_id":76561199044900678,"connected_time":1485000000000,"state":"active","ping":126},{"user_id":178,"name":"obama boss fight simulator 3D","steam_id":76561199209331489,"connected_time":2313000000000,"state":"active","ping":104},{"user_id":191,"name":"paper boat","steam_id":76561198046558051,"connected_time":1564000000000,"state":"active","ping":102},{"user_id":195,"name":"Cock Gobbler [F2P]","steam_id":76561199205335227,"connected_time":1362000000000,"state":"active","ping":65},{"user_id":213,"name":"TomCat","steam_id":76561198133744053,"connected_time":12000000000,"state":"active","ping":109},{"user_id":198,"name":"Asshole Gamer","steam_id":76561199233580320,"connected_time":1202000000000,"state":"active","ping":88},{"user_id":199,"name":"Vitali-T","steam_id":76561199257091003,"connected_time":1167000000000,"state":"active","ping":82},{"user_id":200,"name":"fish jenga","steam_id":76561198080108480,"connected_time":1148000000000,"state":"active","ping":80},{"user_id":201,"name":"Med","steam_id":76561199087727164,"connected_time":1124000000000,"state":"active","ping":93},{"user_id":203,"name":"xd45_","steam_id":76561198410772507,"connected_time":1044000000000,"state":"active","ping":91},{"user_id":204,"name":"rizzboi","steam_id":76561198128183085,"connected_time":1032000000000,"state":"active","ping":93},{"user_id":205,"name":"we ball","steam_id":76561199480939609,"connected_time":982000000000,"state":"active","ping":75},{"user_id":206,"name":"Pillboi","steam_id":76561198011172886,"connected_time":959000000000,"state":"active","ping":44},{"user_id":211,"name":"bruh","steam_id":76561199068229379,"connected_time":392000000000,"state":"active","ping":54}]},{"server_id":1,"name":"Uncletopia | Los Angeles | 1 | All Maps","name_short":"lax-1","host":"lax-1.us.uncletopia.com","port":27015,"enabled":true,"region":"us-west","cc":"us","latitude":33.94279,"longitude":-118.41004,"reserved":0,"last_update":"0001-01-01T00:00:00Z","name_a2s":"Uncletopia | Los Angeles | 1 | All Maps","protocol":17,"map":"cp_process_final","folder":"tf","game":"Team Fortress","app_id":440,"player_count":0,"max_players":24,"Bots":0,"server_type":"Dedicated","server_os":"Linux","password":true,"vac":true,"version":"7932396","steam_id":85568392924469991,"keywords":["cp","nocrits","nodmgspread","uncletopia"],"game_id":440,"stv_port":27016,"stv_name":"Uncletopia | Los Angeles | 1 | All Maps | STV","players":null},{"server_id":112,"name":"Uncletopia | Los Angeles | 2 | All Maps","name_short":"lax-2","host":"lax-1.us.uncletopia.com","port":27025,"enabled":true,"region":"us-west","cc":"us","latitude":33.94279,"longitude":-118.41004,"reserved":0,"last_update":"0001-01-01T00:00:00Z","name_a2s":"Uncletopia | Los Angeles | 2 | All Maps","protocol":17,"map":"koth_cascade","folder":"tf","game":"Team Fortress","app_id":440,"player_count":0,"max_players":24,"Bots":0,"server_type":"Dedicated","server_os":"Linux","password":true,"vac":true,"version":"7932396","steam_id":85568392924469992,"keywords":["cp","nocrits","nodmgspread","uncletopia"],"game_id":440,"stv_port":27026,"stv_name":"Uncletopia | Los Angeles | 2 | All Maps | STV","players":null},{"server_id":324,"name":"Uncletopia | Los Angeles | 3 | All Maps","name_short":"lax-3","host":"lax-1.us.uncletopia.com","port":27035,"enabled":true,"region":"us-west","cc":"us","latitude":33.94279,"longitude":-118.41004,"reserved":0,"last_update":"0001-01-01T00:00:00Z","name_a2s":"Uncletopia | Los Angeles | 3 | All Maps","protocol":17,"map":"pl_swiftwater_final1","folder":"tf","game":"Team Fortress","app_id":440,"player_count":0,"max_players":24,"Bots":0,"server_type":"Dedicated","server_os":"Linux","password":true,"vac":true,"version":"7932396","steam_id":85568392924510198,"keywords":["nocrits","nodmgspread","payload","uncletopia"],"game_id":440,"stv_port":27036,"stv_name":"Uncletopia | Los Angeles | 3 | All Maps | STV","players":null},{"server_id":25,"name":"Uncletopia | Los Angeles | 4 | Stopwatch Beta","name_short":"lax-4","host":"lax-1.us.uncletopia.com","port":27045,"enabled":true,"region":"us-west","cc":"us","latitude":33.94279,"longitude":-118.41004,"reserved":0,"last_update":"0001-01-01T00:00:00Z","name_a2s":"Uncletopia | Los Angeles | 4 | Stopwatch Beta","protocol":17,"map":"cp_granary","folder":"tf","game":"Team Fortress","app_id":440,"player_count":0,"max_players":24,"Bots":0,"server_type":"Dedicated","server_os":"Linux","password":true,"vac":true,"version":"7932396","steam_id":85568392924510199,"keywords":["cp","nocrits","nodmgspread","uncletopia"],"game_id":440,"stv_port":27046,"stv_name":"Uncletopia | Los Angeles | 4 | Stopwatch Beta | STV","players":null},{"server_id":11,"name":"Uncletopia | London | 1 | All Maps","name_short":"lon-1","host":"lon-1.uk.uncletopia.com","port":27015,"enabled":true,"region":"eu","cc":"gb","latitude":51.509865,"longitude":-0.118092,"reserved":0,"last_update":"0001-01-01T00:00:00Z","name_a2s":"Uncletopia | London | 1 | All Maps","protocol":17,"map":"koth_cascade","folder":"tf","game":"Team Fortress","app_id":440,"player_count":4,"max_players":24,"Bots":0,"server_type":"Dedicated","server_os":"Linux","password":true,"vac":true,"version":"7932396","steam_id":85568392924367362,"keywords":["cp","nocrits","nodmgspread","uncletopia"],"game_id":440,"stv_port":27016,"stv_name":"Uncletopia | London | 1 | All Maps | STV","players":[{"user_id":15,"name":"Stunner (John Gaming)","steam_id":76561199085822219,"connected_time":1078000000000,"state":"active","ping":85},{"user_id":17,"name":"sub class?","steam_id":76561199184873889,"connected_time":527000000000,"state":"active","ping":61},{"user_id":18,"name":"Artificer","steam_id":76561198840591678,"connected_time":241000000000,"state":"active","ping":75},{"user_id":20,"name":"draken","steam_id":76561199213340769,"connected_time":46000000000,"state":"active","ping":111}]},{"server_id":114,"name":"Uncletopia | London | 2 | All Maps","name_short":"lon-2","host":"lon-1.uk.uncletopia.com","port":27025,"enabled":true,"region":"eu","cc":"gb","latitude":51.509865,"longitude":-0.118092,"reserved":0,"last_update":"0001-01-01T00:00:00Z","name_a2s":"Uncletopia | London | 2 | All Maps","protocol":17,"map":"koth_highpass","folder":"tf","game":"Team Fortress","app_id":440,"player_count":0,"max_players":24,"Bots":0,"server_type":"Dedicated","server_os":"Linux","password":true,"vac":true,"version":"7932396","steam_id":85568392924470941,"keywords":["cp","nocrits","nodmgspread","uncletopia"],"game_id":440,"stv_port":27026,"stv_name":"Uncletopia | London | 2 | All Maps | STV","players":null},{"server_id":320,"name":"Uncletopia | London | 3 | All Maps","name_short":"lon-3","host":"lon-1.uk.uncletopia.com","port":27035,"enabled":true,"region":"eu","cc":"gb","latitude":51.509865,"longitude":-0.118092,"reserved":0,"last_update":"0001-01-01T00:00:00Z","name_a2s":"Uncletopia | London | 3 | All Maps","protocol":17,"map":"cp_altitude","folder":"tf","game":"Team Fortress","app_id":440,"player_count":0,"max_players":24,"Bots":0,"server_type":"Dedicated","server_os":"Linux","password":true,"vac":true,"version":"7932396","steam_id":85568392924510192,"keywords":["cp","nocrits","nodmgspread","uncletopia"],"game_id":440,"stv_port":27036,"stv_name":"Uncletopia | London | 3 | All Maps | STV","players":null},{"server_id":321,"name":"Uncletopia | London | 4 | All Maps","name_short":"lon-4","host":"lon-1.uk.uncletopia.com","port":27045,"enabled":true,"region":"eu","cc":"gb","latitude":51.509865,"longitude":-0.118092,"reserved":0,"last_update":"0001-01-01T00:00:00Z","name_a2s":"Uncletopia | London | 4 | All Maps","protocol":17,"map":"koth_highpass","folder":"tf","game":"Team Fortress","app_id":440,"player_count":0,"max_players":24,"Bots":0,"server_type":"Dedicated","server_os":"Linux","password":true,"vac":true,"version":"7932396","steam_id":85568392924510193,"keywords":["cp","nocrits","nodmgspread","uncletopia"],"game_id":440,"stv_port":27046,"stv_name":"Uncletopia | London | 4 | All Maps | STV","players":null},{"server_id":21,"name":"Uncletopia | London | 5 | All Maps","name_short":"lon-5","host":"lon-1.uk.uncletopia.com","port":27055,"enabled":true,"region":"eu","cc":"gb","latitude":51.509865,"longitude":-0.118092,"reserved":0,"last_update":"0001-01-01T00:00:00Z","name_a2s":"Uncletopia | London | 5 | All Maps","protocol":17,"map":"pl_pier","folder":"tf","game":"Team Fortress","app_id":440,"player_count":24,"max_players":24,"Bots":0,"server_type":"Dedicated","server_os":"Linux","password":true,"vac":true,"version":"7932396","steam_id":85568392924742829,"keywords":["nocrits","nodmgspread","payload","uncletopia"],"game_id":440,"stv_port":27056,"stv_name":"Uncletopia | London | 5 | All Maps | STV","players":[{"user_id":128,"name":"PerskuleBenener","steam_id":76561198156899375,"connected_time":1434000000000,"state":"active","ping":89},{"user_id":138,"name":"MEOWMEOWMEOWMEOWMEOWMEOWMEOWMEO","steam_id":76561198723244199,"connected_time":631000000000,"state":"active","ping":75},{"user_id":131,"name":"pappir","steam_id":76561199234704905,"connected_time":1176000000000,"state":"active","ping":61},{"user_id":112,"name":"wal","steam_id":76561198066043883,"connected_time":2073000000000,"state":"active","ping":54},{"user_id":113,"name":"CAR DOOR","steam_id":76561198055283295,"connected_time":1940000000000,"state":"active","ping":59},{"user_id":114,"name":"Naix","steam_id":76561198053893077,"connected_time":1921000000000,"state":"active","ping":53},{"user_id":139,"name":"Jov","steam_id":76561199110881856,"connected_time":590000000000,"state":"active","ping":74},{"user_id":39,"name":"gravity displeases me","steam_id":76561198342570528,"connected_time":7838000000000,"state":"active","ping":72},{"user_id":144,"name":"Wolfdad Duke","steam_id":76561197986442930,"connected_time":318000000000,"state":"active","ping":60},{"user_id":142,"name":"Web","steam_id":76561198187663954,"connected_time":506000000000,"state":"active","ping":45},{"user_id":129,"name":"Delta","steam_id":76561198268912848,"connected_time":1319000000000,"state":"active","ping":81},{"user_id":104,"name":"jt7","steam_id":76561198073655162,"connected_time":2501000000000,"state":"active","ping":81},{"user_id":38,"name":"Bun","steam_id":76561197989239999,"connected_time":8142000000000,"state":"active","ping":58},{"user_id":146,"name":"Andrea","steam_id":76561199487380678,"connected_time":78000000000,"state":"active","ping":104},{"user_id":22,"name":"Master Of Noob","steam_id":76561198217926783,"connected_time":8445000000000,"state":"active","ping":76},{"user_id":133,"name":"Meow For Mommy \u003c3","steam_id":76561198981401067,"connected_time":1003000000000,"state":"active","ping":127},{"user_id":145,"name":"I.AM.THE.BOOP.WHICH.IS.APROACHI","steam_id":76561198049342507,"connected_time":201000000000,"state":"active","ping":95},{"user_id":118,"name":"Fabrioche","steam_id":76561198257070533,"connected_time":1870000000000,"state":"active","ping":60},{"user_id":124,"name":"germinator","steam_id":76561199387893648,"connected_time":1624000000000,"state":"active","ping":105},{"user_id":32,"name":"Venenakki","steam_id":76561198311526482,"connected_time":8289000000000,"state":"active","ping":72},{"user_id":135,"name":"Leonic","steam_id":76561198067699203,"connected_time":892000000000,"state":"active","ping":43},{"user_id":137,"name":"cp_steel_f10","steam_id":76561198274631806,"connected_time":866000000000,"state":"active","ping":46},{"user_id":141,"name":"‚ôÇ Animan ‚ôÇ Studios ‚ôÇ","steam_id":76561198308302932,"connected_time":576000000000,"state":"active","ping":101},{"user_id":136,"name":"annie","steam_id":76561197994492154,"connected_time":880000000000,"state":"active","ping":74}]},{"server_id":22,"name":"Uncletopia | London | 6 | All Maps","name_short":"lon-6","host":"lon-1.uk.uncletopia.com","port":27065,"enabled":true,"region":"eu","cc":"gb","latitude":51.509865,"longitude":-0.118092,"reserved":0,"last_update":"0001-01-01T00:00:00Z","name_a2s":"Uncletopia | London | 6 | All Maps","protocol":17,"map":"koth_viaduct","folder":"tf","game":"Team Fortress","app_id":440,"player_count":0,"max_players":24,"Bots":0,"server_type":"Dedicated","server_os":"Linux","password":true,"vac":true,"version":"7932396","steam_id":85568392924742830,"keywords":["cp","nocrits","nodmgspread","uncletopia"],"game_id":440,"stv_port":27066,"stv_name":"Uncletopia | London | 6 | All Maps | STV","players":null},{"server_id":40,"name":"Uncletopia | London | 7 | No Payload","name_short":"lon-7","host":"lon-1.uk.uncletopia.com","port":27075,"enabled":true,"region":"eu","cc":"gb","latitude":51.509865,"longitude":-0.118092,"reserved":0,"last_update":"0001-01-01T00:00:00Z","name_a2s":"Uncletopia | London | 7 | No Payload","protocol":17,"map":"cp_coldfront","folder":"tf","game":"Team Fortress","app_id":440,"player_count":14,"max_players":24,"Bots":0,"server_type":"Dedicated","server_os":"Linux","password":true,"vac":true,"version":"7932396","steam_id":85568392924964314,"keywords":["cp","nocrits","nodmgspread","uncletopia"],"game_id":440,"stv_port":27076,"stv_name":"Uncletopia | London | 7 | No Payload | STV","players":[{"user_id":222,"name":"Ch4bby","steam_id":76561198058792875,"connected_time":3780000000000,"state":"active","ping":47},{"user_id":264,"name":"eva.","steam_id":76561198054474684,"connected_time":242000000000,"state":"active","ping":82},{"user_id":217,"name":"Huskey","steam_id":76561198152392309,"connected_time":3873000000000,"state":"active","ping":46},{"user_id":265,"name":"Varsk","steam_id":76561198061398890,"connected_time":113000000000,"state":"active","ping":44},{"user_id":197,"name":"fence_","steam_id":76561198150386379,"connected_time":4949000000000,"state":"active","ping":45},{"user_id":266,"name":"IntoTheIndie","steam_id":76561199042274078,"connected_time":97000000000,"state":"active","ping":156},{"user_id":195,"name":"Nobody","steam_id":76561198151116796,"connected_time":5116000000000,"state":"active","ping":89},{"user_id":170,"name":"ozwk","steam_id":76561198062257357,"connected_time":7062000000000,"state":"active","ping":46},{"user_id":267,"name":"Slimeboy Enthusiast","steam_id":76561199200969139,"connected_time":40000000000,"state":"active","ping":215},{"user_id":244,"name":"Psyche","steam_id":76561198091662001,"connected_time":1983000000000,"state":"active","ping":62},{"user_id":199,"name":"Dr ADHD MD","steam_id":76561198025252995,"connected_time":4934000000000,"state":"active","ping":44},{"user_id":252,"name":"Nobaddy","steam_id":76561198037871007,"connected_time":1562000000000,"state":"active","ping":80},{"user_id":260,"name":"stk.","steam_id":76561198239461680,"connected_time":649000000000,"state":"active","ping":104},{"user_id":263,"name":"Rat King","steam_id":76561198256783599,"connected_time":290000000000,"state":"active","ping":55}]},{"server_id":41,"name":"Uncletopia | London | 8 | Community","name_short":"lon-8","host":"lon-1.uk.uncletopia.com","port":27085,"enabled":true,"region":"eu","cc":"gb","latitude":51.509865,"longitude":-0.118092,"reserved":0,"last_update":"0001-01-01T00:00:00Z","name_a2s":"Uncletopia | London | 8 | Community","protocol":17,"map":"workshop/cp_fulgur_rc2a.ugc2068252300","folder":"tf","game":"Team Fortress","app_id":440,"player_count":3,"max_players":24,"Bots":0,"server_type":"Dedicated","server_os":"Linux","password":true,"vac":true,"version":"7932396","steam_id":85568392924964315,"keywords":["cp","nocrits","nodmgspread","uncletopia"],"game_id":440,"stv_port":27086,"stv_name":"Uncletopia | London | 8 | Community | STV","players":[{"user_id":4,"name":"Rhamkin","steam_id":76561198166982173,"connected_time":564000000000,"state":"active","ping":71},{"user_id":5,"name":"mesŒª","steam_id":76561198324582918,"connected_time":381000000000,"state":"active","ping":90},{"user_id":6,"name":"Truegr","steam_id":76561198811912339,"connected_time":194000000000,"state":"active","ping":72}]},{"server_id":300,"name":"Uncletopia | Montr√©al | 1 | All Maps","name_short":"mtl-1","host":"mtl-1.ca.uncletopia.com","port":27015,"enabled":true,"region":"us-east","cc":"ca","latitude":45.50889,"longitude":-73.56167,"reserved":0,"last_update":"0001-01-01T00:00:00Z","name_a2s":"Uncletopia | Montr√©al | 1 | All Maps","protocol":17,"map":"cp_altitude","folder":"tf","game":"Team Fortress","app_id":440,"player_count":0,"max_players":24,"Bots":0,"server_type":"Dedicated","server_os":"Linux","password":true,"vac":true,"version":"7932396","steam_id":85568392924500087,"keywords":["cp","nocrits","nodmgspread","uncletopia"],"game_id":440,"stv_port":27016,"stv_name":"Uncletopia | Montr√©al | 1 | All Maps | STV","players":null},{"server_id":301,"name":"Uncletopia | Montr√©al | 2 | All Maps","name_short":"mtl-2","host":"mtl-1.ca.uncletopia.com","port":27025,"enabled":true,"region":"us-east","cc":"ca","latitude":45.50889,"longitude":-73.56167,"reserved":0,"last_update":"0001-01-01T00:00:00Z","name_a2s":"Uncletopia | Montr√©al | 2 | All Maps","protocol":17,"map":"koth_lakeside_final","folder":"tf","game":"Team Fortress","app_id":440,"player_count":0,"max_players":24,"Bots":0,"server_type":"Dedicated","server_os":"Linux","password":true,"vac":true,"version":"7932396","steam_id":85568392924500088,"keywords":["cp","nocrits","nodmgspread","uncletopia"],"game_id":440,"stv_port":27026,"stv_name":"Uncletopia | Montr√©al | 2 | All Maps | STV","players":null},{"server_id":302,"name":"Uncletopia | Montr√©al | 3 | All Maps","name_short":"mtl-3","host":"mtl-1.ca.uncletopia.com","port":27035,"enabled":true,"region":"us-east","cc":"ca","latitude":45.50889,"longitude":-73.56167,"reserved":0,"last_update":"0001-01-01T00:00:00Z","name_a2s":"Uncletopia | Montr√©al | 3 | All Maps","protocol":17,"map":"cp_process_final","folder":"tf","game":"Team Fortress","app_id":440,"player_count":0,"max_players":24,"Bots":0,"server_type":"Dedicated","server_os":"Linux","password":true,"vac":true,"version":"7932396","steam_id":85568392924500089,"keywords":["cp","nocrits","nodmgspread","uncletopia"],"game_id":440,"stv_port":27036,"stv_name":"Uncletopia | Montr√©al | 3 | All Maps | STV","players":null},{"server_id":303,"name":"Uncletopia | Montr√©al | 4 | No Payload","name_short":"mtl-4","host":"mtl-1.ca.uncletopia.com","port":27045,"enabled":true,"region":"us-east","cc":"ca","latitude":45.50889,"longitude":-73.56167,"reserved":0,"last_update":"0001-01-01T00:00:00Z","name_a2s":"Uncletopia | Montr√©al | 4 | No Payload","protocol":17,"map":"cp_snakewater_final1","folder":"tf","game":"Team Fortress","app_id":440,"player_count":0,"max_players":24,"Bots":0,"server_type":"Dedicated","server_os":"Linux","password":true,"vac":true,"version":"7932396","steam_id":85568392924500090,"keywords":["cp","nocrits","nodmgspread","uncletopia"],"game_id":440,"stv_port":27046,"stv_name":"Uncletopia | Montr√©al | 4 | No Payload | STV","players":null},{"server_id":13,"name":"Uncletopia | New York City | 1 | All Maps","name_short":"nyc-1","host":"nyc-1.us.uncletopia.com","port":27015,"enabled":true,"region":"us-east","cc":"us","latitude":40.73061,"longitude":-73.93524,"reserved":0,"last_update":"0001-01-01T00:00:00Z","name_a2s":"Uncletopia | New York City | 1 | All Maps","protocol":17,"map":"cp_dustbowl","folder":"tf","game":"Team Fortress","app_id":440,"player_count":0,"max_players":24,"Bots":0,"server_type":"Dedicated","server_os":"Linux","password":true,"vac":true,"version":"7932396","steam_id":85568392924469993,"keywords":["cp","nocrits","nodmgspread","uncletopia"],"game_id":440,"stv_port":27016,"stv_name":"Uncletopia | New York City | 1 | All Maps | STV","players":null},{"server_id":14,"name":"Uncletopia | New York City | 2 | All Maps","name_short":"nyc-2","host":"nyc-1.us.uncletopia.com","port":27025,"enabled":true,"region":"us-east","cc":"us","latitude":40.73061,"longitude":-73.93524,"reserved":0,"last_update":"0001-01-01T00:00:00Z","name_a2s":"Uncletopia | New York City | 2 | All Maps","protocol":17,"map":"koth_lakeside_final","folder":"tf","game":"Team Fortress","app_id":440,"player_count":0,"max_players":24,"Bots":0,"server_type":"Dedicated","server_os":"Linux","password":true,"vac":true,"version":"7932396","steam_id":85568392924469994,"keywords":["cp","nocrits","nodmgspread","uncletopia"],"game_id":440,"stv_port":27026,"stv_name":"Uncletopia | New York City | 2 | All Maps | STV","players":null},{"server_id":15,"name":"Uncletopia | New York City | 3 | Stopwatch Beta","name_short":"nyc-3","host":"nyc-1.us.uncletopia.com","port":27035,"enabled":true,"region":"us-east","cc":"us","latitude":40.73061,"longitude":-73.93524,"reserved":0,"last_update":"0001-01-01T00:00:00Z","name_a2s":"Uncletopia | New York City | 3 | Stopwatch Beta","protocol":17,"map":"cp_sunshine","folder":"tf","game":"Team Fortress","app_id":440,"player_count":0,"max_players":24,"Bots":0,"server_type":"Dedicated","server_os":"Linux","password":true,"vac":true,"version":"7932396","steam_id":85568392924742820,"keywords":["cp","nocrits","nodmgspread","uncletopia"],"game_id":440,"stv_port":27036,"stv_name":"Uncletopia | New York City | 3 | Stopwatch Beta | STV","players":null},{"server_id":16,"name":"Uncletopia | New York City | 4 | Community","name_short":"nyc-4","host":"nyc-1.us.uncletopia.com","port":27045,"enabled":true,"region":"us-east","cc":"us","latitude":40.73061,"longitude":-73.93524,"reserved":0,"last_update":"0001-01-01T00:00:00Z","name_a2s":"Uncletopia | New York City | 4 | Community","protocol":17,"map":"pl_barnblitz","folder":"tf","game":"Team Fortress","app_id":440,"player_count":0,"max_players":24,"Bots":0,"server_type":"Dedicated","server_os":"Linux","password":true,"vac":true,"version":"7932396","steam_id":85568392924742821,"keywords":["nocrits","nodmgspread","payload","uncletopia"],"game_id":440,"stv_port":27046,"stv_name":"Uncletopia | New York City | 4 | Community | STV","players":null},{"server_id":142,"name":"Uncletopia | S√£o Paulo | 1 | All Maps","name_short":"sao-1","host":"sao-1.br.uncletopia.com","port":27015,"enabled":true,"region":"sa","cc":"br","latitude":-23.533773,"longitude":-46.62529,"reserved":0,"last_update":"0001-01-01T00:00:00Z","name_a2s":"Uncletopia | S√£o Paulo | 1 | All Maps","protocol":17,"map":"cp_mountainlab","folder":"tf","game":"Team Fortress","app_id":440,"player_count":0,"max_players":24,"Bots":0,"server_type":"Dedicated","server_os":"Linux","password":true,"vac":true,"version":"7932396","steam_id":85568392924469996,"keywords":["cp","nocrits","nodmgspread","uncletopia"],"game_id":440,"stv_port":27016,"stv_name":"Uncletopia | S√£o Paulo | 1 | All Maps | STV","players":null},{"server_id":143,"name":"Uncletopia | S√£o Paulo | 2 | All Maps","name_short":"sao-2","host":"sao-2.br.uncletopia.com","port":27015,"enabled":true,"region":"sa","cc":"br","latitude":-23.533773,"longitude":-46.62529,"reserved":0,"last_update":"0001-01-01T00:00:00Z","name_a2s":"Uncletopia | S√£o Paulo | 2 | All Maps","protocol":17,"map":"pl_swiftwater_final1","folder":"tf","game":"Team Fortress","app_id":440,"player_count":0,"max_players":24,"Bots":0,"server_type":"Dedicated","server_os":"Linux","password":true,"vac":true,"version":"7932396","steam_id":85568392924485349,"keywords":["nocrits","nodmgspread","payload","uncletopia"],"game_id":440,"stv_port":27016,"stv_name":"Uncletopia | S√£o Paulo | 2 | All Maps | STV","players":null},{"server_id":7,"name":"Uncletopia | Seattle | 1 | All Maps","name_short":"sea-1","host":"sea-1.us.uncletopia.com","port":27015,"enabled":true,"region":"us-west","cc":"us","latitude":47.608013,"longitude":-122.33517,"reserved":0,"last_update":"0001-01-01T00:00:00Z","name_a2s":"Uncletopia | Seattle | 1 | All Maps","protocol":17,"map":"pl_swiftwater_final1","folder":"tf","game":"Team Fortress","app_id":440,"player_count":23,"max_players":24,"Bots":0,"server_type":"Dedicated","server_os":"Linux","password":true,"vac":true,"version":"7932396","steam_id":85568392924469997,"keywords":["nocrits","nodmgspread","payload","uncletopia"],"game_id":440,"stv_port":27016,"stv_name":"Uncletopia | Seattle | 1 | All Maps | STV","players":[{"user_id":1008,"name":"Beautiful bastard","steam_id":76561198858700490,"connected_time":6628000000000,"state":"active","ping":112},{"user_id":1034,"name":"Kintsugi","steam_id":76561198301867054,"connected_time":3521000000000,"state":"active","ping":68},{"user_id":1058,"name":"Mythical Lag","steam_id":76561198347031281,"connected_time":1773000000000,"state":"active","ping":119},{"user_id":1050,"name":"manbearswineflu","steam_id":76561198083945137,"connected_time":2262000000000,"state":"active","ping":101},{"user_id":1063,"name":"chikin.sauce","steam_id":76561198042464635,"connected_time":1552000000000,"state":"active","ping":118},{"user_id":1079,"name":"Â≠´Â≠ê","steam_id":76561198083112681,"connected_time":122000000000,"state":"active","ping":91},{"user_id":1072,"name":"exotic fishes","steam_id":76561199046490785,"connected_time":1016000000000,"state":"active","ping":111},{"user_id":1046,"name":"novacaine","steam_id":76561198149443710,"connected_time":2846000000000,"state":"active","ping":69},{"user_id":1010,"name":"resh!","steam_id":76561198066619792,"connected_time":6559000000000,"state":"active","ping":68},{"user_id":1011,"name":"Pancake","steam_id":76561198057888197,"connected_time":6544000000000,"state":"active","ping":138},{"user_id":1038,"name":"fancyfreak","steam_id":76561198326466375,"connected_time":3292000000000,"state":"active","ping":81},{"user_id":1029,"name":"Tommy Pickles (Very Cool)","steam_id":76561198391261463,"connected_time":4415000000000,"state":"active","ping":99},{"user_id":1078,"name":"Se√±or Woofers","steam_id":76561198039120637,"connected_time":208000000000,"state":"active","ping":108},{"user_id":1051,"name":"The Sydney Sleeper Itself","steam_id":76561198180251763,"connected_time":2206000000000,"state":"active","ping":100},{"user_id":1076,"name":"ATHEIST TIL I REALIZED I AM GOD","steam_id":76561199190800520,"connected_time":471000000000,"state":"active","ping":41},{"user_id":1080,"name":"Satan-2","steam_id":76561199231742764,"connected_time":88000000000,"state":"active","ping":119},{"user_id":981,"name":"domkey","steam_id":76561198066114874,"connected_time":9627000000000,"state":"active","ping":54},{"user_id":1073,"name":"Hot dog guy","steam_id":76561198159339442,"connected_time":966000000000,"state":"active","ping":121},{"user_id":1065,"name":"basilthenasa","steam_id":76561199388111764,"connected_time":1470000000000,"state":"active","ping":143},{"user_id":1067,"name":"C4lvin C4rbon","steam_id":76561198054465157,"connected_time":1332000000000,"state":"active","ping":45},{"user_id":1021,"name":"Juanseparra564","steam_id":76561198176662903,"connected_time":5419000000000,"state":"active","ping":166},{"user_id":1068,"name":"No","steam_id":76561198119759695,"connected_time":1322000000000,"state":"active","ping":75},{"user_id":1074,"name":"gallimaufry!!","steam_id":76561198072515851,"connected_time":946000000000,"state":"active","ping":85}]},{"server_id":119,"name":"Uncletopia | Seattle | 2 | All Maps","name_short":"sea-2","host":"sea-1.us.uncletopia.com","port":27025,"enabled":true,"region":"us-west","cc":"us","latitude":47.608013,"longitude":-122.33517,"reserved":0,"last_update":"0001-01-01T00:00:00Z","name_a2s":"Uncletopia | Seattle | 2 | All Maps","protocol":17,"map":"koth_viaduct","folder":"tf","game":"Team Fortress","app_id":440,"player_count":0,"max_players":24,"Bots":0,"server_type":"Dedicated","server_os":"Linux","password":true,"vac":true,"version":"7932396","steam_id":85568392924469998,"keywords":["cp","nocrits","nodmgspread","uncletopia"],"game_id":440,"stv_port":27026,"stv_name":"Uncletopia | Seattle | 2 | All Maps | STV","players":null},{"server_id":406,"name":"Uncletopia | Seattle | 3 | Stopwatch Beta","name_short":"sea-3","host":"sea-1.us.uncletopia.com","port":27035,"enabled":true,"region":"us-west","cc":"us","latitude":47.608013,"longitude":-122.33517,"reserved":0,"last_update":"0001-01-01T00:00:00Z","name_a2s":"Uncletopia | Seattle | 3 | Stopwatch Beta","protocol":17,"map":"pl_borneo","folder":"tf","game":"Team Fortress","app_id":440,"player_count":0,"max_players":24,"Bots":0,"server_type":"Dedicated","server_os":"Linux","password":true,"vac":true,"version":"7932396","steam_id":85568392924515217,"keywords":["nocrits","nodmgspread","payload","uncletopia"],"game_id":440,"stv_port":27036,"stv_name":"Uncletopia | Seattle | 3 | Stopwatch Beta | STV","players":null},{"server_id":17,"name":"Uncletopia | San Francisco | 1 | All Maps","name_short":"sfo-1","host":"sfo-1.us.uncletopia.com","port":27015,"enabled":true,"region":"us-west","cc":"us","latitude":37.77397,"longitude":-122.4313,"reserved":0,"last_update":"0001-01-01T00:00:00Z","name_a2s":"Uncletopia | San Francisco | 1 | All Maps","protocol":17,"map":"cp_process_final","folder":"tf","game":"Team Fortress","app_id":440,"player_count":0,"max_players":24,"Bots":0,"server_type":"Dedicated","server_os":"Linux","password":true,"vac":true,"version":"7932396","steam_id":85568392924469999,"keywords":["cp","nocrits","nodmgspread","uncletopia"],"game_id":440,"stv_port":27016,"stv_name":"Uncletopia | San Francisco | 1 | All Maps | STV","players":null},{"server_id":18,"name":"Uncletopia | San Francisco | 2 | All Maps","name_short":"sfo-2","host":"sfo-1.us.uncletopia.com","port":27025,"enabled":true,"region":"us-west","cc":"us","latitude":37.77397,"longitude":-122.4313,"reserved":0,"last_update":"0001-01-01T00:00:00Z","name_a2s":"Uncletopia | San Francisco | 2 | All Maps","protocol":17,"map":"cp_snakewater_final1","folder":"tf","game":"Team Fortress","app_id":440,"player_count":0,"max_players":24,"Bots":0,"server_type":"Dedicated","server_os":"Linux","password":true,"vac":true,"version":"7932396","steam_id":85568392924470000,"keywords":["cp","nocrits","nodmgspread","uncletopia"],"game_id":440,"stv_port":27026,"stv_name":"Uncletopia | San Francisco | 2 | All Maps | STV","players":null},{"server_id":19,"name":"Uncletopia | San Francisco | 3 | Stopwatch Beta","name_short":"sfo-3","host":"sfo-1.us.uncletopia.com","port":27035,"enabled":true,"region":"us-west","cc":"us","latitude":37.77397,"longitude":-122.4313,"reserved":0,"last_update":"0001-01-01T00:00:00Z","name_a2s":"Uncletopia | San Francisco | 3 | Stopwatch Beta","protocol":17,"map":"workshop/koth_product_final.ugc454272353","folder":"tf","game":"Team Fortress","app_id":440,"player_count":0,"max_players":24,"Bots":0,"server_type":"Dedicated","server_os":"Linux","password":true,"vac":true,"version":"7932396","steam_id":85568392924742824,"keywords":["cp","nocrits","nodmgspread","uncletopia"],"game_id":440,"stv_port":27036,"stv_name":"Uncletopia | San Francisco | 3 | Stopwatch Beta | STV","players":null},{"server_id":20,"name":"Uncletopia | San Francisco | 4 | Community","name_short":"sfo-4","host":"sfo-1.us.uncletopia.com","port":27045,"enabled":true,"region":"us-west","cc":"us","latitude":37.77397,"longitude":-122.4313,"reserved":0,"last_update":"0001-01-01T00:00:00Z","name_a2s":"Uncletopia | San Francisco | 4 | Community","protocol":17,"map":"workshop/koth_kemptown_rc1.ugc767410655","folder":"tf","game":"Team Fortress","app_id":440,"player_count":0,"max_players":24,"Bots":0,"server_type":"Dedicated","server_os":"Linux","password":true,"vac":true,"version":"7932396","steam_id":85568392924742826,"keywords":["cp","nocrits","nodmgspread","uncletopia"],"game_id":440,"stv_port":27046,"stv_name":"Uncletopia | San Francisco | 4 | Community | STV","players":null},{"server_id":141,"name":"Uncletopia | Sydney | 1 | All Maps","name_short":"syd-1","host":"syd-1.au.uncletopia.com","port":27015,"enabled":true,"region":"au","cc":"au","latitude":-33.865143,"longitude":151.2099,"reserved":0,"last_update":"0001-01-01T00:00:00Z","name_a2s":"Uncletopia | Sydney | 1 | All Maps","protocol":17,"map":"pl_badwater","folder":"tf","game":"Team Fortress","app_id":440,"player_count":4,"max_players":24,"Bots":0,"server_type":"Dedicated","server_os":"Linux","password":true,"vac":true,"version":"7932396","steam_id":85568392924470001,"keywords":["nocrits","nodmgspread","payload","uncletopia"],"game_id":440,"stv_port":27016,"stv_name":"Uncletopia | Sydney | 1 | All Maps | STV","players":[{"user_id":379,"name":"Penguin Wielder","steam_id":76561198169038889,"connected_time":253000000000,"state":"active","ping":52},{"user_id":380,"name":"dreamydoggy","steam_id":76561198448243169,"connected_time":89000000000,"state":"active","ping":71},{"user_id":377,"name":"c-c-calm down","steam_id":76561198238031616,"connected_time":675000000000,"state":"active","ping":75},{"user_id":372,"name":"Funny Bell","steam_id":76561199212207130,"connected_time":1491000000000,"state":"active","ping":104}]},{"server_id":123,"name":"Uncletopia | Sydney | 2 | All Maps","name_short":"syd-2","host":"syd-1.au.uncletopia.com","port":27025,"enabled":true,"region":"au","cc":"au","latitude":-33.865143,"longitude":151.2099,"reserved":0,"last_update":"0001-01-01T00:00:00Z","name_a2s":"Uncletopia | Sydney | 2 | All Maps","protocol":17,"map":"pl_upward","folder":"tf","game":"Team Fortress","app_id":440,"player_count":24,"max_players":24,"Bots":0,"server_type":"Dedicated","server_os":"Linux","password":true,"vac":true,"version":"7932396","steam_id":85568392924470002,"keywords":["nocrits","nodmgspread","payload","uncletopia"],"game_id":440,"stv_port":27026,"stv_name":"Uncletopia | Sydney | 2 | All Maps | STV","players":[{"user_id":127,"name":"Autistic Raptor","steam_id":76561198354523762,"connected_time":5169000000000,"state":"active","ping":53},{"user_id":128,"name":"Selling Anti-Matter for $543","steam_id":76561198070708382,"connected_time":4846000000000,"state":"active","ping":45},{"user_id":180,"name":"Gallamellow","steam_id":76561198069046033,"connected_time":1715000000000,"state":"active","ping":35},{"user_id":191,"name":"smokersteven2013","steam_id":76561198128104473,"connected_time":68000000000,"state":"active","ping":83},{"user_id":169,"name":"horrid webbon ·òõ‚ÅêÃ§·ïê·ê∑","steam_id":76561198061998379,"connected_time":2466000000000,"state":"active","ping":52},{"user_id":186,"name":"beastmode goer","steam_id":76561198025099660,"connected_time":775000000000,"state":"active","ping":35},{"user_id":179,"name":"Minimindd","steam_id":76561199006274892,"connected_time":1802000000000,"state":"active","ping":82},{"user_id":152,"name":":D","steam_id":76561199161637215,"connected_time":3815000000000,"state":"active","ping":94},{"user_id":125,"name":"slime","steam_id":76561199176020333,"connected_time":5226000000000,"state":"active","ping":55},{"user_id":145,"name":"Jakko","steam_id":76561198008901871,"connected_time":4071000000000,"state":"active","ping":93},{"user_id":167,"name":"Edgar's can't be choosers","steam_id":76561198301282416,"connected_time":2483000000000,"state":"active","ping":56},{"user_id":189,"name":"ZU NVIDIA TITAN RTX √úN √úN √úN","steam_id":76561198067978287,"connected_time":323000000000,"state":"active","ping":96},{"user_id":183,"name":"the taco bell tolls for thee","steam_id":76561198079351541,"connected_time":857000000000,"state":"active","ping":44},{"user_id":165,"name":"EyeBallin'","steam_id":76561198027001491,"connected_time":2965000000000,"state":"active","ping":52},{"user_id":172,"name":"anti-fun activist","steam_id":76561198048064049,"connected_time":2152000000000,"state":"active","ping":89},{"user_id":188,"name":"uven","steam_id":76561198080981482,"connected_time":564000000000,"state":"active","ping":40},{"user_id":173,"name":"‚ô• Sharpy \u003e v \u003c","steam_id":76561198091613743,"connected_time":2137000000000,"state":"active","ping":91},{"user_id":163,"name":"engineer helping goblin","steam_id":76561198325870666,"connected_time":3210000000000,"state":"active","ping":45},{"user_id":178,"name":"Vaconcovat","steam_id":76561198024284041,"connected_time":1834000000000,"state":"active","ping":62},{"user_id":146,"name":"TarzyD","steam_id":76561198402744887,"connected_time":4067000000000,"state":"active","ping":38},{"user_id":176,"name":"Fleetfoot","steam_id":76561198072845816,"connected_time":2069000000000,"state":"active","ping":57},{"user_id":159,"name":"voxii","steam_id":76561198099698281,"connected_time":3539000000000,"state":"active","ping":72},{"user_id":160,"name":"doctor morbin' (real)","steam_id":76561199365241695,"connected_time":3530000000000,"state":"active","ping":128},{"user_id":193,"name":"Matt VII (7) (seven)","steam_id":76561198065340795,"connected_time":34000000000,"state":"active","ping":53}]},{"server_id":395,"name":"Uncletopia | Sydney | 3 | All Maps","name_short":"syd-3","host":"syd-1.au.uncletopia.com","port":27035,"enabled":true,"region":"au","cc":"au","latitude":-33.865143,"longitude":151.2099,"reserved":0,"last_update":"0001-01-01T00:00:00Z","name_a2s":"Uncletopia | Sydney | 3 | All Maps","protocol":17,"map":"koth_cascade","folder":"tf","game":"Team Fortress","app_id":440,"player_count":1,"max_players":24,"Bots":0,"server_type":"Dedicated","server_os":"Linux","password":true,"vac":true,"version":"7932396","steam_id":85568392925194467,"keywords":["cp","nocrits","nodmgspread","uncletopia"],"game_id":440,"stv_port":27036,"stv_name":"Uncletopia | Sydney | 3 | All Maps | STV","players":[{"user_id":79,"name":"Lagging F2P Gundam","steam_id":76561199092046551,"connected_time":43000000000,"state":"active","ping":173}]},{"server_id":396,"name":"Uncletopia | Sydney | 4 | All Maps","name_short":"syd-4","host":"syd-1.au.uncletopia.com","port":27045,"enabled":true,"region":"au","cc":"au","latitude":-33.865143,"longitude":151.2099,"reserved":0,"last_update":"0001-01-01T00:00:00Z","name_a2s":"Uncletopia | Sydney | 4 | All Maps","protocol":17,"map":"koth_cascade","folder":"tf","game":"Team Fortress","app_id":440,"player_count":0,"max_players":24,"Bots":0,"server_type":"Dedicated","server_os":"Linux","password":true,"vac":true,"version":"7932396","steam_id":85568392925397958,"keywords":["cp","nocrits","nodmgspread","uncletopia"],"game_id":440,"stv_port":27046,"stv_name":"Uncletopia | Sydney | 4 | All Maps | STV","players":null},{"server_id":58,"name":"Uncletopia | Sydney | 5 | Stopwatch Beta","name_short":"syd-5","host":"syd-1.au.uncletopia.com","port":27055,"enabled":true,"region":"au","cc":"au","latitude":-33.865143,"longitude":151.2099,"reserved":0,"last_update":"0001-01-01T00:00:00Z","name_a2s":"Uncletopia | Sydney | 5 | Stopwatch Beta","protocol":17,"map":"pl_borneo","folder":"tf","game":"Team Fortress","app_id":440,"player_count":0,"max_players":24,"Bots":0,"server_type":"Dedicated","server_os":"Linux","password":true,"vac":true,"version":"7932396","steam_id":85568392925397959,"keywords":["nocrits","nodmgspread","payload","uncletopia"],"game_id":440,"stv_port":27056,"stv_name":"Uncletopia | Sydney | 5 | Stopwatch Beta | STV","players":null},{"server_id":59,"name":"Uncletopia | Sydney | 6 | Community","name_short":"syd-6","host":"syd-1.au.uncletopia.com","port":27065,"enabled":true,"region":"au","cc":"au","latitude":-33.865143,"longitude":151.2099,"reserved":0,"last_update":"0001-01-01T00:00:00Z","name_a2s":"Uncletopia | Sydney | 6 | Community","protocol":17,"map":"workshop/cp_glacier_rc6.ugc2905735376","folder":"tf","game":"Team Fortress","app_id":440,"player_count":0,"max_players":24,"Bots":0,"server_type":"Dedicated","server_os":"Linux","password":true,"vac":true,"version":"7932396","steam_id":85568392925397960,"keywords":["cp","nocrits","nodmgspread","uncletopia"],"game_id":440,"stv_port":27066,"stv_name":"Uncletopia | Sydney | 6 | Community | STV","players":null},{"server_id":49,"name":"Uncletopia | Warsaw | 1 | All Maps","name_short":"waw-1","host":"waw-1.pl.uncletopia.com","port":27015,"enabled":true,"region":"eu","cc":"pl","latitude":52.2297,"longitude":21.017532,"reserved":0,"last_update":"0001-01-01T00:00:00Z","name_a2s":"","protocol":0,"map":"","folder":"","game":"","app_id":0,"player_count":0,"max_players":0,"Bots":0,"server_type":"","server_os":"","password":false,"vac":false,"version":"","steam_id":0,"keywords":null,"game_id":0,"stv_port":0,"stv_name":"","players":null},{"server_id":50,"name":"Uncletopia | Warsaw | 2 | All Maps","name_short":"waw-2","host":"waw-1.pl.uncletopia.com","port":27025,"enabled":true,"region":"eu","cc":"pl","latitude":52.2297,"longitude":21.017532,"reserved":0,"last_update":"0001-01-01T00:00:00Z","name_a2s":"Uncletopia | Warsaw | 2 | All Maps","protocol":17,"map":"pl_badwater","folder":"tf","game":"Team Fortress","app_id":440,"player_count":0,"max_players":24,"Bots":0,"server_type":"Dedicated","server_os":"Linux","password":true,"vac":true,"version":"7932396","steam_id":85568392925397851,"keywords":["nocrits","nodmgspread","payload","uncletopia"],"game_id":440,"stv_port":27026,"stv_name":"Uncletopia | Warsaw | 2 | All Maps | STV","players":null},{"server_id":51,"name":"Uncletopia | Warsaw | 3 | All Maps","name_short":"waw-3","host":"waw-1.pl.uncletopia.com","port":27035,"enabled":true,"region":"eu","cc":"pl","latitude":52.2297,"longitude":21.017532,"reserved":0,"last_update":"0001-01-01T00:00:00Z","name_a2s":"Uncletopia | Warsaw | 3 | All Maps","protocol":17,"map":"koth_lakeside_final","folder":"tf","game":"Team Fortress","app_id":440,"player_count":0,"max_players":24,"Bots":0,"server_type":"Dedicated","server_os":"Linux","password":true,"vac":true,"version":"7932396","steam_id":85568392925397852,"keywords":["cp","nocrits","nodmgspread","uncletopia"],"game_id":440,"stv_port":27036,"stv_name":"Uncletopia | Warsaw | 3 | All Maps | STV","players":null},{"server_id":52,"name":"Uncletopia | Warsaw | 4 | All Maps","name_short":"waw-4","host":"waw-1.pl.uncletopia.com","port":27045,"enabled":true,"region":"eu","cc":"pl","latitude":52.2297,"longitude":21.017532,"reserved":0,"last_update":"0001-01-01T00:00:00Z","name_a2s":"Uncletopia | Warsaw | 4 | All Maps","protocol":17,"map":"pl_swiftwater_final1","folder":"tf","game":"Team Fortress","app_id":440,"player_count":0,"max_players":24,"Bots":0,"server_type":"Dedicated","server_os":"Linux","password":true,"vac":true,"version":"7932396","steam_id":85568392925397853,"keywords":["nocrits","nodmgspread","payload","uncletopia"],"game_id":440,"stv_port":27046,"stv_name":"Uncletopia | Warsaw | 4 | All Maps | STV","players":null},{"server_id":53,"name":"Uncletopia | Warsaw | 5 | Stopwatch Beta","name_short":"waw-5","host":"waw-1.pl.uncletopia.com","port":27055,"enabled":true,"region":"eu","cc":"pl","latitude":52.2297,"longitude":21.017532,"reserved":0,"last_update":"0001-01-01T00:00:00Z","name_a2s":"Uncletopia | Warsaw | 5 | Stopwatch Beta","protocol":17,"map":"koth_highpass","folder":"tf","game":"Team Fortress","app_id":440,"player_count":0,"max_players":24,"Bots":0,"server_type":"Dedicated","server_os":"Linux","password":true,"vac":true,"version":"7932396","steam_id":85568392925397854,"keywords":["cp","nocrits","nodmgspread","uncletopia"],"game_id":440,"stv_port":27056,"stv_name":"Uncletopia | Warsaw | 5 | Stopwatch Beta | STV","players":null},{"server_id":54,"name":"Uncletopia | Warsaw | 6 | Community","name_short":"waw-6","host":"waw-1.pl.uncletopia.com","port":27065,"enabled":true,"region":"eu","cc":"pl","latitude":52.2297,"longitude":21.017532,"reserved":0,"last_update":"0001-01-01T00:00:00Z","name_a2s":"Uncletopia | Warsaw | 6 | Community","protocol":17,"map":"pl_upward","folder":"tf","game":"Team Fortress","app_id":440,"player_count":0,"max_players":24,"Bots":0,"server_type":"Dedicated","server_os":"Linux","password":true,"vac":true,"version":"7932396","steam_id":85568392925397856,"keywords":["nocrits","nodmgspread","payload","uncletopia"],"game_id":440,"stv_port":27066,"stv_name":"Uncletopia | Warsaw | 6 | Community | STV","players":null}]}