{"status":true,"message":"","result":[{"server_id":9,"name":"Uncletopia | Atlanta | 1 | All Maps","name_short":"atl-1","host":"atl-1.us.uncletopia.com","port":27015,"enabled":true,"region":"us-east","cc":"us","latitude":33.753746,"longitude":-84.38633,"reserved":0,"last_update":"0001-01-01T00:00:00Z","name_a2s":"Uncletopia | Atlanta | 1 | All Maps","protocol":17,"map":"koth_viaduct","folder":"tf","game":"Team Fortress","app_id":440,"player_count":0,"max_players":24,"Bots":0,"server_type":"Dedicated","server_os":"Linux","password":true,"vac":true,"version":"7882260","steam_id":85568392924469982,"keywords":["cp","nocrits","nodmgspread","uncletopia"],"game_id":440,"stv_port":27016,"stv_name":"Uncletopia | Atlanta | 1 | All Maps | STV","players":null},{"server_id":104,"name":"Uncletopia | Atlanta | 2 | All Maps","name_short":"atl-2","host":"atl-1.us.uncletopia.com","port":27025,"enabled":true,"region":"us-east","cc":"us","latitude":33.753746,"longitude":-84.38633,"reserved":0,"last_update":"0001-01-01T00:00:00Z","name_a2s":"Uncletopia | Atlanta | 2 | All Maps","protocol":17,"map":"pl_frontier_final","folder":"tf","game":"Team Fortress","app_id":440,"player_count":0,"max_players":24,"Bots":0,"server_type":"Dedicated","server_os":"Linux","password":true,"vac":true,"version":"7882260","steam_id":85568392924469983,"keywords":["nocrits","nodmgspread","payload","uncletopia"],"game_id":440,"stv_port":27026,"stv_name":"Uncletopia | Atlanta | 2 | All Maps | STV","players":null},{"server_id":400,"name":"Uncletopia | Atlanta | 3 | Community","name_short":"atl-3","host":"atl-1.us.uncletopia.com","port":27035,"enabled":true,"region":"us-east","cc":"us","latitude":33.753746,"longitude":-84.38633,"reserved":0,"last_update":"0001-01-01T00:00:00Z","name_a2s":"Uncletopia | Atlanta | 3 | Community","protocol":17,"map":"workshop/koth_trenchfoot_b1a.ugc731436616","folder":"tf","game":"Team Fortress","app_id":440,"player_count":0,"max_players":24,"Bots":0,"server_type":"Dedicated","server_os":"Linux","password":true,"vac":true,"version":"7882260","steam_id":85568392924515187,"keywords":["cp","nocrits","nodmgspread","uncletopia"],"game_id":440,"stv_port":27036,"stv_name":"Uncletopia | Atlanta | 3 | Community | STV","players":null},{"server_id":401,"name":"Uncletopia | Atlanta | 4 | No Payload","name_short":"atl-4","host":"atl-1.us.uncletopia.com","port":27045,"enabled":true,"region":"us-east","cc":"us","latitude":33.753746,"longitude":-84.38633,"reserved":0,"last_update":"0001-01-01T00:00:00Z","name_a2s":"","protocol":0,"map":"","folder":"","game":"","app_id":0,"player_count":0,"max_players":0,"Bots":0,"server_type":"","server_os":"","password":false,"vac":false,"version":"","steam_id":0,"keywords":null,"game_id":0,"stv_port":0,"stv_name":"","players":null},{"server_id":2,"name":"Uncletopia | Chicago | 1 | All Maps","name_short":"chi-1","host":"chi-1.us.uncletopia.com","port":27015,"enabled":true,"region":"us-central","cc":"us","latitude":41.881832,"longitude":-87.62318,"reserved":0,"last_update":"0001-01-01T00:00:00Z","name_a2s":"Uncletopia | Chicago | 1 | All Maps","protocol":17,"map":"pl_frontier_final","folder":"tf","game":"Team Fortress","app_id":440,"player_count":0,"max_players":24,"Bots":0,"server_type":"Dedicated","server_os":"Linux","password":true,"vac":true,"version":"7882260","steam_id":85568392924469984,"keywords":["nocrits","nodmgspread","payload","uncletopia"],"game_id":440,"stv_port":27016,"stv_name":"Uncletopia | Chicago | 1 | All Maps | STV","players":null},{"server_id":106,"name":"Uncletopia | Chicago | 2 | All Maps","name_short":"chi-2","host":"chi-1.us.uncletopia.com","port":27025,"enabled":true,"region":"us-central","cc":"us","latitude":41.881832,"longitude":-87.62318,"reserved":0,"last_update":"0001-01-01T00:00:00Z","name_a2s":"Uncletopia | Chicago | 2 | All Maps","protocol":17,"map":"koth_nucleus","folder":"tf","game":"Team Fortress","app_id":440,"player_count":0,"max_players":24,"Bots":0,"server_type":"Dedicated","server_os":"Linux","password":true,"vac":true,"version":"7882260","steam_id":85568392924469985,"keywords":["cp","nocrits","nodmgspread","uncletopia"],"game_id":440,"stv_port":27026,"stv_name":"Uncletopia | Chicago | 2 | All Maps | STV","players":null},{"server_id":402,"name":"Uncletopia | Chicago | 3 | All Maps","name_short":"chi-3","host":"chi-1.us.uncletopia.com","port":27035,"enabled":true,"region":"us-central","cc":"us","latitude":41.881832,"longitude":-87.62318,"reserved":0,"last_update":"0001-01-01T00:00:00Z","name_a2s":"Uncletopia | Chicago | 3 | All Maps","protocol":17,"map":"pl_badwater","folder":"tf","game":"Team Fortress","app_id":440,"player_count":24,"max_players":24,"Bots":0,"server_type":"Dedicated","server_os":"Linux","password":true,"vac":true,"version":"7882260","steam_id":85568392924515191,"keywords":["nocrits","nodmgspread","payload","uncletopia"],"game_id":440,"stv_port":27036,"stv_name":"Uncletopia | Chicago | 3 | All Maps | STV","players":[{"user_id":579,"name":"AL","steam_id":76561198060863042,"connected_time":2291000000000,"state":"active","ping":103},{"user_id":580,"name":"Rerr","steam_id":76561198311725459,"connected_time":2274000000000,"state":"active","ping":74},{"user_id":575,"name":"Puppeteer","steam_id":76561198159928108,"connected_time":2542000000000,"state":"active","ping":97},{"user_id":567,"name":"Dog","steam_id":76561198173452722,"connected_time":3182000000000,"state":"active","ping":84},{"user_id":576,"name":"Pongallow","steam_id":76561198146876078,"connected_time":2541000000000,"state":"active","ping":45},{"user_id":582,"name":"STILLZ","steam_id":76561198131892406,"connected_time":2117000000000,"state":"active","ping":86},{"user_id":562,"name":"Marion Moseby","steam_id":76561198052477319,"connected_time":3539000000000,"state":"active","ping":52},{"user_id":591,"name":"Big Yoshi #savetf2","steam_id":76561198009916036,"connected_time":1028000000000,"state":"active","ping":89},{"user_id":588,"name":"milo","steam_id":76561199061380038,"connected_time":1265000000000,"state":"active","ping":71},{"user_id":563,"name":"the beach that makes you old","steam_id":76561198008332777,"connected_time":3498000000000,"state":"active","ping":73},{"user_id":558,"name":"Jerk Face","steam_id":76561198269348831,"connected_time":3865000000000,"state":"active","ping":51},{"user_id":583,"name":"pel","steam_id":76561198021224745,"connected_time":2096000000000,"state":"active","ping":56},{"user_id":592,"name":"Mitch","steam_id":76561198003423214,"connected_time":995000000000,"state":"active","ping":54},{"user_id":455,"name":"SpecialForce19","steam_id":76561198120974644,"connected_time":12473000000000,"state":"active","ping":72},{"user_id":586,"name":"definitely a scout","steam_id":76561198264728955,"connected_time":1804000000000,"state":"active","ping":57},{"user_id":578,"name":"heavy main (real)","steam_id":76561199275142109,"connected_time":2379000000000,"state":"active","ping":178},{"user_id":551,"name":"Translucent","steam_id":76561199212057076,"connected_time":4263000000000,"state":"active","ping":103},{"user_id":552,"name":"Itty Bitty Kitty","steam_id":76561198289690437,"connected_time":4261000000000,"state":"active","ping":69},{"user_id":593,"name":"Fieldrook","steam_id":76561198799005478,"connected_time":894000000000,"state":"active","ping":87},{"user_id":590,"name":"reis","steam_id":76561199232952016,"connected_time":1062000000000,"state":"active","ping":180},{"user_id":574,"name":"look at me while i'm talking","steam_id":76561199440801844,"connected_time":2768000000000,"state":"active","ping":49},{"user_id":585,"name":"Monster","steam_id":76561198189429665,"connected_time":2011000000000,"state":"active","ping":74},{"user_id":596,"name":"cow","steam_id":76561198117331762,"connected_time":593000000000,"state":"active","ping":47},{"user_id":595,"name":"watchfull","steam_id":76561198433266742,"connected_time":879000000000,"state":"active","ping":97}]},{"server_id":403,"name":"Uncletopia | Chicago | 4 | All Maps","name_short":"chi-4","host":"chi-1.us.uncletopia.com","port":27045,"enabled":true,"region":"us-central","cc":"us","latitude":41.881832,"longitude":-87.62318,"reserved":0,"last_update":"0001-01-01T00:00:00Z","name_a2s":"Uncletopia | Chicago | 4 | All Maps","protocol":17,"map":"pl_frontier_final","folder":"tf","game":"Team Fortress","app_id":440,"player_count":21,"max_players":24,"Bots":0,"server_type":"Dedicated","server_os":"Linux","password":true,"vac":true,"version":"7882260","steam_id":85568392924515193,"keywords":["nocrits","nodmgspread","payload","uncletopia"],"game_id":440,"stv_port":27046,"stv_name":"Uncletopia | Chicago | 4 | All Maps | STV","players":[{"user_id":577,"name":"Allegro","steam_id":76561198084599587,"connected_time":3842000000000,"state":"active","ping":65},{"user_id":622,"name":"Galactamarx","steam_id":76561198028065755,"connected_time":228000000000,"state":"active","ping":89},{"user_id":623,"name":"Cargoshorts Johnny","steam_id":76561198281732417,"connected_time":89000000000,"state":"active","ping":82},{"user_id":591,"name":"brain_damage","steam_id":76561199381954163,"connected_time":2497000000000,"state":"active","ping":145},{"user_id":624,"name":"SKINGRAPH","steam_id":76561198082933650,"connected_time":35000000000,"state":"active","ping":81},{"user_id":542,"name":"puppy :3","steam_id":76561198011196264,"connected_time":6524000000000,"state":"active","ping":33},{"user_id":606,"name":"kat","steam_id":76561198121070295,"connected_time":988000000000,"state":"active","ping":86},{"user_id":625,"name":"frozenslade","steam_id":76561198979145974,"connected_time":17000000000,"state":"spawning","ping":58},{"user_id":595,"name":"lambmyth","steam_id":76561199215261209,"connected_time":2040000000000,"state":"active","ping":85},{"user_id":604,"name":"『Dagon』","steam_id":76561199036464302,"connected_time":1143000000000,"state":"active","ping":60},{"user_id":597,"name":"MIDN_SWEETFISH","steam_id":76561199088226016,"connected_time":1985000000000,"state":"active","ping":92},{"user_id":598,"name":"{FITH}™ Tnega Libram","steam_id":76561197997973526,"connected_time":1938000000000,"state":"active","ping":72},{"user_id":601,"name":"Ash_Follow3","steam_id":76561199150479264,"connected_time":1657000000000,"state":"active","ping":57},{"user_id":612,"name":"ya","steam_id":76561198070934685,"connected_time":563000000000,"state":"active","ping":59},{"user_id":609,"name":"beaten to mental retardation","steam_id":76561198152139282,"connected_time":666000000000,"state":"active","ping":71},{"user_id":617,"name":"nofu","steam_id":76561198035984343,"connected_time":411000000000,"state":"active","ping":63},{"user_id":616,"name":"ultralisk52","steam_id":76561198051666604,"connected_time":419000000000,"state":"active","ping":57},{"user_id":618,"name":"twitch/auratf2","steam_id":76561197988085026,"connected_time":409000000000,"state":"active","ping":162},{"user_id":619,"name":"RegrexitHexit","steam_id":76561198069603316,"connected_time":398000000000,"state":"active","ping":85},{"user_id":620,"name":"Lost","steam_id":76561198093713427,"connected_time":296000000000,"state":"active","ping":60},{"user_id":621,"name":"REDDASHFOX","steam_id":76561199047838700,"connected_time":292000000000,"state":"active","ping":83}]},{"server_id":36,"name":"Uncletopia | Chicago | 5 | All Maps","name_short":"chi-5","host":"chi-2.us.uncletopia.com","port":27015,"enabled":true,"region":"us-central","cc":"us","latitude":41.881832,"longitude":-87.62318,"reserved":0,"last_update":"0001-01-01T00:00:00Z","name_a2s":"Uncletopia | Chicago | 5 | All Maps","protocol":17,"map":"koth_lakeside_final","folder":"tf","game":"Team Fortress","app_id":440,"player_count":0,"max_players":24,"Bots":0,"server_type":"Dedicated","server_os":"Linux","password":true,"vac":true,"version":"7882260","steam_id":85568392924866362,"keywords":["cp","nocrits","nodmgspread","uncletopia"],"game_id":440,"stv_port":27016,"stv_name":"Uncletopia | Chicago | 5 | All Maps | STV","players":null},{"server_id":37,"name":"Uncletopia | Chicago | 6 | All Maps","name_short":"chi-6","host":"chi-2.us.uncletopia.com","port":27025,"enabled":true,"region":"us-central","cc":"us","latitude":41.881832,"longitude":-87.62318,"reserved":0,"last_update":"0001-01-01T00:00:00Z","name_a2s":"Uncletopia | Chicago | 6 | All Maps","protocol":17,"map":"cp_mountainlab","folder":"tf","game":"Team Fortress","app_id":440,"player_count":0,"max_players":24,"Bots":0,"server_type":"Dedicated","server_os":"Linux","password":true,"vac":true,"version":"7882260","steam_id":85568392924866363,"keywords":["cp","nocrits","nodmgspread","uncletopia"],"game_id":440,"stv_port":27026,"stv_name":"Uncletopia | Chicago | 6 | All Maps | STV","players":null},{"server_id":38,"name":"Uncletopia | Chicago | 7 | Stopwatch Beta","name_short":"chi-7","host":"chi-2.us.uncletopia.com","port":27035,"enabled":true,"region":"us-central","cc":"us","latitude":41.881832,"longitude":-87.62318,"reserved":0,"last_update":"0001-01-01T00:00:00Z","name_a2s":"Uncletopia | Chicago | 7 | Stopwatch Beta","protocol":17,"map":"cp_granary","folder":"tf","game":"Team Fortress","app_id":440,"player_count":0,"max_players":24,"Bots":0,"server_type":"Dedicated","server_os":"Linux","password":true,"vac":true,"version":"7882260","steam_id":85568392924866364,"keywords":["cp","nocrits","nodmgspread","uncletopia"],"game_id":440,"stv_port":27036,"stv_name":"Uncletopia | Chicago | 7 | Stopwatch Beta | STV","players":null},{"server_id":39,"name":"Uncletopia | Chicago | 8 | Community","name_short":"chi-8","host":"chi-2.us.uncletopia.com","port":27045,"enabled":true,"region":"us-central","cc":"us","latitude":41.881832,"longitude":-87.62318,"reserved":0,"last_update":"0001-01-01T00:00:00Z","name_a2s":"Uncletopia | Chicago | 8 | Community","protocol":17,"map":"workshop/koth_trenchfoot_b1a.ugc731436616","folder":"tf","game":"Team Fortress","app_id":440,"player_count":0,"max_players":24,"Bots":0,"server_type":"Dedicated","server_os":"Linux","password":true,"vac":true,"version":"7882260","steam_id":85568392924866365,"keywords":["cp","nocrits","nodmgspread","uncletopia"],"game_id":440,"stv_port":27046,"stv_name":"Uncletopia | Chicago | 8 | Community | STV","players":null},{"server_id":8,"name":"Uncletopia | Dallas | 1 | All Maps","name_short":"dal-1","host":"dal-1.us.uncletopia.com","port":27015,"enabled":true,"region":"us-central","cc":"us","latitude":32.779167,"longitude":-96.80889,"reserved":0,"last_update":"0001-01-01T00:00:00Z","name_a2s":"Uncletopia | Dallas | 1 | All Maps","protocol":17,"map":"pl_swiftwater_final1","folder":"tf","game":"Team Fortress","app_id":440,"player_count":3,"max_players":24,"Bots":0,"server_type":"Dedicated","server_os":"Linux","password":true,"vac":true,"version":"7882260","steam_id":85568392924469986,"keywords":["nocrits","nodmgspread","payload","uncletopia"],"game_id":440,"stv_port":27016,"stv_name":"Uncletopia | Dallas | 1 | All Maps | STV","players":[{"user_id":667,"name":"Patient Zer0","steam_id":76561199087576370,"connected_time":266000000000,"state":"active","ping":86},{"user_id":646,"name":"Brandon32204","steam_id":76561198031665291,"connected_time":2357000000000,"state":"active","ping":56},{"user_id":645,"name":"Ginger_Buzz","steam_id":76561198863401434,"connected_time":2514000000000,"state":"active","ping":78}]},{"server_id":108,"name":"Uncletopia | Dallas | 2 | All Maps","name_short":"dal-2","host":"dal-1.us.uncletopia.com","port":27025,"enabled":true,"region":"us-central","cc":"us","latitude":32.779167,"longitude":-96.80889,"reserved":0,"last_update":"0001-01-01T00:00:00Z","name_a2s":"Uncletopia | Dallas | 2 | All Maps","protocol":17,"map":"cp_mountainlab","folder":"tf","game":"Team Fortress","app_id":440,"player_count":24,"max_players":24,"Bots":0,"server_type":"Dedicated","server_os":"Linux","password":true,"vac":true,"version":"7882260","steam_id":85568392924469988,"keywords":["cp","nocrits","nodmgspread","uncletopia"],"game_id":440,"stv_port":27026,"stv_name":"Uncletopia | Dallas | 2 | All Maps | STV","players":[{"user_id":748,"name":"The Foolish Samurai","steam_id":76561198094494945,"connected_time":2612000000000,"state":"active","ping":88},{"user_id":749,"name":"Rumi_killer","steam_id":76561198077439866,"connected_time":2553000000000,"state":"active","ping":95},{"user_id":750,"name":"puke","steam_id":76561197999279693,"connected_time":2539000000000,"state":"active","ping":63},{"user_id":763,"name":"chamber","steam_id":76561198165283913,"connected_time":253000000000,"state":"active","ping":60},{"user_id":759,"name":"MG.Z-Blitz","steam_id":76561198028577473,"connected_time":1151000000000,"state":"active","ping":71},{"user_id":756,"name":"Saucy Boy","steam_id":76561198178332031,"connected_time":1307000000000,"state":"active","ping":94},{"user_id":721,"name":"Pyro is a girl with large balls","steam_id":76561198975667801,"connected_time":4069000000000,"state":"active","ping":148},{"user_id":751,"name":"GUAVA","steam_id":76561198051421643,"connected_time":2525000000000,"state":"active","ping":41},{"user_id":722,"name":"dinky little beanie baby","steam_id":76561197999318398,"connected_time":4061000000000,"state":"active","ping":111},{"user_id":685,"name":"Gelliterate","steam_id":76561198107233070,"connected_time":7223000000000,"state":"active","ping":45},{"user_id":765,"name":"CheeseCake488","steam_id":76561199407617942,"connected_time":47000000000,"state":"active","ping":115},{"user_id":623,"name":"fitotutus","steam_id":76561197974993253,"connected_time":11278000000000,"state":"active","ping":130},{"user_id":711,"name":"OrangeGlazer","steam_id":76561198127358240,"connected_time":4746000000000,"state":"active","ping":81},{"user_id":740,"name":"Average Tunnel Vision Switcher","steam_id":76561198318189010,"connected_time":3192000000000,"state":"active","ping":76},{"user_id":761,"name":"skegeton","steam_id":76561198095581099,"connected_time":504000000000,"state":"active","ping":57},{"user_id":746,"name":"TheRedBaron","steam_id":76561198032114629,"connected_time":2669000000000,"state":"active","ping":171},{"user_id":762,"name":"luma","steam_id":76561198076875817,"connected_time":498000000000,"state":"active","ping":48},{"user_id":708,"name":"PocketTieAMPLFY","steam_id":76561199080485881,"connected_time":4992000000000,"state":"active","ping":114},{"user_id":752,"name":"iggybones (girl with balls)","steam_id":76561198101610291,"connected_time":2472000000000,"state":"active","ping":84},{"user_id":734,"name":"Keirb","steam_id":76561198027031567,"connected_time":3466000000000,"state":"active","ping":109},{"user_id":725,"name":"Where The F**K I Am?","steam_id":76561197986530028,"connected_time":3965000000000,"state":"active","ping":78},{"user_id":716,"name":"adda","steam_id":76561198309013410,"connected_time":4329000000000,"state":"active","ping":87},{"user_id":754,"name":"Kazmirl | Youtuber","steam_id":76561198116008410,"connected_time":2385000000000,"state":"active","ping":111},{"user_id":764,"name":"あんこ餅","steam_id":76561198805497603,"connected_time":173000000000,"state":"active","ping":89}]},{"server_id":5,"name":"Uncletopia | Frankfurt | 1 | All Maps","name_short":"frk-1","host":"frk-1.de.uncletopia.com","port":27015,"enabled":true,"region":"eu","cc":"de","latitude":50.110924,"longitude":8.682127,"reserved":0,"last_update":"0001-01-01T00:00:00Z","name_a2s":"Uncletopia | Frankfurt | 1 | All Maps","protocol":17,"map":"pl_swiftwater_final1","folder":"tf","game":"Team Fortress","app_id":440,"player_count":24,"max_players":24,"Bots":0,"server_type":"Dedicated","server_os":"Linux","password":true,"vac":true,"version":"7882260","steam_id":85568392924469989,"keywords":["nocrits","nodmgspread","payload","uncletopia"],"game_id":440,"stv_port":27016,"stv_name":"Uncletopia | Frankfurt | 1 | All Maps | STV","players":[{"user_id":51,"name":"Milk","steam_id":76561198125876588,"connected_time":488000000000,"state":"active","ping":54},{"user_id":49,"name":"VengyDengy","steam_id":76561198136718485,"connected_time":556000000000,"state":"active","ping":108},{"user_id":33,"name":"Peigg","steam_id":76561198414749782,"connected_time":1165000000000,"state":"active","ping":90},{"user_id":11,"name":"dsod hacker build","steam_id":76561198369977191,"connected_time":2151000000000,"state":"active","ping":57},{"user_id":18,"name":"BlueBlueFox","steam_id":76561198053817230,"connected_time":1723000000000,"state":"active","ping":67},{"user_id":24,"name":"Joy","steam_id":76561198155314925,"connected_time":1410000000000,"state":"active","ping":63},{"user_id":26,"name":"noll","steam_id":76561198114326822,"connected_time":1384000000000,"state":"active","ping":81},{"user_id":23,"name":"kanyewestlover911","steam_id":76561198410567223,"connected_time":1420000000000,"state":"active","ping":59},{"user_id":34,"name":"nevim","steam_id":76561199120843402,"connected_time":1153000000000,"state":"active","ping":45},{"user_id":28,"name":"Kes","steam_id":76561198095288832,"connected_time":1258000000000,"state":"active","ping":69},{"user_id":29,"name":"AJ Skye","steam_id":76561198061289475,"connected_time":1211000000000,"state":"active","ping":69},{"user_id":30,"name":"Ruby","steam_id":76561198120994559,"connected_time":1208000000000,"state":"active","ping":68},{"user_id":32,"name":"Radio_Active!","steam_id":76561199217286835,"connected_time":1176000000000,"state":"active","ping":92},{"user_id":35,"name":"DK_DKI","steam_id":76561199467026423,"connected_time":1125000000000,"state":"active","ping":175},{"user_id":36,"name":"Nyhde","steam_id":76561198012771416,"connected_time":1050000000000,"state":"active","ping":92},{"user_id":37,"name":"Ліквідний Марко","steam_id":76561198304824504,"connected_time":1003000000000,"state":"active","ping":79},{"user_id":40,"name":"hunte","steam_id":76561198063483484,"connected_time":812000000000,"state":"active","ping":71},{"user_id":41,"name":"Tank","steam_id":76561199059174576,"connected_time":787000000000,"state":"active","ping":161},{"user_id":50,"name":"SosaSosaSosa","steam_id":76561198144122393,"connected_time":533000000000,"state":"active","ping":119},{"user_id":43,"name":"Teathling","steam_id":76561198061580505,"connected_time":751000000000,"state":"active","ping":61},{"user_id":44,"name":"milan0777","steam_id":76561199286560162,"connected_time":747000000000,"state":"active","ping":111},{"user_id":45,"name":"Pawoss","steam_id":76561198050416391,"connected_time":732000000000,"state":"active","ping":82},{"user_id":48,"name":"StarThuggin69","steam_id":76561198038125078,"connected_time":614000000000,"state":"active","ping":162},{"user_id":47,"name":"Cookies and Bakies","steam_id":76561198017442928,"connected_time":671000000000,"state":"active","ping":64}]},{"server_id":110,"name":"Uncletopia | Frankfurt | 2 | All Maps","name_short":"frk-2","host":"frk-1.de.uncletopia.com","port":27025,"enabled":true,"region":"eu","cc":"de","latitude":50.110924,"longitude":8.682127,"reserved":0,"last_update":"0001-01-01T00:00:00Z","name_a2s":"Uncletopia | Frankfurt | 2 | All Maps","protocol":17,"map":"pl_upward","folder":"tf","game":"Team Fortress","app_id":440,"player_count":3,"max_players":24,"Bots":0,"server_type":"Dedicated","server_os":"Linux","password":true,"vac":true,"version":"7882260","steam_id":85568392924469990,"keywords":["nocrits","nodmgspread","payload","uncletopia"],"game_id":440,"stv_port":27026,"stv_name":"Uncletopia | Frankfurt | 2 | All Maps | STV","players":[{"user_id":4,"name":"Fbafroguy","steam_id":76561199113010473,"connected_time":1292000000000,"state":"active","ping":65},{"user_id":5,"name":"Ziano","steam_id":76561199111746284,"connected_time":1154000000000,"state":"active","ping":91},{"user_id":6,"name":"britiliximab","steam_id":76561198141173061,"connected_time":18000000000,"state":"spawning","ping":83}]},{"server_id":308,"name":"Uncletopia | Frankfurt | 3 | All Maps","name_short":"frk-3","host":"frk-1.de.uncletopia.com","port":27035,"enabled":true,"region":"eu","cc":"de","latitude":50.110924,"longitude":8.682127,"reserved":0,"last_update":"0001-01-01T00:00:00Z","name_a2s":"Uncletopia | Frankfurt | 3 | All Maps","protocol":17,"map":"pl_snowycoast","folder":"tf","game":"Team Fortress","app_id":440,"player_count":0,"max_players":24,"Bots":0,"server_type":"Dedicated","server_os":"Linux","password":true,"vac":true,"version":"7882260","steam_id":85568392924504274,"keywords":["nocrits","nodmgspread","payload","uncletopia"],"game_id":440,"stv_port":27036,"stv_name":"Uncletopia | Frankfurt | 3 | All Maps | STV","players":null},{"server_id":309,"name":"Uncletopia | Frankfurt | 4 | All Maps","name_short":"frk-4","host":"frk-1.de.uncletopia.com","port":27045,"enabled":true,"region":"eu","cc":"de","latitude":50.110924,"longitude":8.682127,"reserved":0,"last_update":"0001-01-01T00:00:00Z","name_a2s":"Uncletopia | Frankfurt | 4 | All Maps","protocol":17,"map":"pl_badwater","folder":"tf","game":"Team Fortress","app_id":440,"player_count":24,"max_players":24,"Bots":0,"server_type":"Dedicated","server_os":"Linux","password":true,"vac":true,"version":"7882260","steam_id":85568392924504275,"keywords":["nocrits","nodmgspread","payload","uncletopia"],"game_id":440,"stv_port":27046,"stv_name":"Uncletopia | Frankfurt | 4 | All Maps | STV","players":[{"user_id":130,"name":"monke","steam_id":76561198826314938,"connected_time":5872000000000,"state":"active","ping":152},{"user_id":205,"name":"Cornelius Shacklebart","steam_id":76561198000735878,"connected_time":908000000000,"state":"active","ping":61},{"user_id":170,"name":"Maridor","steam_id":76561199094592508,"connected_time":3160000000000,"state":"active","ping":59},{"user_id":158,"name":"King Tiger","steam_id":76561199158743877,"connected_time":4007000000000,"state":"active","ping":139},{"user_id":202,"name":"congo","steam_id":76561198236836866,"connected_time":974000000000,"state":"active","ping":76},{"user_id":141,"name":"konstlang","steam_id":76561198083980412,"connected_time":4939000000000,"state":"active","ping":79},{"user_id":206,"name":"XPullaHiiri","steam_id":76561198031652375,"connected_time":462000000000,"state":"active","ping":85},{"user_id":203,"name":"leminsc8","steam_id":76561198825084995,"connected_time":956000000000,"state":"active","ping":36},{"user_id":184,"name":"BoraY","steam_id":76561198443464667,"connected_time":2439000000000,"state":"active","ping":98},{"user_id":209,"name":"atomic press","steam_id":76561198120668070,"connected_time":117000000000,"state":"active","ping":59},{"user_id":187,"name":"Perci","steam_id":76561198097789669,"connected_time":2241000000000,"state":"active","ping":59},{"user_id":195,"name":"eva.","steam_id":76561198054474684,"connected_time":1818000000000,"state":"active","ping":73},{"user_id":174,"name":"ASS?!?!?!?!?","steam_id":76561199159262388,"connected_time":2809000000000,"state":"active","ping":98},{"user_id":210,"name":"Neimon","steam_id":76561198343485710,"connected_time":90000000000,"state":"active","ping":128},{"user_id":148,"name":"TheFancy","steam_id":76561198967675289,"connected_time":4472000000000,"state":"active","ping":137},{"user_id":127,"name":"Rage spell","steam_id":76561198279952779,"connected_time":5965000000000,"state":"active","ping":166},{"user_id":189,"name":"marsel","steam_id":76561198116168271,"connected_time":2175000000000,"state":"active","ping":67},{"user_id":196,"name":"sisto majesto","steam_id":76561198073532776,"connected_time":1504000000000,"state":"active","ping":92},{"user_id":164,"name":"Chromega","steam_id":76561199075307750,"connected_time":3723000000000,"state":"active","ping":62},{"user_id":198,"name":"Wake","steam_id":76561198873753505,"connected_time":1457000000000,"state":"active","ping":67},{"user_id":115,"name":"Chillrend | #SaveTF2","steam_id":76561198452963141,"connected_time":7228000000000,"state":"active","ping":75},{"user_id":168,"name":"\u003c3","steam_id":76561199429407130,"connected_time":3398000000000,"state":"active","ping":88},{"user_id":199,"name":"Zygocact","steam_id":76561197990776598,"connected_time":1371000000000,"state":"active","ping":132},{"user_id":208,"name":"Leibeigener","steam_id":76561199275478305,"connected_time":319000000000,"state":"active","ping":43}]},{"server_id":310,"name":"Uncletopia | Frankfurt | 5 | All Maps","name_short":"frk-5","host":"frk-1.de.uncletopia.com","port":27055,"enabled":true,"region":"eu","cc":"de","latitude":50.110924,"longitude":8.682127,"reserved":0,"last_update":"0001-01-01T00:00:00Z","name_a2s":"Uncletopia | Frankfurt | 5 | All Maps","protocol":17,"map":"pl_barnblitz","folder":"tf","game":"Team Fortress","app_id":440,"player_count":23,"max_players":24,"Bots":0,"server_type":"Dedicated","server_os":"Linux","password":true,"vac":true,"version":"7882260","steam_id":85568392924504277,"keywords":["nocrits","nodmgspread","payload","uncletopia"],"game_id":440,"stv_port":27056,"stv_name":"Uncletopia | Frankfurt | 5 | All Maps | STV","players":[{"user_id":121,"name":"Primus","steam_id":76561198124927367,"connected_time":141000000000,"state":"active","ping":186},{"user_id":120,"name":"Shark","steam_id":76561198205226501,"connected_time":305000000000,"state":"active","ping":157},{"user_id":101,"name":"peruna","steam_id":76561198000721196,"connected_time":1513000000000,"state":"active","ping":90},{"user_id":39,"name":"Kahvi","steam_id":76561198723244199,"connected_time":5809000000000,"state":"active","ping":82},{"user_id":58,"name":"Mr.Fix","steam_id":76561199017362445,"connected_time":4753000000000,"state":"active","ping":86},{"user_id":79,"name":"Umbro","steam_id":76561198087930438,"connected_time":3465000000000,"state":"active","ping":78},{"user_id":78,"name":"SkP","steam_id":76561198144302929,"connected_time":3546000000000,"state":"active","ping":45},{"user_id":96,"name":"hichem","steam_id":76561198056197307,"connected_time":1956000000000,"state":"active","ping":59},{"user_id":17,"name":"Ran33","steam_id":76561197991474499,"connected_time":6948000000000,"state":"active","ping":90},{"user_id":37,"name":"Pico","steam_id":76561198063552545,"connected_time":5840000000000,"state":"active","ping":99},{"user_id":113,"name":"Dwevy","steam_id":76561198090379437,"connected_time":615000000000,"state":"active","ping":60},{"user_id":104,"name":"sokige","steam_id":76561198167112371,"connected_time":1225000000000,"state":"active","ping":97},{"user_id":110,"name":".::[SerafeTTiN]::.","steam_id":76561198009471724,"connected_time":630000000000,"state":"active","ping":88},{"user_id":68,"name":"Yuzu","steam_id":76561198121694613,"connected_time":4025000000000,"state":"active","ping":55},{"user_id":117,"name":"KsawiDemon","steam_id":76561198855789287,"connected_time":441000000000,"state":"active","ping":73},{"user_id":88,"name":"Itai","steam_id":76561198804555329,"connected_time":2862000000000,"state":"active","ping":99},{"user_id":118,"name":"Snd","steam_id":76561198010816408,"connected_time":415000000000,"state":"active","ping":120},{"user_id":92,"name":"Bandit","steam_id":76561198449500252,"connected_time":2421000000000,"state":"active","ping":94},{"user_id":98,"name":"on1on (fried)","steam_id":76561197995304137,"connected_time":1860000000000,"state":"active","ping":66},{"user_id":111,"name":"Goga11","steam_id":76561198451145010,"connected_time":630000000000,"state":"active","ping":114},{"user_id":81,"name":"TheKindle","steam_id":76561199092802413,"connected_time":3245000000000,"state":"active","ping":90},{"user_id":85,"name":"j o n","steam_id":76561199229511741,"connected_time":3117000000000,"state":"active","ping":115},{"user_id":122,"name":"Augiz","steam_id":76561198332529555,"connected_time":56000000000,"state":"active","ping":85}]},{"server_id":311,"name":"Uncletopia | Frankfurt | 6 | All Maps","name_short":"frk-6","host":"frk-1.de.uncletopia.com","port":27065,"enabled":true,"region":"eu","cc":"de","latitude":50.110924,"longitude":8.682127,"reserved":0,"last_update":"0001-01-01T00:00:00Z","name_a2s":"Uncletopia | Frankfurt | 6 | All Maps","protocol":17,"map":"pl_badwater","folder":"tf","game":"Team Fortress","app_id":440,"player_count":0,"max_players":24,"Bots":0,"server_type":"Dedicated","server_os":"Linux","password":true,"vac":true,"version":"7882260","steam_id":85568392924504278,"keywords":["nocrits","nodmgspread","payload","uncletopia"],"game_id":440,"stv_port":27066,"stv_name":"Uncletopia | Frankfurt | 6 | All Maps | STV","players":null},{"server_id":23,"name":"Uncletopia | Frankfurt | 7 | Stopwatch Beta","name_short":"frk-7","host":"frk-1.de.uncletopia.com","port":27075,"enabled":true,"region":"eu","cc":"de","latitude":50.110924,"longitude":8.682127,"reserved":0,"last_update":"0001-01-01T00:00:00Z","name_a2s":"Uncletopia | Frankfurt | 7 | Stopwatch Beta","protocol":17,"map":"cp_dustbowl","folder":"tf","game":"Team Fortress","app_id":440,"player_count":0,"max_players":24,"Bots":0,"server_type":"Dedicated","server_os":"Linux","password":true,"vac":true,"version":"7882260","steam_id":85568392924742827,"keywords":["cp","nocrits","nodmgspread","uncletopia"],"game_id":440,"stv_port":27076,"stv_name":"Uncletopia | Frankfurt | 7 | Stopwatch Beta | STV","players":null},{"server_id":24,"name":"Uncletopia | Frankfurt | 8 | Community","name_short":"frk-8","host":"frk-1.de.uncletopia.com","port":27085,"enabled":true,"region":"eu","cc":"de","latitude":50.110924,"longitude":8.682127,"reserved":0,"last_update":"0001-01-01T00:00:00Z","name_a2s":"Uncletopia | Frankfurt | 8 | Community","protocol":17,"map":"koth_cascade","folder":"tf","game":"Team Fortress","app_id":440,"player_count":0,"max_players":24,"Bots":0,"server_type":"Dedicated","server_os":"Linux","password":true,"vac":true,"version":"7882260","steam_id":85568392924742828,"keywords":["cp","nocrits","nodmgspread","uncletopia"],"game_id":440,"stv_port":27086,"stv_name":"Uncletopia | Frankfurt | 8 | Community | STV","players":null},{"server_id":202,"name":"Uncletopia | Hong Kong | 1 | All Maps","name_short":"hgk-1","host":"hgk-1.hk.uncletopia.com","port":27015,"enabled":true,"region":"asia","cc":"hk","latitude":22.302711,"longitude":114.177216,"reserved":0,"last_update":"0001-01-01T00:00:00Z","name_a2s":"Uncletopia | Hong Kong | 1 | All Maps","protocol":17,"map":"pl_frontier_final","folder":"tf","game":"Team Fortress","app_id":440,"player_count":21,"max_players":24,"Bots":0,"server_type":"Dedicated","server_os":"Linux","password":true,"vac":true,"version":"7882260","steam_id":85568392924494504,"keywords":["nocrits","nodmgspread","payload","uncletopia"],"game_id":440,"stv_port":27016,"stv_name":"Uncletopia | Hong Kong | 1 | All Maps | STV","players":[{"user_id":199,"name":"Frostbite the Lone Medic","steam_id":76561198436911621,"connected_time":1630000000000,"state":"active","ping":54},{"user_id":155,"name":"urotsuki with da doobie","steam_id":76561198074339034,"connected_time":4970000000000,"state":"active","ping":74},{"user_id":217,"name":"ghuzik.","steam_id":76561199107596818,"connected_time":91000000000,"state":"active","ping":120},{"user_id":196,"name":"Drutzhfer","steam_id":76561198299948446,"connected_time":1983000000000,"state":"active","ping":110},{"user_id":212,"name":"narleniun","steam_id":76561197970772054,"connected_time":356000000000,"state":"active","ping":317},{"user_id":210,"name":"JDSFE","steam_id":76561198975490851,"connected_time":526000000000,"state":"active","ping":108},{"user_id":205,"name":"water tastes good","steam_id":76561199375947670,"connected_time":1028000000000,"state":"active","ping":59},{"user_id":202,"name":"Wx","steam_id":76561199217780897,"connected_time":1185000000000,"state":"active","ping":122},{"user_id":215,"name":"CoatedInFire","steam_id":76561199070760845,"connected_time":102000000000,"state":"active","ping":131},{"user_id":207,"name":"Dirt","steam_id":76561199445694770,"connected_time":893000000000,"state":"active","ping":147},{"user_id":94,"name":"Noyour","steam_id":76561198323259830,"connected_time":9632000000000,"state":"active","ping":112},{"user_id":190,"name":"bocchi the oppai!","steam_id":76561198008307645,"connected_time":2357000000000,"state":"active","ping":127},{"user_id":216,"name":"Attack Mode","steam_id":76561198966418452,"connected_time":92000000000,"state":"active","ping":98},{"user_id":59,"name":"TheChainsaw","steam_id":76561198312001455,"connected_time":13873000000000,"state":"active","ping":114},{"user_id":218,"name":"happyman","steam_id":76561198045585030,"connected_time":85000000000,"state":"active","ping":67},{"user_id":219,"name":"Spark037","steam_id":76561198804499872,"connected_time":50000000000,"state":"active","ping":40},{"user_id":213,"name":"p0rnojesus","steam_id":76561199156228392,"connected_time":337000000000,"state":"active","ping":117},{"user_id":194,"name":"CR34M000","steam_id":76561199210878710,"connected_time":2075000000000,"state":"active","ping":64},{"user_id":173,"name":"tiden2000","steam_id":76561198092969425,"connected_time":3685000000000,"state":"active","ping":109},{"user_id":185,"name":"ふわふわ毛布","steam_id":76561198088403016,"connected_time":2487000000000,"state":"active","ping":100},{"user_id":141,"name":"3wfFbdrjEze5d2G","steam_id":76561198435900451,"connected_time":6862000000000,"state":"active","ping":99}]},{"server_id":1,"name":"Uncletopia | Los Angeles | 1 | All Maps","name_short":"lax-1","host":"lax-1.us.uncletopia.com","port":27015,"enabled":true,"region":"us-west","cc":"us","latitude":33.94279,"longitude":-118.41004,"reserved":0,"last_update":"0001-01-01T00:00:00Z","name_a2s":"Uncletopia | Los Angeles | 1 | All Maps","protocol":17,"map":"pl_goldrush","folder":"tf","game":"Team Fortress","app_id":440,"player_count":20,"max_players":24,"Bots":0,"server_type":"Dedicated","server_os":"Linux","password":true,"vac":true,"version":"7882260","steam_id":85568392924469991,"keywords":["nocrits","nodmgspread","payload","uncletopia"],"game_id":440,"stv_port":27016,"stv_name":"Uncletopia | Los Angeles | 1 | All Maps | STV","players":[{"user_id":516,"name":"Moomin","steam_id":76561198072726213,"connected_time":1449000000000,"state":"active","ping":47},{"user_id":518,"name":"FI LO","steam_id":76561198976530881,"connected_time":1443000000000,"state":"active","ping":44},{"user_id":531,"name":"DRFEELGOOD","steam_id":76561198114603745,"connected_time":194000000000,"state":"active","ping":45},{"user_id":501,"name":"tuna","steam_id":76561199016354184,"connected_time":3541000000000,"state":"active","ping":68},{"user_id":532,"name":"i dont know how to use a bow","steam_id":76561198952994331,"connected_time":136000000000,"state":"active","ping":49},{"user_id":523,"name":"Lancerland","steam_id":76561198130497320,"connected_time":653000000000,"state":"active","ping":57},{"user_id":488,"name":"Ian","steam_id":76561198159334435,"connected_time":4537000000000,"state":"active","ping":180},{"user_id":489,"name":"Whyamidoingthisaaaa","steam_id":76561199168837342,"connected_time":4532000000000,"state":"active","ping":112},{"user_id":524,"name":"ham","steam_id":76561198275808586,"connected_time":487000000000,"state":"active","ping":73},{"user_id":515,"name":"lucki fat af lowk","steam_id":76561198357132470,"connected_time":1458000000000,"state":"active","ping":63},{"user_id":533,"name":"Quaso","steam_id":76561198163164053,"connected_time":48000000000,"state":"active","ping":151},{"user_id":509,"name":"baguette","steam_id":76561198041770884,"connected_time":2764000000000,"state":"active","ping":48},{"user_id":526,"name":"MondoSchnoz","steam_id":76561198354925907,"connected_time":470000000000,"state":"active","ping":98},{"user_id":534,"name":"The Poopshitter","steam_id":76561198870068763,"connected_time":35000000000,"state":"active","ping":126},{"user_id":527,"name":"VTC quain","steam_id":76561199132496122,"connected_time":458000000000,"state":"active","ping":75},{"user_id":528,"name":"Hyde","steam_id":76561198083631759,"connected_time":448000000000,"state":"active","ping":33},{"user_id":507,"name":"「Django Castillo」","steam_id":76561198043068701,"connected_time":3145000000000,"state":"active","ping":56},{"user_id":512,"name":"Cheesed Burger","steam_id":76561198066425198,"connected_time":2129000000000,"state":"active","ping":52},{"user_id":529,"name":"Sand Pirate","steam_id":76561198009589068,"connected_time":439000000000,"state":"active","ping":100},{"user_id":494,"name":"Rori","steam_id":76561198052582902,"connected_time":4305000000000,"state":"active","ping":91}]},{"server_id":112,"name":"Uncletopia | Los Angeles | 2 | All Maps","name_short":"lax-2","host":"lax-1.us.uncletopia.com","port":27025,"enabled":true,"region":"us-west","cc":"us","latitude":33.94279,"longitude":-118.41004,"reserved":0,"last_update":"0001-01-01T00:00:00Z","name_a2s":"Uncletopia | Los Angeles | 2 | All Maps","protocol":17,"map":"cp_sunshine","folder":"tf","game":"Team Fortress","app_id":440,"player_count":0,"max_players":24,"Bots":0,"server_type":"Dedicated","server_os":"Linux","password":true,"vac":true,"version":"7882260","steam_id":85568392924469992,"keywords":["cp","nocrits","nodmgspread","uncletopia"],"game_id":440,"stv_port":27026,"stv_name":"Uncletopia | Los Angeles | 2 | All Maps | STV","players":null},{"server_id":324,"name":"Uncletopia | Los Angeles | 3 | All Maps","name_short":"lax-3","host":"lax-1.us.uncletopia.com","port":27035,"enabled":true,"region":"us-west","cc":"us","latitude":33.94279,"longitude":-118.41004,"reserved":0,"last_update":"0001-01-01T00:00:00Z","name_a2s":"Uncletopia | Los Angeles | 3 | All Maps","protocol":17,"map":"koth_highpass","folder":"tf","game":"Team Fortress","app_id":440,"player_count":0,"max_players":24,"Bots":0,"server_type":"Dedicated","server_os":"Linux","password":true,"vac":true,"version":"7882260","steam_id":85568392924510198,"keywords":["cp","nocrits","nodmgspread","uncletopia"],"game_id":440,"stv_port":27036,"stv_name":"Uncletopia | Los Angeles | 3 | All Maps | STV","players":null},{"server_id":25,"name":"Uncletopia | Los Angeles | 4 | Stopwatch Beta","name_short":"lax-4","host":"lax-1.us.uncletopia.com","port":27045,"enabled":true,"region":"us-west","cc":"us","latitude":33.94279,"longitude":-118.41004,"reserved":0,"last_update":"0001-01-01T00:00:00Z","name_a2s":"Uncletopia | Los Angeles | 4 | Stopwatch Beta","protocol":17,"map":"workshop/koth_ramjam_rc1.ugc459778887","folder":"tf","game":"Team Fortress","app_id":440,"player_count":0,"max_players":24,"Bots":0,"server_type":"Dedicated","server_os":"Linux","password":true,"vac":true,"version":"7882260","steam_id":85568392924510199,"keywords":["cp","nocrits","nodmgspread","uncletopia"],"game_id":440,"stv_port":27046,"stv_name":"Uncletopia | Los Angeles | 4 | Stopwatch Beta | STV","players":null},{"server_id":11,"name":"Uncletopia | London | 1 | All Maps","name_short":"lon-1","host":"lon-1.uk.uncletopia.com","port":27015,"enabled":true,"region":"eu","cc":"gb","latitude":51.509865,"longitude":-0.118092,"reserved":0,"last_update":"0001-01-01T00:00:00Z","name_a2s":"Uncletopia | London | 1 | All Maps","protocol":17,"map":"cp_sunshine","folder":"tf","game":"Team Fortress","app_id":440,"player_count":0,"max_players":24,"Bots":0,"server_type":"Dedicated","server_os":"Linux","password":true,"vac":true,"version":"7882260","steam_id":85568392924367362,"keywords":["cp","nocrits","nodmgspread","uncletopia"],"game_id":440,"stv_port":27016,"stv_name":"Uncletopia | London | 1 | All Maps | STV","players":null},{"server_id":114,"name":"Uncletopia | London | 2 | All Maps","name_short":"lon-2","host":"lon-1.uk.uncletopia.com","port":27025,"enabled":true,"region":"eu","cc":"gb","latitude":51.509865,"longitude":-0.118092,"reserved":0,"last_update":"0001-01-01T00:00:00Z","name_a2s":"Uncletopia | London | 2 | All Maps","protocol":17,"map":"pl_swiftwater_final1","folder":"tf","game":"Team Fortress","app_id":440,"player_count":0,"max_players":24,"Bots":0,"server_type":"Dedicated","server_os":"Linux","password":true,"vac":true,"version":"7882260","steam_id":85568392924470941,"keywords":["nocrits","nodmgspread","payload","uncletopia"],"game_id":440,"stv_port":27026,"stv_name":"Uncletopia | London | 2 | All Maps | STV","players":null},{"server_id":320,"name":"Uncletopia | London | 3 | All Maps","name_short":"lon-3","host":"lon-1.uk.uncletopia.com","port":27035,"enabled":true,"region":"eu","cc":"gb","latitude":51.509865,"longitude":-0.118092,"reserved":0,"last_update":"0001-01-01T00:00:00Z","name_a2s":"Uncletopia | London | 3 | All Maps","protocol":17,"map":"koth_highpass","folder":"tf","game":"Team Fortress","app_id":440,"player_count":0,"max_players":24,"Bots":0,"server_type":"Dedicated","server_os":"Linux","password":true,"vac":true,"version":"7882260","steam_id":85568392924510192,"keywords":["cp","nocrits","nodmgspread","uncletopia"],"game_id":440,"stv_port":27036,"stv_name":"Uncletopia | London | 3 | All Maps | STV","players":null},{"server_id":321,"name":"Uncletopia | London | 4 | All Maps","name_short":"lon-4","host":"lon-1.uk.uncletopia.com","port":27045,"enabled":true,"region":"eu","cc":"gb","latitude":51.509865,"longitude":-0.118092,"reserved":0,"last_update":"0001-01-01T00:00:00Z","name_a2s":"Uncletopia | London | 4 | All Maps","protocol":17,"map":"cp_sunshine","folder":"tf","game":"Team Fortress","app_id":440,"player_count":0,"max_players":24,"Bots":0,"server_type":"Dedicated","server_os":"Linux","password":true,"vac":true,"version":"7882260","steam_id":85568392924510193,"keywords":["cp","nocrits","nodmgspread","uncletopia"],"game_id":440,"stv_port":27046,"stv_name":"Uncletopia | London | 4 | All Maps | STV","players":null},{"server_id":21,"name":"Uncletopia | London | 5 | All Maps","name_short":"lon-5","host":"lon-1.uk.uncletopia.com","port":27055,"enabled":true,"region":"eu","cc":"gb","latitude":51.509865,"longitude":-0.118092,"reserved":0,"last_update":"0001-01-01T00:00:00Z","name_a2s":"Uncletopia | London | 5 | All Maps","protocol":17,"map":"pl_frontier_final","folder":"tf","game":"Team Fortress","app_id":440,"player_count":0,"max_players":24,"Bots":0,"server_type":"Dedicated","server_os":"Linux","password":true,"vac":true,"version":"7882260","steam_id":85568392924742829,"keywords":["nocrits","nodmgspread","payload","uncletopia"],"game_id":440,"stv_port":27056,"stv_name":"Uncletopia | London | 5 | All Maps | STV","players":null},{"server_id":22,"name":"Uncletopia | London | 6 | All Maps","name_short":"lon-6","host":"lon-1.uk.uncletopia.com","port":27065,"enabled":true,"region":"eu","cc":"gb","latitude":51.509865,"longitude":-0.118092,"reserved":0,"last_update":"0001-01-01T00:00:00Z","name_a2s":"Uncletopia | London | 6 | All Maps","protocol":17,"map":"cp_altitude","folder":"tf","game":"Team Fortress","app_id":440,"player_count":0,"max_players":24,"Bots":0,"server_type":"Dedicated","server_os":"Linux","password":true,"vac":true,"version":"7882260","steam_id":85568392924742830,"keywords":["cp","nocrits","nodmgspread","uncletopia"],"game_id":440,"stv_port":27066,"stv_name":"Uncletopia | London | 6 | All Maps | STV","players":null},{"server_id":40,"name":"Uncletopia | London | 7 | No Payload","name_short":"lon-7","host":"lon-1.uk.uncletopia.com","port":27075,"enabled":true,"region":"eu","cc":"gb","latitude":51.509865,"longitude":-0.118092,"reserved":0,"last_update":"0001-01-01T00:00:00Z","name_a2s":"Uncletopia | London | 7 | No Payload","protocol":17,"map":"pl_pier","folder":"tf","game":"Team Fortress","app_id":440,"player_count":0,"max_players":24,"Bots":0,"server_type":"Dedicated","server_os":"Linux","password":true,"vac":true,"version":"7882260","steam_id":85568392924964314,"keywords":["nocrits","nodmgspread","payload","uncletopia"],"game_id":440,"stv_port":27076,"stv_name":"Uncletopia | London | 7 | No Payload | STV","players":null},{"server_id":41,"name":"Uncletopia | London | 8 | Community","name_short":"lon-8","host":"lon-1.uk.uncletopia.com","port":27085,"enabled":true,"region":"eu","cc":"gb","latitude":51.509865,"longitude":-0.118092,"reserved":0,"last_update":"0001-01-01T00:00:00Z","name_a2s":"Uncletopia | London | 8 | Community","protocol":17,"map":"pl_swiftwater_final1","folder":"tf","game":"Team Fortress","app_id":440,"player_count":0,"max_players":24,"Bots":0,"server_type":"Dedicated","server_os":"Linux","password":true,"vac":true,"version":"7882260","steam_id":85568392924964315,"keywords":["nocrits","nodmgspread","payload","uncletopia"],"game_id":440,"stv_port":27086,"stv_name":"Uncletopia | London | 8 | Community | STV","players":null},{"server_id":300,"name":"Uncletopia | Montréal | 1 | All Maps","name_short":"mtl-1","host":"mtl-1.ca.uncletopia.com","port":27015,"enabled":true,"region":"us-east","cc":"ca","latitude":45.50889,"longitude":-73.56167,"reserved":0,"last_update":"0001-01-01T00:00:00Z","name_a2s":"Uncletopia | Montréal | 1 | All Maps","protocol":17,"map":"cp_snakewater_final1","folder":"tf","game":"Team Fortress","app_id":440,"player_count":0,"max_players":24,"Bots":0,"server_type":"Dedicated","server_os":"Linux","password":true,"vac":true,"version":"7882260","steam_id":85568392924500087,"keywords":["cp","nocrits","nodmgspread","uncletopia"],"game_id":440,"stv_port":27016,"stv_name":"Uncletopia | Montréal | 1 | All Maps | STV","players":null},{"server_id":301,"name":"Uncletopia | Montréal | 2 | All Maps","name_short":"mtl-2","host":"mtl-1.ca.uncletopia.com","port":27025,"enabled":true,"region":"us-east","cc":"ca","latitude":45.50889,"longitude":-73.56167,"reserved":0,"last_update":"0001-01-01T00:00:00Z","name_a2s":"Uncletopia | Montréal | 2 | All Maps","protocol":17,"map":"koth_highpass","folder":"tf","game":"Team Fortress","app_id":440,"player_count":0,"max_players":24,"Bots":0,"server_type":"Dedicated","server_os":"Linux","password":true,"vac":true,"version":"7882260","steam_id":85568392924500088,"keywords":["cp","nocrits","nodmgspread","uncletopia"],"game_id":440,"stv_port":27026,"stv_name":"Uncletopia | Montréal | 2 | All Maps | STV","players":null},{"server_id":302,"name":"Uncletopia | Montréal | 3 | All Maps","name_short":"mtl-3","host":"mtl-1.ca.uncletopia.com","port":27035,"enabled":true,"region":"us-east","cc":"ca","latitude":45.50889,"longitude":-73.56167,"reserved":0,"last_update":"0001-01-01T00:00:00Z","name_a2s":"Uncletopia | Montréal | 3 | All Maps","protocol":17,"map":"cp_snakewater_final1","folder":"tf","game":"Team Fortress","app_id":440,"player_count":0,"max_players":24,"Bots":0,"server_type":"Dedicated","server_os":"Linux","password":true,"vac":true,"version":"7882260","steam_id":85568392924500089,"keywords":["cp","nocrits","nodmgspread","uncletopia"],"game_id":440,"stv_port":27036,"stv_name":"Uncletopia | Montréal | 3 | All Maps | STV","players":null},{"server_id":303,"name":"Uncletopia | Montréal | 4 | No Payload","name_short":"mtl-4","host":"mtl-1.ca.uncletopia.com","port":27045,"enabled":true,"region":"us-east","cc":"ca","latitude":45.50889,"longitude":-73.56167,"reserved":0,"last_update":"0001-01-01T00:00:00Z","name_a2s":"Uncletopia | Montréal | 4 | No Payload","protocol":17,"map":"plr_pipeline","folder":"tf","game":"Team Fortress","app_id":440,"player_count":0,"max_players":24,"Bots":0,"server_type":"Dedicated","server_os":"Linux","password":true,"vac":true,"version":"7882260","steam_id":85568392924500090,"keywords":["nocrits","nodmgspread","payload","uncletopia"],"game_id":440,"stv_port":27046,"stv_name":"Uncletopia | Montréal | 4 | No Payload | STV","players":null},{"server_id":13,"name":"Uncletopia | New York City | 1 | All Maps","name_short":"nyc-1","host":"nyc-1.us.uncletopia.com","port":27015,"enabled":true,"region":"us-east","cc":"us","latitude":40.73061,"longitude":-73.93524,"reserved":0,"last_update":"0001-01-01T00:00:00Z","name_a2s":"Uncletopia | New York City | 1 | All Maps","protocol":17,"map":"cp_snakewater_final1","folder":"tf","game":"Team Fortress","app_id":440,"player_count":0,"max_players":24,"Bots":0,"server_type":"Dedicated","server_os":"Linux","password":true,"vac":true,"version":"7882260","steam_id":85568392924469993,"keywords":["cp","nocrits","nodmgspread","uncletopia"],"game_id":440,"stv_port":27016,"stv_name":"Uncletopia | New York City | 1 | All Maps | STV","players":null},{"server_id":14,"name":"Uncletopia | New York City | 2 | All Maps","name_short":"nyc-2","host":"nyc-1.us.uncletopia.com","port":27025,"enabled":true,"region":"us-east","cc":"us","latitude":40.73061,"longitude":-73.93524,"reserved":0,"last_update":"0001-01-01T00:00:00Z","name_a2s":"Uncletopia | New York City | 2 | All Maps","protocol":17,"map":"pl_upward","folder":"tf","game":"Team Fortress","app_id":440,"player_count":0,"max_players":24,"Bots":0,"server_type":"Dedicated","server_os":"Linux","password":true,"vac":true,"version":"7882260","steam_id":85568392924469994,"keywords":["nocrits","nodmgspread","payload","uncletopia"],"game_id":440,"stv_port":27026,"stv_name":"Uncletopia | New York City | 2 | All Maps | STV","players":null},{"server_id":15,"name":"Uncletopia | New York City | 3 | Stopwatch Beta","name_short":"nyc-3","host":"nyc-1.us.uncletopia.com","port":27035,"enabled":true,"region":"us-east","cc":"us","latitude":40.73061,"longitude":-73.93524,"reserved":0,"last_update":"0001-01-01T00:00:00Z","name_a2s":"Uncletopia | New York City | 3 | Stopwatch Beta","protocol":17,"map":"workshop/koth_product_final.ugc454272353","folder":"tf","game":"Team Fortress","app_id":440,"player_count":0,"max_players":24,"Bots":0,"server_type":"Dedicated","server_os":"Linux","password":true,"vac":true,"version":"7882260","steam_id":85568392924742820,"keywords":["cp","nocrits","nodmgspread","uncletopia"],"game_id":440,"stv_port":27036,"stv_name":"Uncletopia | New York City | 3 | Stopwatch Beta | STV","players":null},{"server_id":16,"name":"Uncletopia | New York City | 4 | Community","name_short":"nyc-4","host":"nyc-1.us.uncletopia.com","port":27045,"enabled":true,"region":"us-east","cc":"us","latitude":40.73061,"longitude":-73.93524,"reserved":0,"last_update":"0001-01-01T00:00:00Z","name_a2s":"Uncletopia | New York City | 4 | Community","protocol":17,"map":"workshop/cp_snowbase_b18.ugc2081770490","folder":"tf","game":"Team Fortress","app_id":440,"player_count":0,"max_players":24,"Bots":0,"server_type":"Dedicated","server_os":"Linux","password":true,"vac":true,"version":"7882260","steam_id":85568392924742821,"keywords":["cp","nocrits","nodmgspread","uncletopia"],"game_id":440,"stv_port":27046,"stv_name":"Uncletopia | New York City | 4 | Community | STV","players":null},{"server_id":142,"name":"Uncletopia | São Paulo | 1 | All Maps","name_short":"sao-1","host":"sao-1.br.uncletopia.com","port":27015,"enabled":true,"region":"sa","cc":"br","latitude":-23.533773,"longitude":-46.62529,"reserved":0,"last_update":"0001-01-01T00:00:00Z","name_a2s":"Uncletopia | São Paulo | 1 | All Maps","protocol":17,"map":"cp_process_final","folder":"tf","game":"Team Fortress","app_id":440,"player_count":0,"max_players":24,"Bots":0,"server_type":"Dedicated","server_os":"Linux","password":true,"vac":true,"version":"7882260","steam_id":85568392924469996,"keywords":["cp","nocrits","nodmgspread","uncletopia"],"game_id":440,"stv_port":27016,"stv_name":"Uncletopia | São Paulo | 1 | All Maps | STV","players":null},{"server_id":143,"name":"Uncletopia | São Paulo | 2 | All Maps","name_short":"sao-2","host":"sao-2.br.uncletopia.com","port":27015,"enabled":true,"region":"sa","cc":"br","latitude":-23.533773,"longitude":-46.62529,"reserved":0,"last_update":"0001-01-01T00:00:00Z","name_a2s":"Uncletopia | São Paulo | 2 | All Maps","protocol":17,"map":"pl_pier","folder":"tf","game":"Team Fortress","app_id":440,"player_count":0,"max_players":24,"Bots":0,"server_type":"Dedicated","server_os":"Linux","password":true,"vac":true,"version":"7882260","steam_id":85568392924485349,"keywords":["nocrits","nodmgspread","payload","uncletopia"],"game_id":440,"stv_port":27016,"stv_name":"Uncletopia | São Paulo | 2 | All Maps | STV","players":null},{"server_id":7,"name":"Uncletopia | Seattle | 1 | All Maps","name_short":"sea-1","host":"sea-1.us.uncletopia.com","port":27015,"enabled":true,"region":"us-west","cc":"us","latitude":47.608013,"longitude":-122.33517,"reserved":0,"last_update":"0001-01-01T00:00:00Z","name_a2s":"Uncletopia | Seattle | 1 | All Maps","protocol":17,"map":"koth_nucleus","folder":"tf","game":"Team Fortress","app_id":440,"player_count":15,"max_players":24,"Bots":0,"server_type":"Dedicated","server_os":"Linux","password":true,"vac":true,"version":"7882260","steam_id":85568392924469997,"keywords":["cp","nocrits","nodmgspread","uncletopia"],"game_id":440,"stv_port":27016,"stv_name":"Uncletopia | Seattle | 1 | All Maps | STV","players":[{"user_id":940,"name":"shitass (Shrimp Arc)","steam_id":76561198210572481,"connected_time":907000000000,"state":"active","ping":74},{"user_id":930,"name":"sir simon","steam_id":76561199079168777,"connected_time":1125000000000,"state":"active","ping":189},{"user_id":913,"name":"Stev the Prurient Oxymoron","steam_id":76561197999442625,"connected_time":2725000000000,"state":"active","ping":67},{"user_id":867,"name":"[TrC] Nosy","steam_id":76561197978859310,"connected_time":5880000000000,"state":"active","ping":58},{"user_id":944,"name":"help","steam_id":76561198044689625,"connected_time":470000000000,"state":"active","ping":45},{"user_id":947,"name":"Bird Cage","steam_id":76561198081302536,"connected_time":264000000000,"state":"active","ping":69},{"user_id":865,"name":"[TrC] Dackstrus","steam_id":76561197973518509,"connected_time":5886000000000,"state":"active","ping":48},{"user_id":900,"name":"KonJac","steam_id":76561198027812652,"connected_time":3759000000000,"state":"active","ping":66},{"user_id":948,"name":"BorstchBag","steam_id":76561198155294045,"connected_time":199000000000,"state":"active","ping":66},{"user_id":949,"name":"EforEstrogen","steam_id":76561198086787295,"connected_time":172000000000,"state":"active","ping":57},{"user_id":917,"name":"Copypasted Uncletopia Sniper","steam_id":76561199225890936,"connected_time":2169000000000,"state":"active","ping":72},{"user_id":934,"name":"Chimi","steam_id":76561198067800540,"connected_time":1047000000000,"state":"active","ping":91},{"user_id":936,"name":"Toenail Clipper","steam_id":76561198044002153,"connected_time":1000000000000,"state":"active","ping":119},{"user_id":927,"name":"1986","steam_id":76561198203330566,"connected_time":1573000000000,"state":"active","ping":51},{"user_id":938,"name":"Pastel","steam_id":76561198147847673,"connected_time":949000000000,"state":"active","ping":45}]},{"server_id":119,"name":"Uncletopia | Seattle | 2 | All Maps","name_short":"sea-2","host":"sea-1.us.uncletopia.com","port":27025,"enabled":true,"region":"us-west","cc":"us","latitude":47.608013,"longitude":-122.33517,"reserved":0,"last_update":"0001-01-01T00:00:00Z","name_a2s":"Uncletopia | Seattle | 2 | All Maps","protocol":17,"map":"pl_badwater","folder":"tf","game":"Team Fortress","app_id":440,"player_count":21,"max_players":24,"Bots":0,"server_type":"Dedicated","server_os":"Linux","password":true,"vac":true,"version":"7882260","steam_id":85568392924469998,"keywords":["nocrits","nodmgspread","payload","uncletopia"],"game_id":440,"stv_port":27026,"stv_name":"Uncletopia | Seattle | 2 | All Maps | STV","players":[{"user_id":1088,"name":"rat gets the cheese","steam_id":76561198031234032,"connected_time":3499000000000,"state":"active","ping":103},{"user_id":1057,"name":"rorywashere /ᐠ - ˕ -マ Ⳋ","steam_id":76561198065825165,"connected_time":7217000000000,"state":"active","ping":89},{"user_id":1110,"name":"exephur","steam_id":76561198135763234,"connected_time":1847000000000,"state":"active","ping":59},{"user_id":1095,"name":"oil","steam_id":76561198099980149,"connected_time":3365000000000,"state":"active","ping":72},{"user_id":1128,"name":"yomommasabitch","steam_id":76561198323217150,"connected_time":176000000000,"state":"active","ping":93},{"user_id":1122,"name":"RURU","steam_id":76561198039758987,"connected_time":1109000000000,"state":"active","ping":48},{"user_id":1123,"name":"ʀ.ʚɞ.","steam_id":76561198029580420,"connected_time":817000000000,"state":"active","ping":165},{"user_id":1120,"name":"Erntest","steam_id":76561198049499899,"connected_time":1291000000000,"state":"active","ping":62},{"user_id":1101,"name":"fart shitson","steam_id":76561198986534519,"connected_time":2824000000000,"state":"active","ping":38},{"user_id":1127,"name":"♡♡ Roblox ♡♡","steam_id":76561198280120859,"connected_time":208000000000,"state":"active","ping":72},{"user_id":1113,"name":"Mothership","steam_id":76561198044029501,"connected_time":1718000000000,"state":"active","ping":124},{"user_id":1108,"name":"alcohol alchemist","steam_id":76561198134309750,"connected_time":1973000000000,"state":"active","ping":92},{"user_id":1090,"name":"why must i whimper","steam_id":76561198046073848,"connected_time":3492000000000,"state":"active","ping":51},{"user_id":1109,"name":"cheeto dorito","steam_id":76561198107941274,"connected_time":1961000000000,"state":"active","ping":75},{"user_id":1129,"name":"twin","steam_id":76561198055626638,"connected_time":118000000000,"state":"active","ping":135},{"user_id":1116,"name":"HeavenHearst","steam_id":76561198066083947,"connected_time":1590000000000,"state":"active","ping":115},{"user_id":1126,"name":"Hoop","steam_id":76561199124865843,"connected_time":378000000000,"state":"active","ping":113},{"user_id":1102,"name":"Pretzel","steam_id":76561198092856398,"connected_time":2760000000000,"state":"active","ping":58},{"user_id":1130,"name":"Stoofy","steam_id":76561198280750328,"connected_time":49000000000,"state":"active","ping":57},{"user_id":1121,"name":"Beautiful bastard","steam_id":76561198858700490,"connected_time":1252000000000,"state":"active","ping":108},{"user_id":677,"name":"birthday jorts","steam_id":76561199041179985,"connected_time":15588000000000,"state":"active","ping":59}]},{"server_id":406,"name":"Uncletopia | Seattle | 3 | Stopwatch Beta","name_short":"sea-3","host":"sea-1.us.uncletopia.com","port":27035,"enabled":true,"region":"us-west","cc":"us","latitude":47.608013,"longitude":-122.33517,"reserved":0,"last_update":"0001-01-01T00:00:00Z","name_a2s":"Uncletopia | Seattle | 3 | Stopwatch Beta","protocol":17,"map":"pl_upward","folder":"tf","game":"Team Fortress","app_id":440,"player_count":0,"max_players":24,"Bots":0,"server_type":"Dedicated","server_os":"Linux","password":true,"vac":true,"version":"7882260","steam_id":85568392924515217,"keywords":["nocrits","nodmgspread","payload","uncletopia"],"game_id":440,"stv_port":27036,"stv_name":"Uncletopia | Seattle | 3 | Stopwatch Beta | STV","players":null},{"server_id":17,"name":"Uncletopia | San Francisco | 1 | All Maps","name_short":"sfo-1","host":"sfo-1.us.uncletopia.com","port":27015,"enabled":true,"region":"us-west","cc":"us","latitude":37.77397,"longitude":-122.4313,"reserved":0,"last_update":"0001-01-01T00:00:00Z","name_a2s":"Uncletopia | San Francisco | 1 | All Maps","protocol":17,"map":"cp_process_final","folder":"tf","game":"Team Fortress","app_id":440,"player_count":0,"max_players":24,"Bots":0,"server_type":"Dedicated","server_os":"Linux","password":true,"vac":true,"version":"7757534","steam_id":85568392924469999,"keywords":["cp","nocrits","nodmgspread","uncletopia"],"game_id":440,"stv_port":27016,"stv_name":"Uncletopia | San Francisco | 1 | All Maps | STV","players":null},{"server_id":18,"name":"Uncletopia | San Francisco | 2 | All Maps","name_short":"sfo-2","host":"sfo-1.us.uncletopia.com","port":27025,"enabled":true,"region":"us-west","cc":"us","latitude":37.77397,"longitude":-122.4313,"reserved":0,"last_update":"0001-01-01T00:00:00Z","name_a2s":"Uncletopia | San Francisco | 2 | All Maps","protocol":17,"map":"koth_highpass","folder":"tf","game":"Team Fortress","app_id":440,"player_count":0,"max_players":24,"Bots":0,"server_type":"Dedicated","server_os":"Linux","password":true,"vac":true,"version":"7757534","steam_id":85568392924470000,"keywords":["cp","nocrits","nodmgspread","uncletopia"],"game_id":440,"stv_port":27026,"stv_name":"Uncletopia | San Francisco | 2 | All Maps | STV","players":null},{"server_id":19,"name":"Uncletopia | San Francisco | 3 | Stopwatch Beta","name_short":"sfo-3","host":"sfo-1.us.uncletopia.com","port":27035,"enabled":true,"region":"us-west","cc":"us","latitude":37.77397,"longitude":-122.4313,"reserved":0,"last_update":"0001-01-01T00:00:00Z","name_a2s":"Uncletopia | San Francisco | 3 | Stopwatch Beta","protocol":17,"map":"koth_lakeside_final","folder":"tf","game":"Team Fortress","app_id":440,"player_count":0,"max_players":24,"Bots":0,"server_type":"Dedicated","server_os":"Linux","password":true,"vac":true,"version":"7757534","steam_id":85568392924742824,"keywords":["cp","nocrits","nodmgspread","uncletopia"],"game_id":440,"stv_port":27036,"stv_name":"Uncletopia | San Francisco | 3 | Stopwatch Beta | STV","players":null},{"server_id":20,"name":"Uncletopia | San Francisco | 4 | Community","name_short":"sfo-4","host":"sfo-1.us.uncletopia.com","port":27045,"enabled":true,"region":"us-west","cc":"us","latitude":37.77397,"longitude":-122.4313,"reserved":0,"last_update":"0001-01-01T00:00:00Z","name_a2s":"Uncletopia | San Francisco | 4 | Community","protocol":17,"map":"cp_altitude","folder":"tf","game":"Team Fortress","app_id":440,"player_count":0,"max_players":24,"Bots":0,"server_type":"Dedicated","server_os":"Linux","password":true,"vac":true,"version":"7757534","steam_id":85568392924742826,"keywords":["cp","nocrits","nodmgspread","uncletopia"],"game_id":440,"stv_port":27046,"stv_name":"Uncletopia | San Francisco | 4 | Community | STV","players":null},{"server_id":141,"name":"Uncletopia | Sydney | 1 | All Maps","name_short":"syd-1","host":"syd-1.au.uncletopia.com","port":27015,"enabled":true,"region":"au","cc":"au","latitude":-33.865143,"longitude":151.2099,"reserved":0,"last_update":"0001-01-01T00:00:00Z","name_a2s":"Uncletopia | Sydney | 1 | All Maps","protocol":17,"map":"pl_badwater","folder":"tf","game":"Team Fortress","app_id":440,"player_count":23,"max_players":24,"Bots":0,"server_type":"Dedicated","server_os":"Linux","password":true,"vac":true,"version":"7882260","steam_id":85568392924470001,"keywords":["nocrits","nodmgspread","payload","uncletopia"],"game_id":440,"stv_port":27016,"stv_name":"Uncletopia | Sydney | 1 | All Maps | STV","players":[{"user_id":257,"name":"Tiger_Tan","steam_id":76561198221733844,"connected_time":497000000000,"state":"active","ping":65},{"user_id":244,"name":"justaordinarygamer","steam_id":76561199132864695,"connected_time":1590000000000,"state":"active","ping":99},{"user_id":249,"name":"stamm","steam_id":76561198041993019,"connected_time":1280000000000,"state":"active","ping":63},{"user_id":233,"name":"FyreFeat","steam_id":76561198068428930,"connected_time":2025000000000,"state":"active","ping":53},{"user_id":262,"name":"DropBearWarrior","steam_id":76561198352774039,"connected_time":276000000000,"state":"active","ping":75},{"user_id":255,"name":"Hungry for thumbtacks","steam_id":76561198059129270,"connected_time":755000000000,"state":"active","ping":64},{"user_id":260,"name":"Pile of Sneed","steam_id":76561198143537391,"connected_time":382000000000,"state":"active","ping":60},{"user_id":245,"name":"Boiling","steam_id":76561199125271770,"connected_time":1539000000000,"state":"active","ping":67},{"user_id":174,"name":"Zom-B-Livion","steam_id":76561197968167449,"connected_time":7102000000000,"state":"active","ping":70},{"user_id":263,"name":"Tentacle","steam_id":76561197994320010,"connected_time":273000000000,"state":"active","ping":61},{"user_id":246,"name":"stroob","steam_id":76561198045320644,"connected_time":1511000000000,"state":"active","ping":49},{"user_id":181,"name":"Yeat","steam_id":76561198202555552,"connected_time":6544000000000,"state":"active","ping":43},{"user_id":248,"name":"Supes9000","steam_id":76561198283085413,"connected_time":1306000000000,"state":"active","ping":60},{"user_id":254,"name":"Citizen Dan","steam_id":76561197970496955,"connected_time":824000000000,"state":"active","ping":65},{"user_id":240,"name":"ZaneProductions","steam_id":76561199090291960,"connected_time":1729000000000,"state":"active","ping":75},{"user_id":264,"name":"El Chupacabra","steam_id":76561198070641651,"connected_time":205000000000,"state":"active","ping":45},{"user_id":256,"name":"[FTW] RonnieD'","steam_id":76561197993957267,"connected_time":702000000000,"state":"active","ping":51},{"user_id":202,"name":"DeathEagle シ","steam_id":76561197997644542,"connected_time":4672000000000,"state":"active","ping":46},{"user_id":236,"name":"Rat Pope","steam_id":76561199059450243,"connected_time":1947000000000,"state":"active","ping":55},{"user_id":261,"name":"Snowy","steam_id":76561198255720598,"connected_time":379000000000,"state":"active","ping":46},{"user_id":250,"name":"Nylk","steam_id":76561198033625169,"connected_time":1197000000000,"state":"active","ping":44},{"user_id":243,"name":"Foxtonnes","steam_id":76561198007628373,"connected_time":1606000000000,"state":"active","ping":51},{"user_id":176,"name":"perturb (feed/seed)","steam_id":76561198085124297,"connected_time":7087000000000,"state":"active","ping":55}]},{"server_id":123,"name":"Uncletopia | Sydney | 2 | All Maps","name_short":"syd-2","host":"syd-1.au.uncletopia.com","port":27025,"enabled":true,"region":"au","cc":"au","latitude":-33.865143,"longitude":151.2099,"reserved":0,"last_update":"0001-01-01T00:00:00Z","name_a2s":"Uncletopia | Sydney | 2 | All Maps","protocol":17,"map":"pl_borneo","folder":"tf","game":"Team Fortress","app_id":440,"player_count":17,"max_players":24,"Bots":0,"server_type":"Dedicated","server_os":"Linux","password":true,"vac":true,"version":"7882260","steam_id":85568392924470002,"keywords":["nocrits","nodmgspread","payload","uncletopia"],"game_id":440,"stv_port":27026,"stv_name":"Uncletopia | Sydney | 2 | All Maps | STV","players":[{"user_id":156,"name":"Fyre Rose","steam_id":76561198000527551,"connected_time":664000000000,"state":"active","ping":77},{"user_id":159,"name":"Zort","steam_id":76561198056414289,"connected_time":555000000000,"state":"active","ping":64},{"user_id":157,"name":"Snake ATM","steam_id":76561197968304462,"connected_time":641000000000,"state":"active","ping":57},{"user_id":160,"name":"Mr Mosin","steam_id":76561198846521706,"connected_time":453000000000,"state":"active","ping":45},{"user_id":141,"name":"Jodelkönig Franzl Lang","steam_id":76561198007667830,"connected_time":2070000000000,"state":"active","ping":54},{"user_id":120,"name":"Jiffy360","steam_id":76561198149550772,"connected_time":3403000000000,"state":"active","ping":89},{"user_id":85,"name":"Muffin","steam_id":76561198075391119,"connected_time":5412000000000,"state":"active","ping":51},{"user_id":162,"name":"whiteshaq","steam_id":76561198131988811,"connected_time":243000000000,"state":"active","ping":48},{"user_id":136,"name":"Bigrichard","steam_id":76561198032092945,"connected_time":2300000000000,"state":"active","ping":86},{"user_id":155,"name":"dumbvent","steam_id":76561198190062810,"connected_time":971000000000,"state":"active","ping":61},{"user_id":154,"name":"vent","steam_id":76561197984081096,"connected_time":1027000000000,"state":"active","ping":65},{"user_id":102,"name":"RustyMeat","steam_id":76561198119162442,"connected_time":4657000000000,"state":"active","ping":60},{"user_id":100,"name":"red meddel!!!!","steam_id":76561198017390541,"connected_time":4789000000000,"state":"active","ping":44},{"user_id":123,"name":"Mr Doctor","steam_id":76561198081415999,"connected_time":3377000000000,"state":"active","ping":75},{"user_id":126,"name":"ALCHE","steam_id":76561198815730749,"connected_time":3273000000000,"state":"active","ping":63},{"user_id":127,"name":"Little Red all grown up","steam_id":76561198054040718,"connected_time":3248000000000,"state":"active","ping":52},{"user_id":130,"name":"Original Dog","steam_id":76561198046480594,"connected_time":2744000000000,"state":"active","ping":82}]},{"server_id":395,"name":"Uncletopia | Sydney | 3 | All Maps","name_short":"syd-3","host":"syd-1.au.uncletopia.com","port":27035,"enabled":true,"region":"au","cc":"au","latitude":-33.865143,"longitude":151.2099,"reserved":0,"last_update":"0001-01-01T00:00:00Z","name_a2s":"Uncletopia | Sydney | 3 | All Maps","protocol":17,"map":"koth_cascade","folder":"tf","game":"Team Fortress","app_id":440,"player_count":0,"max_players":24,"Bots":0,"server_type":"Dedicated","server_os":"Linux","password":true,"vac":true,"version":"7882260","steam_id":85568392925194467,"keywords":["cp","nocrits","nodmgspread","uncletopia"],"game_id":440,"stv_port":27036,"stv_name":"Uncletopia | Sydney | 3 | All Maps | STV","players":null},{"server_id":396,"name":"Uncletopia | Sydney | 4 | All Maps","name_short":"syd-4","host":"syd-1.au.uncletopia.com","port":27045,"enabled":true,"region":"au","cc":"au","latitude":-33.865143,"longitude":151.2099,"reserved":0,"last_update":"0001-01-01T00:00:00Z","name_a2s":"Uncletopia | Sydney | 4 | All Maps","protocol":17,"map":"koth_cascade","folder":"tf","game":"Team Fortress","app_id":440,"player_count":0,"max_players":24,"Bots":0,"server_type":"Dedicated","server_os":"Linux","password":true,"vac":true,"version":"7882260","steam_id":85568392925397958,"keywords":["cp","nocrits","nodmgspread","uncletopia"],"game_id":440,"stv_port":27046,"stv_name":"Uncletopia | Sydney | 4 | All Maps | STV","players":null},{"server_id":58,"name":"Uncletopia | Sydney | 5 | Stopwatch Beta","name_short":"syd-5","host":"syd-1.au.uncletopia.com","port":27055,"enabled":true,"region":"au","cc":"au","latitude":-33.865143,"longitude":151.2099,"reserved":0,"last_update":"0001-01-01T00:00:00Z","name_a2s":"Uncletopia | Sydney | 5 | Stopwatch Beta","protocol":17,"map":"pl_swiftwater_final1","folder":"tf","game":"Team Fortress","app_id":440,"player_count":0,"max_players":24,"Bots":0,"server_type":"Dedicated","server_os":"Linux","password":true,"vac":true,"version":"7882260","steam_id":85568392925397959,"keywords":["nocrits","nodmgspread","payload","uncletopia"],"game_id":440,"stv_port":27056,"stv_name":"Uncletopia | Sydney | 5 | Stopwatch Beta | STV","players":null},{"server_id":59,"name":"Uncletopia | Sydney | 6 | Community","name_short":"syd-6","host":"syd-1.au.uncletopia.com","port":27065,"enabled":true,"region":"au","cc":"au","latitude":-33.865143,"longitude":151.2099,"reserved":0,"last_update":"0001-01-01T00:00:00Z","name_a2s":"Uncletopia | Sydney | 6 | Community","protocol":17,"map":"pl_snowycoast","folder":"tf","game":"Team Fortress","app_id":440,"player_count":0,"max_players":24,"Bots":0,"server_type":"Dedicated","server_os":"Linux","password":true,"vac":true,"version":"7882260","steam_id":85568392925397960,"keywords":["nocrits","nodmgspread","payload","uncletopia"],"game_id":440,"stv_port":27066,"stv_name":"Uncletopia | Sydney | 6 | Community | STV","players":null},{"server_id":49,"name":"Uncletopia | Warsaw | 1 | All Maps","name_short":"waw-1","host":"waw-1.pl.uncletopia.com","port":27015,"enabled":true,"region":"eu","cc":"pl","latitude":52.2297,"longitude":21.017532,"reserved":0,"last_update":"0001-01-01T00:00:00Z","name_a2s":"","protocol":0,"map":"","folder":"","game":"","app_id":0,"player_count":0,"max_players":0,"Bots":0,"server_type":"","server_os":"","password":false,"vac":false,"version":"","steam_id":0,"keywords":null,"game_id":0,"stv_port":0,"stv_name":"","players":null},{"server_id":50,"name":"Uncletopia | Warsaw | 2 | All Maps","name_short":"waw-2","host":"waw-1.pl.uncletopia.com","port":27025,"enabled":true,"region":"eu","cc":"pl","latitude":52.2297,"longitude":21.017532,"reserved":0,"last_update":"0001-01-01T00:00:00Z","name_a2s":"Uncletopia | Warsaw | 2 | All Maps","protocol":17,"map":"pl_swiftwater_final1","folder":"tf","game":"Team Fortress","app_id":440,"player_count":0,"max_players":24,"Bots":0,"server_type":"Dedicated","server_os":"Linux","password":true,"vac":true,"version":"7882260","steam_id":85568392925397851,"keywords":["nocrits","nodmgspread","payload","uncletopia"],"game_id":440,"stv_port":27026,"stv_name":"Uncletopia | Warsaw | 2 | All Maps | STV","players":null},{"server_id":51,"name":"Uncletopia | Warsaw | 3 | All Maps","name_short":"waw-3","host":"waw-1.pl.uncletopia.com","port":27035,"enabled":true,"region":"eu","cc":"pl","latitude":52.2297,"longitude":21.017532,"reserved":0,"last_update":"0001-01-01T00:00:00Z","name_a2s":"Uncletopia | Warsaw | 3 | All Maps","protocol":17,"map":"koth_viaduct","folder":"tf","game":"Team Fortress","app_id":440,"player_count":0,"max_players":24,"Bots":0,"server_type":"Dedicated","server_os":"Linux","password":true,"vac":true,"version":"7882260","steam_id":85568392925397852,"keywords":["cp","nocrits","nodmgspread","uncletopia"],"game_id":440,"stv_port":27036,"stv_name":"Uncletopia | Warsaw | 3 | All Maps | STV","players":null},{"server_id":52,"name":"Uncletopia | Warsaw | 4 | All Maps","name_short":"waw-4","host":"waw-1.pl.uncletopia.com","port":27045,"enabled":true,"region":"eu","cc":"pl","latitude":52.2297,"longitude":21.017532,"reserved":0,"last_update":"0001-01-01T00:00:00Z","name_a2s":"Uncletopia | Warsaw | 4 | All Maps","protocol":17,"map":"koth_highpass","folder":"tf","game":"Team Fortress","app_id":440,"player_count":0,"max_players":24,"Bots":0,"server_type":"Dedicated","server_os":"Linux","password":true,"vac":true,"version":"7882260","steam_id":85568392925397853,"keywords":["cp","nocrits","nodmgspread","uncletopia"],"game_id":440,"stv_port":27046,"stv_name":"Uncletopia | Warsaw | 4 | All Maps | STV","players":null},{"server_id":53,"name":"Uncletopia | Warsaw | 5 | Stopwatch Beta","name_short":"waw-5","host":"waw-1.pl.uncletopia.com","port":27055,"enabled":true,"region":"eu","cc":"pl","latitude":52.2297,"longitude":21.017532,"reserved":0,"last_update":"0001-01-01T00:00:00Z","name_a2s":"Uncletopia | Warsaw | 5 | Stopwatch Beta","protocol":17,"map":"cp_mountainlab","folder":"tf","game":"Team Fortress","app_id":440,"player_count":0,"max_players":24,"Bots":0,"server_type":"Dedicated","server_os":"Linux","password":true,"vac":true,"version":"7882260","steam_id":85568392925397854,"keywords":["cp","nocrits","nodmgspread","uncletopia"],"game_id":440,"stv_port":27056,"stv_name":"Uncletopia | Warsaw | 5 | Stopwatch Beta | STV","players":null},{"server_id":54,"name":"Uncletopia | Warsaw | 6 | Community","name_short":"waw-6","host":"waw-1.pl.uncletopia.com","port":27065,"enabled":true,"region":"eu","cc":"pl","latitude":52.2297,"longitude":21.017532,"reserved":0,"last_update":"0001-01-01T00:00:00Z","name_a2s":"Uncletopia | Warsaw | 6 | Community","protocol":17,"map":"koth_viaduct","folder":"tf","game":"Team Fortress","app_id":440,"player_count":0,"max_players":24,"Bots":0,"server_type":"Dedicated","server_os":"Linux","password":true,"vac":true,"version":"7882260","steam_id":85568392925397856,"keywords":["cp","nocrits","nodmgspread","uncletopia"],"game_id":440,"stv_port":27066,"stv_name":"Uncletopia | Warsaw | 6 | Community | STV","players":null}]}