{"status":true,"message":"","result":[{"server_id":9,"name":"Uncletopia | Atlanta | 1 | All Maps","name_short":"atl-1","host":"atl-1.us.uncletopia.com","port":27015,"enabled":true,"region":"us-east","cc":"us","latitude":33.753746,"longitude":-84.38633,"reserved":0,"last_update":"0001-01-01T00:00:00Z","name_a2s":"Uncletopia | Atlanta | 1 | All Maps","protocol":17,"map":"pl_barnblitz","folder":"tf","game":"Team Fortress","app_id":440,"player_count":24,"max_players":24,"Bots":0,"server_type":"Dedicated","server_os":"Linux","password":true,"vac":true,"version":"7757534","steam_id":85568392924469982,"keywords":["nocrits","nodmgspread","payload","uncletopia"],"game_id":440,"stv_port":27016,"stv_name":"Uncletopia | Atlanta | 1 | All Maps | STV","players":[{"user_id":381,"name":"Dr. Professor PJ, Ph.D","steam_id":76561198004429398,"connected_time":6293000000000,"state":"active","ping":44},{"user_id":441,"name":"SparkStorm","steam_id":76561198095817025,"connected_time":1556000000000,"state":"active","ping":41},{"user_id":415,"name":"chubbbo","steam_id":76561198943598378,"connected_time":3464000000000,"state":"active","ping":39},{"user_id":361,"name":"ATL1 | cola","steam_id":76561198374390458,"connected_time":9041000000000,"state":"active","ping":60},{"user_id":448,"name":"Monkey Mode","steam_id":76561197961267543,"connected_time":1170000000000,"state":"active","ping":56},{"user_id":419,"name":"O'Keearns","steam_id":76561198042213797,"connected_time":3149000000000,"state":"active","ping":46},{"user_id":442,"name":"BoopBerry","steam_id":76561198871571711,"connected_time":1552000000000,"state":"active","ping":74},{"user_id":397,"name":"[txc] garf","steam_id":76561198083078030,"connected_time":4346000000000,"state":"active","ping":59},{"user_id":450,"name":"hoboways","steam_id":76561198168035195,"connected_time":825000000000,"state":"active","ping":90},{"user_id":443,"name":"Shame has deployed the NAVY","steam_id":76561198100490994,"connected_time":1552000000000,"state":"active","ping":61},{"user_id":272,"name":"Flint","steam_id":76561198066547582,"connected_time":16264000000000,"state":"active","ping":116},{"user_id":281,"name":"eish","steam_id":76561198089463603,"connected_time":15377000000000,"state":"active","ping":116},{"user_id":390,"name":"Frost ‚ô•","steam_id":76561198168870617,"connected_time":5649000000000,"state":"active","ping":75},{"user_id":341,"name":"ash","steam_id":76561198127890645,"connected_time":10541000000000,"state":"active","ping":67},{"user_id":456,"name":"Uganda Knuckles lll","steam_id":76561199121276474,"connected_time":317000000000,"state":"active","ping":93},{"user_id":459,"name":"Oddball","steam_id":76561198040440984,"connected_time":0,"state":"connecting","ping":0},{"user_id":453,"name":"melancholy","steam_id":76561198024301465,"connected_time":441000000000,"state":"active","ping":47},{"user_id":420,"name":"paetho YT","steam_id":76561198152690003,"connected_time":3097000000000,"state":"active","ping":48},{"user_id":454,"name":"Intro Bonito","steam_id":76561198119478838,"connected_time":440000000000,"state":"active","ping":50},{"user_id":423,"name":"muzikelretifhbr","steam_id":76561198445169719,"connected_time":2909000000000,"state":"active","ping":112},{"user_id":444,"name":"rose","steam_id":76561198048882285,"connected_time":1549000000000,"state":"active","ping":61},{"user_id":417,"name":"‡∏∏","steam_id":76561198084134025,"connected_time":3338000000000,"state":"active","ping":129},{"user_id":395,"name":"Intestinal Straw","steam_id":76561198082095303,"connected_time":4604000000000,"state":"active","ping":78},{"user_id":446,"name":"the spy behind the healing (F2P","steam_id":76561198854070384,"connected_time":1428000000000,"state":"active","ping":99}]},{"server_id":104,"name":"Uncletopia | Atlanta | 2 | All Maps","name_short":"atl-2","host":"atl-1.us.uncletopia.com","port":27025,"enabled":true,"region":"us-east","cc":"us","latitude":33.753746,"longitude":-84.38633,"reserved":0,"last_update":"0001-01-01T00:00:00Z","name_a2s":"Uncletopia | Atlanta | 2 | All Maps","protocol":17,"map":"pl_upward","folder":"tf","game":"Team Fortress","app_id":440,"player_count":24,"max_players":24,"Bots":0,"server_type":"Dedicated","server_os":"Linux","password":true,"vac":true,"version":"7757534","steam_id":85568392924469983,"keywords":["nocrits","nodmgspread","payload","uncletopia"],"game_id":440,"stv_port":27026,"stv_name":"Uncletopia | Atlanta | 2 | All Maps | STV","players":[{"user_id":308,"name":"joe mama","steam_id":76561198180696981,"connected_time":2797000000000,"state":"active","ping":64},{"user_id":343,"name":"BIG LION","steam_id":76561198091880358,"connected_time":400000000000,"state":"active","ping":62},{"user_id":284,"name":"üê∫-Iwky-ü¶ä","steam_id":76561198185616311,"connected_time":4915000000000,"state":"active","ping":75},{"user_id":352,"name":"Yummy Kabobz","steam_id":76561198067661705,"connected_time":265000000000,"state":"active","ping":59},{"user_id":339,"name":"Crunchy","steam_id":76561199065412274,"connected_time":1092000000000,"state":"active","ping":61},{"user_id":319,"name":"Madrox Who?","steam_id":76561197988859134,"connected_time":1615000000000,"state":"active","ping":86},{"user_id":248,"name":"Kyatoru","steam_id":76561198360597965,"connected_time":7154000000000,"state":"active","ping":143},{"user_id":294,"name":"Nicholas Deckolas","steam_id":76561198005301468,"connected_time":3900000000000,"state":"active","ping":103},{"user_id":273,"name":"paloma","steam_id":76561198066076086,"connected_time":5836000000000,"state":"active","ping":131},{"user_id":341,"name":"DuckMann","steam_id":76561198197058638,"connected_time":424000000000,"state":"active","ping":50},{"user_id":353,"name":"Nate Dogg","steam_id":76561198118760077,"connected_time":116000000000,"state":"active","ping":55},{"user_id":276,"name":"bought this cart for 15 dollars","steam_id":76561198253731826,"connected_time":5790000000000,"state":"active","ping":82},{"user_id":346,"name":"Calcium Deficiency!","steam_id":76561198079508469,"connected_time":368000000000,"state":"active","ping":44},{"user_id":342,"name":"rkp!","steam_id":76561199053070819,"connected_time":412000000000,"state":"active","ping":65},{"user_id":344,"name":"Trucee","steam_id":76561198202560386,"connected_time":399000000000,"state":"active","ping":79},{"user_id":255,"name":"Spiral Mountain","steam_id":76561198058683715,"connected_time":7072000000000,"state":"active","ping":75},{"user_id":347,"name":"Sergeant Joker #savetf2","steam_id":76561198854616604,"connected_time":365000000000,"state":"active","ping":81},{"user_id":348,"name":"4 life","steam_id":76561198175961598,"connected_time":332000000000,"state":"active","ping":105},{"user_id":349,"name":"little_sergeant","steam_id":76561199081927823,"connected_time":328000000000,"state":"active","ping":101},{"user_id":350,"name":"Qwerty","steam_id":76561198023525894,"connected_time":304000000000,"state":"active","ping":179},{"user_id":310,"name":"Mr.Clean(All Purpose Cleaner)","steam_id":76561198208014257,"connected_time":2480000000000,"state":"active","ping":76},{"user_id":351,"name":"Spike Bones","steam_id":76561198234926120,"connected_time":302000000000,"state":"active","ping":91},{"user_id":315,"name":"Just A Red Cultist","steam_id":76561198369543102,"connected_time":1910000000000,"state":"active","ping":91},{"user_id":333,"name":"B0otstrut beel","steam_id":76561198202457221,"connected_time":1252000000000,"state":"active","ping":79}]},{"server_id":400,"name":"Uncletopia | Atlanta | 3 | Community","name_short":"atl-3","host":"atl-1.us.uncletopia.com","port":27035,"enabled":true,"region":"us-east","cc":"us","latitude":33.753746,"longitude":-84.38633,"reserved":0,"last_update":"0001-01-01T00:00:00Z","name_a2s":"Uncletopia | Atlanta | 3 | Community","protocol":17,"map":"workshop/pl_divulgence_b4b.ugc2884808746","folder":"tf","game":"Team Fortress","app_id":440,"player_count":24,"max_players":24,"Bots":0,"server_type":"Dedicated","server_os":"Linux","password":true,"vac":true,"version":"7757534","steam_id":85568392924515187,"keywords":["nocrits","nodmgspread","payload","uncletopia"],"game_id":440,"stv_port":27036,"stv_name":"Uncletopia | Atlanta | 3 | Community | STV","players":[{"user_id":160,"name":"Team Fartpiss Poo","steam_id":76561199163591880,"connected_time":2641000000000,"state":"active","ping":77},{"user_id":132,"name":"Huey","steam_id":76561198972816386,"connected_time":4381000000000,"state":"active","ping":68},{"user_id":161,"name":"INDEX","steam_id":76561198330917111,"connected_time":2624000000000,"state":"active","ping":73},{"user_id":190,"name":"Rin \"Hindwing\" Redtail","steam_id":76561199074865638,"connected_time":164000000000,"state":"active","ping":61},{"user_id":183,"name":"Brass","steam_id":76561198275581643,"connected_time":531000000000,"state":"active","ping":125},{"user_id":176,"name":"Doc Cock","steam_id":76561198314320983,"connected_time":1636000000000,"state":"active","ping":103},{"user_id":177,"name":"Agent 2","steam_id":76561198079416360,"connected_time":1610000000000,"state":"active","ping":67},{"user_id":189,"name":"creamy","steam_id":76561198157435832,"connected_time":231000000000,"state":"active","ping":86},{"user_id":188,"name":"The unsung hero","steam_id":76561199198863237,"connected_time":316000000000,"state":"active","ping":79},{"user_id":180,"name":"Delightful MadCat","steam_id":76561198086178426,"connected_time":651000000000,"state":"active","ping":108},{"user_id":191,"name":"Meme","steam_id":76561198080326037,"connected_time":150000000000,"state":"active","ping":69},{"user_id":182,"name":"Dr. Pleasant","steam_id":76561198111945101,"connected_time":605000000000,"state":"active","ping":98},{"user_id":156,"name":"Trove","steam_id":76561198110970476,"connected_time":2829000000000,"state":"active","ping":37},{"user_id":157,"name":"Coach McFish","steam_id":76561198210456405,"connected_time":2779000000000,"state":"active","ping":112},{"user_id":97,"name":"Lizbeth!","steam_id":76561198134418839,"connected_time":5819000000000,"state":"active","ping":89},{"user_id":102,"name":"Knocker","steam_id":76561198112054551,"connected_time":5756000000000,"state":"active","ping":79},{"user_id":184,"name":"the cool","steam_id":76561198314198356,"connected_time":477000000000,"state":"active","ping":115},{"user_id":192,"name":"Decs","steam_id":76561198825197974,"connected_time":139000000000,"state":"active","ping":170},{"user_id":185,"name":"TI-83 Plus","steam_id":76561198316134443,"connected_time":468000000000,"state":"active","ping":55},{"user_id":114,"name":"2inch","steam_id":76561198082116747,"connected_time":5451000000000,"state":"active","ping":84},{"user_id":186,"name":"Antaurista Ninf√≥mano","steam_id":76561198356939665,"connected_time":466000000000,"state":"active","ping":133},{"user_id":81,"name":"I am a mooshroom","steam_id":76561198104198295,"connected_time":6194000000000,"state":"active","ping":83},{"user_id":187,"name":"JerlBays","steam_id":76561198096773292,"connected_time":434000000000,"state":"active","ping":40},{"user_id":144,"name":"sasharudzik","steam_id":76561199126617781,"connected_time":3674000000000,"state":"active","ping":94}]},{"server_id":401,"name":"Uncletopia | Atlanta | 4 | No Payload","name_short":"atl-4","host":"atl-1.us.uncletopia.com","port":27045,"enabled":true,"region":"us-east","cc":"us","latitude":33.753746,"longitude":-84.38633,"reserved":0,"last_update":"0001-01-01T00:00:00Z","name_a2s":"","protocol":0,"map":"","folder":"","game":"","app_id":0,"player_count":0,"max_players":0,"Bots":0,"server_type":"","server_os":"","password":false,"vac":false,"version":"","steam_id":0,"keywords":null,"game_id":0,"stv_port":0,"stv_name":"","players":null},{"server_id":2,"name":"Uncletopia | Chicago | 1 | All Maps","name_short":"chi-1","host":"chi-1.us.uncletopia.com","port":27015,"enabled":true,"region":"us-central","cc":"us","latitude":41.881832,"longitude":-87.62318,"reserved":0,"last_update":"0001-01-01T00:00:00Z","name_a2s":"Uncletopia | Chicago | 1 | All Maps","protocol":17,"map":"pl_snowycoast","folder":"tf","game":"Team Fortress","app_id":440,"player_count":24,"max_players":24,"Bots":0,"server_type":"Dedicated","server_os":"Linux","password":true,"vac":true,"version":"7757534","steam_id":85568392924469984,"keywords":["nocrits","nodmgspread","payload","uncletopia"],"game_id":440,"stv_port":27016,"stv_name":"Uncletopia | Chicago | 1 | All Maps | STV","players":[{"user_id":622,"name":"Brocklee","steam_id":76561198073953768,"connected_time":8574000000000,"state":"active","ping":60},{"user_id":754,"name":"Convict Police Officers","steam_id":76561197993527275,"connected_time":264000000000,"state":"active","ping":62},{"user_id":751,"name":"Candy Sparkles","steam_id":76561198126871264,"connected_time":319000000000,"state":"active","ping":86},{"user_id":752,"name":"chipperguy","steam_id":76561199060302023,"connected_time":307000000000,"state":"active","ping":83},{"user_id":756,"name":"rE_d0","steam_id":76561198975450630,"connected_time":207000000000,"state":"active","ping":92},{"user_id":753,"name":"mellowhype","steam_id":76561198040675606,"connected_time":306000000000,"state":"active","ping":75},{"user_id":758,"name":"RaPids","steam_id":76561198082496100,"connected_time":108000000000,"state":"active","ping":83},{"user_id":755,"name":"7thhelden","steam_id":76561198297428761,"connected_time":230000000000,"state":"active","ping":66},{"user_id":757,"name":".JIFF","steam_id":76561198045181760,"connected_time":153000000000,"state":"active","ping":61},{"user_id":740,"name":"Tallyden","steam_id":76561197998572962,"connected_time":1118000000000,"state":"active","ping":61},{"user_id":759,"name":"sexgaming_","steam_id":76561198245994746,"connected_time":88000000000,"state":"active","ping":47},{"user_id":749,"name":"Doublebagel47","steam_id":76561198832021744,"connected_time":354000000000,"state":"active","ping":73},{"user_id":760,"name":"Mister36","steam_id":76561198019132100,"connected_time":81000000000,"state":"active","ping":47},{"user_id":556,"name":"super dookie 69","steam_id":76561198300660227,"connected_time":11949000000000,"state":"active","ping":46},{"user_id":743,"name":"Toasty Gyro","steam_id":76561198001026643,"connected_time":690000000000,"state":"active","ping":49},{"user_id":746,"name":"A potato chip @buglan23","steam_id":76561199257746983,"connected_time":621000000000,"state":"active","ping":78},{"user_id":739,"name":"Phaze @buglan23","steam_id":76561198025267071,"connected_time":1374000000000,"state":"active","ping":69},{"user_id":765,"name":"blitzibb","steam_id":76561198109469469,"connected_time":61000000000,"state":"active","ping":120},{"user_id":762,"name":"yomo","steam_id":76561198063175935,"connected_time":69000000000,"state":"active","ping":76},{"user_id":731,"name":"knucklesandwich59","steam_id":76561198120684348,"connected_time":2136000000000,"state":"active","ping":54},{"user_id":730,"name":"Crazed Gunman loose in Walmart","steam_id":76561198413125750,"connected_time":2207000000000,"state":"active","ping":66},{"user_id":764,"name":"GEORGEOFTHEJUNGLE99","steam_id":76561198070923665,"connected_time":63000000000,"state":"active","ping":79},{"user_id":728,"name":"Wang of Wall St","steam_id":76561198047460598,"connected_time":2418000000000,"state":"active","ping":76},{"user_id":766,"name":"Enchanter110","steam_id":76561199017490425,"connected_time":36000000000,"state":"active","ping":90}]},{"server_id":106,"name":"Uncletopia | Chicago | 2 | All Maps","name_short":"chi-2","host":"chi-1.us.uncletopia.com","port":27025,"enabled":true,"region":"us-central","cc":"us","latitude":41.881832,"longitude":-87.62318,"reserved":0,"last_update":"0001-01-01T00:00:00Z","name_a2s":"Uncletopia | Chicago | 2 | All Maps","protocol":17,"map":"pl_pier","folder":"tf","game":"Team Fortress","app_id":440,"player_count":24,"max_players":24,"Bots":0,"server_type":"Dedicated","server_os":"Linux","password":true,"vac":true,"version":"7757534","steam_id":85568392924469985,"keywords":["nocrits","nodmgspread","payload","uncletopia"],"game_id":440,"stv_port":27026,"stv_name":"Uncletopia | Chicago | 2 | All Maps | STV","players":[{"user_id":702,"name":"Jombi","steam_id":76561198427813097,"connected_time":1410000000000,"state":"active","ping":71},{"user_id":705,"name":"Carmine Lupertazzi Jr.","steam_id":76561198059535856,"connected_time":1322000000000,"state":"active","ping":74},{"user_id":695,"name":"countrychefbeerboy92","steam_id":76561198132476501,"connected_time":1718000000000,"state":"active","ping":50},{"user_id":708,"name":"Certified Snoozer","steam_id":76561199005778478,"connected_time":937000000000,"state":"active","ping":57},{"user_id":694,"name":"cotton candy muncher","steam_id":76561198058998371,"connected_time":1873000000000,"state":"active","ping":67},{"user_id":635,"name":"ultralisk52","steam_id":76561198051666604,"connected_time":6656000000000,"state":"active","ping":63},{"user_id":574,"name":"aphexjh","steam_id":76561197985854658,"connected_time":10922000000000,"state":"active","ping":57},{"user_id":713,"name":"PageBoiSkull","steam_id":76561198237353578,"connected_time":169000000000,"state":"active","ping":105},{"user_id":674,"name":"vv","steam_id":76561198134813102,"connected_time":3392000000000,"state":"active","ping":60},{"user_id":706,"name":"SheppoBeppo","steam_id":76561198133734515,"connected_time":1314000000000,"state":"active","ping":63},{"user_id":614,"name":"Pizza","steam_id":76561198118748364,"connected_time":8020000000000,"state":"active","ping":78},{"user_id":687,"name":"XLMasterBlaster","steam_id":76561198106966397,"connected_time":2274000000000,"state":"active","ping":67},{"user_id":707,"name":"Motreir","steam_id":76561198151717946,"connected_time":1005000000000,"state":"active","ping":92},{"user_id":704,"name":"‚òÇBliffenstimmers‚òÇ","steam_id":76561198059984896,"connected_time":1373000000000,"state":"active","ping":86},{"user_id":618,"name":"Makina","steam_id":76561198057475567,"connected_time":7635000000000,"state":"active","ping":81},{"user_id":697,"name":"guess i'll die...virtually","steam_id":76561199112291386,"connected_time":1660000000000,"state":"active","ping":115},{"user_id":698,"name":"lokm","steam_id":76561198030374238,"connected_time":1637000000000,"state":"active","ping":106},{"user_id":645,"name":"Marshall","steam_id":76561198042570322,"connected_time":5378000000000,"state":"active","ping":54},{"user_id":675,"name":"a Salty Individual","steam_id":76561197979951077,"connected_time":3384000000000,"state":"active","ping":130},{"user_id":661,"name":"MAXIMUM OVERDRIVE","steam_id":76561198113992547,"connected_time":4222000000000,"state":"active","ping":78},{"user_id":553,"name":"FortressGamer #SaveTF2","steam_id":76561198144049265,"connected_time":12292000000000,"state":"active","ping":69},{"user_id":678,"name":"kite","steam_id":76561198346516392,"connected_time":2719000000000,"state":"active","ping":66},{"user_id":686,"name":"Silico","steam_id":76561197993814144,"connected_time":2311000000000,"state":"active","ping":56},{"user_id":711,"name":"Vanessa","steam_id":76561198020696265,"connected_time":466000000000,"state":"active","ping":66}]},{"server_id":402,"name":"Uncletopia | Chicago | 3 | All Maps","name_short":"chi-3","host":"chi-1.us.uncletopia.com","port":27035,"enabled":true,"region":"us-central","cc":"us","latitude":41.881832,"longitude":-87.62318,"reserved":0,"last_update":"0001-01-01T00:00:00Z","name_a2s":"Uncletopia | Chicago | 3 | All Maps","protocol":17,"map":"pl_swiftwater_final1","folder":"tf","game":"Team Fortress","app_id":440,"player_count":24,"max_players":24,"Bots":0,"server_type":"Dedicated","server_os":"Linux","password":true,"vac":true,"version":"7757534","steam_id":85568392924515191,"keywords":["nocrits","nodmgspread","payload","uncletopia"],"game_id":440,"stv_port":27036,"stv_name":"Uncletopia | Chicago | 3 | All Maps | STV","players":[{"user_id":205,"name":"matchmatch                     ","steam_id":76561198048925904,"connected_time":1879000000000,"state":"active","ping":114},{"user_id":199,"name":"DarthEthanBoy","steam_id":76561198441643581,"connected_time":1973000000000,"state":"active","ping":72},{"user_id":216,"name":"memeku","steam_id":76561199194985181,"connected_time":1487000000000,"state":"active","ping":59},{"user_id":180,"name":"Brow","steam_id":76561199020794572,"connected_time":4344000000000,"state":"active","ping":150},{"user_id":228,"name":"kivee","steam_id":76561198838223023,"connected_time":504000000000,"state":"active","ping":50},{"user_id":155,"name":"vanilla gorilla","steam_id":76561197989019617,"connected_time":6419000000000,"state":"active","ping":48},{"user_id":222,"name":"Aiden939","steam_id":76561198860530097,"connected_time":1145000000000,"state":"active","ping":83},{"user_id":225,"name":"4+1MyriadFuturesCosMo@BousouFC","steam_id":76561198181929019,"connected_time":1030000000000,"state":"active","ping":50},{"user_id":210,"name":"Deathpill","steam_id":76561197994404793,"connected_time":1703000000000,"state":"active","ping":67},{"user_id":170,"name":"delusional schizophrenic","steam_id":76561198323435040,"connected_time":5310000000000,"state":"active","ping":70},{"user_id":223,"name":"JohhnyFromCali :7","steam_id":76561198044015725,"connected_time":1132000000000,"state":"active","ping":83},{"user_id":229,"name":"Nuwrox1","steam_id":76561198406951007,"connected_time":465000000000,"state":"active","ping":60},{"user_id":226,"name":"girlpeen supreme","steam_id":76561198031242903,"connected_time":947000000000,"state":"active","ping":64},{"user_id":209,"name":"cycoone","steam_id":76561198059745285,"connected_time":1712000000000,"state":"active","ping":59},{"user_id":191,"name":"CHEEKY EUNUCH","steam_id":76561198990825232,"connected_time":2667000000000,"state":"active","ping":62},{"user_id":194,"name":"Fallen_Crusade72","steam_id":76561199239498526,"connected_time":2586000000000,"state":"active","ping":78},{"user_id":206,"name":"Bzamo","steam_id":76561198039883392,"connected_time":1875000000000,"state":"active","ping":60},{"user_id":207,"name":"Bert","steam_id":76561198073902241,"connected_time":1841000000000,"state":"active","ping":75},{"user_id":208,"name":"Thumbs","steam_id":76561199065890132,"connected_time":1840000000000,"state":"active","ping":62},{"user_id":224,"name":"pasta","steam_id":76561198084719895,"connected_time":1064000000000,"state":"active","ping":56},{"user_id":218,"name":"Scoober","steam_id":76561198079736959,"connected_time":1384000000000,"state":"active","ping":85},{"user_id":227,"name":"Bread Baker","steam_id":76561198185335103,"connected_time":618000000000,"state":"active","ping":53},{"user_id":190,"name":"Bottle","steam_id":76561198044031558,"connected_time":2680000000000,"state":"active","ping":71},{"user_id":193,"name":"pickup truck with huge honks","steam_id":76561198111447214,"connected_time":2642000000000,"state":"active","ping":80}]},{"server_id":403,"name":"Uncletopia | Chicago | 4 | All Maps","name_short":"chi-4","host":"chi-1.us.uncletopia.com","port":27045,"enabled":true,"region":"us-central","cc":"us","latitude":41.881832,"longitude":-87.62318,"reserved":0,"last_update":"0001-01-01T00:00:00Z","name_a2s":"Uncletopia | Chicago | 4 | All Maps","protocol":17,"map":"pl_snowycoast","folder":"tf","game":"Team Fortress","app_id":440,"player_count":21,"max_players":24,"Bots":0,"server_type":"Dedicated","server_os":"Linux","password":true,"vac":true,"version":"7757534","steam_id":85568392924515193,"keywords":["nocrits","nodmgspread","payload","uncletopia"],"game_id":440,"stv_port":27046,"stv_name":"Uncletopia | Chicago | 4 | All Maps | STV","players":[{"user_id":353,"name":"MLA Format 9th Edition","steam_id":76561198863997898,"connected_time":1503000000000,"state":"spawning","ping":51},{"user_id":354,"name":"Trusty","steam_id":76561198123441319,"connected_time":1488000000000,"state":"spawning","ping":54},{"user_id":355,"name":"jade","steam_id":76561198055611029,"connected_time":1483000000000,"state":"spawning","ping":53},{"user_id":373,"name":"Poegryn","steam_id":76561198048068532,"connected_time":1000000000,"state":"spawning","ping":36},{"user_id":350,"name":"Midnight Flame","steam_id":76561198279692754,"connected_time":2213000000000,"state":"spawning","ping":79},{"user_id":370,"name":"Kab","steam_id":76561198073503100,"connected_time":80000000000,"state":"spawning","ping":61},{"user_id":351,"name":"Star..","steam_id":76561199472917270,"connected_time":2088000000000,"state":"spawning","ping":114},{"user_id":366,"name":"b.loke","steam_id":76561198371235800,"connected_time":1242000000000,"state":"spawning","ping":61},{"user_id":372,"name":"Kaluka","steam_id":76561198036861445,"connected_time":15000000000,"state":"spawning","ping":64},{"user_id":367,"name":"AJTarcza","steam_id":76561198070800190,"connected_time":751000000000,"state":"spawning","ping":61},{"user_id":358,"name":"Bad Medic Buddy","steam_id":76561198093222632,"connected_time":1473000000000,"state":"spawning","ping":96},{"user_id":359,"name":"La Leche","steam_id":76561198319119844,"connected_time":1468000000000,"state":"spawning","ping":72},{"user_id":334,"name":"turd ferguson","steam_id":76561198071620782,"connected_time":2851000000000,"state":"spawning","ping":75},{"user_id":360,"name":"Gods Silliest Soldier","steam_id":76561198147242655,"connected_time":1440000000000,"state":"spawning","ping":58},{"user_id":339,"name":"Flowers","steam_id":76561198031669899,"connected_time":2654000000000,"state":"spawning","ping":76},{"user_id":361,"name":"Emperor Dankatine","steam_id":76561198044741086,"connected_time":1431000000000,"state":"spawning","ping":68},{"user_id":369,"name":"Aegis XIII","steam_id":76561198295006002,"connected_time":443000000000,"state":"spawning","ping":57},{"user_id":364,"name":"Kyras","steam_id":76561198064932465,"connected_time":1366000000000,"state":"spawning","ping":47},{"user_id":304,"name":"lemn","steam_id":76561198177305950,"connected_time":4210000000000,"state":"spawning","ping":59},{"user_id":240,"name":"cyber.genius","steam_id":76561198034121017,"connected_time":6917000000000,"state":"spawning","ping":68}]},{"server_id":36,"name":"Uncletopia | Chicago | 5 | All Maps","name_short":"chi-5","host":"chi-2.us.uncletopia.com","port":27015,"enabled":true,"region":"us-central","cc":"us","latitude":41.881832,"longitude":-87.62318,"reserved":0,"last_update":"0001-01-01T00:00:00Z","name_a2s":"Uncletopia | Chicago | 5 | All Maps","protocol":17,"map":"ctf_2fort","folder":"tf","game":"Team Fortress","app_id":440,"player_count":15,"max_players":24,"Bots":0,"server_type":"Dedicated","server_os":"Linux","password":true,"vac":true,"version":"7757534","steam_id":85568392924866362,"keywords":["ctf","nocrits","nodmgspread","uncletopia"],"game_id":440,"stv_port":27016,"stv_name":"Uncletopia | Chicago | 5 | All Maps | STV","players":[{"user_id":184,"name":"Vanilla","steam_id":76561199202761955,"connected_time":7818000000000,"state":"active","ping":59},{"user_id":249,"name":"crypt","steam_id":76561198280142450,"connected_time":2309000000000,"state":"active","ping":60},{"user_id":192,"name":"Rein","steam_id":76561198300340427,"connected_time":6733000000000,"state":"active","ping":60},{"user_id":260,"name":"Regice","steam_id":76561198049860998,"connected_time":1900000000000,"state":"active","ping":75},{"user_id":254,"name":"c","steam_id":76561199215821942,"connected_time":2190000000000,"state":"active","ping":73},{"user_id":267,"name":"MachineOfMachinesOfMachinesOf$\u0026","steam_id":76561198258143103,"connected_time":340000000000,"state":"active","ping":53},{"user_id":216,"name":"AYAYA!!!","steam_id":76561198992102180,"connected_time":4806000000000,"state":"active","ping":45},{"user_id":255,"name":"cooltool21","steam_id":76561197996817585,"connected_time":2185000000000,"state":"active","ping":76},{"user_id":222,"name":"(¬¥-Œπ_-ÔΩÄ)","steam_id":76561198007464245,"connected_time":4608000000000,"state":"active","ping":72},{"user_id":261,"name":"Registeel","steam_id":76561198068516556,"connected_time":1335000000000,"state":"active","ping":104},{"user_id":264,"name":"who is gavin?","steam_id":76561198069415057,"connected_time":1257000000000,"state":"active","ping":62},{"user_id":265,"name":"Regirock","steam_id":76561198272041827,"connected_time":490000000000,"state":"active","ping":87},{"user_id":256,"name":"meggie","steam_id":76561198038291026,"connected_time":2181000000000,"state":"active","ping":59},{"user_id":257,"name":"Scorpie Doodle","steam_id":76561198021845763,"connected_time":2167000000000,"state":"active","ping":60},{"user_id":206,"name":"Adam (Cursed Confetti Creature)","steam_id":76561198317690197,"connected_time":5441000000000,"state":"active","ping":49}]},{"server_id":37,"name":"Uncletopia | Chicago | 6 | All Maps","name_short":"chi-6","host":"chi-2.us.uncletopia.com","port":27025,"enabled":true,"region":"us-central","cc":"us","latitude":41.881832,"longitude":-87.62318,"reserved":0,"last_update":"0001-01-01T00:00:00Z","name_a2s":"Uncletopia | Chicago | 6 | All Maps","protocol":17,"map":"pl_badwater","folder":"tf","game":"Team Fortress","app_id":440,"player_count":24,"max_players":24,"Bots":0,"server_type":"Dedicated","server_os":"Linux","password":true,"vac":true,"version":"7757534","steam_id":85568392924866363,"keywords":["nocrits","nodmgspread","payload","uncletopia"],"game_id":440,"stv_port":27026,"stv_name":"Uncletopia | Chicago | 6 | All Maps | STV","players":[{"user_id":561,"name":"soup","steam_id":76561198099977572,"connected_time":1698000000000,"state":"active","ping":60},{"user_id":559,"name":"farteater22","steam_id":76561198848710113,"connected_time":1971000000000,"state":"active","ping":87},{"user_id":562,"name":"Bigge cheese the 3rd","steam_id":76561198860975325,"connected_time":1682000000000,"state":"active","ping":69},{"user_id":575,"name":"Emails","steam_id":76561198836919458,"connected_time":1279000000000,"state":"active","ping":74},{"user_id":582,"name":"diarrhea.daniel (gamer)","steam_id":76561198117148323,"connected_time":730000000000,"state":"active","ping":62},{"user_id":570,"name":"Propaniac Gaming ‚òë","steam_id":76561198133963270,"connected_time":1521000000000,"state":"active","ping":54},{"user_id":587,"name":"RASTAPEEK","steam_id":76561198098284483,"connected_time":126000000000,"state":"active","ping":50},{"user_id":474,"name":"flappyflap2","steam_id":76561198285048973,"connected_time":5959000000000,"state":"active","ping":65},{"user_id":571,"name":"Sockhead","steam_id":76561198253181773,"connected_time":1502000000000,"state":"active","ping":85},{"user_id":585,"name":"Punished Kong","steam_id":76561198973620882,"connected_time":689000000000,"state":"active","ping":85},{"user_id":556,"name":"A pack of feral hogs","steam_id":76561198374279594,"connected_time":2422000000000,"state":"active","ping":85},{"user_id":565,"name":"saga","steam_id":76561198130671890,"connected_time":1608000000000,"state":"active","ping":53},{"user_id":573,"name":":(","steam_id":76561198347969061,"connected_time":1370000000000,"state":"active","ping":64},{"user_id":523,"name":"crashymicsplody","steam_id":76561198213916765,"connected_time":4133000000000,"state":"active","ping":73},{"user_id":583,"name":"Kindagoodplayer","steam_id":76561198814625843,"connected_time":724000000000,"state":"active","ping":74},{"user_id":574,"name":"Retro Phoenix","steam_id":76561198077176271,"connected_time":1342000000000,"state":"active","ping":65},{"user_id":535,"name":"Wilhelmktx","steam_id":76561198158102295,"connected_time":3324000000000,"state":"active","ping":63},{"user_id":551,"name":"Razz","steam_id":76561198158027533,"connected_time":2641000000000,"state":"active","ping":52},{"user_id":578,"name":"Hunter Biden's laptop","steam_id":76561199475829930,"connected_time":1157000000000,"state":"active","ping":88},{"user_id":524,"name":"deathstar0611","steam_id":76561198120476410,"connected_time":4115000000000,"state":"active","ping":107},{"user_id":586,"name":"No Step on Snek","steam_id":76561198296084765,"connected_time":686000000000,"state":"active","ping":76},{"user_id":584,"name":"‚ô•RizaTiz‚ô•","steam_id":76561198165274309,"connected_time":715000000000,"state":"active","ping":144},{"user_id":588,"name":"froGG moist #fluorine","steam_id":76561198301176077,"connected_time":119000000000,"state":"active","ping":108},{"user_id":560,"name":"jolo","steam_id":76561198042831480,"connected_time":1843000000000,"state":"active","ping":70}]},{"server_id":38,"name":"Uncletopia | Chicago | 7 | Stopwatch Beta","name_short":"chi-7","host":"chi-2.us.uncletopia.com","port":27035,"enabled":true,"region":"us-central","cc":"us","latitude":41.881832,"longitude":-87.62318,"reserved":0,"last_update":"0001-01-01T00:00:00Z","name_a2s":"Uncletopia | Chicago | 7 | Stopwatch Beta","protocol":17,"map":"workshop/koth_bagel_rc6.ugc2514036946","folder":"tf","game":"Team Fortress","app_id":440,"player_count":23,"max_players":24,"Bots":0,"server_type":"Dedicated","server_os":"Linux","password":true,"vac":true,"version":"7757534","steam_id":85568392924866364,"keywords":["cp","nocrits","nodmgspread","uncletopia"],"game_id":440,"stv_port":27036,"stv_name":"Uncletopia | Chicago | 7 | Stopwatch Beta | STV","players":[{"user_id":11,"name":"Piyono","steam_id":76561197962188504,"connected_time":7218000000000,"state":"active","ping":71},{"user_id":147,"name":"ms. capgras","steam_id":76561199080209996,"connected_time":1013000000000,"state":"active","ping":49},{"user_id":164,"name":"Santamen","steam_id":76561198119478199,"connected_time":69000000000,"state":"active","ping":65},{"user_id":154,"name":"FullMetalHanson","steam_id":76561198149565623,"connected_time":905000000000,"state":"active","ping":51},{"user_id":152,"name":"mEch114","steam_id":76561198236936060,"connected_time":910000000000,"state":"active","ping":70},{"user_id":160,"name":"DolphiN | RGL.gg","steam_id":76561198048614515,"connected_time":323000000000,"state":"active","ping":60},{"user_id":118,"name":"Swifgz","steam_id":76561198162875756,"connected_time":3382000000000,"state":"active","ping":57},{"user_id":138,"name":"poop tbh ring","steam_id":76561198056186750,"connected_time":1729000000000,"state":"active","ping":46},{"user_id":145,"name":"too many puppies","steam_id":76561198000564263,"connected_time":1027000000000,"state":"active","ping":69},{"user_id":79,"name":"proud owner of a large tongue","steam_id":76561198106690989,"connected_time":5364000000000,"state":"active","ping":73},{"user_id":141,"name":"malarkeyman","steam_id":76561198844473584,"connected_time":1393000000000,"state":"active","ping":63},{"user_id":161,"name":"GamerMan","steam_id":76561199058616824,"connected_time":319000000000,"state":"active","ping":75},{"user_id":156,"name":"give me spaghetti","steam_id":76561198010019214,"connected_time":840000000000,"state":"active","ping":47},{"user_id":151,"name":"Dr Golden","steam_id":76561198829184327,"connected_time":957000000000,"state":"active","ping":153},{"user_id":155,"name":"Soldier of the Monolith","steam_id":76561198263083789,"connected_time":897000000000,"state":"active","ping":97},{"user_id":135,"name":"CJspellsfish","steam_id":76561198277342368,"connected_time":1981000000000,"state":"active","ping":75},{"user_id":116,"name":"Galactamarx","steam_id":76561198028065755,"connected_time":3500000000000,"state":"active","ping":116},{"user_id":139,"name":"derdds","steam_id":76561198034339940,"connected_time":1715000000000,"state":"active","ping":60},{"user_id":77,"name":"Highground","steam_id":76561199197544789,"connected_time":5396000000000,"state":"active","ping":109},{"user_id":99,"name":"java","steam_id":76561198030276792,"connected_time":3964000000000,"state":"active","ping":60},{"user_id":158,"name":"Burt Awesome","steam_id":76561198358776768,"connected_time":802000000000,"state":"active","ping":55},{"user_id":140,"name":"Creme","steam_id":76561198034166729,"connected_time":1622000000000,"state":"active","ping":81},{"user_id":163,"name":"clover_pirate","steam_id":76561199165896684,"connected_time":289000000000,"state":"active","ping":82}]},{"server_id":39,"name":"Uncletopia | Chicago | 8 | Community","name_short":"chi-8","host":"chi-2.us.uncletopia.com","port":27045,"enabled":true,"region":"us-central","cc":"us","latitude":41.881832,"longitude":-87.62318,"reserved":0,"last_update":"0001-01-01T00:00:00Z","name_a2s":"Uncletopia | Chicago | 8 | Community","protocol":17,"map":"workshop/pl_corrode_rc2.ugc546577989","folder":"tf","game":"Team Fortress","app_id":440,"player_count":5,"max_players":24,"Bots":0,"server_type":"Dedicated","server_os":"Linux","password":true,"vac":true,"version":"7757534","steam_id":85568392924866365,"keywords":["nocrits","nodmgspread","payload","uncletopia"],"game_id":440,"stv_port":27046,"stv_name":"Uncletopia | Chicago | 8 | Community | STV","players":[{"user_id":10,"name":"Burgmond","steam_id":76561198105619119,"connected_time":356000000000,"state":"active","ping":113},{"user_id":11,"name":"SuperHyperUltra META_mahn","steam_id":76561198062597139,"connected_time":354000000000,"state":"active","ping":45},{"user_id":12,"name":"[JTG] AlexHart","steam_id":76561198124357533,"connected_time":322000000000,"state":"active","ping":82},{"user_id":14,"name":"MostlyEmptyWallet","steam_id":76561198044555441,"connected_time":295000000000,"state":"active","ping":74},{"user_id":15,"name":"Koishily","steam_id":76561198140549752,"connected_time":137000000000,"state":"active","ping":66}]},{"server_id":8,"name":"Uncletopia | Dallas | 1 | All Maps","name_short":"dal-1","host":"dal-1.us.uncletopia.com","port":27015,"enabled":true,"region":"us-central","cc":"us","latitude":32.779167,"longitude":-96.80889,"reserved":0,"last_update":"0001-01-01T00:00:00Z","name_a2s":"Uncletopia | Dallas | 1 | All Maps","protocol":17,"map":"pl_frontier_final","folder":"tf","game":"Team Fortress","app_id":440,"player_count":24,"max_players":24,"Bots":0,"server_type":"Dedicated","server_os":"Linux","password":true,"vac":true,"version":"7757534","steam_id":85568392924469986,"keywords":["nocrits","nodmgspread","payload","uncletopia"],"game_id":440,"stv_port":27016,"stv_name":"Uncletopia | Dallas | 1 | All Maps | STV","players":[{"user_id":656,"name":"Chief Diggery K.","steam_id":76561198066629137,"connected_time":2866000000000,"state":"active","ping":84},{"user_id":631,"name":"ChefMike","steam_id":76561198414034069,"connected_time":5519000000000,"state":"active","ping":89},{"user_id":666,"name":"Dylan","steam_id":76561198265522923,"connected_time":1137000000000,"state":"active","ping":45},{"user_id":667,"name":"spy","steam_id":76561198937717599,"connected_time":1029000000000,"state":"active","ping":36},{"user_id":669,"name":"Chapter Master","steam_id":76561198799698323,"connected_time":966000000000,"state":"active","ping":93},{"user_id":626,"name":"Heavy Main","steam_id":76561198333746778,"connected_time":5614000000000,"state":"active","ping":98},{"user_id":677,"name":"Smoopy","steam_id":76561198068485493,"connected_time":389000000000,"state":"active","ping":39},{"user_id":678,"name":"DannyM","steam_id":76561198351165570,"connected_time":272000000000,"state":"active","ping":39},{"user_id":607,"name":"StrangerHYP","steam_id":76561198395336752,"connected_time":7649000000000,"state":"active","ping":98},{"user_id":671,"name":"Boiba Fett","steam_id":76561198027511884,"connected_time":949000000000,"state":"active","ping":97},{"user_id":635,"name":"FoxySnxp","steam_id":76561199189748718,"connected_time":5363000000000,"state":"active","ping":87},{"user_id":668,"name":"Melon567","steam_id":76561198844559035,"connected_time":979000000000,"state":"active","ping":112},{"user_id":663,"name":"bathroom floor taste tester","steam_id":76561198408761691,"connected_time":2092000000000,"state":"active","ping":88},{"user_id":642,"name":"the dinner","steam_id":76561198852858084,"connected_time":4298000000000,"state":"active","ping":93},{"user_id":598,"name":"RokkitFrog","steam_id":76561198046465850,"connected_time":8491000000000,"state":"active","ping":48},{"user_id":623,"name":"Roland_Actual","steam_id":76561198103212376,"connected_time":6015000000000,"state":"active","ping":88},{"user_id":641,"name":"Edboi","steam_id":76561198117849098,"connected_time":4342000000000,"state":"active","ping":79},{"user_id":648,"name":"im so hungry.., ,,.","steam_id":76561199009660013,"connected_time":3913000000000,"state":"active","ping":87},{"user_id":672,"name":"0x01FE","steam_id":76561198838881917,"connected_time":604000000000,"state":"active","ping":66},{"user_id":660,"name":"Frog King","steam_id":76561197965022076,"connected_time":2612000000000,"state":"active","ping":77},{"user_id":675,"name":"allSparky | trade.tf","steam_id":76561198169399621,"connected_time":482000000000,"state":"active","ping":68},{"user_id":664,"name":":]","steam_id":76561198974015618,"connected_time":1881000000000,"state":"active","ping":83},{"user_id":665,"name":"Spooky Daddy","steam_id":76561198359279278,"connected_time":1692000000000,"state":"active","ping":79},{"user_id":655,"name":"HONEY BOO BUSCEMI","steam_id":76561198379980749,"connected_time":2928000000000,"state":"active","ping":76}]},{"server_id":108,"name":"Uncletopia | Dallas | 2 | All Maps","name_short":"dal-2","host":"dal-1.us.uncletopia.com","port":27025,"enabled":true,"region":"us-central","cc":"us","latitude":32.779167,"longitude":-96.80889,"reserved":0,"last_update":"0001-01-01T00:00:00Z","name_a2s":"Uncletopia | Dallas | 2 | All Maps","protocol":17,"map":"cp_powerhouse","folder":"tf","game":"Team Fortress","app_id":440,"player_count":24,"max_players":24,"Bots":0,"server_type":"Dedicated","server_os":"Linux","password":true,"vac":true,"version":"7757534","steam_id":85568392924469988,"keywords":["cp","nocrits","nodmgspread","uncletopia"],"game_id":440,"stv_port":27026,"stv_name":"Uncletopia | Dallas | 2 | All Maps | STV","players":[{"user_id":629,"name":"langcharlie25","steam_id":76561199203225749,"connected_time":2266000000000,"state":"active","ping":54},{"user_id":661,"name":"SPREAD SPRING GROWTH AND WARMTH","steam_id":76561198800386026,"connected_time":163000000000,"state":"active","ping":106},{"user_id":559,"name":"Sir.TopHats","steam_id":76561198267326839,"connected_time":7320000000000,"state":"active","ping":68},{"user_id":604,"name":"Outlander","steam_id":76561197998995746,"connected_time":3670000000000,"state":"active","ping":82},{"user_id":655,"name":"Floating Peasant","steam_id":76561198000183671,"connected_time":1170000000000,"state":"active","ping":55},{"user_id":622,"name":"EatSports","steam_id":76561198009384115,"connected_time":2809000000000,"state":"active","ping":55},{"user_id":656,"name":"Spectre","steam_id":76561198025652246,"connected_time":1119000000000,"state":"active","ping":51},{"user_id":658,"name":"frank","steam_id":76561198045436159,"connected_time":332000000000,"state":"active","ping":91},{"user_id":640,"name":"tonyforshyr","steam_id":76561198846474978,"connected_time":2042000000000,"state":"active","ping":62},{"user_id":616,"name":"rach9411","steam_id":76561198256535721,"connected_time":3129000000000,"state":"active","ping":143},{"user_id":644,"name":"MeMyBongusAndTheGreatOutdoors","steam_id":76561198097708978,"connected_time":1733000000000,"state":"active","ping":69},{"user_id":647,"name":"Skyblade64","steam_id":76561198042177790,"connected_time":1647000000000,"state":"active","ping":60},{"user_id":562,"name":"Ghaeril","steam_id":76561198047880019,"connected_time":6805000000000,"state":"active","ping":61},{"user_id":657,"name":"St. Michael","steam_id":76561198037611052,"connected_time":365000000000,"state":"active","ping":44},{"user_id":648,"name":"wakeupbdot","steam_id":76561198160786631,"connected_time":1611000000000,"state":"active","ping":74},{"user_id":607,"name":"Bones0010","steam_id":76561198096186958,"connected_time":3646000000000,"state":"active","ping":62},{"user_id":651,"name":"A Spooky Ghost","steam_id":76561198028233698,"connected_time":1418000000000,"state":"active","ping":100},{"user_id":586,"name":"A Gamer [F2P]","steam_id":76561198138712892,"connected_time":5358000000000,"state":"active","ping":52},{"user_id":634,"name":"anoobis","steam_id":76561199120731573,"connected_time":2166000000000,"state":"active","ping":72},{"user_id":653,"name":"carol in HR","steam_id":76561198071775268,"connected_time":1347000000000,"state":"active","ping":72},{"user_id":650,"name":"Arrluk","steam_id":76561198396679452,"connected_time":1470000000000,"state":"active","ping":70},{"user_id":659,"name":"FI LO","steam_id":76561198976530881,"connected_time":275000000000,"state":"active","ping":73},{"user_id":660,"name":"Hedsik","steam_id":76561198045797773,"connected_time":257000000000,"state":"active","ping":52},{"user_id":628,"name":"-BRH- Tangled up in Bluegrass","steam_id":76561197987181139,"connected_time":2450000000000,"state":"active","ping":88}]},{"server_id":5,"name":"Uncletopia | Frankfurt | 1 | All Maps","name_short":"frk-1","host":"frk-1.de.uncletopia.com","port":27015,"enabled":true,"region":"eu","cc":"de","latitude":50.110924,"longitude":8.682127,"reserved":0,"last_update":"0001-01-01T00:00:00Z","name_a2s":"Uncletopia | Frankfurt | 1 | All Maps","protocol":17,"map":"pl_barnblitz","folder":"tf","game":"Team Fortress","app_id":440,"player_count":0,"max_players":24,"Bots":0,"server_type":"Dedicated","server_os":"Linux","password":true,"vac":true,"version":"7757534","steam_id":85568392924469989,"keywords":["nocrits","nodmgspread","payload","uncletopia"],"game_id":440,"stv_port":27016,"stv_name":"Uncletopia | Frankfurt | 1 | All Maps | STV","players":null},{"server_id":110,"name":"Uncletopia | Frankfurt | 2 | All Maps","name_short":"frk-2","host":"frk-1.de.uncletopia.com","port":27025,"enabled":true,"region":"eu","cc":"de","latitude":50.110924,"longitude":8.682127,"reserved":0,"last_update":"0001-01-01T00:00:00Z","name_a2s":"Uncletopia | Frankfurt | 2 | All Maps","protocol":17,"map":"koth_viaduct","folder":"tf","game":"Team Fortress","app_id":440,"player_count":0,"max_players":24,"Bots":0,"server_type":"Dedicated","server_os":"Linux","password":true,"vac":true,"version":"7757534","steam_id":85568392924469990,"keywords":["cp","nocrits","nodmgspread","uncletopia"],"game_id":440,"stv_port":27026,"stv_name":"Uncletopia | Frankfurt | 2 | All Maps | STV","players":null},{"server_id":308,"name":"Uncletopia | Frankfurt | 3 | All Maps","name_short":"frk-3","host":"frk-1.de.uncletopia.com","port":27035,"enabled":true,"region":"eu","cc":"de","latitude":50.110924,"longitude":8.682127,"reserved":0,"last_update":"0001-01-01T00:00:00Z","name_a2s":"Uncletopia | Frankfurt | 3 | All Maps","protocol":17,"map":"koth_highpass","folder":"tf","game":"Team Fortress","app_id":440,"player_count":0,"max_players":24,"Bots":0,"server_type":"Dedicated","server_os":"Linux","password":true,"vac":true,"version":"7757534","steam_id":85568392924504274,"keywords":["cp","nocrits","nodmgspread","uncletopia"],"game_id":440,"stv_port":27036,"stv_name":"Uncletopia | Frankfurt | 3 | All Maps | STV","players":null},{"server_id":309,"name":"Uncletopia | Frankfurt | 4 | All Maps","name_short":"frk-4","host":"frk-1.de.uncletopia.com","port":27045,"enabled":true,"region":"eu","cc":"de","latitude":50.110924,"longitude":8.682127,"reserved":0,"last_update":"0001-01-01T00:00:00Z","name_a2s":"Uncletopia | Frankfurt | 4 | All Maps","protocol":17,"map":"koth_viaduct","folder":"tf","game":"Team Fortress","app_id":440,"player_count":4,"max_players":24,"Bots":0,"server_type":"Dedicated","server_os":"Linux","password":true,"vac":true,"version":"7757534","steam_id":85568392924504275,"keywords":["cp","nocrits","nodmgspread","uncletopia"],"game_id":440,"stv_port":27046,"stv_name":"Uncletopia | Frankfurt | 4 | All Maps | STV","players":[{"user_id":36,"name":"Truegr","steam_id":76561198811912339,"connected_time":5159000000000,"state":"active","ping":62},{"user_id":37,"name":"fried","steam_id":76561198307522022,"connected_time":5136000000000,"state":"active","ping":41},{"user_id":38,"name":"horror","steam_id":76561199217432438,"connected_time":2895000000000,"state":"active","ping":210},{"user_id":40,"name":"the person \u003e:)","steam_id":76561198992372174,"connected_time":384000000000,"state":"active","ping":206}]},{"server_id":310,"name":"Uncletopia | Frankfurt | 5 | All Maps","name_short":"frk-5","host":"frk-1.de.uncletopia.com","port":27055,"enabled":true,"region":"eu","cc":"de","latitude":50.110924,"longitude":8.682127,"reserved":0,"last_update":"0001-01-01T00:00:00Z","name_a2s":"Uncletopia | Frankfurt | 5 | All Maps","protocol":17,"map":"cp_process_final","folder":"tf","game":"Team Fortress","app_id":440,"player_count":0,"max_players":24,"Bots":0,"server_type":"Dedicated","server_os":"Linux","password":true,"vac":true,"version":"7757534","steam_id":85568392924504277,"keywords":["cp","nocrits","nodmgspread","uncletopia"],"game_id":440,"stv_port":27056,"stv_name":"Uncletopia | Frankfurt | 5 | All Maps | STV","players":null},{"server_id":311,"name":"Uncletopia | Frankfurt | 6 | All Maps","name_short":"frk-6","host":"frk-1.de.uncletopia.com","port":27065,"enabled":true,"region":"eu","cc":"de","latitude":50.110924,"longitude":8.682127,"reserved":0,"last_update":"0001-01-01T00:00:00Z","name_a2s":"Uncletopia | Frankfurt | 6 | All Maps","protocol":17,"map":"cp_dustbowl","folder":"tf","game":"Team Fortress","app_id":440,"player_count":16,"max_players":24,"Bots":0,"server_type":"Dedicated","server_os":"Linux","password":true,"vac":true,"version":"7757534","steam_id":85568392924504278,"keywords":["cp","nocrits","nodmgspread","uncletopia"],"game_id":440,"stv_port":27066,"stv_name":"Uncletopia | Frankfurt | 6 | All Maps | STV","players":[{"user_id":952,"name":"Borat","steam_id":76561198122226417,"connected_time":88000000000,"state":"active","ping":58},{"user_id":947,"name":"AIDS GIRAFFE","steam_id":76561198010525744,"connected_time":455000000000,"state":"active","ping":139},{"user_id":931,"name":"Kodutah","steam_id":76561198203405574,"connected_time":1874000000000,"state":"active","ping":84},{"user_id":929,"name":"Weeb","steam_id":76561198000079495,"connected_time":1999000000000,"state":"active","ping":61},{"user_id":922,"name":"Turtle Fuckers 2","steam_id":76561198071938027,"connected_time":2913000000000,"state":"active","ping":59},{"user_id":932,"name":"dnl","steam_id":76561198074156929,"connected_time":1641000000000,"state":"active","ping":84},{"user_id":951,"name":"ÎãπÏã†Ïùò ÏóÑÎßàÎ•ºÌñàÎã§","steam_id":76561198017114970,"connected_time":242000000000,"state":"active","ping":48},{"user_id":949,"name":"jones","steam_id":76561198044434971,"connected_time":398000000000,"state":"active","ping":60},{"user_id":950,"name":"Jukes","steam_id":76561198050101585,"connected_time":393000000000,"state":"active","ping":89},{"user_id":923,"name":"Lau","steam_id":76561197993573576,"connected_time":2729000000000,"state":"active","ping":91},{"user_id":927,"name":"frosty","steam_id":76561198094560834,"connected_time":2152000000000,"state":"active","ping":59},{"user_id":936,"name":"New","steam_id":76561198402195911,"connected_time":1486000000000,"state":"active","ping":120},{"user_id":944,"name":"kbbq","steam_id":76561198346638308,"connected_time":926000000000,"state":"active","ping":59},{"user_id":945,"name":"PK.TR","steam_id":76561198307037169,"connected_time":753000000000,"state":"active","ping":63},{"user_id":875,"name":"PSHH YOBA","steam_id":76561197999869136,"connected_time":6812000000000,"state":"active","ping":82}]},{"server_id":23,"name":"Uncletopia | Frankfurt | 7 | Stopwatch Beta","name_short":"frk-7","host":"frk-1.de.uncletopia.com","port":27075,"enabled":true,"region":"eu","cc":"de","latitude":50.110924,"longitude":8.682127,"reserved":0,"last_update":"0001-01-01T00:00:00Z","name_a2s":"Uncletopia | Frankfurt | 7 | Stopwatch Beta","protocol":17,"map":"cp_metalworks","folder":"tf","game":"Team Fortress","app_id":440,"player_count":0,"max_players":24,"Bots":0,"server_type":"Dedicated","server_os":"Linux","password":true,"vac":true,"version":"7757534","steam_id":85568392924742827,"keywords":["cp","nocrits","nodmgspread","uncletopia"],"game_id":440,"stv_port":27076,"stv_name":"Uncletopia | Frankfurt | 7 | Stopwatch Beta | STV","players":null},{"server_id":24,"name":"Uncletopia | Frankfurt | 8 | Community","name_short":"frk-8","host":"frk-1.de.uncletopia.com","port":27085,"enabled":true,"region":"eu","cc":"de","latitude":50.110924,"longitude":8.682127,"reserved":0,"last_update":"0001-01-01T00:00:00Z","name_a2s":"Uncletopia | Frankfurt | 8 | Community","protocol":17,"map":"workshop/koth_synthetic_rc6a.ugc1549817316","folder":"tf","game":"Team Fortress","app_id":440,"player_count":0,"max_players":24,"Bots":0,"server_type":"Dedicated","server_os":"Linux","password":true,"vac":true,"version":"7757534","steam_id":85568392924742828,"keywords":["cp","nocrits","nodmgspread","uncletopia"],"game_id":440,"stv_port":27086,"stv_name":"Uncletopia | Frankfurt | 8 | Community | STV","players":null},{"server_id":202,"name":"Uncletopia | Hong Kong | 1 | All Maps","name_short":"hgk-1","host":"hgk-1.hk.uncletopia.com","port":27015,"enabled":true,"region":"asia","cc":"hk","latitude":22.302711,"longitude":114.177216,"reserved":0,"last_update":"0001-01-01T00:00:00Z","name_a2s":"Uncletopia | Hong Kong | 1 | All Maps","protocol":17,"map":"koth_nucleus","folder":"tf","game":"Team Fortress","app_id":440,"player_count":0,"max_players":24,"Bots":0,"server_type":"Dedicated","server_os":"Linux","password":true,"vac":true,"version":"7757534","steam_id":85568392924494504,"keywords":["cp","nocrits","nodmgspread","uncletopia"],"game_id":440,"stv_port":27016,"stv_name":"Uncletopia | Hong Kong | 1 | All Maps | STV","players":null},{"server_id":1,"name":"Uncletopia | Los Angeles | 1 | All Maps","name_short":"lax-1","host":"lax-1.us.uncletopia.com","port":27015,"enabled":true,"region":"us-west","cc":"us","latitude":33.94279,"longitude":-118.41004,"reserved":0,"last_update":"0001-01-01T00:00:00Z","name_a2s":"Uncletopia | Los Angeles | 1 | All Maps","protocol":17,"map":"pl_thundermountain","folder":"tf","game":"Team Fortress","app_id":440,"player_count":24,"max_players":24,"Bots":0,"server_type":"Dedicated","server_os":"Linux","password":true,"vac":true,"version":"7757534","steam_id":85568392924469991,"keywords":["nocrits","nodmgspread","payload","uncletopia"],"game_id":440,"stv_port":27016,"stv_name":"Uncletopia | Los Angeles | 1 | All Maps | STV","players":[{"user_id":175,"name":"t","steam_id":76561198175988929,"connected_time":2743000000000,"state":"active","ping":83},{"user_id":197,"name":"Op banana","steam_id":76561198303231451,"connected_time":1168000000000,"state":"active","ping":76},{"user_id":147,"name":"Blankrq","steam_id":76561198261030763,"connected_time":4629000000000,"state":"active","ping":69},{"user_id":185,"name":"spherewithahat","steam_id":76561199122192660,"connected_time":2006000000000,"state":"active","ping":126},{"user_id":167,"name":"Bomb Squirtle‚Ñ¢","steam_id":76561197998931145,"connected_time":3025000000000,"state":"active","ping":136},{"user_id":186,"name":"NFL.com","steam_id":76561198113405376,"connected_time":1987000000000,"state":"active","ping":47},{"user_id":201,"name":"Chris P. Wiener","steam_id":76561198168808551,"connected_time":599000000000,"state":"active","ping":95},{"user_id":199,"name":"Fantastic Mr. Fox Appreciator","steam_id":76561198096306325,"connected_time":890000000000,"state":"active","ping":109},{"user_id":169,"name":"Sir_Cheddar","steam_id":76561198132354554,"connected_time":2997000000000,"state":"active","ping":50},{"user_id":187,"name":"BruhMoment","steam_id":76561199213415134,"connected_time":1971000000000,"state":"active","ping":67},{"user_id":198,"name":"riSygneD","steam_id":76561198331618687,"connected_time":1159000000000,"state":"active","ping":32},{"user_id":202,"name":"Zipfinator","steam_id":76561197979769557,"connected_time":408000000000,"state":"active","ping":61},{"user_id":58,"name":"Aircraft Carrier Princess","steam_id":76561198348354629,"connected_time":9739000000000,"state":"active","ping":70},{"user_id":195,"name":"Fear m√©","steam_id":76561198212969373,"connected_time":1245000000000,"state":"active","ping":60},{"user_id":166,"name":"silver","steam_id":76561199020503397,"connected_time":3045000000000,"state":"active","ping":45},{"user_id":183,"name":"TheSecretNewbie","steam_id":76561198194671218,"connected_time":2292000000000,"state":"active","ping":91},{"user_id":192,"name":"pooping.peter.2009","steam_id":76561198171368867,"connected_time":1428000000000,"state":"active","ping":49},{"user_id":179,"name":"the biggest bird","steam_id":76561198361999761,"connected_time":2650000000000,"state":"active","ping":47},{"user_id":181,"name":"SpringIvan","steam_id":76561199133179509,"connected_time":2588000000000,"state":"active","ping":53},{"user_id":191,"name":"gurney_halleck","steam_id":76561198061841423,"connected_time":1576000000000,"state":"active","ping":133},{"user_id":154,"name":"AbsurdSiren","steam_id":76561199196666330,"connected_time":4442000000000,"state":"active","ping":115},{"user_id":138,"name":"Uprightmoss7528","steam_id":76561199200138486,"connected_time":5135000000000,"state":"active","ping":63},{"user_id":200,"name":"MonkeyNobody","steam_id":76561199451266605,"connected_time":667000000000,"state":"active","ping":56},{"user_id":164,"name":"Interrobang","steam_id":76561198385044529,"connected_time":3400000000000,"state":"active","ping":101}]},{"server_id":112,"name":"Uncletopia | Los Angeles | 2 | All Maps","name_short":"lax-2","host":"lax-1.us.uncletopia.com","port":27025,"enabled":true,"region":"us-west","cc":"us","latitude":33.94279,"longitude":-118.41004,"reserved":0,"last_update":"0001-01-01T00:00:00Z","name_a2s":"Uncletopia | Los Angeles | 2 | All Maps","protocol":17,"map":"pl_swiftwater_final1","folder":"tf","game":"Team Fortress","app_id":440,"player_count":24,"max_players":24,"Bots":0,"server_type":"Dedicated","server_os":"Linux","password":true,"vac":true,"version":"7757534","steam_id":85568392924469992,"keywords":["nocrits","nodmgspread","payload","uncletopia"],"game_id":440,"stv_port":27026,"stv_name":"Uncletopia | Los Angeles | 2 | All Maps | STV","players":[{"user_id":342,"name":"Furious George","steam_id":76561198405111646,"connected_time":325000000000,"state":"active","ping":57},{"user_id":328,"name":"Frog","steam_id":76561198093257083,"connected_time":1390000000000,"state":"active","ping":73},{"user_id":344,"name":"MuZe","steam_id":76561198096212604,"connected_time":223000000000,"state":"spawning","ping":107},{"user_id":338,"name":"Mystic man of potatoe","steam_id":76561198027267207,"connected_time":487000000000,"state":"active","ping":56},{"user_id":321,"name":"stinkmaster666demon","steam_id":76561198073914311,"connected_time":1780000000000,"state":"active","ping":43},{"user_id":322,"name":"Jam Jams","steam_id":76561198128811267,"connected_time":1780000000000,"state":"active","ping":100},{"user_id":339,"name":"Starfruit66","steam_id":76561198069917277,"connected_time":434000000000,"state":"active","ping":45},{"user_id":347,"name":"Chemically Dead","steam_id":76561199475507686,"connected_time":10000000000,"state":"spawning","ping":105},{"user_id":294,"name":"TheGhostThatWas","steam_id":76561198055836483,"connected_time":3688000000000,"state":"active","ping":96},{"user_id":319,"name":"Toad :)","steam_id":76561198163008022,"connected_time":1920000000000,"state":"active","ping":71},{"user_id":337,"name":"hardfork","steam_id":76561197960958019,"connected_time":609000000000,"state":"active","ping":72},{"user_id":283,"name":"June","steam_id":76561198141803658,"connected_time":5038000000000,"state":"active","ping":48},{"user_id":300,"name":"Psych03","steam_id":76561198061753667,"connected_time":3352000000000,"state":"active","ping":45},{"user_id":299,"name":"Marzbee115","steam_id":76561198095821025,"connected_time":3467000000000,"state":"active","ping":58},{"user_id":324,"name":"CDI_FrEAk","steam_id":76561198004708244,"connected_time":1771000000000,"state":"active","ping":62},{"user_id":334,"name":"ATA3","steam_id":76561198099640423,"connected_time":850000000000,"state":"active","ping":50},{"user_id":308,"name":"beblonski","steam_id":76561198067053408,"connected_time":2912000000000,"state":"active","ping":50},{"user_id":340,"name":"The Cool Man","steam_id":76561198096420556,"connected_time":384000000000,"state":"active","ping":104},{"user_id":345,"name":"megaroboleg","steam_id":76561198844644993,"connected_time":215000000000,"state":"active","ping":59},{"user_id":331,"name":"Tanner The Fish Man","steam_id":76561198372696640,"connected_time":1163000000000,"state":"active","ping":58},{"user_id":333,"name":"Johnathan J. Harris","steam_id":76561198078594280,"connected_time":1050000000000,"state":"active","ping":72},{"user_id":346,"name":"Trash Boat","steam_id":76561198181586946,"connected_time":147000000000,"state":"active","ping":60},{"user_id":327,"name":"Damiano","steam_id":76561198065585796,"connected_time":1722000000000,"state":"active","ping":54},{"user_id":343,"name":"Accina","steam_id":76561199185153789,"connected_time":282000000000,"state":"active","ping":51}]},{"server_id":324,"name":"Uncletopia | Los Angeles | 3 | All Maps","name_short":"lax-3","host":"lax-1.us.uncletopia.com","port":27035,"enabled":true,"region":"us-west","cc":"us","latitude":33.94279,"longitude":-118.41004,"reserved":0,"last_update":"0001-01-01T00:00:00Z","name_a2s":"Uncletopia | Los Angeles | 3 | All Maps","protocol":17,"map":"cp_gorge","folder":"tf","game":"Team Fortress","app_id":440,"player_count":21,"max_players":24,"Bots":0,"server_type":"Dedicated","server_os":"Linux","password":true,"vac":true,"version":"7757534","steam_id":85568392924510198,"keywords":["cp","nocrits","nodmgspread","uncletopia"],"game_id":440,"stv_port":27036,"stv_name":"Uncletopia | Los Angeles | 3 | All Maps | STV","players":[{"user_id":9,"name":"Captin_Ciyro","steam_id":76561198861899909,"connected_time":3716000000000,"state":"spawning","ping":64},{"user_id":10,"name":"Matt","steam_id":76561199122703238,"connected_time":3608000000000,"state":"spawning","ping":71},{"user_id":11,"name":"Bandanadee","steam_id":76561199014194373,"connected_time":3570000000000,"state":"spawning","ping":135},{"user_id":12,"name":"BraedynC","steam_id":76561198980958976,"connected_time":3543000000000,"state":"spawning","ping":125},{"user_id":15,"name":"lemonbutter","steam_id":76561198046112948,"connected_time":3324000000000,"state":"spawning","ping":94},{"user_id":51,"name":"evan_is_sauce","steam_id":76561199086802383,"connected_time":1129000000000,"state":"spawning","ping":123},{"user_id":18,"name":"killohurtz","steam_id":76561198066382266,"connected_time":3281000000000,"state":"spawning","ping":114},{"user_id":50,"name":"[ibb‚Ñ¢]Shadow20X6-ENGI","steam_id":76561198019292755,"connected_time":1265000000000,"state":"spawning","ping":63},{"user_id":58,"name":"21Choppa","steam_id":76561198208463348,"connected_time":777000000000,"state":"spawning","ping":129},{"user_id":24,"name":"trev","steam_id":76561198372593596,"connected_time":3032000000000,"state":"spawning","ping":68},{"user_id":56,"name":"the gamer","steam_id":76561198334059206,"connected_time":916000000000,"state":"spawning","ping":78},{"user_id":60,"name":"Saint!","steam_id":76561198150438871,"connected_time":715000000000,"state":"spawning","ping":121},{"user_id":63,"name":"Jykle","steam_id":76561198077352807,"connected_time":276000000000,"state":"spawning","ping":104},{"user_id":30,"name":"Natalie","steam_id":76561198048848289,"connected_time":2711000000000,"state":"spawning","ping":61},{"user_id":57,"name":"Worst Scenario","steam_id":76561199052130229,"connected_time":909000000000,"state":"spawning","ping":108},{"user_id":32,"name":"Thunder","steam_id":76561198097721532,"connected_time":2655000000000,"state":"spawning","ping":64},{"user_id":61,"name":"SapphireSundew [Lotus]","steam_id":76561198040904890,"connected_time":713000000000,"state":"spawning","ping":130},{"user_id":34,"name":"Courier711","steam_id":76561198053232343,"connected_time":2647000000000,"state":"spawning","ping":53},{"user_id":65,"name":"KingOmegaVolt","steam_id":76561199187481231,"connected_time":35000000000,"state":"spawning","ping":113},{"user_id":54,"name":"cringy","steam_id":76561198323000455,"connected_time":975000000000,"state":"spawning","ping":60},{"user_id":49,"name":"VicLoL","steam_id":76561198045580784,"connected_time":1277000000000,"state":"spawning","ping":59}]},{"server_id":25,"name":"Uncletopia | Los Angeles | 4 | Stopwatch Beta","name_short":"lax-4","host":"lax-1.us.uncletopia.com","port":27045,"enabled":true,"region":"us-west","cc":"us","latitude":33.94279,"longitude":-118.41004,"reserved":0,"last_update":"0001-01-01T00:00:00Z","name_a2s":"Uncletopia | Los Angeles | 4 | Stopwatch Beta","protocol":17,"map":"pl_swiftwater_final1","folder":"tf","game":"Team Fortress","app_id":440,"player_count":0,"max_players":24,"Bots":0,"server_type":"Dedicated","server_os":"Linux","password":true,"vac":true,"version":"7757534","steam_id":85568392924510199,"keywords":["nocrits","nodmgspread","payload","uncletopia"],"game_id":440,"stv_port":27046,"stv_name":"Uncletopia | Los Angeles | 4 | Stopwatch Beta | STV","players":null},{"server_id":11,"name":"Uncletopia | London | 1 | All Maps","name_short":"lon-1","host":"lon-1.uk.uncletopia.com","port":27015,"enabled":true,"region":"eu","cc":"gb","latitude":51.509865,"longitude":-0.118092,"reserved":0,"last_update":"0001-01-01T00:00:00Z","name_a2s":"Uncletopia | London | 1 | All Maps","protocol":17,"map":"koth_lakeside_final","folder":"tf","game":"Team Fortress","app_id":440,"player_count":0,"max_players":24,"Bots":0,"server_type":"Dedicated","server_os":"Linux","password":true,"vac":true,"version":"7757534","steam_id":85568392924367362,"keywords":["cp","nocrits","nodmgspread","uncletopia"],"game_id":440,"stv_port":27016,"stv_name":"Uncletopia | London | 1 | All Maps | STV","players":null},{"server_id":114,"name":"Uncletopia | London | 2 | All Maps","name_short":"lon-2","host":"lon-1.uk.uncletopia.com","port":27025,"enabled":true,"region":"eu","cc":"gb","latitude":51.509865,"longitude":-0.118092,"reserved":0,"last_update":"0001-01-01T00:00:00Z","name_a2s":"Uncletopia | London | 2 | All Maps","protocol":17,"map":"pl_pier","folder":"tf","game":"Team Fortress","app_id":440,"player_count":7,"max_players":24,"Bots":0,"server_type":"Dedicated","server_os":"Linux","password":true,"vac":true,"version":"7757534","steam_id":85568392924470941,"keywords":["nocrits","nodmgspread","payload","uncletopia"],"game_id":440,"stv_port":27026,"stv_name":"Uncletopia | London | 2 | All Maps | STV","players":[{"user_id":636,"name":"Taste","steam_id":76561197994506978,"connected_time":41000000000,"state":"active","ping":47},{"user_id":564,"name":"LucyLime","steam_id":76561198262258698,"connected_time":5962000000000,"state":"active","ping":46},{"user_id":635,"name":"maiden gaming","steam_id":76561198197890458,"connected_time":215000000000,"state":"active","ping":126},{"user_id":632,"name":"Mary","steam_id":76561198119592186,"connected_time":1734000000000,"state":"active","ping":41},{"user_id":628,"name":"CEO of Great Value Rootbeer","steam_id":76561198255823904,"connected_time":2027000000000,"state":"active","ping":174},{"user_id":629,"name":"Psyche","steam_id":76561198091662001,"connected_time":1979000000000,"state":"active","ping":57},{"user_id":630,"name":"jonbob","steam_id":76561197963506620,"connected_time":1978000000000,"state":"active","ping":50}]},{"server_id":320,"name":"Uncletopia | London | 3 | All Maps","name_short":"lon-3","host":"lon-1.uk.uncletopia.com","port":27035,"enabled":true,"region":"eu","cc":"gb","latitude":51.509865,"longitude":-0.118092,"reserved":0,"last_update":"0001-01-01T00:00:00Z","name_a2s":"Uncletopia | London | 3 | All Maps","protocol":17,"map":"pl_badwater","folder":"tf","game":"Team Fortress","app_id":440,"player_count":0,"max_players":24,"Bots":0,"server_type":"Dedicated","server_os":"Linux","password":true,"vac":true,"version":"7757534","steam_id":85568392924510192,"keywords":["nocrits","nodmgspread","payload","uncletopia"],"game_id":440,"stv_port":27036,"stv_name":"Uncletopia | London | 3 | All Maps | STV","players":null},{"server_id":321,"name":"Uncletopia | London | 4 | All Maps","name_short":"lon-4","host":"lon-1.uk.uncletopia.com","port":27045,"enabled":true,"region":"eu","cc":"gb","latitude":51.509865,"longitude":-0.118092,"reserved":0,"last_update":"0001-01-01T00:00:00Z","name_a2s":"Uncletopia | London | 4 | All Maps","protocol":17,"map":"pl_snowycoast","folder":"tf","game":"Team Fortress","app_id":440,"player_count":0,"max_players":24,"Bots":0,"server_type":"Dedicated","server_os":"Linux","password":true,"vac":true,"version":"7757534","steam_id":85568392924510193,"keywords":["nocrits","nodmgspread","payload","uncletopia"],"game_id":440,"stv_port":27046,"stv_name":"Uncletopia | London | 4 | All Maps | STV","players":null},{"server_id":21,"name":"Uncletopia | London | 5 | All Maps","name_short":"lon-5","host":"lon-1.uk.uncletopia.com","port":27055,"enabled":true,"region":"eu","cc":"gb","latitude":51.509865,"longitude":-0.118092,"reserved":0,"last_update":"0001-01-01T00:00:00Z","name_a2s":"Uncletopia | London | 5 | All Maps","protocol":17,"map":"koth_cascade","folder":"tf","game":"Team Fortress","app_id":440,"player_count":0,"max_players":24,"Bots":0,"server_type":"Dedicated","server_os":"Linux","password":true,"vac":true,"version":"7757534","steam_id":85568392924742829,"keywords":["cp","nocrits","nodmgspread","uncletopia"],"game_id":440,"stv_port":27056,"stv_name":"Uncletopia | London | 5 | All Maps | STV","players":null},{"server_id":22,"name":"Uncletopia | London | 6 | All Maps","name_short":"lon-6","host":"lon-1.uk.uncletopia.com","port":27065,"enabled":true,"region":"eu","cc":"gb","latitude":51.509865,"longitude":-0.118092,"reserved":0,"last_update":"0001-01-01T00:00:00Z","name_a2s":"Uncletopia | London | 6 | All Maps","protocol":17,"map":"koth_highpass","folder":"tf","game":"Team Fortress","app_id":440,"player_count":0,"max_players":24,"Bots":0,"server_type":"Dedicated","server_os":"Linux","password":true,"vac":true,"version":"7757534","steam_id":85568392924742830,"keywords":["cp","nocrits","nodmgspread","uncletopia"],"game_id":440,"stv_port":27066,"stv_name":"Uncletopia | London | 6 | All Maps | STV","players":null},{"server_id":40,"name":"Uncletopia | London | 7 | No Payload","name_short":"lon-7","host":"lon-1.uk.uncletopia.com","port":27075,"enabled":true,"region":"eu","cc":"gb","latitude":51.509865,"longitude":-0.118092,"reserved":0,"last_update":"0001-01-01T00:00:00Z","name_a2s":"Uncletopia | London | 7 | No Payload","protocol":17,"map":"plr_nightfall_final","folder":"tf","game":"Team Fortress","app_id":440,"player_count":0,"max_players":24,"Bots":0,"server_type":"Dedicated","server_os":"Linux","password":true,"vac":true,"version":"7757534","steam_id":85568392924964314,"keywords":["nocrits","nodmgspread","payload","uncletopia"],"game_id":440,"stv_port":27076,"stv_name":"Uncletopia | London | 7 | No Payload | STV","players":null},{"server_id":41,"name":"Uncletopia | London | 8 | Community","name_short":"lon-8","host":"lon-1.uk.uncletopia.com","port":27085,"enabled":true,"region":"eu","cc":"gb","latitude":51.509865,"longitude":-0.118092,"reserved":0,"last_update":"0001-01-01T00:00:00Z","name_a2s":"Uncletopia | London | 8 | Community","protocol":17,"map":"workshop/cp_sulfur_rc2.ugc619869471","folder":"tf","game":"Team Fortress","app_id":440,"player_count":0,"max_players":24,"Bots":0,"server_type":"Dedicated","server_os":"Linux","password":true,"vac":true,"version":"7757534","steam_id":85568392924964315,"keywords":["cp","nocrits","nodmgspread","uncletopia"],"game_id":440,"stv_port":27086,"stv_name":"Uncletopia | London | 8 | Community | STV","players":null},{"server_id":300,"name":"Uncletopia | Montr√©al | 1 | All Maps","name_short":"mtl-1","host":"mtl-1.ca.uncletopia.com","port":27015,"enabled":true,"region":"us-east","cc":"ca","latitude":45.50889,"longitude":-73.56167,"reserved":0,"last_update":"0001-01-01T00:00:00Z","name_a2s":"Uncletopia | Montr√©al | 1 | All Maps","protocol":17,"map":"koth_cascade","folder":"tf","game":"Team Fortress","app_id":440,"player_count":0,"max_players":24,"Bots":0,"server_type":"Dedicated","server_os":"Linux","password":true,"vac":true,"version":"7757534","steam_id":85568392924500087,"keywords":["cp","nocrits","nodmgspread","uncletopia"],"game_id":440,"stv_port":27016,"stv_name":"Uncletopia | Montr√©al | 1 | All Maps | STV","players":null},{"server_id":301,"name":"Uncletopia | Montr√©al | 2 | All Maps","name_short":"mtl-2","host":"mtl-1.ca.uncletopia.com","port":27025,"enabled":true,"region":"us-east","cc":"ca","latitude":45.50889,"longitude":-73.56167,"reserved":0,"last_update":"0001-01-01T00:00:00Z","name_a2s":"Uncletopia | Montr√©al | 2 | All Maps","protocol":17,"map":"pl_badwater","folder":"tf","game":"Team Fortress","app_id":440,"player_count":22,"max_players":24,"Bots":0,"server_type":"Dedicated","server_os":"Linux","password":true,"vac":true,"version":"7757534","steam_id":85568392924500088,"keywords":["nocrits","nodmgspread","payload","uncletopia"],"game_id":440,"stv_port":27026,"stv_name":"Uncletopia | Montr√©al | 2 | All Maps | STV","players":[{"user_id":29,"name":"Anon_Man","steam_id":76561198830261363,"connected_time":2918000000000,"state":"active","ping":62},{"user_id":32,"name":"‡ºò ‚ãÜÀöüéßCaffeine‚òï*Àñ¬∞","steam_id":76561199259309294,"connected_time":1251000000000,"state":"active","ping":67},{"user_id":54,"name":"fleedy","steam_id":76561199102542822,"connected_time":427000000000,"state":"active","ping":71},{"user_id":31,"name":"inexperienced great horned owl","steam_id":76561198047077020,"connected_time":1829000000000,"state":"active","ping":52},{"user_id":33,"name":"Belmore","steam_id":76561198009355231,"connected_time":1232000000000,"state":"active","ping":132},{"user_id":34,"name":"EvilMrPotoo ÔΩ°‚óï‚Äø‚óïÔΩ°","steam_id":76561198012566870,"connected_time":1216000000000,"state":"active","ping":48},{"user_id":35,"name":"swagman","steam_id":76561199073044021,"connected_time":1215000000000,"state":"active","ping":65},{"user_id":36,"name":"Ka Xin Yu","steam_id":76561198057116531,"connected_time":1194000000000,"state":"active","ping":46},{"user_id":37,"name":"chiswola","steam_id":76561198046920142,"connected_time":1188000000000,"state":"active","ping":92},{"user_id":38,"name":"bobby peanstalk","steam_id":76561198040495463,"connected_time":1130000000000,"state":"active","ping":64},{"user_id":39,"name":"ooblz","steam_id":76561198361326855,"connected_time":1083000000000,"state":"active","ping":60},{"user_id":40,"name":"Hot Pink Millie","steam_id":76561198006259725,"connected_time":952000000000,"state":"active","ping":64},{"user_id":60,"name":"Luis wid a mic","steam_id":76561198349570006,"connected_time":54000000000,"state":"active","ping":39},{"user_id":49,"name":"Spex","steam_id":76561198404566859,"connected_time":609000000000,"state":"active","ping":68},{"user_id":53,"name":"Fuzzy","steam_id":76561199100612353,"connected_time":544000000000,"state":"active","ping":65},{"user_id":44,"name":"Lemur2016","steam_id":76561198194372906,"connected_time":845000000000,"state":"active","ping":53},{"user_id":46,"name":"glitchhero12","steam_id":76561199401322907,"connected_time":746000000000,"state":"active","ping":81},{"user_id":50,"name":"Turbocat","steam_id":76561198145431353,"connected_time":585000000000,"state":"active","ping":63},{"user_id":51,"name":"BigDeac","steam_id":76561198091237274,"connected_time":562000000000,"state":"active","ping":86},{"user_id":55,"name":"Dark Lord","steam_id":76561198044199150,"connected_time":415000000000,"state":"active","ping":72},{"user_id":57,"name":"dingding2","steam_id":76561198278895127,"connected_time":283000000000,"state":"active","ping":60},{"user_id":58,"name":"DO NOT call me BART SIMPSON!!","steam_id":76561198069113375,"connected_time":216000000000,"state":"active","ping":47}]},{"server_id":302,"name":"Uncletopia | Montr√©al | 3 | All Maps","name_short":"mtl-3","host":"mtl-1.ca.uncletopia.com","port":27035,"enabled":true,"region":"us-east","cc":"ca","latitude":45.50889,"longitude":-73.56167,"reserved":0,"last_update":"0001-01-01T00:00:00Z","name_a2s":"Uncletopia | Montr√©al | 3 | All Maps","protocol":17,"map":"koth_highpass","folder":"tf","game":"Team Fortress","app_id":440,"player_count":0,"max_players":24,"Bots":0,"server_type":"Dedicated","server_os":"Linux","password":true,"vac":true,"version":"7757534","steam_id":85568392924500089,"keywords":["cp","nocrits","nodmgspread","uncletopia"],"game_id":440,"stv_port":27036,"stv_name":"Uncletopia | Montr√©al | 3 | All Maps | STV","players":null},{"server_id":303,"name":"Uncletopia | Montr√©al | 4 | No Payload","name_short":"mtl-4","host":"mtl-1.ca.uncletopia.com","port":27045,"enabled":true,"region":"us-east","cc":"ca","latitude":45.50889,"longitude":-73.56167,"reserved":0,"last_update":"0001-01-01T00:00:00Z","name_a2s":"Uncletopia | Montr√©al | 4 | No Payload","protocol":17,"map":"koth_harvest_final","folder":"tf","game":"Team Fortress","app_id":440,"player_count":21,"max_players":24,"Bots":0,"server_type":"Dedicated","server_os":"Linux","password":true,"vac":true,"version":"7757534","steam_id":85568392924500090,"keywords":["cp","nocrits","nodmgspread","uncletopia"],"game_id":440,"stv_port":27046,"stv_name":"Uncletopia | Montr√©al | 4 | No Payload | STV","players":[{"user_id":84,"name":"Sparse","steam_id":76561198865084441,"connected_time":716000000000,"state":"active","ping":82},{"user_id":85,"name":"Anomet","steam_id":76561198060246255,"connected_time":615000000000,"state":"active","ping":76},{"user_id":86,"name":"neet","steam_id":76561197968115168,"connected_time":511000000000,"state":"active","ping":53},{"user_id":54,"name":"name420","steam_id":76561198129374525,"connected_time":3001000000000,"state":"active","ping":77},{"user_id":89,"name":"BasicPeaches","steam_id":76561198190890150,"connected_time":236000000000,"state":"active","ping":62},{"user_id":90,"name":"Nathontin","steam_id":76561198263545504,"connected_time":186000000000,"state":"active","ping":47},{"user_id":68,"name":"Misha","steam_id":76561198066174041,"connected_time":1618000000000,"state":"active","ping":58},{"user_id":66,"name":"themadlad67","steam_id":76561199309554436,"connected_time":1853000000000,"state":"active","ping":126},{"user_id":56,"name":"goofy little harbinger of death","steam_id":76561199105960189,"connected_time":2903000000000,"state":"active","ping":58},{"user_id":57,"name":"Gluu","steam_id":76561197998778039,"connected_time":2765000000000,"state":"active","ping":84},{"user_id":77,"name":"Doctor Glocktorpus [NGC]","steam_id":76561198049194645,"connected_time":1046000000000,"state":"active","ping":60},{"user_id":63,"name":"flawda JHIT","steam_id":76561198175878398,"connected_time":2494000000000,"state":"active","ping":54},{"user_id":60,"name":"Tysrone","steam_id":76561198045395647,"connected_time":2695000000000,"state":"active","ping":77},{"user_id":79,"name":"the keithvinci kode","steam_id":76561198056622157,"connected_time":963000000000,"state":"active","ping":56},{"user_id":65,"name":"JACOB","steam_id":76561198211874895,"connected_time":2003000000000,"state":"active","ping":80},{"user_id":70,"name":"Trace #SAVETF2","steam_id":76561198009486000,"connected_time":1546000000000,"state":"active","ping":76},{"user_id":87,"name":"mortis","steam_id":76561198329316429,"connected_time":369000000000,"state":"active","ping":59},{"user_id":81,"name":"Guns Blazing","steam_id":76561198379461118,"connected_time":901000000000,"state":"active","ping":51},{"user_id":75,"name":"adore","steam_id":76561199466628126,"connected_time":1368000000000,"state":"active","ping":178},{"user_id":76,"name":"Chillin Turt","steam_id":76561198025796849,"connected_time":1301000000000,"state":"active","ping":76},{"user_id":88,"name":"A PuRpLE PeNGuIn","steam_id":76561198107937889,"connected_time":326000000000,"state":"active","ping":76}]},{"server_id":13,"name":"Uncletopia | New York City | 1 | All Maps","name_short":"nyc-1","host":"nyc-1.us.uncletopia.com","port":27015,"enabled":true,"region":"us-east","cc":"us","latitude":40.73061,"longitude":-73.93524,"reserved":0,"last_update":"0001-01-01T00:00:00Z","name_a2s":"Uncletopia | New York City | 1 | All Maps","protocol":17,"map":"pl_borneo","folder":"tf","game":"Team Fortress","app_id":440,"player_count":24,"max_players":24,"Bots":0,"server_type":"Dedicated","server_os":"Linux","password":true,"vac":true,"version":"7757534","steam_id":85568392924469993,"keywords":["nocrits","nodmgspread","payload","uncletopia"],"game_id":440,"stv_port":27016,"stv_name":"Uncletopia | New York City | 1 | All Maps | STV","players":[{"user_id":509,"name":"Pozyomka","steam_id":76561198086331015,"connected_time":2931000000000,"state":"active","ping":31},{"user_id":502,"name":"pepsibobby","steam_id":76561198853864511,"connected_time":4233000000000,"state":"active","ping":61},{"user_id":458,"name":"ObsessedNerd505","steam_id":76561199045531456,"connected_time":8329000000000,"state":"active","ping":114},{"user_id":528,"name":"Irregulars","steam_id":76561198048498230,"connected_time":559000000000,"state":"active","ping":30},{"user_id":521,"name":"Genesis [2t]","steam_id":76561198010893421,"connected_time":1535000000000,"state":"active","ping":77},{"user_id":514,"name":"Lane","steam_id":76561197965828506,"connected_time":2844000000000,"state":"active","ping":57},{"user_id":515,"name":"he_who_grills","steam_id":76561198039626676,"connected_time":1958000000000,"state":"active","ping":51},{"user_id":489,"name":"ArcanianArcher","steam_id":76561198088445076,"connected_time":6160000000000,"state":"active","ping":57},{"user_id":530,"name":"Fiendish Frog","steam_id":76561198029478821,"connected_time":503000000000,"state":"active","ping":55},{"user_id":496,"name":"Deiler","steam_id":76561198988955474,"connected_time":5211000000000,"state":"active","ping":46},{"user_id":467,"name":"xXBigWingmanFanXx","steam_id":76561198067904392,"connected_time":7648000000000,"state":"active","ping":58},{"user_id":522,"name":"Saristan","steam_id":76561198093346048,"connected_time":1323000000000,"state":"active","ping":41},{"user_id":466,"name":"FrumpyGoldsmith","steam_id":76561199036534127,"connected_time":7813000000000,"state":"active","ping":74},{"user_id":501,"name":"Braamklauw","steam_id":76561198283287697,"connected_time":4248000000000,"state":"active","ping":145},{"user_id":517,"name":"Scoobery Doobery","steam_id":76561198023634449,"connected_time":1753000000000,"state":"active","ping":65},{"user_id":529,"name":"Reader925","steam_id":76561198150492083,"connected_time":545000000000,"state":"active","ping":52},{"user_id":500,"name":"the pest","steam_id":76561198826298849,"connected_time":4259000000000,"state":"active","ping":97},{"user_id":531,"name":"The Giggler! its 2!","steam_id":76561198053046161,"connected_time":456000000000,"state":"active","ping":47},{"user_id":518,"name":"SPINACH PUFFS","steam_id":76561198040766310,"connected_time":1748000000000,"state":"active","ping":80},{"user_id":526,"name":"DeviserDude","steam_id":76561198298631671,"connected_time":924000000000,"state":"active","ping":68},{"user_id":535,"name":"fart420 BONGVILLAIN","steam_id":76561198044034546,"connected_time":92000000000,"state":"active","ping":48},{"user_id":508,"name":"Sir Quacksalot","steam_id":76561198048942777,"connected_time":2946000000000,"state":"active","ping":94},{"user_id":532,"name":"Conjured","steam_id":76561198086356773,"connected_time":413000000000,"state":"active","ping":52},{"user_id":527,"name":"Strangelove","steam_id":76561198353773611,"connected_time":794000000000,"state":"active","ping":86}]},{"server_id":14,"name":"Uncletopia | New York City | 2 | All Maps","name_short":"nyc-2","host":"nyc-1.us.uncletopia.com","port":27025,"enabled":true,"region":"us-east","cc":"us","latitude":40.73061,"longitude":-73.93524,"reserved":0,"last_update":"0001-01-01T00:00:00Z","name_a2s":"Uncletopia | New York City | 2 | All Maps","protocol":17,"map":"pl_snowycoast","folder":"tf","game":"Team Fortress","app_id":440,"player_count":24,"max_players":24,"Bots":0,"server_type":"Dedicated","server_os":"Linux","password":true,"vac":true,"version":"7757534","steam_id":85568392924469994,"keywords":["nocrits","nodmgspread","payload","uncletopia"],"game_id":440,"stv_port":27026,"stv_name":"Uncletopia | New York City | 2 | All Maps | STV","players":[{"user_id":658,"name":"Joy #savetf2","steam_id":76561198073690173,"connected_time":71000000000,"state":"active","ping":55},{"user_id":648,"name":"(TTV) The_Astrum_Guardian","steam_id":76561198130134103,"connected_time":314000000000,"state":"active","ping":60},{"user_id":583,"name":"Waaagh!","steam_id":76561197995317887,"connected_time":5043000000000,"state":"active","ping":61},{"user_id":649,"name":"Barry","steam_id":76561198983866005,"connected_time":314000000000,"state":"active","ping":58},{"user_id":631,"name":"SpinetinglingToast","steam_id":76561198099470670,"connected_time":1391000000000,"state":"active","ping":55},{"user_id":650,"name":"Brisk","steam_id":76561198129769783,"connected_time":307000000000,"state":"active","ping":89},{"user_id":660,"name":"Notorious B.A.R.T hellcase.com","steam_id":76561198145092836,"connected_time":13000000000,"state":"spawning","ping":57},{"user_id":625,"name":"debby","steam_id":76561198073253904,"connected_time":2069000000000,"state":"active","ping":143},{"user_id":651,"name":"nocham","steam_id":76561198097674181,"connected_time":287000000000,"state":"active","ping":55},{"user_id":654,"name":"Wumps","steam_id":76561198207226825,"connected_time":180000000000,"state":"active","ping":67},{"user_id":643,"name":"Glad","steam_id":76561199388372220,"connected_time":532000000000,"state":"active","ping":55},{"user_id":563,"name":"whorence","steam_id":76561197994492154,"connected_time":6339000000000,"state":"active","ping":146},{"user_id":604,"name":"Baron von Whoopsie","steam_id":76561197996691013,"connected_time":3535000000000,"state":"active","ping":64},{"user_id":642,"name":"Femtofarad","steam_id":76561198308583053,"connected_time":616000000000,"state":"active","ping":64},{"user_id":632,"name":"Ripley","steam_id":76561198080766916,"connected_time":1387000000000,"state":"active","ping":67},{"user_id":598,"name":"Benpai","steam_id":76561198129143866,"connected_time":4128000000000,"state":"active","ping":77},{"user_id":580,"name":"mike\"3loavesofbread\"jones","steam_id":76561198064342804,"connected_time":5405000000000,"state":"active","ping":156},{"user_id":623,"name":"Javaris Jamar Javarison-Lamar","steam_id":76561198146951387,"connected_time":2495000000000,"state":"active","ping":62},{"user_id":655,"name":"scarymanfunnynipples","steam_id":76561198057149957,"connected_time":176000000000,"state":"active","ping":72},{"user_id":656,"name":"OptiCxmShot","steam_id":76561198049019578,"connected_time":150000000000,"state":"active","ping":131},{"user_id":624,"name":"Buttfuck Armstrong","steam_id":76561198075547905,"connected_time":2452000000000,"state":"active","ping":47},{"user_id":626,"name":"pipepeepi","steam_id":76561198845905873,"connected_time":2051000000000,"state":"active","ping":61},{"user_id":611,"name":"Trox","steam_id":76561198263581464,"connected_time":3212000000000,"state":"active","ping":76},{"user_id":633,"name":"Evil_Elephant","steam_id":76561199055338631,"connected_time":1385000000000,"state":"active","ping":83}]},{"server_id":15,"name":"Uncletopia | New York City | 3 | Stopwatch Beta","name_short":"nyc-3","host":"nyc-1.us.uncletopia.com","port":27035,"enabled":true,"region":"us-east","cc":"us","latitude":40.73061,"longitude":-73.93524,"reserved":0,"last_update":"0001-01-01T00:00:00Z","name_a2s":"Uncletopia | New York City | 3 | Stopwatch Beta","protocol":17,"map":"workshop/koth_ramjam_rc1.ugc459778887","folder":"tf","game":"Team Fortress","app_id":440,"player_count":0,"max_players":24,"Bots":0,"server_type":"Dedicated","server_os":"Linux","password":true,"vac":true,"version":"7757534","steam_id":85568392924742820,"keywords":["cp","nocrits","nodmgspread","uncletopia"],"game_id":440,"stv_port":27036,"stv_name":"Uncletopia | New York City | 3 | Stopwatch Beta | STV","players":null},{"server_id":16,"name":"Uncletopia | New York City | 4 | Community","name_short":"nyc-4","host":"nyc-1.us.uncletopia.com","port":27045,"enabled":true,"region":"us-east","cc":"us","latitude":40.73061,"longitude":-73.93524,"reserved":0,"last_update":"0001-01-01T00:00:00Z","name_a2s":"Uncletopia | New York City | 4 | Community","protocol":17,"map":"workshop/cp_kalinka_rc6a.ugc1272700588","folder":"tf","game":"Team Fortress","app_id":440,"player_count":1,"max_players":24,"Bots":0,"server_type":"Dedicated","server_os":"Linux","password":true,"vac":true,"version":"7757534","steam_id":85568392924742821,"keywords":["cp","nocrits","nodmgspread","uncletopia"],"game_id":440,"stv_port":27046,"stv_name":"Uncletopia | New York City | 4 | Community | STV","players":[{"user_id":46,"name":"StabboTheCrabbo","steam_id":76561198884685924,"connected_time":13000000000,"state":"spawning","ping":103}]},{"server_id":142,"name":"Uncletopia | S√£o Paulo | 1 | All Maps","name_short":"sao-1","host":"sao-1.br.uncletopia.com","port":27015,"enabled":true,"region":"sa","cc":"br","latitude":-23.533773,"longitude":-46.62529,"reserved":0,"last_update":"0001-01-01T00:00:00Z","name_a2s":"Uncletopia | S√£o Paulo | 1 | All Maps","protocol":17,"map":"koth_highpass","folder":"tf","game":"Team Fortress","app_id":440,"player_count":0,"max_players":24,"Bots":0,"server_type":"Dedicated","server_os":"Linux","password":true,"vac":true,"version":"7757534","steam_id":85568392924469996,"keywords":["cp","nocrits","nodmgspread","uncletopia"],"game_id":440,"stv_port":27016,"stv_name":"Uncletopia | S√£o Paulo | 1 | All Maps | STV","players":null},{"server_id":143,"name":"Uncletopia | S√£o Paulo | 2 | All Maps","name_short":"sao-2","host":"sao-2.br.uncletopia.com","port":27015,"enabled":true,"region":"sa","cc":"br","latitude":-23.533773,"longitude":-46.62529,"reserved":0,"last_update":"0001-01-01T00:00:00Z","name_a2s":"Uncletopia | S√£o Paulo | 2 | All Maps","protocol":17,"map":"koth_lakeside_final","folder":"tf","game":"Team Fortress","app_id":440,"player_count":0,"max_players":24,"Bots":0,"server_type":"Dedicated","server_os":"Linux","password":true,"vac":true,"version":"7757534","steam_id":85568392924485349,"keywords":["cp","nocrits","nodmgspread","uncletopia"],"game_id":440,"stv_port":27016,"stv_name":"Uncletopia | S√£o Paulo | 2 | All Maps | STV","players":null},{"server_id":7,"name":"Uncletopia | Seattle | 1 | All Maps","name_short":"sea-1","host":"sea-1.us.uncletopia.com","port":27015,"enabled":true,"region":"us-west","cc":"us","latitude":47.608013,"longitude":-122.33517,"reserved":0,"last_update":"0001-01-01T00:00:00Z","name_a2s":"Uncletopia | Seattle | 1 | All Maps","protocol":17,"map":"pl_upward","folder":"tf","game":"Team Fortress","app_id":440,"player_count":24,"max_players":24,"Bots":0,"server_type":"Dedicated","server_os":"Linux","password":true,"vac":true,"version":"7757534","steam_id":85568392924469997,"keywords":["nocrits","nodmgspread","payload","uncletopia"],"game_id":440,"stv_port":27016,"stv_name":"Uncletopia | Seattle | 1 | All Maps | STV","players":[{"user_id":447,"name":"weeb#saveTf2","steam_id":76561199021791121,"connected_time":5693000000000,"state":"active","ping":52},{"user_id":513,"name":"igotmail","steam_id":76561198070631899,"connected_time":2875000000000,"state":"active","ping":111},{"user_id":523,"name":"Neocherry","steam_id":76561198137036962,"connected_time":1921000000000,"state":"active","ping":115},{"user_id":478,"name":"lightning","steam_id":76561198432444690,"connected_time":3308000000000,"state":"active","ping":41},{"user_id":480,"name":"MerkZ","steam_id":76561198047620432,"connected_time":3286000000000,"state":"active","ping":75},{"user_id":530,"name":"zinnk","steam_id":76561198092081825,"connected_time":1128000000000,"state":"active","ping":59},{"user_id":526,"name":"Ping","steam_id":76561199206514106,"connected_time":1477000000000,"state":"active","ping":117},{"user_id":481,"name":"Clible","steam_id":76561198215430429,"connected_time":3282000000000,"state":"active","ping":57},{"user_id":529,"name":"Licensed Rizzicist","steam_id":76561199019693549,"connected_time":1356000000000,"state":"active","ping":58},{"user_id":504,"name":"C U Next Tuesday","steam_id":76561198058493492,"connected_time":2955000000000,"state":"active","ping":56},{"user_id":500,"name":"Username","steam_id":76561198855586261,"connected_time":3026000000000,"state":"active","ping":64},{"user_id":510,"name":"LILIUM","steam_id":76561198086591493,"connected_time":2915000000000,"state":"active","ping":86},{"user_id":532,"name":"Roseblade115","steam_id":76561198120797483,"connected_time":931000000000,"state":"active","ping":50},{"user_id":516,"name":"fart shit bear (jar) snake piss","steam_id":76561199391478575,"connected_time":2690000000000,"state":"active","ping":77},{"user_id":443,"name":"seats","steam_id":76561197998756039,"connected_time":5984000000000,"state":"active","ping":71},{"user_id":486,"name":"Mildstrife","steam_id":76561198000080715,"connected_time":3254000000000,"state":"active","ping":111},{"user_id":533,"name":"Peppy","steam_id":76561198866629645,"connected_time":240000000000,"state":"active","ping":102},{"user_id":527,"name":"HelloZayne","steam_id":76561199121033589,"connected_time":1477000000000,"state":"active","ping":80},{"user_id":528,"name":"Luca","steam_id":76561198125087140,"connected_time":1417000000000,"state":"active","ping":56},{"user_id":495,"name":"3","steam_id":76561199276894516,"connected_time":3114000000000,"state":"active","ping":60},{"user_id":522,"name":"Jack\u0026Coke","steam_id":76561198045199164,"connected_time":2009000000000,"state":"active","ping":46},{"user_id":394,"name":"\\m/ Cyfun (she/it)","steam_id":76561197960882221,"connected_time":9437000000000,"state":"active","ping":91},{"user_id":531,"name":"Guest","steam_id":76561198241004916,"connected_time":941000000000,"state":"active","ping":64},{"user_id":451,"name":"o o o o o o o o o","steam_id":76561197993757506,"connected_time":5604000000000,"state":"active","ping":73}]},{"server_id":119,"name":"Uncletopia | Seattle | 2 | All Maps","name_short":"sea-2","host":"sea-1.us.uncletopia.com","port":27025,"enabled":true,"region":"us-west","cc":"us","latitude":47.608013,"longitude":-122.33517,"reserved":0,"last_update":"0001-01-01T00:00:00Z","name_a2s":"Uncletopia | Seattle | 2 | All Maps","protocol":17,"map":"cp_dustbowl","folder":"tf","game":"Team Fortress","app_id":440,"player_count":24,"max_players":24,"Bots":0,"server_type":"Dedicated","server_os":"Linux","password":true,"vac":true,"version":"7757534","steam_id":85568392924469998,"keywords":["cp","nocrits","nodmgspread","uncletopia"],"game_id":440,"stv_port":27026,"stv_name":"Uncletopia | Seattle | 2 | All Maps | STV","players":[{"user_id":289,"name":"Spruce","steam_id":76561198081684676,"connected_time":64000000000,"state":"active","ping":69},{"user_id":284,"name":"Spy of 83","steam_id":76561199062242958,"connected_time":600000000000,"state":"active","ping":83},{"user_id":276,"name":"deskmedic","steam_id":76561198295640486,"connected_time":1194000000000,"state":"active","ping":75},{"user_id":256,"name":"YahYeeterson","steam_id":76561198120480906,"connected_time":2554000000000,"state":"active","ping":71},{"user_id":282,"name":"strbry","steam_id":76561198155133601,"connected_time":797000000000,"state":"active","ping":54},{"user_id":287,"name":"Patio","steam_id":76561197986082608,"connected_time":163000000000,"state":"active","ping":55},{"user_id":275,"name":"The Sydney Sleeper Itself","steam_id":76561198180251763,"connected_time":1215000000000,"state":"active","ping":100},{"user_id":277,"name":"Alpharius","steam_id":76561197996284353,"connected_time":1126000000000,"state":"active","ping":61},{"user_id":278,"name":"Raydn","steam_id":76561198418414338,"connected_time":1024000000000,"state":"active","ping":99},{"user_id":271,"name":"PyroManiac","steam_id":76561198005988491,"connected_time":1766000000000,"state":"active","ping":89},{"user_id":262,"name":"Frogzilla","steam_id":76561198077657538,"connected_time":2337000000000,"state":"active","ping":117},{"user_id":285,"name":"Rocketface","steam_id":76561198043679540,"connected_time":328000000000,"state":"active","ping":76},{"user_id":263,"name":"BionicApe","steam_id":76561198154637711,"connected_time":2319000000000,"state":"active","ping":47},{"user_id":250,"name":"kodynotcody","steam_id":76561198340685758,"connected_time":2932000000000,"state":"active","ping":59},{"user_id":279,"name":"infiniteroman","steam_id":76561199231168620,"connected_time":1023000000000,"state":"active","ping":115},{"user_id":288,"name":"Florence Jenkins","steam_id":76561198023894049,"connected_time":161000000000,"state":"active","ping":53},{"user_id":265,"name":"Dangerous_Dave76","steam_id":76561199230056550,"connected_time":2232000000000,"state":"active","ping":85},{"user_id":266,"name":"2Fort Cactus","steam_id":76561199273395913,"connected_time":2220000000000,"state":"active","ping":55},{"user_id":214,"name":"ScoutSecoTF2","steam_id":76561198366212156,"connected_time":5533000000000,"state":"active","ping":129},{"user_id":254,"name":"WaffleWithNoToppings","steam_id":76561199088280111,"connected_time":2611000000000,"state":"active","ping":50},{"user_id":213,"name":"DemoLiberTF2","steam_id":76561198095378689,"connected_time":5560000000000,"state":"active","ping":114},{"user_id":253,"name":"AmiableNebula","steam_id":76561198094306627,"connected_time":2634000000000,"state":"active","ping":75},{"user_id":252,"name":"Cam(era)","steam_id":76561198285054047,"connected_time":2725000000000,"state":"active","ping":89},{"user_id":286,"name":"knatspray","steam_id":76561198832507482,"connected_time":317000000000,"state":"active","ping":97}]},{"server_id":406,"name":"Uncletopia | Seattle | 3 | Stopwatch Beta","name_short":"sea-3","host":"sea-1.us.uncletopia.com","port":27035,"enabled":true,"region":"us-west","cc":"us","latitude":47.608013,"longitude":-122.33517,"reserved":0,"last_update":"0001-01-01T00:00:00Z","name_a2s":"Uncletopia | Seattle | 3 | Stopwatch Beta","protocol":17,"map":"workshop/koth_bagel_rc6.ugc2514036946","folder":"tf","game":"Team Fortress","app_id":440,"player_count":23,"max_players":24,"Bots":0,"server_type":"Dedicated","server_os":"Linux","password":true,"vac":true,"version":"7757534","steam_id":85568392924515217,"keywords":["cp","nocrits","nodmgspread","uncletopia"],"game_id":440,"stv_port":27036,"stv_name":"Uncletopia | Seattle | 3 | Stopwatch Beta | STV","players":[{"user_id":97,"name":"TwelvePackofSaltyBones","steam_id":76561198224764664,"connected_time":2521000000000,"state":"active","ping":107},{"user_id":139,"name":"Greasy Guavas","steam_id":76561198089650428,"connected_time":161000000000,"state":"active","ping":133},{"user_id":90,"name":"[DATS‚û°] Sugar Meowth","steam_id":76561197995251793,"connected_time":2911000000000,"state":"active","ping":44},{"user_id":81,"name":"üÖúüÖîüÖîüÖöüÖ¢üÖ£üÖî\ufffd\ufffd\ufffd","steam_id":76561197999748343,"connected_time":3335000000000,"state":"active","ping":90},{"user_id":121,"name":"Van","steam_id":76561198073518712,"connected_time":1436000000000,"state":"active","ping":138},{"user_id":130,"name":"TheFestiveDeliveryBoy","steam_id":76561198113246267,"connected_time":1043000000000,"state":"active","ping":95},{"user_id":128,"name":"Doony","steam_id":76561198073472571,"connected_time":1147000000000,"state":"active","ping":46},{"user_id":138,"name":"Dongus","steam_id":76561197979056451,"connected_time":224000000000,"state":"active","ping":50},{"user_id":140,"name":"MR. MODE","steam_id":76561198046775352,"connected_time":156000000000,"state":"active","ping":63},{"user_id":96,"name":"Gubbington","steam_id":76561198959381302,"connected_time":2662000000000,"state":"active","ping":145},{"user_id":129,"name":"All Class Gaming","steam_id":76561198806729611,"connected_time":1100000000000,"state":"active","ping":54},{"user_id":136,"name":"Oscidor","steam_id":76561198362839738,"connected_time":555000000000,"state":"active","ping":75},{"user_id":50,"name":"Geight","steam_id":76561197991645292,"connected_time":4711000000000,"state":"active","ping":61},{"user_id":143,"name":"Dynamo","steam_id":76561198057875639,"connected_time":95000000000,"state":"active","ping":90},{"user_id":141,"name":"‚ô•Npenplz‚ô•","steam_id":76561197999605423,"connected_time":123000000000,"state":"active","ping":86},{"user_id":142,"name":"eyepen","steam_id":76561198381154476,"connected_time":120000000000,"state":"active","ping":74},{"user_id":144,"name":"ftofro","steam_id":76561198282250051,"connected_time":80000000000,"state":"active","ping":105},{"user_id":105,"name":"The Pepsi¬Æ Superbowl¬Æ!","steam_id":76561198080828981,"connected_time":2077000000000,"state":"active","ping":74},{"user_id":39,"name":"Cristanc99","steam_id":76561198114715810,"connected_time":5072000000000,"state":"active","ping":71},{"user_id":145,"name":"macabre","steam_id":76561198220125111,"connected_time":66000000000,"state":"active","ping":65},{"user_id":146,"name":"Sploonbabagoosecooties","steam_id":76561198139972201,"connected_time":52000000000,"state":"active","ping":89},{"user_id":137,"name":"zeplinnn","steam_id":76561198301300987,"connected_time":516000000000,"state":"active","ping":89},{"user_id":147,"name":"Bobby From Pizza Hut","steam_id":76561199247095754,"connected_time":44000000000,"state":"spawning","ping":196}]},{"server_id":17,"name":"Uncletopia | San Francisco | 1 | All Maps","name_short":"sfo-1","host":"sfo-1.us.uncletopia.com","port":27015,"enabled":true,"region":"us-west","cc":"us","latitude":37.77397,"longitude":-122.4313,"reserved":0,"last_update":"0001-01-01T00:00:00Z","name_a2s":"Uncletopia | San Francisco | 1 | All Maps","protocol":17,"map":"cp_dustbowl","folder":"tf","game":"Team Fortress","app_id":440,"player_count":24,"max_players":24,"Bots":0,"server_type":"Dedicated","server_os":"Linux","password":true,"vac":true,"version":"7757534","steam_id":85568392924469999,"keywords":["cp","nocrits","nodmgspread","uncletopia"],"game_id":440,"stv_port":27016,"stv_name":"Uncletopia | San Francisco | 1 | All Maps | STV","players":[{"user_id":338,"name":"Penne","steam_id":76561198982393756,"connected_time":2438000000000,"state":"active","ping":56},{"user_id":373,"name":"dirty30","steam_id":76561198021226566,"connected_time":384000000000,"state":"active","ping":65},{"user_id":360,"name":"fallingtree123","steam_id":76561198937414442,"connected_time":1193000000000,"state":"active","ping":106},{"user_id":291,"name":"Just_Bland","steam_id":76561198403482191,"connected_time":4615000000000,"state":"active","ping":55},{"user_id":361,"name":"Overmeme","steam_id":76561199455124144,"connected_time":1148000000000,"state":"active","ping":84},{"user_id":362,"name":"NOT Susie Deltarune (not real)","steam_id":76561199007365488,"connected_time":1073000000000,"state":"active","ping":100},{"user_id":340,"name":"Starkiller","steam_id":76561198101643120,"connected_time":2387000000000,"state":"active","ping":76},{"user_id":358,"name":"Quietsharp","steam_id":76561198277968438,"connected_time":1216000000000,"state":"active","ping":60},{"user_id":363,"name":"spamton from hit game undertale","steam_id":76561198355992431,"connected_time":1068000000000,"state":"active","ping":145},{"user_id":349,"name":"windyhawks1934","steam_id":76561199439732176,"connected_time":2032000000000,"state":"active","ping":69},{"user_id":341,"name":"El Viejo Paulino","steam_id":76561198211944169,"connected_time":2327000000000,"state":"active","ping":68},{"user_id":367,"name":"LightBulbGlue #SaveTF2","steam_id":76561198329573529,"connected_time":954000000000,"state":"active","ping":123},{"user_id":352,"name":"Leonardo Doujinshi","steam_id":76561198073531273,"connected_time":1790000000000,"state":"active","ping":52},{"user_id":374,"name":"pinhead","steam_id":76561198184285481,"connected_time":230000000000,"state":"active","ping":119},{"user_id":369,"name":"vareh","steam_id":76561197993190926,"connected_time":870000000000,"state":"active","ping":80},{"user_id":310,"name":"Serene Salamander","steam_id":76561198001094770,"connected_time":3975000000000,"state":"active","ping":66},{"user_id":344,"name":"Dietrich","steam_id":76561198028163840,"connected_time":2218000000000,"state":"active","ping":69},{"user_id":375,"name":"Sunny","steam_id":76561198261667312,"connected_time":16000000000,"state":"spawning","ping":80},{"user_id":365,"name":"Dov-Ah-Bob","steam_id":76561198147798338,"connected_time":1030000000000,"state":"active","ping":67},{"user_id":346,"name":"Sprucelass","steam_id":76561197998391724,"connected_time":2161000000000,"state":"active","ping":107},{"user_id":321,"name":"charge me doc","steam_id":76561198805599998,"connected_time":3564000000000,"state":"active","ping":75},{"user_id":354,"name":"Has This Ever Happened To You!?","steam_id":76561199059733640,"connected_time":1748000000000,"state":"active","ping":65},{"user_id":327,"name":"kn0n1894","steam_id":76561198249172818,"connected_time":3307000000000,"state":"active","ping":76},{"user_id":372,"name":"Engineer Gaming","steam_id":76561198840761529,"connected_time":598000000000,"state":"active","ping":89}]},{"server_id":18,"name":"Uncletopia | San Francisco | 2 | All Maps","name_short":"sfo-2","host":"sfo-1.us.uncletopia.com","port":27025,"enabled":true,"region":"us-west","cc":"us","latitude":37.77397,"longitude":-122.4313,"reserved":0,"last_update":"0001-01-01T00:00:00Z","name_a2s":"Uncletopia | San Francisco | 2 | All Maps","protocol":17,"map":"koth_lakeside_final","folder":"tf","game":"Team Fortress","app_id":440,"player_count":24,"max_players":24,"Bots":0,"server_type":"Dedicated","server_os":"Linux","password":true,"vac":true,"version":"7757534","steam_id":85568392924470000,"keywords":["cp","nocrits","nodmgspread","uncletopia"],"game_id":440,"stv_port":27026,"stv_name":"Uncletopia | San Francisco | 2 | All Maps | STV","players":[{"user_id":7,"name":"Sho Hidari","steam_id":76561198265391182,"connected_time":2203000000000,"state":"active","ping":74},{"user_id":8,"name":"IloveladyDMC","steam_id":76561198864428613,"connected_time":2169000000000,"state":"active","ping":101},{"user_id":34,"name":"guess","steam_id":76561198140846580,"connected_time":403000000000,"state":"active","ping":103},{"user_id":10,"name":"CracCakes","steam_id":76561198309038571,"connected_time":2035000000000,"state":"active","ping":114},{"user_id":11,"name":"Chode Mode","steam_id":76561198353840477,"connected_time":2012000000000,"state":"active","ping":98},{"user_id":12,"name":"Pheesh","steam_id":76561199227830838,"connected_time":1870000000000,"state":"active","ping":81},{"user_id":13,"name":"Pyrolimited","steam_id":76561198195455657,"connected_time":1770000000000,"state":"active","ping":62},{"user_id":36,"name":"Gabe","steam_id":76561198081153719,"connected_time":276000000000,"state":"active","ping":58},{"user_id":15,"name":"Wicki","steam_id":76561198122590990,"connected_time":1265000000000,"state":"active","ping":86},{"user_id":16,"name":"wooper","steam_id":76561198157100347,"connected_time":1257000000000,"state":"active","ping":120},{"user_id":17,"name":"Mr.Z","steam_id":76561199251422541,"connected_time":1240000000000,"state":"active","ping":65},{"user_id":18,"name":"GreenGuy17","steam_id":76561198062289886,"connected_time":1210000000000,"state":"active","ping":112},{"user_id":19,"name":"Nonospokie","steam_id":76561199211785758,"connected_time":1187000000000,"state":"active","ping":132},{"user_id":20,"name":"MudMan522","steam_id":76561198202340413,"connected_time":1164000000000,"state":"active","ping":113},{"user_id":21,"name":"AceSea","steam_id":76561198851176490,"connected_time":1136000000000,"state":"active","ping":38},{"user_id":22,"name":"Renz","steam_id":76561198118995036,"connected_time":1072000000000,"state":"active","ping":67},{"user_id":24,"name":"meth monkey","steam_id":76561198924502457,"connected_time":934000000000,"state":"active","ping":56},{"user_id":25,"name":"GATE GUARDIAN","steam_id":76561198141718725,"connected_time":926000000000,"state":"active","ping":68},{"user_id":26,"name":"uncle funkle","steam_id":76561198261716043,"connected_time":889000000000,"state":"active","ping":71},{"user_id":27,"name":"Ballin546","steam_id":76561199387318962,"connected_time":836000000000,"state":"active","ping":110},{"user_id":28,"name":"gerbniak","steam_id":76561199412109852,"connected_time":765000000000,"state":"active","ping":60},{"user_id":32,"name":"land0","steam_id":76561198321264704,"connected_time":517000000000,"state":"active","ping":68},{"user_id":37,"name":".9 lg","steam_id":76561198092238353,"connected_time":140000000000,"state":"active","ping":76},{"user_id":31,"name":"Bikebrainz","steam_id":76561198294120670,"connected_time":671000000000,"state":"active","ping":89}]},{"server_id":19,"name":"Uncletopia | San Francisco | 3 | Stopwatch Beta","name_short":"sfo-3","host":"sfo-1.us.uncletopia.com","port":27035,"enabled":true,"region":"us-west","cc":"us","latitude":37.77397,"longitude":-122.4313,"reserved":0,"last_update":"0001-01-01T00:00:00Z","name_a2s":"Uncletopia | San Francisco | 3 | Stopwatch Beta","protocol":17,"map":"workshop/cp_process_f12.ugc2302948105","folder":"tf","game":"Team Fortress","app_id":440,"player_count":0,"max_players":24,"Bots":0,"server_type":"Dedicated","server_os":"Linux","password":true,"vac":true,"version":"7757534","steam_id":85568392924742824,"keywords":["cp","nocrits","nodmgspread","uncletopia"],"game_id":440,"stv_port":27036,"stv_name":"Uncletopia | San Francisco | 3 | Stopwatch Beta | STV","players":null},{"server_id":20,"name":"Uncletopia | San Francisco | 4 | Community","name_short":"sfo-4","host":"sfo-1.us.uncletopia.com","port":27045,"enabled":true,"region":"us-west","cc":"us","latitude":37.77397,"longitude":-122.4313,"reserved":0,"last_update":"0001-01-01T00:00:00Z","name_a2s":"Uncletopia | San Francisco | 4 | Community","protocol":17,"map":"workshop/cp_sulfur_rc2.ugc619869471","folder":"tf","game":"Team Fortress","app_id":440,"player_count":0,"max_players":24,"Bots":0,"server_type":"Dedicated","server_os":"Linux","password":true,"vac":true,"version":"7757534","steam_id":85568392924742826,"keywords":["cp","nocrits","nodmgspread","uncletopia"],"game_id":440,"stv_port":27046,"stv_name":"Uncletopia | San Francisco | 4 | Community | STV","players":null},{"server_id":141,"name":"Uncletopia | Sydney | 1 | All Maps","name_short":"syd-1","host":"syd-1.au.uncletopia.com","port":27015,"enabled":true,"region":"au","cc":"au","latitude":-33.865143,"longitude":151.2099,"reserved":0,"last_update":"0001-01-01T00:00:00Z","name_a2s":"Uncletopia | Sydney | 1 | All Maps","protocol":17,"map":"pl_badwater","folder":"tf","game":"Team Fortress","app_id":440,"player_count":16,"max_players":24,"Bots":0,"server_type":"Dedicated","server_os":"Linux","password":true,"vac":true,"version":"7757534","steam_id":85568392924470001,"keywords":["nocrits","nodmgspread","payload","uncletopia"],"game_id":440,"stv_port":27016,"stv_name":"Uncletopia | Sydney | 1 | All Maps | STV","players":[{"user_id":5,"name":"SUSHIMAN","steam_id":76561199089989428,"connected_time":4371000000000,"state":"active","ping":90},{"user_id":13,"name":"Mr Mahal","steam_id":76561198123234137,"connected_time":3392000000000,"state":"active","ping":54},{"user_id":36,"name":"Flat White","steam_id":76561198410190974,"connected_time":735000000000,"state":"active","ping":96},{"user_id":42,"name":"Lord Oink (xe/xir)","steam_id":76561198125237921,"connected_time":341000000000,"state":"active","ping":41},{"user_id":16,"name":"modus","steam_id":76561198025099660,"connected_time":2920000000000,"state":"active","ping":32},{"user_id":20,"name":"Pokelock","steam_id":76561198160389063,"connected_time":2509000000000,"state":"active","ping":104},{"user_id":44,"name":"neevnope","steam_id":76561198981004996,"connected_time":192000000000,"state":"active","ping":66},{"user_id":18,"name":"alqwnq","steam_id":76561198133867907,"connected_time":2701000000000,"state":"active","ping":67},{"user_id":38,"name":"Not Evil","steam_id":76561198284034874,"connected_time":729000000000,"state":"active","ping":69},{"user_id":21,"name":"Pew pew pew!","steam_id":76561198004120277,"connected_time":2448000000000,"state":"active","ping":43},{"user_id":22,"name":"JohnJohnVonJohn","steam_id":76561199037714979,"connected_time":2164000000000,"state":"active","ping":60},{"user_id":43,"name":"APVC","steam_id":76561199090168813,"connected_time":249000000000,"state":"active","ping":49},{"user_id":40,"name":"CareBear","steam_id":76561198152496674,"connected_time":521000000000,"state":"active","ping":74},{"user_id":45,"name":"detectivepear20","steam_id":76561199144881132,"connected_time":126000000000,"state":"active","ping":207},{"user_id":46,"name":"Ripleytadpole","steam_id":76561198021784597,"connected_time":89000000000,"state":"active","ping":253},{"user_id":47,"name":"CDSorgeval","steam_id":76561198857789423,"connected_time":71000000000,"state":"active","ping":57}]},{"server_id":123,"name":"Uncletopia | Sydney | 2 | All Maps","name_short":"syd-2","host":"syd-1.au.uncletopia.com","port":27025,"enabled":true,"region":"au","cc":"au","latitude":-33.865143,"longitude":151.2099,"reserved":0,"last_update":"0001-01-01T00:00:00Z","name_a2s":"Uncletopia | Sydney | 2 | All Maps","protocol":17,"map":"koth_cascade","folder":"tf","game":"Team Fortress","app_id":440,"player_count":0,"max_players":24,"Bots":0,"server_type":"Dedicated","server_os":"Linux","password":true,"vac":true,"version":"7757534","steam_id":85568392924470002,"keywords":["cp","nocrits","nodmgspread","uncletopia"],"game_id":440,"stv_port":27026,"stv_name":"Uncletopia | Sydney | 2 | All Maps | STV","players":null},{"server_id":395,"name":"Uncletopia | Sydney | 3 | All Maps","name_short":"syd-3","host":"syd-1.au.uncletopia.com","port":27035,"enabled":true,"region":"au","cc":"au","latitude":-33.865143,"longitude":151.2099,"reserved":0,"last_update":"0001-01-01T00:00:00Z","name_a2s":"Uncletopia | Sydney | 3 | All Maps","protocol":17,"map":"cp_dustbowl","folder":"tf","game":"Team Fortress","app_id":440,"player_count":0,"max_players":24,"Bots":0,"server_type":"Dedicated","server_os":"Linux","password":true,"vac":true,"version":"7757534","steam_id":85568392925194467,"keywords":["cp","nocrits","nodmgspread","uncletopia"],"game_id":440,"stv_port":27036,"stv_name":"Uncletopia | Sydney | 3 | All Maps | STV","players":null},{"server_id":396,"name":"Uncletopia | Sydney | 4 | All Maps","name_short":"syd-4","host":"syd-1.au.uncletopia.com","port":27045,"enabled":true,"region":"au","cc":"au","latitude":-33.865143,"longitude":151.2099,"reserved":0,"last_update":"0001-01-01T00:00:00Z","name_a2s":"Uncletopia | Sydney | 4 | All Maps","protocol":17,"map":"koth_highpass","folder":"tf","game":"Team Fortress","app_id":440,"player_count":0,"max_players":24,"Bots":0,"server_type":"Dedicated","server_os":"Linux","password":true,"vac":true,"version":"7757534","steam_id":85568392925397958,"keywords":["cp","nocrits","nodmgspread","uncletopia"],"game_id":440,"stv_port":27046,"stv_name":"Uncletopia | Sydney | 4 | All Maps | STV","players":null},{"server_id":58,"name":"Uncletopia | Sydney | 5 | Stopwatch Beta","name_short":"syd-5","host":"syd-1.au.uncletopia.com","port":27055,"enabled":true,"region":"au","cc":"au","latitude":-33.865143,"longitude":151.2099,"reserved":0,"last_update":"0001-01-01T00:00:00Z","name_a2s":"Uncletopia | Sydney | 5 | Stopwatch Beta","protocol":17,"map":"koth_cascade","folder":"tf","game":"Team Fortress","app_id":440,"player_count":0,"max_players":24,"Bots":0,"server_type":"Dedicated","server_os":"Linux","password":true,"vac":true,"version":"7757534","steam_id":85568392925397959,"keywords":["cp","nocrits","nodmgspread","uncletopia"],"game_id":440,"stv_port":27056,"stv_name":"Uncletopia | Sydney | 5 | Stopwatch Beta | STV","players":null},{"server_id":59,"name":"Uncletopia | Sydney | 6 | Community","name_short":"syd-6","host":"syd-1.au.uncletopia.com","port":27065,"enabled":true,"region":"au","cc":"au","latitude":-33.865143,"longitude":151.2099,"reserved":0,"last_update":"0001-01-01T00:00:00Z","name_a2s":"Uncletopia | Sydney | 6 | Community","protocol":17,"map":"cp_snakewater_final1","folder":"tf","game":"Team Fortress","app_id":440,"player_count":0,"max_players":24,"Bots":0,"server_type":"Dedicated","server_os":"Linux","password":true,"vac":true,"version":"7757534","steam_id":85568392925397960,"keywords":["cp","nocrits","nodmgspread","uncletopia"],"game_id":440,"stv_port":27066,"stv_name":"Uncletopia | Sydney | 6 | Community | STV","players":null},{"server_id":49,"name":"Uncletopia | Warsaw | 1 | All Maps","name_short":"waw-1","host":"waw-1.pl.uncletopia.com","port":27015,"enabled":true,"region":"eu","cc":"pl","latitude":52.2297,"longitude":21.017532,"reserved":0,"last_update":"0001-01-01T00:00:00Z","name_a2s":"","protocol":0,"map":"","folder":"","game":"","app_id":0,"player_count":0,"max_players":0,"Bots":0,"server_type":"","server_os":"","password":false,"vac":false,"version":"","steam_id":0,"keywords":null,"game_id":0,"stv_port":0,"stv_name":"","players":null},{"server_id":50,"name":"Uncletopia | Warsaw | 2 | All Maps","name_short":"waw-2","host":"waw-1.pl.uncletopia.com","port":27025,"enabled":true,"region":"eu","cc":"pl","latitude":52.2297,"longitude":21.017532,"reserved":0,"last_update":"0001-01-01T00:00:00Z","name_a2s":"Uncletopia | Warsaw | 2 | All Maps","protocol":17,"map":"koth_viaduct","folder":"tf","game":"Team Fortress","app_id":440,"player_count":0,"max_players":24,"Bots":0,"server_type":"Dedicated","server_os":"Linux","password":true,"vac":true,"version":"7757534","steam_id":85568392925397851,"keywords":["cp","nocrits","nodmgspread","uncletopia"],"game_id":440,"stv_port":27026,"stv_name":"Uncletopia | Warsaw | 2 | All Maps | STV","players":null},{"server_id":51,"name":"Uncletopia | Warsaw | 3 | All Maps","name_short":"waw-3","host":"waw-1.pl.uncletopia.com","port":27035,"enabled":true,"region":"eu","cc":"pl","latitude":52.2297,"longitude":21.017532,"reserved":0,"last_update":"0001-01-01T00:00:00Z","name_a2s":"Uncletopia | Warsaw | 3 | All Maps","protocol":17,"map":"pl_pier","folder":"tf","game":"Team Fortress","app_id":440,"player_count":0,"max_players":24,"Bots":0,"server_type":"Dedicated","server_os":"Linux","password":true,"vac":true,"version":"7757534","steam_id":85568392925397852,"keywords":["nocrits","nodmgspread","payload","uncletopia"],"game_id":440,"stv_port":27036,"stv_name":"Uncletopia | Warsaw | 3 | All Maps | STV","players":null},{"server_id":52,"name":"Uncletopia | Warsaw | 4 | All Maps","name_short":"waw-4","host":"waw-1.pl.uncletopia.com","port":27045,"enabled":true,"region":"eu","cc":"pl","latitude":52.2297,"longitude":21.017532,"reserved":0,"last_update":"0001-01-01T00:00:00Z","name_a2s":"Uncletopia | Warsaw | 4 | All Maps","protocol":17,"map":"koth_lakeside_final","folder":"tf","game":"Team Fortress","app_id":440,"player_count":0,"max_players":24,"Bots":0,"server_type":"Dedicated","server_os":"Linux","password":true,"vac":true,"version":"7757534","steam_id":85568392925397853,"keywords":["cp","nocrits","nodmgspread","uncletopia"],"game_id":440,"stv_port":27046,"stv_name":"Uncletopia | Warsaw | 4 | All Maps | STV","players":null},{"server_id":53,"name":"Uncletopia | Warsaw | 5 | Stopwatch Beta","name_short":"waw-5","host":"waw-1.pl.uncletopia.com","port":27055,"enabled":true,"region":"eu","cc":"pl","latitude":52.2297,"longitude":21.017532,"reserved":0,"last_update":"0001-01-01T00:00:00Z","name_a2s":"Uncletopia | Warsaw | 5 | Stopwatch Beta","protocol":17,"map":"pl_borneo","folder":"tf","game":"Team Fortress","app_id":440,"player_count":0,"max_players":24,"Bots":0,"server_type":"Dedicated","server_os":"Linux","password":true,"vac":true,"version":"7757534","steam_id":85568392925397854,"keywords":["nocrits","nodmgspread","payload","uncletopia"],"game_id":440,"stv_port":27056,"stv_name":"Uncletopia | Warsaw | 5 | Stopwatch Beta | STV","players":null},{"server_id":54,"name":"Uncletopia | Warsaw | 6 | Community","name_short":"waw-6","host":"waw-1.pl.uncletopia.com","port":27065,"enabled":true,"region":"eu","cc":"pl","latitude":52.2297,"longitude":21.017532,"reserved":0,"last_update":"0001-01-01T00:00:00Z","name_a2s":"Uncletopia | Warsaw | 6 | Community","protocol":17,"map":"workshop/koth_synthetic_rc6a.ugc1549817316","folder":"tf","game":"Team Fortress","app_id":440,"player_count":0,"max_players":24,"Bots":0,"server_type":"Dedicated","server_os":"Linux","password":true,"vac":true,"version":"7757534","steam_id":85568392925397856,"keywords":["cp","nocrits","nodmgspread","uncletopia"],"game_id":440,"stv_port":27066,"stv_name":"Uncletopia | Warsaw | 6 | Community | STV","players":null}]}