{"status":true,"message":"","result":[{"server_id":9,"name":"Uncletopia | Atlanta | 1 | All Maps","name_short":"atl-1","host":"atl-1.us.uncletopia.com","port":27015,"enabled":true,"region":"us-east","cc":"us","latitude":33.753746,"longitude":-84.38633,"reserved":0,"last_update":"0001-01-01T00:00:00Z","name_a2s":"Uncletopia | Atlanta | 1 | All Maps","protocol":17,"map":"koth_viaduct","folder":"tf","game":"Team Fortress","app_id":440,"player_count":24,"max_players":24,"Bots":0,"server_type":"Dedicated","server_os":"Linux","password":true,"vac":true,"version":"7961495","steam_id":85568392924469982,"keywords":["cp","nocrits","nodmgspread","uncletopia"],"game_id":440,"stv_port":27016,"stv_name":"Uncletopia | Atlanta | 1 | All Maps | STV","players":null},{"server_id":104,"name":"Uncletopia | Atlanta | 2 | All Maps","name_short":"atl-2","host":"atl-1.us.uncletopia.com","port":27025,"enabled":true,"region":"us-east","cc":"us","latitude":33.753746,"longitude":-84.38633,"reserved":0,"last_update":"0001-01-01T00:00:00Z","name_a2s":"Uncletopia | Atlanta | 2 | All Maps","protocol":17,"map":"pl_thundermountain","folder":"tf","game":"Team Fortress","app_id":440,"player_count":24,"max_players":24,"Bots":0,"server_type":"Dedicated","server_os":"Linux","password":true,"vac":true,"version":"7961495","steam_id":85568392924469983,"keywords":["nocrits","nodmgspread","payload","uncletopia"],"game_id":440,"stv_port":27026,"stv_name":"Uncletopia | Atlanta | 2 | All Maps | STV","players":null},{"server_id":400,"name":"Uncletopia | Atlanta | 3 | Stopwatch","name_short":"atl-3","host":"atl-1.us.uncletopia.com","port":27035,"enabled":true,"region":"us-east","cc":"us","latitude":33.753746,"longitude":-84.38633,"reserved":0,"last_update":"0001-01-01T00:00:00Z","name_a2s":"Uncletopia | Atlanta | 3 | Stopwatch","protocol":17,"map":"cp_snakewater_final1","folder":"tf","game":"Team Fortress","app_id":440,"player_count":0,"max_players":24,"Bots":0,"server_type":"Dedicated","server_os":"Linux","password":true,"vac":true,"version":"7961495","steam_id":85568392924515187,"keywords":["cp","nocrits","nodmgspread","uncletopia"],"game_id":440,"stv_port":27036,"stv_name":"Uncletopia | Atlanta | 3 | Stopwatch | STV","players":null},{"server_id":401,"name":"Uncletopia | Atlanta | 4 | Community","name_short":"atl-4","host":"atl-1.us.uncletopia.com","port":27045,"enabled":true,"region":"us-east","cc":"us","latitude":33.753746,"longitude":-84.38633,"reserved":0,"last_update":"0001-01-01T00:00:00Z","name_a2s":"Uncletopia | Atlanta | 4 | Community","protocol":17,"map":"cp_reckoner_rc6","folder":"tf","game":"Team Fortress","app_id":440,"player_count":0,"max_players":24,"Bots":0,"server_type":"Dedicated","server_os":"Linux","password":true,"vac":true,"version":"7961495","steam_id":85568392924515188,"keywords":["cp","nocrits","nodmgspread","uncletopia"],"game_id":440,"stv_port":27046,"stv_name":"Uncletopia | Atlanta | 4 | Community | STV","players":null},{"server_id":2,"name":"Uncletopia | Chicago | 1 | All Maps","name_short":"chi-1","host":"chi-1.us.uncletopia.com","port":27015,"enabled":true,"region":"us-central","cc":"us","latitude":41.881832,"longitude":-87.62318,"reserved":0,"last_update":"0001-01-01T00:00:00Z","name_a2s":"Uncletopia | Chicago | 1 | All Maps","protocol":17,"map":"cp_mountainlab","folder":"tf","game":"Team Fortress","app_id":440,"player_count":24,"max_players":24,"Bots":0,"server_type":"Dedicated","server_os":"Linux","password":true,"vac":true,"version":"7961495","steam_id":85568392924469984,"keywords":["cp","nocrits","nodmgspread","uncletopia"],"game_id":440,"stv_port":27016,"stv_name":"Uncletopia | Chicago | 1 | All Maps | STV","players":[{"user_id":438,"name":"ADRIEN BRODY","steam_id":76561198009299473,"connected_time":4067000000000,"state":"active","ping":65},{"user_id":462,"name":"Boxpipe","steam_id":76561197964501915,"connected_time":2876000000000,"state":"active","ping":45},{"user_id":507,"name":"YourExGayLover","steam_id":76561198041460359,"connected_time":17000000000,"state":"active","ping":73},{"user_id":490,"name":"Dr. Chad Feelgood","steam_id":76561198454077219,"connected_time":605000000000,"state":"active","ping":60},{"user_id":471,"name":"Dalburgh","steam_id":76561198044331017,"connected_time":2251000000000,"state":"active","ping":70},{"user_id":480,"name":"Tokyo_Timeshift_","steam_id":76561198048677523,"connected_time":1579000000000,"state":"active","ping":51},{"user_id":492,"name":"LivingRaccoon","steam_id":76561198035425632,"connected_time":570000000000,"state":"active","ping":118},{"user_id":502,"name":"g00bur","steam_id":76561197993622520,"connected_time":173000000000,"state":"active","ping":65},{"user_id":484,"name":"NukaTheRabbit {Fur}","steam_id":76561198058692928,"connected_time":859000000000,"state":"active","ping":57},{"user_id":467,"name":"OldRavensFan","steam_id":76561198043919562,"connected_time":2376000000000,"state":"active","ping":64},{"user_id":503,"name":"Dry Bones","steam_id":76561198341537452,"connected_time":139000000000,"state":"active","ping":76},{"user_id":504,"name":"Quartzalcoatl","steam_id":76561198044944584,"connected_time":123000000000,"state":"active","ping":82},{"user_id":458,"name":"THORNFIELDGAMER","steam_id":76561199087167473,"connected_time":3057000000000,"state":"active","ping":87},{"user_id":487,"name":"Twitch University","steam_id":76561198120758046,"connected_time":744000000000,"state":"active","ping":69},{"user_id":481,"name":"Nefy","steam_id":76561198030017316,"connected_time":1289000000000,"state":"active","ping":88},{"user_id":494,"name":"hud_saytext_time 0","steam_id":76561198010327228,"connected_time":531000000000,"state":"active","ping":167},{"user_id":500,"name":"Quirinus","steam_id":76561198011516889,"connected_time":357000000000,"state":"active","ping":45},{"user_id":505,"name":"justin","steam_id":76561199498031514,"connected_time":86000000000,"state":"active","ping":65},{"user_id":506,"name":"HOTA","steam_id":76561199002778841,"connected_time":42000000000,"state":"spawning","ping":99},{"user_id":468,"name":"fish ‚óè","steam_id":76561198999217575,"connected_time":2343000000000,"state":"active","ping":65},{"user_id":482,"name":"Sunny D+","steam_id":76561197999371052,"connected_time":1264000000000,"state":"active","ping":61},{"user_id":508,"name":"Nova","steam_id":76561198296902861,"connected_time":10000000000,"state":"spawning","ping":108},{"user_id":499,"name":"‚ô•Bunny‚ô•Slut‚ô•","steam_id":76561198206376851,"connected_time":456000000000,"state":"active","ping":83},{"user_id":509,"name":"Xx_Savage_Twerks_xX","steam_id":76561198011665915,"connected_time":7000000000,"state":"spawning","ping":57}]},{"server_id":106,"name":"Uncletopia | Chicago | 2 | All Maps","name_short":"chi-2","host":"chi-1.us.uncletopia.com","port":27025,"enabled":true,"region":"us-central","cc":"us","latitude":41.881832,"longitude":-87.62318,"reserved":0,"last_update":"0001-01-01T00:00:00Z","name_a2s":"Uncletopia | Chicago | 2 | All Maps","protocol":17,"map":"pl_badwater","folder":"tf","game":"Team Fortress","app_id":440,"player_count":24,"max_players":24,"Bots":0,"server_type":"Dedicated","server_os":"Linux","password":true,"vac":true,"version":"7961495","steam_id":85568392924469985,"keywords":["nocrits","nodmgspread","payload","uncletopia"],"game_id":440,"stv_port":27026,"stv_name":"Uncletopia | Chicago | 2 | All Maps | STV","players":[{"user_id":287,"name":"Lou","steam_id":76561198041394724,"connected_time":1070000000000,"state":"active","ping":49},{"user_id":259,"name":"Aerobro","steam_id":76561198033530996,"connected_time":1850000000000,"state":"active","ping":89},{"user_id":285,"name":"Wafflehead","steam_id":76561198053539741,"connected_time":1221000000000,"state":"active","ping":75},{"user_id":227,"name":"bunsy","steam_id":76561198097292857,"connected_time":3763000000000,"state":"active","ping":66},{"user_id":266,"name":"Robzilla","steam_id":76561198035236155,"connected_time":1676000000000,"state":"active","ping":75},{"user_id":289,"name":"PoopieStank","steam_id":76561197977099076,"connected_time":824000000000,"state":"active","ping":81},{"user_id":286,"name":"John Darksoul","steam_id":76561198999712284,"connected_time":1193000000000,"state":"active","ping":69},{"user_id":284,"name":"lupstersite","steam_id":76561198063704278,"connected_time":1234000000000,"state":"active","ping":107},{"user_id":255,"name":"steakfarmasian","steam_id":76561198212754036,"connected_time":2132000000000,"state":"active","ping":55},{"user_id":221,"name":"Le","steam_id":76561198817754233,"connected_time":4342000000000,"state":"active","ping":68},{"user_id":260,"name":"Redo64","steam_id":76561198330923332,"connected_time":1840000000000,"state":"active","ping":88},{"user_id":290,"name":"Poyo","steam_id":76561198280424107,"connected_time":791000000000,"state":"active","ping":68},{"user_id":295,"name":"Autumn, The Only Good Season","steam_id":76561198103496593,"connected_time":275000000000,"state":"active","ping":65},{"user_id":218,"name":"randomperson88","steam_id":76561199228822173,"connected_time":4507000000000,"state":"active","ping":47},{"user_id":250,"name":"SexySpectacles","steam_id":76561198211449103,"connected_time":2751000000000,"state":"active","ping":85},{"user_id":291,"name":"10HourNaps","steam_id":76561199082304859,"connected_time":737000000000,"state":"active","ping":113},{"user_id":245,"name":"what the freak","steam_id":76561198080754727,"connected_time":3121000000000,"state":"active","ping":86},{"user_id":242,"name":"Bobato Chaps","steam_id":76561198065103552,"connected_time":3194000000000,"state":"active","ping":48},{"user_id":288,"name":"LerN","steam_id":76561198083463877,"connected_time":1033000000000,"state":"active","ping":52},{"user_id":264,"name":"think about it","steam_id":76561198241948526,"connected_time":1718000000000,"state":"active","ping":62},{"user_id":292,"name":"Memes","steam_id":76561198354087246,"connected_time":725000000000,"state":"active","ping":214},{"user_id":294,"name":"vanta","steam_id":76561198084317504,"connected_time":532000000000,"state":"active","ping":45},{"user_id":206,"name":"Wishing you godspeed, glory","steam_id":76561198449527009,"connected_time":5164000000000,"state":"active","ping":98},{"user_id":239,"name":"t.tv/FamilyGuyFunnyMoments277","steam_id":76561198416047580,"connected_time":3518000000000,"state":"active","ping":64}]},{"server_id":402,"name":"Uncletopia | Chicago | 3 | All Maps","name_short":"chi-3","host":"chi-1.us.uncletopia.com","port":27035,"enabled":true,"region":"us-central","cc":"us","latitude":41.881832,"longitude":-87.62318,"reserved":0,"last_update":"0001-01-01T00:00:00Z","name_a2s":"Uncletopia | Chicago | 3 | All Maps","protocol":17,"map":"koth_cascade","folder":"tf","game":"Team Fortress","app_id":440,"player_count":0,"max_players":24,"Bots":0,"server_type":"Dedicated","server_os":"Linux","password":true,"vac":true,"version":"7961495","steam_id":85568392924515191,"keywords":["cp","nocrits","nodmgspread","uncletopia"],"game_id":440,"stv_port":27036,"stv_name":"Uncletopia | Chicago | 3 | All Maps | STV","players":null},{"server_id":403,"name":"Uncletopia | Chicago | 4 | All Maps","name_short":"chi-4","host":"chi-1.us.uncletopia.com","port":27045,"enabled":true,"region":"us-central","cc":"us","latitude":41.881832,"longitude":-87.62318,"reserved":0,"last_update":"0001-01-01T00:00:00Z","name_a2s":"Uncletopia | Chicago | 4 | All Maps","protocol":17,"map":"pl_badwater","folder":"tf","game":"Team Fortress","app_id":440,"player_count":24,"max_players":24,"Bots":0,"server_type":"Dedicated","server_os":"Linux","password":true,"vac":true,"version":"7961495","steam_id":85568392924515193,"keywords":["nocrits","nodmgspread","payload","uncletopia"],"game_id":440,"stv_port":27046,"stv_name":"Uncletopia | Chicago | 4 | All Maps | STV","players":[{"user_id":12,"name":"Kentucky Fried Lullaby","steam_id":76561198047845399,"connected_time":2133000000000,"state":"active","ping":71},{"user_id":64,"name":"Michaelpc1","steam_id":76561198088365519,"connected_time":132000000000,"state":"active","ping":47},{"user_id":15,"name":"banana weapon collector","steam_id":76561199381954163,"connected_time":2016000000000,"state":"active","ping":114},{"user_id":65,"name":"jayhong","steam_id":76561198046772832,"connected_time":130000000000,"state":"active","ping":30},{"user_id":66,"name":"NOM","steam_id":76561199059006203,"connected_time":130000000000,"state":"active","ping":62},{"user_id":45,"name":"feudal","steam_id":76561198057374871,"connected_time":993000000000,"state":"active","ping":59},{"user_id":21,"name":"nomocantgame","steam_id":76561198865074599,"connected_time":1488000000000,"state":"active","ping":193},{"user_id":67,"name":"xZoroarkgaming","steam_id":76561199199302865,"connected_time":99000000000,"state":"active","ping":75},{"user_id":51,"name":"ZiggityZeke","steam_id":76561198043813981,"connected_time":792000000000,"state":"active","ping":78},{"user_id":25,"name":"SIN K4RMA","steam_id":76561198869287223,"connected_time":1361000000000,"state":"active","ping":74},{"user_id":68,"name":"kiryu","steam_id":76561198270926835,"connected_time":90000000000,"state":"active","ping":108},{"user_id":57,"name":"ketchup","steam_id":76561197990543589,"connected_time":437000000000,"state":"active","ping":61},{"user_id":29,"name":"SneakySneak","steam_id":76561198064847921,"connected_time":1269000000000,"state":"active","ping":62},{"user_id":30,"name":"Toa of Time","steam_id":76561198086867556,"connected_time":1258000000000,"state":"active","ping":95},{"user_id":31,"name":"Merchant","steam_id":76561198130468663,"connected_time":1240000000000,"state":"active","ping":59},{"user_id":69,"name":"double xp weekend","steam_id":76561198052950547,"connected_time":66000000000,"state":"active","ping":39},{"user_id":33,"name":"Sands","steam_id":76561198436011363,"connected_time":1238000000000,"state":"active","ping":66},{"user_id":48,"name":"joe","steam_id":76561199389283507,"connected_time":904000000000,"state":"active","ping":68},{"user_id":35,"name":"Jdulton","steam_id":76561198116243617,"connected_time":1228000000000,"state":"active","ping":71},{"user_id":70,"name":"Willy","steam_id":76561198046508940,"connected_time":58000000000,"state":"active","ping":64},{"user_id":37,"name":"Spud \u003c3","steam_id":76561198208657333,"connected_time":1224000000000,"state":"active","ping":50},{"user_id":38,"name":"Tuff","steam_id":76561198038521103,"connected_time":1222000000000,"state":"active","ping":60},{"user_id":39,"name":"Imagine being trash at Medic","steam_id":76561197986530028,"connected_time":1210000000000,"state":"active","ping":98},{"user_id":72,"name":"viagra addict","steam_id":76561198017705248,"connected_time":3000000000,"state":"spawning","ping":39}]},{"server_id":36,"name":"Uncletopia | Chicago | 5 | All Maps","name_short":"chi-5","host":"chi-2.us.uncletopia.com","port":27015,"enabled":true,"region":"us-central","cc":"us","latitude":41.881832,"longitude":-87.62318,"reserved":0,"last_update":"0001-01-01T00:00:00Z","name_a2s":"Uncletopia | Chicago | 5 | All Maps","protocol":17,"map":"cp_gorge","folder":"tf","game":"Team Fortress","app_id":440,"player_count":0,"max_players":24,"Bots":0,"server_type":"Dedicated","server_os":"Linux","password":true,"vac":true,"version":"7961495","steam_id":85568392924866362,"keywords":["cp","nocrits","nodmgspread","uncletopia"],"game_id":440,"stv_port":27016,"stv_name":"Uncletopia | Chicago | 5 | All Maps | STV","players":null},{"server_id":37,"name":"Uncletopia | Chicago | 6 | All Maps","name_short":"chi-6","host":"chi-2.us.uncletopia.com","port":27025,"enabled":true,"region":"us-central","cc":"us","latitude":41.881832,"longitude":-87.62318,"reserved":0,"last_update":"0001-01-01T00:00:00Z","name_a2s":"Uncletopia | Chicago | 6 | All Maps","protocol":17,"map":"koth_cascade","folder":"tf","game":"Team Fortress","app_id":440,"player_count":0,"max_players":24,"Bots":0,"server_type":"Dedicated","server_os":"Linux","password":true,"vac":true,"version":"7961495","steam_id":85568392924866363,"keywords":["cp","nocrits","nodmgspread","uncletopia"],"game_id":440,"stv_port":27026,"stv_name":"Uncletopia | Chicago | 6 | All Maps | STV","players":null},{"server_id":38,"name":"Uncletopia | Chicago | 7 | Stopwatch","name_short":"chi-7","host":"chi-2.us.uncletopia.com","port":27035,"enabled":true,"region":"us-central","cc":"us","latitude":41.881832,"longitude":-87.62318,"reserved":0,"last_update":"0001-01-01T00:00:00Z","name_a2s":"Uncletopia | Chicago | 7 | Stopwatch","protocol":17,"map":"pl_badwater","folder":"tf","game":"Team Fortress","app_id":440,"player_count":0,"max_players":24,"Bots":0,"server_type":"Dedicated","server_os":"Linux","password":true,"vac":true,"version":"7961495","steam_id":85568392924866364,"keywords":["nocrits","nodmgspread","payload","uncletopia"],"game_id":440,"stv_port":27036,"stv_name":"Uncletopia | Chicago | 7 | Stopwatch | STV","players":null},{"server_id":39,"name":"Uncletopia | Chicago | 8 | Community","name_short":"chi-8","host":"chi-2.us.uncletopia.com","port":27045,"enabled":true,"region":"us-central","cc":"us","latitude":41.881832,"longitude":-87.62318,"reserved":0,"last_update":"0001-01-01T00:00:00Z","name_a2s":"Uncletopia | Chicago | 8 | Community","protocol":17,"map":"workshop/cp_bruhstbowl_b6.ugc2878604990","folder":"tf","game":"Team Fortress","app_id":440,"player_count":0,"max_players":24,"Bots":0,"server_type":"Dedicated","server_os":"Linux","password":true,"vac":true,"version":"7961495","steam_id":85568392924866365,"keywords":["cp","nocrits","nodmgspread","uncletopia"],"game_id":440,"stv_port":27046,"stv_name":"Uncletopia | Chicago | 8 | Community | STV","players":null},{"server_id":8,"name":"Uncletopia | Dallas | 1 | All Maps","name_short":"dal-1","host":"dal-1.us.uncletopia.com","port":27015,"enabled":true,"region":"us-central","cc":"us","latitude":32.779167,"longitude":-96.80889,"reserved":0,"last_update":"0001-01-01T00:00:00Z","name_a2s":"Uncletopia | Dallas | 1 | All Maps","protocol":17,"map":"pl_pier","folder":"tf","game":"Team Fortress","app_id":440,"player_count":22,"max_players":24,"Bots":0,"server_type":"Dedicated","server_os":"Linux","password":true,"vac":true,"version":"7961495","steam_id":85568392924469986,"keywords":["nocrits","nodmgspread","payload","uncletopia"],"game_id":440,"stv_port":27016,"stv_name":"Uncletopia | Dallas | 1 | All Maps | STV","players":[{"user_id":330,"name":"VixianUwU","steam_id":76561198948815060,"connected_time":1637000000000,"state":"spawning","ping":78},{"user_id":277,"name":"remanedur","steam_id":76561198059459507,"connected_time":6240000000000,"state":"spawning","ping":71},{"user_id":328,"name":"Bogey","steam_id":76561198096227944,"connected_time":1671000000000,"state":"active","ping":47},{"user_id":323,"name":"dumbest girl alive","steam_id":76561198062263639,"connected_time":2200000000000,"state":"spawning","ping":205},{"user_id":339,"name":"Magik","steam_id":76561198099726660,"connected_time":509000000000,"state":"active","ping":61},{"user_id":344,"name":"Silvermace","steam_id":76561198090696843,"connected_time":47000000000,"state":"active","ping":58},{"user_id":322,"name":"yeeye","steam_id":76561198094306054,"connected_time":2227000000000,"state":"active","ping":52},{"user_id":343,"name":"1-800-CLUNGE-DUMPSTER","steam_id":76561198059780866,"connected_time":137000000000,"state":"active","ping":66},{"user_id":336,"name":"Cliffigriff","steam_id":76561198121924499,"connected_time":971000000000,"state":"active","ping":48},{"user_id":315,"name":"Brandonazz","steam_id":76561197994366351,"connected_time":2512000000000,"state":"active","ping":92},{"user_id":320,"name":"Kuyumiester","steam_id":76561198126835302,"connected_time":2328000000000,"state":"active","ping":87},{"user_id":337,"name":"Snek","steam_id":76561199213496927,"connected_time":815000000000,"state":"spawning","ping":73},{"user_id":305,"name":"êÇÉêÇÉêÇÉ","steam_id":76561198026563351,"connected_time":3520000000000,"state":"active","ping":99},{"user_id":340,"name":"chanoc","steam_id":76561198026734746,"connected_time":501000000000,"state":"active","ping":94},{"user_id":239,"name":"DMM","steam_id":76561198065426171,"connected_time":8258000000000,"state":"active","ping":50},{"user_id":292,"name":"Dogbone","steam_id":76561198145805801,"connected_time":4918000000000,"state":"spawning","ping":86},{"user_id":289,"name":"Genne","steam_id":76561198153434791,"connected_time":5035000000000,"state":"active","ping":145},{"user_id":327,"name":"judesro","steam_id":76561198352244888,"connected_time":1987000000000,"state":"active","ping":100},{"user_id":319,"name":"MancalaMadMan","steam_id":76561198347324053,"connected_time":2443000000000,"state":"active","ping":129},{"user_id":342,"name":"leesh","steam_id":76561198079603938,"connected_time":185000000000,"state":"active","ping":58},{"user_id":205,"name":"TheGFG","steam_id":76561198166150556,"connected_time":10527000000000,"state":"active","ping":66},{"user_id":299,"name":"The Foolish Samurai","steam_id":76561198094494945,"connected_time":4169000000000,"state":"spawning","ping":75}]},{"server_id":108,"name":"Uncletopia | Dallas | 2 | All Maps","name_short":"dal-2","host":"dal-1.us.uncletopia.com","port":27025,"enabled":true,"region":"us-central","cc":"us","latitude":32.779167,"longitude":-96.80889,"reserved":0,"last_update":"0001-01-01T00:00:00Z","name_a2s":"Uncletopia | Dallas | 2 | All Maps","protocol":17,"map":"pl_barnblitz","folder":"tf","game":"Team Fortress","app_id":440,"player_count":24,"max_players":24,"Bots":0,"server_type":"Dedicated","server_os":"Linux","password":true,"vac":true,"version":"7961495","steam_id":85568392924469988,"keywords":["nocrits","nodmgspread","payload","uncletopia"],"game_id":440,"stv_port":27026,"stv_name":"Uncletopia | Dallas | 2 | All Maps | STV","players":[{"user_id":173,"name":"crankshaft","steam_id":76561197992798282,"connected_time":266000000000,"state":"active","ping":81},{"user_id":171,"name":"Yeti","steam_id":76561199226373771,"connected_time":493000000000,"state":"active","ping":45},{"user_id":127,"name":"Beantama","steam_id":76561198986811476,"connected_time":3926000000000,"state":"active","ping":59},{"user_id":174,"name":"Bebop","steam_id":76561198010246894,"connected_time":260000000000,"state":"active","ping":74},{"user_id":141,"name":"4 life","steam_id":76561198175961598,"connected_time":2940000000000,"state":"active","ping":103},{"user_id":176,"name":"Owl Pacino","steam_id":76561197979970666,"connected_time":219000000000,"state":"active","ping":76},{"user_id":175,"name":"Jonah Hill from 21 Jump Street","steam_id":76561198811130843,"connected_time":242000000000,"state":"active","ping":102},{"user_id":139,"name":"cozy","steam_id":76561199044037628,"connected_time":3050000000000,"state":"active","ping":86},{"user_id":167,"name":"sigma_turbine","steam_id":76561198243286196,"connected_time":1156000000000,"state":"active","ping":82},{"user_id":155,"name":"Business_Goose","steam_id":76561199136405691,"connected_time":2641000000000,"state":"active","ping":131},{"user_id":153,"name":"Froggy Chair","steam_id":76561198259695175,"connected_time":2692000000000,"state":"active","ping":83},{"user_id":162,"name":"HEAVY WEATHER.","steam_id":76561198046884595,"connected_time":1925000000000,"state":"active","ping":94},{"user_id":170,"name":"john trevolta","steam_id":76561197998867160,"connected_time":580000000000,"state":"active","ping":97},{"user_id":177,"name":"Just A Skunk Femboy","steam_id":76561199080883834,"connected_time":218000000000,"state":"active","ping":90},{"user_id":159,"name":"Big Yoshi","steam_id":76561199160576376,"connected_time":2398000000000,"state":"active","ping":105},{"user_id":178,"name":"gretchling","steam_id":76561198046111695,"connected_time":217000000000,"state":"active","ping":49},{"user_id":134,"name":"5kPrime","steam_id":76561198039471915,"connected_time":3276000000000,"state":"active","ping":101},{"user_id":150,"name":"NGPlus","steam_id":76561198348945217,"connected_time":2749000000000,"state":"active","ping":137},{"user_id":158,"name":"LordOfTheNoobs","steam_id":76561197962697523,"connected_time":2422000000000,"state":"active","ping":75},{"user_id":152,"name":"Panda Loser","steam_id":76561198828745176,"connected_time":2742000000000,"state":"active","ping":86},{"user_id":179,"name":"ink","steam_id":76561198081308147,"connected_time":217000000000,"state":"active","ping":97},{"user_id":133,"name":"Hernandez$","steam_id":76561198019324588,"connected_time":3322000000000,"state":"active","ping":63},{"user_id":165,"name":"TornEvening99","steam_id":76561199471392265,"connected_time":1429000000000,"state":"active","ping":54},{"user_id":180,"name":"tydogzilla","steam_id":76561198054254518,"connected_time":211000000000,"state":"active","ping":91}]},{"server_id":404,"name":"Uncletopia | Dallas | 3 | All Maps","name_short":"dal-3","host":"dal-1.us.uncletopia.com","port":27035,"enabled":true,"region":"us-central","cc":"us","latitude":32.779167,"longitude":-96.80889,"reserved":0,"last_update":"0001-01-01T00:00:00Z","name_a2s":"Uncletopia | Dallas | 3 | All Maps","protocol":17,"map":"pl_hoodoo_final","folder":"tf","game":"Team Fortress","app_id":440,"player_count":18,"max_players":24,"Bots":0,"server_type":"Dedicated","server_os":"Linux","password":true,"vac":true,"version":"7961495","steam_id":85568392924515219,"keywords":["nocrits","nodmgspread","payload","uncletopia"],"game_id":440,"stv_port":27036,"stv_name":"Uncletopia | Dallas | 3 | All Maps | STV","players":[{"user_id":106,"name":"sophacles","steam_id":76561198953893481,"connected_time":189000000000,"state":"active","ping":86},{"user_id":5,"name":"andyiscolorless","steam_id":76561199239870921,"connected_time":7344000000000,"state":"active","ping":146},{"user_id":72,"name":"Indian Elephant From Pokemon","steam_id":76561198064249841,"connected_time":3826000000000,"state":"active","ping":86},{"user_id":101,"name":"sono","steam_id":76561198826878914,"connected_time":1679000000000,"state":"active","ping":63},{"user_id":107,"name":"webaline  =Ôºæ‚óè ‚ãè ‚óèÔºæ=","steam_id":76561199052450127,"connected_time":89000000000,"state":"spawning","ping":66},{"user_id":54,"name":"Carbonado","steam_id":76561198406495503,"connected_time":4327000000000,"state":"active","ping":46},{"user_id":108,"name":"Fewny","steam_id":76561198225977000,"connected_time":29000000000,"state":"active","ping":71},{"user_id":109,"name":"Gumba21","steam_id":76561199167640179,"connected_time":8000000000,"state":"spawning","ping":56},{"user_id":94,"name":"Shalom","steam_id":76561198410005222,"connected_time":1834000000000,"state":"active","ping":60},{"user_id":46,"name":"corviraptor (\u003c--- awesome)","steam_id":76561198058284392,"connected_time":4957000000000,"state":"active","ping":56},{"user_id":102,"name":"the chicken man","steam_id":76561198064302940,"connected_time":1664000000000,"state":"active","ping":87},{"user_id":93,"name":"Danoman47","steam_id":76561199377565865,"connected_time":1848000000000,"state":"active","ping":71},{"user_id":97,"name":"Project_Counter","steam_id":76561198152786076,"connected_time":1775000000000,"state":"active","ping":55},{"user_id":65,"name":"StudioMania (#SAVETF2)","steam_id":76561198211315795,"connected_time":4171000000000,"state":"active","ping":73},{"user_id":103,"name":"Esteban Delsin","steam_id":76561198433519639,"connected_time":1324000000000,"state":"active","ping":83},{"user_id":98,"name":"Le mont","steam_id":76561198059796593,"connected_time":1774000000000,"state":"active","ping":95},{"user_id":43,"name":"aight, who shit myself","steam_id":76561198062763756,"connected_time":5344000000000,"state":"active","ping":73},{"user_id":100,"name":"quiteabizarreone","steam_id":76561198407122862,"connected_time":1713000000000,"state":"active","ping":100}]},{"server_id":405,"name":"Uncletopia | Dallas | 4 | Community","name_short":"dal-4","host":"dal-1.us.uncletopia.com","port":27045,"enabled":true,"region":"us-central","cc":"us","latitude":32.779167,"longitude":-96.80889,"reserved":0,"last_update":"0001-01-01T00:00:00Z","name_a2s":"Uncletopia | Dallas | 4 | Community","protocol":17,"map":"workshop/pl_divulgence_b4b.ugc2884808746","folder":"tf","game":"Team Fortress","app_id":440,"player_count":0,"max_players":24,"Bots":0,"server_type":"Dedicated","server_os":"Linux","password":true,"vac":true,"version":"7961495","steam_id":85568392924515220,"keywords":["nocrits","nodmgspread","payload","uncletopia"],"game_id":440,"stv_port":27046,"stv_name":"Uncletopia | Dallas | 4 | Community | STV","players":null},{"server_id":5,"name":"Uncletopia | Frankfurt | 1 | All Maps","name_short":"frk-1","host":"frk-1.de.uncletopia.com","port":27015,"enabled":true,"region":"eu","cc":"de","latitude":50.110924,"longitude":8.682127,"reserved":0,"last_update":"0001-01-01T00:00:00Z","name_a2s":"Uncletopia | Frankfurt | 1 | All Maps","protocol":17,"map":"pl_borneo","folder":"tf","game":"Team Fortress","app_id":440,"player_count":23,"max_players":24,"Bots":0,"server_type":"Dedicated","server_os":"Linux","password":true,"vac":true,"version":"7961495","steam_id":85568392924469989,"keywords":["nocrits","nodmgspread","payload","uncletopia"],"game_id":440,"stv_port":27016,"stv_name":"Uncletopia | Frankfurt | 1 | All Maps | STV","players":[{"user_id":625,"name":"Killbasa","steam_id":76561198064868400,"connected_time":4261000000000,"state":"active","ping":130},{"user_id":671,"name":"Mista Baymort","steam_id":76561198367178355,"connected_time":61000000000,"state":"active","ping":64},{"user_id":633,"name":"BLACKBIRD CLOSE [she/her]","steam_id":76561198262910410,"connected_time":3241000000000,"state":"active","ping":90},{"user_id":674,"name":"Ash","steam_id":76561198148738525,"connected_time":9000000000,"state":"spawning","ping":116},{"user_id":652,"name":"Abro","steam_id":76561198349783352,"connected_time":1232000000000,"state":"active","ping":87},{"user_id":672,"name":"Dark Souls Reference","steam_id":76561198094102747,"connected_time":61000000000,"state":"active","ping":60},{"user_id":673,"name":"Kraken","steam_id":76561198203568537,"connected_time":45000000000,"state":"spawning","ping":59},{"user_id":664,"name":"orphan smeller","steam_id":76561198107876224,"connected_time":510000000000,"state":"active","ping":53},{"user_id":639,"name":"Jonak","steam_id":76561198080832458,"connected_time":2131000000000,"state":"active","ping":60},{"user_id":654,"name":"ATARAKSIA","steam_id":76561198119392756,"connected_time":1168000000000,"state":"active","ping":81},{"user_id":608,"name":"AdeAAa","steam_id":76561198974207724,"connected_time":5278000000000,"state":"active","ping":97},{"user_id":667,"name":"Calinvolea","steam_id":76561199193367863,"connected_time":274000000000,"state":"active","ping":57},{"user_id":646,"name":"Summer ‚ô•","steam_id":76561198047723907,"connected_time":1735000000000,"state":"active","ping":45},{"user_id":641,"name":"lil Insane Whiteballer","steam_id":76561198126987393,"connected_time":2048000000000,"state":"active","ping":58},{"user_id":650,"name":"TheCosmicCanister","steam_id":76561199106730382,"connected_time":1552000000000,"state":"active","ping":174},{"user_id":607,"name":"Nobody","steam_id":76561198151116796,"connected_time":5320000000000,"state":"active","ping":81},{"user_id":631,"name":"Urfangonultasadana","steam_id":76561199389286151,"connected_time":3763000000000,"state":"active","ping":92},{"user_id":662,"name":"froglids","steam_id":76561198045466919,"connected_time":594000000000,"state":"active","ping":63},{"user_id":636,"name":"fynta","steam_id":76561198315371425,"connected_time":2584000000000,"state":"active","ping":48},{"user_id":648,"name":"Benzo Fury","steam_id":76561198025259336,"connected_time":1692000000000,"state":"active","ping":54},{"user_id":670,"name":"Brian","steam_id":76561198077756206,"connected_time":191000000000,"state":"active","ping":58},{"user_id":655,"name":"Outlaw","steam_id":76561198389862837,"connected_time":1157000000000,"state":"active","ping":77},{"user_id":623,"name":"Aku+","steam_id":76561198813782795,"connected_time":4506000000000,"state":"active","ping":69}]},{"server_id":110,"name":"Uncletopia | Frankfurt | 2 | All Maps","name_short":"frk-2","host":"frk-1.de.uncletopia.com","port":27025,"enabled":true,"region":"eu","cc":"de","latitude":50.110924,"longitude":8.682127,"reserved":0,"last_update":"0001-01-01T00:00:00Z","name_a2s":"Uncletopia | Frankfurt | 2 | All Maps","protocol":17,"map":"cp_sunshine","folder":"tf","game":"Team Fortress","app_id":440,"player_count":0,"max_players":24,"Bots":0,"server_type":"Dedicated","server_os":"Linux","password":true,"vac":true,"version":"7961495","steam_id":85568392924469990,"keywords":["cp","nocrits","nodmgspread","uncletopia"],"game_id":440,"stv_port":27026,"stv_name":"Uncletopia | Frankfurt | 2 | All Maps | STV","players":null},{"server_id":308,"name":"Uncletopia | Frankfurt | 3 | All Maps","name_short":"frk-3","host":"frk-1.de.uncletopia.com","port":27035,"enabled":true,"region":"eu","cc":"de","latitude":50.110924,"longitude":8.682127,"reserved":0,"last_update":"0001-01-01T00:00:00Z","name_a2s":"Uncletopia | Frankfurt | 3 | All Maps","protocol":17,"map":"plr_bananabay","folder":"tf","game":"Team Fortress","app_id":440,"player_count":13,"max_players":24,"Bots":0,"server_type":"Dedicated","server_os":"Linux","password":true,"vac":true,"version":"7961495","steam_id":85568392924504274,"keywords":["nocrits","nodmgspread","payload","uncletopia"],"game_id":440,"stv_port":27036,"stv_name":"Uncletopia | Frankfurt | 3 | All Maps | STV","players":[{"user_id":792,"name":"TilkiLee","steam_id":76561199108512265,"connected_time":2908000000000,"state":"active","ping":88},{"user_id":804,"name":"Archive","steam_id":76561198071255385,"connected_time":1941000000000,"state":"active","ping":90},{"user_id":752,"name":"Stalin","steam_id":76561199221478774,"connected_time":5315000000000,"state":"active","ping":714},{"user_id":831,"name":"cloud","steam_id":76561198105983711,"connected_time":361000000000,"state":"active","ping":63},{"user_id":832,"name":"hisham","steam_id":76561198414437290,"connected_time":348000000000,"state":"active","ping":101},{"user_id":833,"name":"mage","steam_id":76561198049639319,"connected_time":85000000000,"state":"active","ping":66},{"user_id":834,"name":"khamba","steam_id":76561198054783240,"connected_time":60000000000,"state":"active","ping":690},{"user_id":807,"name":"Ryan Gosling (Literally me)","steam_id":76561198438150893,"connected_time":1724000000000,"state":"active","ping":102},{"user_id":772,"name":"PROFILE NAME","steam_id":76561198180056982,"connected_time":3897000000000,"state":"active","ping":59},{"user_id":825,"name":"Corvax","steam_id":76561198127439185,"connected_time":925000000000,"state":"active","ping":53},{"user_id":813,"name":"basedgod","steam_id":76561198313835012,"connected_time":1606000000000,"state":"active","ping":54},{"user_id":828,"name":"HOI","steam_id":76561198061182117,"connected_time":583000000000,"state":"active","ping":60},{"user_id":799,"name":"SPORKULES","steam_id":76561198035540562,"connected_time":2313000000000,"state":"active","ping":74}]},{"server_id":309,"name":"Uncletopia | Frankfurt | 4 | All Maps","name_short":"frk-4","host":"frk-1.de.uncletopia.com","port":27045,"enabled":true,"region":"eu","cc":"de","latitude":50.110924,"longitude":8.682127,"reserved":0,"last_update":"0001-01-01T00:00:00Z","name_a2s":"Uncletopia | Frankfurt | 4 | All Maps","protocol":17,"map":"koth_viaduct","folder":"tf","game":"Team Fortress","app_id":440,"player_count":0,"max_players":24,"Bots":0,"server_type":"Dedicated","server_os":"Linux","password":true,"vac":true,"version":"7961495","steam_id":85568392924504275,"keywords":["cp","nocrits","nodmgspread","uncletopia"],"game_id":440,"stv_port":27046,"stv_name":"Uncletopia | Frankfurt | 4 | All Maps | STV","players":null},{"server_id":310,"name":"Uncletopia | Frankfurt | 5 | All Maps","name_short":"frk-5","host":"frk-1.de.uncletopia.com","port":27055,"enabled":true,"region":"eu","cc":"de","latitude":50.110924,"longitude":8.682127,"reserved":0,"last_update":"0001-01-01T00:00:00Z","name_a2s":"Uncletopia | Frankfurt | 5 | All Maps","protocol":17,"map":"pl_barnblitz","folder":"tf","game":"Team Fortress","app_id":440,"player_count":0,"max_players":24,"Bots":0,"server_type":"Dedicated","server_os":"Linux","password":true,"vac":true,"version":"7961495","steam_id":85568392924504277,"keywords":["nocrits","nodmgspread","payload","uncletopia"],"game_id":440,"stv_port":27056,"stv_name":"Uncletopia | Frankfurt | 5 | All Maps | STV","players":null},{"server_id":311,"name":"Uncletopia | Frankfurt | 6 | All Maps","name_short":"frk-6","host":"frk-1.de.uncletopia.com","port":27065,"enabled":true,"region":"eu","cc":"de","latitude":50.110924,"longitude":8.682127,"reserved":0,"last_update":"0001-01-01T00:00:00Z","name_a2s":"Uncletopia | Frankfurt | 6 | All Maps","protocol":17,"map":"pl_barnblitz","folder":"tf","game":"Team Fortress","app_id":440,"player_count":0,"max_players":24,"Bots":0,"server_type":"Dedicated","server_os":"Linux","password":true,"vac":true,"version":"7961495","steam_id":85568392924504278,"keywords":["nocrits","nodmgspread","payload","uncletopia"],"game_id":440,"stv_port":27066,"stv_name":"Uncletopia | Frankfurt | 6 | All Maps | STV","players":null},{"server_id":23,"name":"Uncletopia | Frankfurt | 7 | Stopwatch","name_short":"frk-7","host":"frk-1.de.uncletopia.com","port":27075,"enabled":true,"region":"eu","cc":"de","latitude":50.110924,"longitude":8.682127,"reserved":0,"last_update":"0001-01-01T00:00:00Z","name_a2s":"Uncletopia | Frankfurt | 7 | Stopwatch","protocol":17,"map":"pl_frontier_final","folder":"tf","game":"Team Fortress","app_id":440,"player_count":0,"max_players":24,"Bots":0,"server_type":"Dedicated","server_os":"Linux","password":true,"vac":true,"version":"7961495","steam_id":85568392924742827,"keywords":["nocrits","nodmgspread","payload","uncletopia"],"game_id":440,"stv_port":27076,"stv_name":"Uncletopia | Frankfurt | 7 | Stopwatch | STV","players":null},{"server_id":24,"name":"Uncletopia | Frankfurt | 8 | Community","name_short":"frk-8","host":"frk-1.de.uncletopia.com","port":27085,"enabled":true,"region":"eu","cc":"de","latitude":50.110924,"longitude":8.682127,"reserved":0,"last_update":"0001-01-01T00:00:00Z","name_a2s":"Uncletopia | Frankfurt | 8 | Community","protocol":17,"map":"workshop/rd_asteroid_redux_b1.ugc2154902912","folder":"tf","game":"Team Fortress","app_id":440,"player_count":0,"max_players":24,"Bots":0,"server_type":"Dedicated","server_os":"Linux","password":true,"vac":true,"version":"7961495","steam_id":85568392924742828,"keywords":["beta","nocrits","nodmgspread","rd","uncletopia"],"game_id":440,"stv_port":27086,"stv_name":"Uncletopia | Frankfurt | 8 | Community | STV","players":null},{"server_id":202,"name":"Uncletopia | Hong Kong | 1 | All Maps","name_short":"hgk-1","host":"hgk-1.hk.uncletopia.com","port":27015,"enabled":true,"region":"asia","cc":"hk","latitude":22.302711,"longitude":114.177216,"reserved":0,"last_update":"0001-01-01T00:00:00Z","name_a2s":"Uncletopia | Hong Kong | 1 | All Maps","protocol":17,"map":"pl_frontier_final","folder":"tf","game":"Team Fortress","app_id":440,"player_count":0,"max_players":24,"Bots":0,"server_type":"Dedicated","server_os":"Linux","password":true,"vac":true,"version":"7961495","steam_id":85568392924494504,"keywords":["nocrits","nodmgspread","payload","uncletopia"],"game_id":440,"stv_port":27016,"stv_name":"Uncletopia | Hong Kong | 1 | All Maps | STV","players":null},{"server_id":1,"name":"Uncletopia | Los Angeles | 1 | All Maps","name_short":"lax-1","host":"lax-1.us.uncletopia.com","port":27015,"enabled":true,"region":"us-west","cc":"us","latitude":33.94279,"longitude":-118.41004,"reserved":0,"last_update":"0001-01-01T00:00:00Z","name_a2s":"Uncletopia | Los Angeles | 1 | All Maps","protocol":17,"map":"koth_lakeside_final","folder":"tf","game":"Team Fortress","app_id":440,"player_count":0,"max_players":24,"Bots":0,"server_type":"Dedicated","server_os":"Linux","password":true,"vac":true,"version":"7961495","steam_id":85568392924469991,"keywords":["cp","nocrits","nodmgspread","uncletopia"],"game_id":440,"stv_port":27016,"stv_name":"Uncletopia | Los Angeles | 1 | All Maps | STV","players":null},{"server_id":112,"name":"Uncletopia | Los Angeles | 2 | All Maps","name_short":"lax-2","host":"lax-1.us.uncletopia.com","port":27025,"enabled":true,"region":"us-west","cc":"us","latitude":33.94279,"longitude":-118.41004,"reserved":0,"last_update":"0001-01-01T00:00:00Z","name_a2s":"Uncletopia | Los Angeles | 2 | All Maps","protocol":17,"map":"koth_lakeside_final","folder":"tf","game":"Team Fortress","app_id":440,"player_count":0,"max_players":24,"Bots":0,"server_type":"Dedicated","server_os":"Linux","password":true,"vac":true,"version":"7961495","steam_id":85568392924469992,"keywords":["cp","nocrits","nodmgspread","uncletopia"],"game_id":440,"stv_port":27026,"stv_name":"Uncletopia | Los Angeles | 2 | All Maps | STV","players":null},{"server_id":324,"name":"Uncletopia | Los Angeles | 3 | All Maps","name_short":"lax-3","host":"lax-1.us.uncletopia.com","port":27035,"enabled":true,"region":"us-west","cc":"us","latitude":33.94279,"longitude":-118.41004,"reserved":0,"last_update":"0001-01-01T00:00:00Z","name_a2s":"Uncletopia | Los Angeles | 3 | All Maps","protocol":17,"map":"cp_process_final","folder":"tf","game":"Team Fortress","app_id":440,"player_count":0,"max_players":24,"Bots":0,"server_type":"Dedicated","server_os":"Linux","password":true,"vac":true,"version":"7961495","steam_id":85568392924510198,"keywords":["cp","nocrits","nodmgspread","uncletopia"],"game_id":440,"stv_port":27036,"stv_name":"Uncletopia | Los Angeles | 3 | All Maps | STV","players":null},{"server_id":25,"name":"Uncletopia | Los Angeles | 4 | Stopwatch","name_short":"lax-4","host":"lax-1.us.uncletopia.com","port":27045,"enabled":true,"region":"us-west","cc":"us","latitude":33.94279,"longitude":-118.41004,"reserved":0,"last_update":"0001-01-01T00:00:00Z","name_a2s":"Uncletopia | Los Angeles | 4 | Stopwatch","protocol":17,"map":"pl_barnblitz","folder":"tf","game":"Team Fortress","app_id":440,"player_count":0,"max_players":24,"Bots":0,"server_type":"Dedicated","server_os":"Linux","password":true,"vac":true,"version":"7961495","steam_id":85568392924510199,"keywords":["nocrits","nodmgspread","payload","uncletopia"],"game_id":440,"stv_port":27046,"stv_name":"Uncletopia | Los Angeles | 4 | Stopwatch | STV","players":null},{"server_id":11,"name":"Uncletopia | London | 1 | All Maps","name_short":"lon-1","host":"lon-1.uk.uncletopia.com","port":27015,"enabled":true,"region":"eu","cc":"gb","latitude":51.509865,"longitude":-0.118092,"reserved":0,"last_update":"0001-01-01T00:00:00Z","name_a2s":"Uncletopia | London | 1 | All Maps","protocol":17,"map":"pl_barnblitz","folder":"tf","game":"Team Fortress","app_id":440,"player_count":24,"max_players":24,"Bots":0,"server_type":"Dedicated","server_os":"Linux","password":true,"vac":true,"version":"7961495","steam_id":85568392924367362,"keywords":["nocrits","nodmgspread","payload","uncletopia"],"game_id":440,"stv_port":27016,"stv_name":"Uncletopia | London | 1 | All Maps | STV","players":[{"user_id":582,"name":"snowii","steam_id":76561198836246326,"connected_time":104000000000,"state":"active","ping":46},{"user_id":561,"name":"Tanukibouwer","steam_id":76561198225438832,"connected_time":673000000000,"state":"active","ping":55},{"user_id":554,"name":"cuddle","steam_id":76561198805181599,"connected_time":1005000000000,"state":"active","ping":58},{"user_id":521,"name":"sora","steam_id":76561198096547662,"connected_time":5535000000000,"state":"active","ping":49},{"user_id":555,"name":"sad monkey hands on his head","steam_id":76561198116530769,"connected_time":946000000000,"state":"active","ping":204},{"user_id":542,"name":"Slifer the Sky Furry","steam_id":76561198062255803,"connected_time":2513000000000,"state":"active","ping":73},{"user_id":562,"name":"ROX","steam_id":76561198272289320,"connected_time":622000000000,"state":"active","ping":58},{"user_id":577,"name":"Time to die","steam_id":76561198081642249,"connected_time":238000000000,"state":"active","ping":55},{"user_id":575,"name":"MakeItRainbow","steam_id":76561198045098064,"connected_time":281000000000,"state":"active","ping":71},{"user_id":548,"name":"beebo","steam_id":76561199120277007,"connected_time":1154000000000,"state":"active","ping":42},{"user_id":551,"name":"R0mulone","steam_id":76561198352513792,"connected_time":1119000000000,"state":"active","ping":60},{"user_id":559,"name":"s a i","steam_id":76561197970379754,"connected_time":854000000000,"state":"active","ping":63},{"user_id":545,"name":"shooer! (Birthday!!!)","steam_id":76561198110531281,"connected_time":2003000000000,"state":"active","ping":71},{"user_id":565,"name":"Jonno","steam_id":76561198023443744,"connected_time":475000000000,"state":"active","ping":45},{"user_id":512,"name":"Finem Belli","steam_id":76561198227177976,"connected_time":6537000000000,"state":"active","ping":49},{"user_id":566,"name":"rummy","steam_id":76561197997573379,"connected_time":460000000000,"state":"active","ping":42},{"user_id":576,"name":"zherny","steam_id":76561198027033926,"connected_time":277000000000,"state":"active","ping":45},{"user_id":571,"name":"Sabour","steam_id":76561197963965445,"connected_time":343000000000,"state":"active","ping":70},{"user_id":531,"name":"stroyo","steam_id":76561198409592046,"connected_time":4261000000000,"state":"active","ping":42},{"user_id":550,"name":"xva","steam_id":76561198969286813,"connected_time":1142000000000,"state":"active","ping":60},{"user_id":581,"name":"s.ghost","steam_id":76561198851865793,"connected_time":168000000000,"state":"active","ping":46},{"user_id":536,"name":"That Bussy Can Squirt","steam_id":76561199185615752,"connected_time":3210000000000,"state":"active","ping":50},{"user_id":578,"name":"etc","steam_id":76561197998394797,"connected_time":234000000000,"state":"active","ping":46},{"user_id":579,"name":"ThunderStorm","steam_id":76561197980836030,"connected_time":232000000000,"state":"active","ping":110}]},{"server_id":114,"name":"Uncletopia | London | 2 | All Maps","name_short":"lon-2","host":"lon-1.uk.uncletopia.com","port":27025,"enabled":true,"region":"eu","cc":"gb","latitude":51.509865,"longitude":-0.118092,"reserved":0,"last_update":"0001-01-01T00:00:00Z","name_a2s":"Uncletopia | London | 2 | All Maps","protocol":17,"map":"pl_barnblitz","folder":"tf","game":"Team Fortress","app_id":440,"player_count":0,"max_players":24,"Bots":0,"server_type":"Dedicated","server_os":"Linux","password":true,"vac":true,"version":"7961495","steam_id":85568392924470941,"keywords":["nocrits","nodmgspread","payload","uncletopia"],"game_id":440,"stv_port":27026,"stv_name":"Uncletopia | London | 2 | All Maps | STV","players":null},{"server_id":320,"name":"Uncletopia | London | 3 | All Maps","name_short":"lon-3","host":"lon-1.uk.uncletopia.com","port":27035,"enabled":true,"region":"eu","cc":"gb","latitude":51.509865,"longitude":-0.118092,"reserved":0,"last_update":"0001-01-01T00:00:00Z","name_a2s":"Uncletopia | London | 3 | All Maps","protocol":17,"map":"pl_pier","folder":"tf","game":"Team Fortress","app_id":440,"player_count":24,"max_players":24,"Bots":0,"server_type":"Dedicated","server_os":"Linux","password":true,"vac":true,"version":"7961495","steam_id":85568392924510192,"keywords":["nocrits","nodmgspread","payload","uncletopia"],"game_id":440,"stv_port":27036,"stv_name":"Uncletopia | London | 3 | All Maps | STV","players":[{"user_id":368,"name":"Carlton Banks","steam_id":76561198300996149,"connected_time":4249000000000,"state":"active","ping":45},{"user_id":377,"name":"Glowstick Muncher","steam_id":76561198066282859,"connected_time":3802000000000,"state":"active","ping":30},{"user_id":432,"name":"Phalcon","steam_id":76561197987051394,"connected_time":72000000000,"state":"active","ping":83},{"user_id":423,"name":"HoneyOTU","steam_id":76561198200366607,"connected_time":289000000000,"state":"active","ping":152},{"user_id":420,"name":"mode nemo","steam_id":76561198002990168,"connected_time":410000000000,"state":"active","ping":47},{"user_id":430,"name":"Tusho","steam_id":76561198115447383,"connected_time":112000000000,"state":"active","ping":81},{"user_id":428,"name":"76561198439418009","steam_id":76561198439418009,"connected_time":163000000000,"state":"active","ping":93},{"user_id":422,"name":"Hans","steam_id":76561198030061999,"connected_time":401000000000,"state":"active","ping":78},{"user_id":260,"name":"soap lore 12","steam_id":76561198058879767,"connected_time":12169000000000,"state":"active","ping":39},{"user_id":411,"name":"Chucky.","steam_id":76561197969361063,"connected_time":1602000000000,"state":"active","ping":76},{"user_id":391,"name":"Jimmy","steam_id":76561198236833426,"connected_time":3075000000000,"state":"active","ping":85},{"user_id":424,"name":"soy milk drinker","steam_id":76561198034955422,"connected_time":269000000000,"state":"active","ping":52},{"user_id":431,"name":"ScampSixteen","steam_id":76561198021771000,"connected_time":101000000000,"state":"active","ping":53},{"user_id":356,"name":"Cataleptic","steam_id":76561197997966949,"connected_time":4708000000000,"state":"active","ping":58},{"user_id":417,"name":". . .","steam_id":76561198184360615,"connected_time":585000000000,"state":"active","ping":104},{"user_id":429,"name":"DarthMurloc_OW","steam_id":76561198075577711,"connected_time":143000000000,"state":"active","ping":79},{"user_id":427,"name":"Fantachoik","steam_id":76561198404929975,"connected_time":204000000000,"state":"active","ping":57},{"user_id":402,"name":"ack","steam_id":76561198139796077,"connected_time":1941000000000,"state":"active","ping":48},{"user_id":433,"name":"Caramelion","steam_id":76561198097429047,"connected_time":50000000000,"state":"active","ping":65},{"user_id":434,"name":"w+m1","steam_id":76561198010428082,"connected_time":50000000000,"state":"active","ping":70},{"user_id":435,"name":"–î–∂–µ–∫–µ—Ç","steam_id":76561198327897125,"connected_time":45000000000,"state":"active","ping":112},{"user_id":436,"name":"Haha?","steam_id":76561198056882245,"connected_time":40000000000,"state":"active","ping":32},{"user_id":437,"name":"iswaxan","steam_id":76561199214988157,"connected_time":38000000000,"state":"active","ping":76},{"user_id":438,"name":"can u die from gargling honey","steam_id":76561197996269312,"connected_time":28000000000,"state":"active","ping":30}]},{"server_id":321,"name":"Uncletopia | London | 4 | All Maps","name_short":"lon-4","host":"lon-1.uk.uncletopia.com","port":27045,"enabled":true,"region":"eu","cc":"gb","latitude":51.509865,"longitude":-0.118092,"reserved":0,"last_update":"0001-01-01T00:00:00Z","name_a2s":"Uncletopia | London | 4 | All Maps","protocol":17,"map":"cp_dustbowl","folder":"tf","game":"Team Fortress","app_id":440,"player_count":24,"max_players":24,"Bots":0,"server_type":"Dedicated","server_os":"Linux","password":true,"vac":true,"version":"7961495","steam_id":85568392924510193,"keywords":["cp","nocrits","nodmgspread","uncletopia"],"game_id":440,"stv_port":27046,"stv_name":"Uncletopia | London | 4 | All Maps | STV","players":[{"user_id":181,"name":"Chicken Fillet","steam_id":76561198062267267,"connected_time":2390000000000,"state":"active","ping":115},{"user_id":204,"name":"harryhux","steam_id":76561198228052940,"connected_time":932000000000,"state":"active","ping":34},{"user_id":173,"name":"kbourbery","steam_id":76561198109943492,"connected_time":3612000000000,"state":"active","ping":45},{"user_id":207,"name":"Angelo254","steam_id":76561198327226011,"connected_time":841000000000,"state":"active","ping":73},{"user_id":182,"name":"Meow","steam_id":76561198062433153,"connected_time":2325000000000,"state":"active","ping":117},{"user_id":184,"name":"Mongoose88","steam_id":76561197961442445,"connected_time":2215000000000,"state":"active","ping":146},{"user_id":196,"name":"mr","steam_id":76561199037541925,"connected_time":1308000000000,"state":"active","ping":61},{"user_id":217,"name":"Deformed Gollum","steam_id":76561198155563589,"connected_time":315000000000,"state":"active","ping":46},{"user_id":163,"name":"caramelldancin'","steam_id":76561198193357946,"connected_time":4234000000000,"state":"active","ping":99},{"user_id":206,"name":"Glacierwinter","steam_id":76561198229675152,"connected_time":852000000000,"state":"active","ping":69},{"user_id":218,"name":"CHELOVEK_YAYCA","steam_id":76561198165428648,"connected_time":226000000000,"state":"active","ping":133},{"user_id":212,"name":"DonutellaÓÑÉ","steam_id":76561198193972491,"connected_time":462000000000,"state":"active","ping":47},{"user_id":78,"name":"sarii ‚òÜ","steam_id":76561199155102111,"connected_time":12057000000000,"state":"active","ping":84},{"user_id":219,"name":"HeavyMettleDick","steam_id":76561198001925087,"connected_time":194000000000,"state":"active","ping":150},{"user_id":209,"name":"√áodar","steam_id":76561198235518444,"connected_time":775000000000,"state":"active","ping":37},{"user_id":153,"name":"Robyn","steam_id":76561198140713805,"connected_time":4843000000000,"state":"active","ping":68},{"user_id":74,"name":"Finn","steam_id":76561198179960193,"connected_time":12092000000000,"state":"active","ping":32},{"user_id":154,"name":"Skippy","steam_id":76561199245844181,"connected_time":4841000000000,"state":"active","ping":57},{"user_id":190,"name":"Coptimus10","steam_id":76561199074912882,"connected_time":2133000000000,"state":"active","ping":143},{"user_id":210,"name":"Davey","steam_id":76561198256879107,"connected_time":764000000000,"state":"active","ping":76},{"user_id":215,"name":"Thog","steam_id":76561198093699060,"connected_time":400000000000,"state":"active","ping":116},{"user_id":199,"name":"Ham Merchant","steam_id":76561198389947352,"connected_time":1220000000000,"state":"active","ping":85},{"user_id":202,"name":"Vexu","steam_id":76561198113145846,"connected_time":1126000000000,"state":"active","ping":89},{"user_id":216,"name":"Level 1 Noob","steam_id":76561198088586340,"connected_time":354000000000,"state":"active","ping":62}]},{"server_id":21,"name":"Uncletopia | London | 5 | All Maps","name_short":"lon-5","host":"lon-1.uk.uncletopia.com","port":27055,"enabled":true,"region":"eu","cc":"gb","latitude":51.509865,"longitude":-0.118092,"reserved":0,"last_update":"0001-01-01T00:00:00Z","name_a2s":"Uncletopia | London | 5 | All Maps","protocol":17,"map":"koth_highpass","folder":"tf","game":"Team Fortress","app_id":440,"player_count":0,"max_players":24,"Bots":0,"server_type":"Dedicated","server_os":"Linux","password":true,"vac":true,"version":"7961495","steam_id":85568392924742829,"keywords":["cp","nocrits","nodmgspread","uncletopia"],"game_id":440,"stv_port":27056,"stv_name":"Uncletopia | London | 5 | All Maps | STV","players":null},{"server_id":22,"name":"Uncletopia | London | 6 | All Maps","name_short":"lon-6","host":"lon-1.uk.uncletopia.com","port":27065,"enabled":true,"region":"eu","cc":"gb","latitude":51.509865,"longitude":-0.118092,"reserved":0,"last_update":"0001-01-01T00:00:00Z","name_a2s":"Uncletopia | London | 6 | All Maps","protocol":17,"map":"pl_pier","folder":"tf","game":"Team Fortress","app_id":440,"player_count":0,"max_players":24,"Bots":0,"server_type":"Dedicated","server_os":"Linux","password":true,"vac":true,"version":"7961495","steam_id":85568392924742830,"keywords":["nocrits","nodmgspread","payload","uncletopia"],"game_id":440,"stv_port":27066,"stv_name":"Uncletopia | London | 6 | All Maps | STV","players":null},{"server_id":40,"name":"Uncletopia | London | 7 | Stopwatch","name_short":"lon-7","host":"lon-1.uk.uncletopia.com","port":27075,"enabled":true,"region":"eu","cc":"gb","latitude":51.509865,"longitude":-0.118092,"reserved":0,"last_update":"0001-01-01T00:00:00Z","name_a2s":"Uncletopia | London | 7 | Stopwatch","protocol":17,"map":"workshop/koth_ashville_final.ugc2130459942","folder":"tf","game":"Team Fortress","app_id":440,"player_count":0,"max_players":24,"Bots":0,"server_type":"Dedicated","server_os":"Linux","password":true,"vac":true,"version":"7961495","steam_id":85568392924964314,"keywords":["cp","nocrits","nodmgspread","uncletopia"],"game_id":440,"stv_port":27076,"stv_name":"Uncletopia | London | 7 | Stopwatch | STV","players":null},{"server_id":41,"name":"Uncletopia | London | 8 | Community","name_short":"lon-8","host":"lon-1.uk.uncletopia.com","port":27085,"enabled":true,"region":"eu","cc":"gb","latitude":51.509865,"longitude":-0.118092,"reserved":0,"last_update":"0001-01-01T00:00:00Z","name_a2s":"Uncletopia | London | 8 | Community","protocol":17,"map":"workshop/koth_product_final.ugc454272353","folder":"tf","game":"Team Fortress","app_id":440,"player_count":1,"max_players":24,"Bots":0,"server_type":"Dedicated","server_os":"Linux","password":true,"vac":true,"version":"7961495","steam_id":85568392924964315,"keywords":["cp","nocrits","nodmgspread","uncletopia"],"game_id":440,"stv_port":27086,"stv_name":"Uncletopia | London | 8 | Community | STV","players":[{"user_id":18,"name":"Gob07","steam_id":76561199182212668,"connected_time":4470000000000,"state":"active","ping":128}]},{"server_id":300,"name":"Uncletopia | Montr√©al | 1 | One Thousand Uncles","name_short":"mtl-1","host":"mtl-1.ca.uncletopia.com","port":27015,"enabled":true,"region":"us-east","cc":"ca","latitude":45.50889,"longitude":-73.56167,"reserved":0,"last_update":"0001-01-01T00:00:00Z","name_a2s":"","protocol":0,"map":"","folder":"","game":"","app_id":0,"player_count":15,"max_players":0,"Bots":0,"server_type":"","server_os":"","password":false,"vac":false,"version":"","steam_id":0,"keywords":null,"game_id":0,"stv_port":0,"stv_name":"","players":[{"user_id":58,"name":"Hoxatron","steam_id":76561198136288818,"connected_time":524000000000,"state":"active","ping":87},{"user_id":3,"name":"‡∏∏","steam_id":76561198084134025,"connected_time":1615000000000,"state":"active","ping":90},{"user_id":4,"name":"Rayzen","steam_id":76561199468796639,"connected_time":1614000000000,"state":"active","ping":89},{"user_id":50,"name":"Anthid","steam_id":76561198074493797,"connected_time":1250000000000,"state":"active","ping":86},{"user_id":6,"name":"Moonly Days","steam_id":76561198188657895,"connected_time":1610000000000,"state":"active","ping":160},{"user_id":25,"name":"I just joined","steam_id":76561198057999536,"connected_time":1580000000000,"state":"active","ping":105},{"user_id":60,"name":"Ping","steam_id":76561199206514106,"connected_time":89000000000,"state":"active","ping":74},{"user_id":24,"name":"gideon nav my beloved","steam_id":76561198259092181,"connected_time":1600000000000,"state":"active","ping":56},{"user_id":42,"name":"Adam (Cursed Confetti Creature)","steam_id":76561198317690197,"connected_time":1550000000000,"state":"active","ping":61},{"user_id":52,"name":"Andallfor","steam_id":76561198350143349,"connected_time":1107000000000,"state":"active","ping":63},{"user_id":44,"name":"AYAYA!!!","steam_id":76561198992102180,"connected_time":1504000000000,"state":"active","ping":64},{"user_id":45,"name":"Riandox","steam_id":76561198130577326,"connected_time":1414000000000,"state":"active","ping":50},{"user_id":46,"name":"kermit","steam_id":76561198099928281,"connected_time":1373000000000,"state":"active","ping":83},{"user_id":47,"name":"Zorospo","steam_id":76561198369967690,"connected_time":1321000000000,"state":"active","ping":78},{"user_id":59,"name":"twix","steam_id":76561198040912048,"connected_time":150000000000,"state":"active","ping":40}]},{"server_id":301,"name":"Uncletopia | Montr√©al | 2 | One Thousand Uncles","name_short":"mtl-2","host":"mtl-1.ca.uncletopia.com","port":27025,"enabled":true,"region":"us-east","cc":"ca","latitude":45.50889,"longitude":-73.56167,"reserved":0,"last_update":"0001-01-01T00:00:00Z","name_a2s":"","protocol":0,"map":"","folder":"","game":"","app_id":0,"player_count":1,"max_players":0,"Bots":0,"server_type":"","server_os":"","password":false,"vac":false,"version":"","steam_id":0,"keywords":null,"game_id":0,"stv_port":0,"stv_name":"","players":[{"user_id":2,"name":"Reza The Cool","steam_id":76561198372285506,"connected_time":383000000000,"state":"active","ping":44}]},{"server_id":302,"name":"Uncletopia | Montr√©al | 3 | One Thousand Uncles","name_short":"mtl-3","host":"mtl-1.ca.uncletopia.com","port":27035,"enabled":true,"region":"us-east","cc":"ca","latitude":45.50889,"longitude":-73.56167,"reserved":0,"last_update":"0001-01-01T00:00:00Z","name_a2s":"","protocol":0,"map":"","folder":"","game":"","app_id":0,"player_count":0,"max_players":0,"Bots":0,"server_type":"","server_os":"","password":false,"vac":false,"version":"","steam_id":0,"keywords":null,"game_id":0,"stv_port":0,"stv_name":"","players":null},{"server_id":13,"name":"Uncletopia | New York City | 1 | All Maps","name_short":"nyc-1","host":"nyc-1.us.uncletopia.com","port":27015,"enabled":true,"region":"us-east","cc":"us","latitude":40.73061,"longitude":-73.93524,"reserved":0,"last_update":"0001-01-01T00:00:00Z","name_a2s":"Uncletopia | New York City | 1 | All Maps","protocol":17,"map":"pl_snowycoast","folder":"tf","game":"Team Fortress","app_id":440,"player_count":24,"max_players":24,"Bots":0,"server_type":"Dedicated","server_os":"Linux","password":true,"vac":true,"version":"7961495","steam_id":85568392924469993,"keywords":["nocrits","nodmgspread","payload","uncletopia"],"game_id":440,"stv_port":27016,"stv_name":"Uncletopia | New York City | 1 | All Maps | STV","players":[{"user_id":310,"name":"rando","steam_id":76561197982325629,"connected_time":2598000000000,"state":"active","ping":74},{"user_id":336,"name":"Joy","steam_id":76561198073690173,"connected_time":1399000000000,"state":"active","ping":57},{"user_id":370,"name":"Drapph","steam_id":76561199384213314,"connected_time":22000000000,"state":"spawning","ping":368},{"user_id":355,"name":"Nic0","steam_id":76561198305690218,"connected_time":320000000000,"state":"active","ping":59},{"user_id":359,"name":"Johnny Lawrence #JohnnyMaxxing","steam_id":76561199367141671,"connected_time":278000000000,"state":"active","ping":45},{"user_id":364,"name":"Hawkborne","steam_id":76561198107249245,"connected_time":212000000000,"state":"active","ping":99},{"user_id":309,"name":"Top Frog","steam_id":76561198072793446,"connected_time":2725000000000,"state":"active","ping":69},{"user_id":357,"name":"BarrowBaron","steam_id":76561198013633236,"connected_time":292000000000,"state":"active","ping":64},{"user_id":337,"name":"WolfintheWires","steam_id":76561197998385084,"connected_time":1286000000000,"state":"active","ping":73},{"user_id":298,"name":"Bippums","steam_id":76561198366406729,"connected_time":3189000000000,"state":"active","ping":90},{"user_id":358,"name":"INFINITE","steam_id":76561197971285557,"connected_time":283000000000,"state":"active","ping":55},{"user_id":360,"name":"‚¨û","steam_id":76561199052840531,"connected_time":270000000000,"state":"active","ping":58},{"user_id":369,"name":"1000 Gigglebytes of clown girls","steam_id":76561198290719848,"connected_time":127000000000,"state":"active","ping":90},{"user_id":371,"name":"yum.yum.frosty","steam_id":76561199216800450,"connected_time":10000000000,"state":"active","ping":104},{"user_id":366,"name":"Chimpish","steam_id":76561199263493270,"connected_time":192000000000,"state":"active","ping":96},{"user_id":346,"name":"Tablaro","steam_id":76561198076915673,"connected_time":1045000000000,"state":"active","ping":62},{"user_id":351,"name":"Qwegg","steam_id":76561198205510383,"connected_time":621000000000,"state":"active","ping":67},{"user_id":342,"name":"Trigger!","steam_id":76561198061514186,"connected_time":1130000000000,"state":"active","ping":88},{"user_id":278,"name":"yes daddy","steam_id":76561198166100997,"connected_time":5644000000000,"state":"active","ping":65},{"user_id":367,"name":"yovachacha","steam_id":76561199494716588,"connected_time":175000000000,"state":"active","ping":60},{"user_id":353,"name":"humble cat","steam_id":76561198299040854,"connected_time":457000000000,"state":"active","ping":143},{"user_id":334,"name":"bran","steam_id":76561199028457134,"connected_time":1441000000000,"state":"active","ping":44},{"user_id":354,"name":"Lemonade :3","steam_id":76561199109806211,"connected_time":419000000000,"state":"active","ping":95},{"user_id":301,"name":"Nobody","steam_id":76561198286486517,"connected_time":3104000000000,"state":"active","ping":76}]},{"server_id":14,"name":"Uncletopia | New York City | 2 | All Maps","name_short":"nyc-2","host":"nyc-1.us.uncletopia.com","port":27025,"enabled":true,"region":"us-east","cc":"us","latitude":40.73061,"longitude":-73.93524,"reserved":0,"last_update":"0001-01-01T00:00:00Z","name_a2s":"Uncletopia | New York City | 2 | All Maps","protocol":17,"map":"cp_egypt_final","folder":"tf","game":"Team Fortress","app_id":440,"player_count":0,"max_players":24,"Bots":0,"server_type":"Dedicated","server_os":"Linux","password":true,"vac":true,"version":"7961495","steam_id":85568392924469994,"keywords":["cp","nocrits","nodmgspread","uncletopia"],"game_id":440,"stv_port":27026,"stv_name":"Uncletopia | New York City | 2 | All Maps | STV","players":null},{"server_id":15,"name":"Uncletopia | New York City | 3 | Stopwatch","name_short":"nyc-3","host":"nyc-1.us.uncletopia.com","port":27035,"enabled":true,"region":"us-east","cc":"us","latitude":40.73061,"longitude":-73.93524,"reserved":0,"last_update":"0001-01-01T00:00:00Z","name_a2s":"Uncletopia | New York City | 3 | Stopwatch","protocol":17,"map":"cp_metalworks","folder":"tf","game":"Team Fortress","app_id":440,"player_count":0,"max_players":24,"Bots":0,"server_type":"Dedicated","server_os":"Linux","password":true,"vac":true,"version":"7961495","steam_id":85568392924742820,"keywords":["cp","nocrits","nodmgspread","uncletopia"],"game_id":440,"stv_port":27036,"stv_name":"Uncletopia | New York City | 3 | Stopwatch | STV","players":null},{"server_id":16,"name":"Uncletopia | New York City | 4 | Community","name_short":"nyc-4","host":"nyc-1.us.uncletopia.com","port":27045,"enabled":true,"region":"us-east","cc":"us","latitude":40.73061,"longitude":-73.93524,"reserved":0,"last_update":"0001-01-01T00:00:00Z","name_a2s":"Uncletopia | New York City | 4 | Community","protocol":17,"map":"workshop/cp_villa_b19.ugc2113052569","folder":"tf","game":"Team Fortress","app_id":440,"player_count":0,"max_players":24,"Bots":0,"server_type":"Dedicated","server_os":"Linux","password":true,"vac":true,"version":"7961495","steam_id":85568392924742821,"keywords":["cp","nocrits","nodmgspread","uncletopia"],"game_id":440,"stv_port":27046,"stv_name":"Uncletopia | New York City | 4 | Community | STV","players":null},{"server_id":142,"name":"Uncletopia | S√£o Paulo | 1 | All Maps","name_short":"sao-1","host":"sao-1.br.uncletopia.com","port":27015,"enabled":true,"region":"sa","cc":"br","latitude":-23.533773,"longitude":-46.62529,"reserved":0,"last_update":"0001-01-01T00:00:00Z","name_a2s":"Uncletopia | S√£o Paulo | 1 | All Maps","protocol":17,"map":"koth_highpass","folder":"tf","game":"Team Fortress","app_id":440,"player_count":3,"max_players":24,"Bots":0,"server_type":"Dedicated","server_os":"Linux","password":true,"vac":true,"version":"7961495","steam_id":85568392924469996,"keywords":["cp","nocrits","nodmgspread","uncletopia"],"game_id":440,"stv_port":27016,"stv_name":"Uncletopia | S√£o Paulo | 1 | All Maps | STV","players":[{"user_id":13,"name":"Dr_Nimbos","steam_id":76561198931005898,"connected_time":679000000000,"state":"active","ping":54},{"user_id":14,"name":"furioS","steam_id":76561198425691845,"connected_time":663000000000,"state":"active","ping":31},{"user_id":15,"name":"Jabuti","steam_id":76561199302886248,"connected_time":438000000000,"state":"active","ping":84}]},{"server_id":143,"name":"Uncletopia | S√£o Paulo | 2 | Community","name_short":"sao-2","host":"sao-2.br.uncletopia.com","port":27015,"enabled":true,"region":"sa","cc":"br","latitude":-23.533773,"longitude":-46.62529,"reserved":0,"last_update":"0001-01-01T00:00:00Z","name_a2s":"Uncletopia | S√£o Paulo | 2 | Community","protocol":17,"map":"workshop/koth_bagel_rc6.ugc2514036946","folder":"tf","game":"Team Fortress","app_id":440,"player_count":0,"max_players":24,"Bots":0,"server_type":"Dedicated","server_os":"Linux","password":true,"vac":true,"version":"7961495","steam_id":85568392924485349,"keywords":["cp","nocrits","nodmgspread","uncletopia"],"game_id":440,"stv_port":27016,"stv_name":"Uncletopia | S√£o Paulo | 2 | Community | STV","players":null},{"server_id":7,"name":"Uncletopia | Seattle | 1 | All Maps","name_short":"sea-1","host":"sea-1.us.uncletopia.com","port":27015,"enabled":true,"region":"us-west","cc":"us","latitude":47.608013,"longitude":-122.33517,"reserved":0,"last_update":"0001-01-01T00:00:00Z","name_a2s":"Uncletopia | Seattle | 1 | All Maps","protocol":17,"map":"pl_borneo","folder":"tf","game":"Team Fortress","app_id":440,"player_count":19,"max_players":24,"Bots":0,"server_type":"Dedicated","server_os":"Linux","password":true,"vac":true,"version":"7961495","steam_id":85568392924469997,"keywords":["nocrits","nodmgspread","payload","uncletopia"],"game_id":440,"stv_port":27016,"stv_name":"Uncletopia | Seattle | 1 | All Maps | STV","players":[{"user_id":494,"name":"Jebediah Johnson","steam_id":76561198398346021,"connected_time":655000000000,"state":"active","ping":45},{"user_id":493,"name":"Konojo (China's Sweetheart)","steam_id":76561198096894757,"connected_time":685000000000,"state":"active","ping":81},{"user_id":495,"name":"2 Point Tom","steam_id":76561198087617008,"connected_time":535000000000,"state":"active","ping":45},{"user_id":496,"name":"Excalibrine","steam_id":76561198129312118,"connected_time":463000000000,"state":"active","ping":39},{"user_id":497,"name":"Grassman (Cc)","steam_id":76561198026488532,"connected_time":462000000000,"state":"active","ping":60},{"user_id":498,"name":"MEEPking","steam_id":76561198277668880,"connected_time":448000000000,"state":"active","ping":75},{"user_id":507,"name":"Boyaredeen","steam_id":76561198880492636,"connected_time":48000000000,"state":"active","ping":169},{"user_id":350,"name":"scallop pigeon","steam_id":76561199488457138,"connected_time":12252000000000,"state":"active","ping":52},{"user_id":468,"name":"Karg","steam_id":76561198091387866,"connected_time":2745000000000,"state":"active","ping":62},{"user_id":503,"name":"dogerich404","steam_id":76561199124102546,"connected_time":112000000000,"state":"active","ping":75},{"user_id":501,"name":"pablo","steam_id":76561199182194253,"connected_time":258000000000,"state":"active","ping":111},{"user_id":504,"name":"Gunguy1011","steam_id":76561198343293373,"connected_time":98000000000,"state":"active","ping":37},{"user_id":505,"name":"muddy","steam_id":76561198035015260,"connected_time":79000000000,"state":"active","ping":80},{"user_id":483,"name":"CHIEF_JUSTICE_FUCKASS","steam_id":76561199261675844,"connected_time":1572000000000,"state":"active","ping":41},{"user_id":506,"name":"MANYAH!!","steam_id":76561198043757265,"connected_time":75000000000,"state":"active","ping":63},{"user_id":508,"name":"whole lotta nuthin","steam_id":76561198305201458,"connected_time":45000000000,"state":"active","ping":116},{"user_id":471,"name":"Eraser cat","steam_id":76561199045570463,"connected_time":2643000000000,"state":"active","ping":46},{"user_id":462,"name":"WaveJumper","steam_id":76561197972509380,"connected_time":3348000000000,"state":"active","ping":44},{"user_id":486,"name":"greens beans","steam_id":76561198153611491,"connected_time":1153000000000,"state":"active","ping":39}]},{"server_id":119,"name":"Uncletopia | Seattle | 2 | All Maps","name_short":"sea-2","host":"sea-1.us.uncletopia.com","port":27025,"enabled":true,"region":"us-west","cc":"us","latitude":47.608013,"longitude":-122.33517,"reserved":0,"last_update":"0001-01-01T00:00:00Z","name_a2s":"Uncletopia | Seattle | 2 | All Maps","protocol":17,"map":"pl_badwater","folder":"tf","game":"Team Fortress","app_id":440,"player_count":22,"max_players":24,"Bots":0,"server_type":"Dedicated","server_os":"Linux","password":true,"vac":true,"version":"7961495","steam_id":85568392924469998,"keywords":["nocrits","nodmgspread","payload","uncletopia"],"game_id":440,"stv_port":27026,"stv_name":"Uncletopia | Seattle | 2 | All Maps | STV","players":[{"user_id":18,"name":"Spread Joy, Not Hate","steam_id":76561198053117503,"connected_time":5689000000000,"state":"active","ping":59},{"user_id":139,"name":"matvey","steam_id":76561199404191412,"connected_time":181000000000,"state":"active","ping":235},{"user_id":129,"name":"Moonshined","steam_id":76561199065699667,"connected_time":638000000000,"state":"active","ping":102},{"user_id":121,"name":"Lain","steam_id":76561198118282205,"connected_time":1091000000000,"state":"active","ping":121},{"user_id":29,"name":"My Prostate Itches","steam_id":76561199094319510,"connected_time":4821000000000,"state":"active","ping":103},{"user_id":140,"name":"ms. anthrope","steam_id":76561198063533082,"connected_time":97000000000,"state":"active","ping":40},{"user_id":114,"name":"Azary56","steam_id":76561198321404617,"connected_time":1153000000000,"state":"active","ping":60},{"user_id":25,"name":"Yuko Yurei fan","steam_id":76561199051913233,"connected_time":5124000000000,"state":"active","ping":101},{"user_id":30,"name":"DonoC","steam_id":76561198274473338,"connected_time":4818000000000,"state":"active","ping":96},{"user_id":130,"name":"MrQuack","steam_id":76561198873049714,"connected_time":543000000000,"state":"active","ping":74},{"user_id":35,"name":"Lawyer","steam_id":76561197974126447,"connected_time":4777000000000,"state":"active","ping":90},{"user_id":107,"name":"dillpickle","steam_id":76561198156957191,"connected_time":2024000000000,"state":"active","ping":95},{"user_id":108,"name":"ùìêùìºùì¥!‚ù§","steam_id":76561198070398840,"connected_time":1856000000000,"state":"active","ping":72},{"user_id":111,"name":"CubeDio","steam_id":76561198403403639,"connected_time":1553000000000,"state":"active","ping":57},{"user_id":125,"name":"OzzyAkiro47","steam_id":76561199076449499,"connected_time":979000000000,"state":"active","ping":69},{"user_id":127,"name":"Kploogle","steam_id":76561198066497516,"connected_time":709000000000,"state":"active","ping":53},{"user_id":47,"name":"ShackerJack","steam_id":76561198118017448,"connected_time":4432000000000,"state":"active","ping":58},{"user_id":134,"name":"chestercheeta56","steam_id":76561198376967965,"connected_time":361000000000,"state":"active","ping":47},{"user_id":138,"name":"ArchmageF","steam_id":76561197992246851,"connected_time":277000000000,"state":"active","ping":51},{"user_id":122,"name":"The local hobo","steam_id":76561198289650060,"connected_time":1081000000000,"state":"active","ping":76},{"user_id":136,"name":"ToddStool","steam_id":76561198338144919,"connected_time":314000000000,"state":"active","ping":61},{"user_id":112,"name":"Bocchi the Rock Johnson","steam_id":76561198216017952,"connected_time":1185000000000,"state":"active","ping":68}]},{"server_id":406,"name":"Uncletopia | Seattle | 3 | Stopwatch","name_short":"sea-3","host":"sea-1.us.uncletopia.com","port":27035,"enabled":true,"region":"us-west","cc":"us","latitude":47.608013,"longitude":-122.33517,"reserved":0,"last_update":"0001-01-01T00:00:00Z","name_a2s":"Uncletopia | Seattle | 3 | Stopwatch","protocol":17,"map":"koth_highpass","folder":"tf","game":"Team Fortress","app_id":440,"player_count":0,"max_players":24,"Bots":0,"server_type":"Dedicated","server_os":"Linux","password":true,"vac":true,"version":"7961495","steam_id":85568392924515217,"keywords":["cp","nocrits","nodmgspread","uncletopia"],"game_id":440,"stv_port":27036,"stv_name":"Uncletopia | Seattle | 3 | Stopwatch | STV","players":null},{"server_id":17,"name":"Uncletopia | San Francisco | 1 | All Maps","name_short":"sfo-1","host":"sfo-1.us.uncletopia.com","port":27015,"enabled":true,"region":"us-west","cc":"us","latitude":37.77397,"longitude":-122.4313,"reserved":0,"last_update":"0001-01-01T00:00:00Z","name_a2s":"Uncletopia | San Francisco | 1 | All Maps","protocol":17,"map":"koth_viaduct","folder":"tf","game":"Team Fortress","app_id":440,"player_count":4,"max_players":24,"Bots":0,"server_type":"Dedicated","server_os":"Linux","password":true,"vac":true,"version":"7961495","steam_id":85568392924469999,"keywords":["cp","nocrits","nodmgspread","uncletopia"],"game_id":440,"stv_port":27016,"stv_name":"Uncletopia | San Francisco | 1 | All Maps | STV","players":[{"user_id":5,"name":"Fribbo","steam_id":76561198373295660,"connected_time":1798000000000,"state":"active","ping":80},{"user_id":6,"name":"Panzer Vor","steam_id":76561198435091099,"connected_time":1780000000000,"state":"active","ping":55},{"user_id":12,"name":"Caspian","steam_id":76561199041466962,"connected_time":172000000000,"state":"active","ping":35},{"user_id":13,"name":"Infernatious","steam_id":76561199483610732,"connected_time":136000000000,"state":"active","ping":67}]},{"server_id":18,"name":"Uncletopia | San Francisco | 2 | All Maps","name_short":"sfo-2","host":"sfo-1.us.uncletopia.com","port":27025,"enabled":true,"region":"us-west","cc":"us","latitude":37.77397,"longitude":-122.4313,"reserved":0,"last_update":"0001-01-01T00:00:00Z","name_a2s":"Uncletopia | San Francisco | 2 | All Maps","protocol":17,"map":"cp_process_final","folder":"tf","game":"Team Fortress","app_id":440,"player_count":0,"max_players":24,"Bots":0,"server_type":"Dedicated","server_os":"Linux","password":true,"vac":true,"version":"7961495","steam_id":85568392924470000,"keywords":["cp","nocrits","nodmgspread","uncletopia"],"game_id":440,"stv_port":27026,"stv_name":"Uncletopia | San Francisco | 2 | All Maps | STV","players":null},{"server_id":19,"name":"Uncletopia | San Francisco | 3 | Stopwatch","name_short":"sfo-3","host":"sfo-1.us.uncletopia.com","port":27035,"enabled":true,"region":"us-west","cc":"us","latitude":37.77397,"longitude":-122.4313,"reserved":0,"last_update":"0001-01-01T00:00:00Z","name_a2s":"Uncletopia | San Francisco | 3 | Stopwatch","protocol":17,"map":"workshop/cp_process_f12.ugc2302948105","folder":"tf","game":"Team Fortress","app_id":440,"player_count":0,"max_players":24,"Bots":0,"server_type":"Dedicated","server_os":"Linux","password":true,"vac":true,"version":"7961495","steam_id":85568392924742824,"keywords":["cp","nocrits","nodmgspread","uncletopia"],"game_id":440,"stv_port":27036,"stv_name":"Uncletopia | San Francisco | 3 | Stopwatch | STV","players":null},{"server_id":20,"name":"Uncletopia | San Francisco | 4 | Community","name_short":"sfo-4","host":"sfo-1.us.uncletopia.com","port":27045,"enabled":true,"region":"us-west","cc":"us","latitude":37.77397,"longitude":-122.4313,"reserved":0,"last_update":"0001-01-01T00:00:00Z","name_a2s":"Uncletopia | San Francisco | 4 | Community","protocol":17,"map":"pl_pier","folder":"tf","game":"Team Fortress","app_id":440,"player_count":0,"max_players":24,"Bots":0,"server_type":"Dedicated","server_os":"Linux","password":true,"vac":true,"version":"7961495","steam_id":85568392924742826,"keywords":["nocrits","nodmgspread","payload","uncletopia"],"game_id":440,"stv_port":27046,"stv_name":"Uncletopia | San Francisco | 4 | Community | STV","players":null},{"server_id":141,"name":"Uncletopia | Sydney | 1 | All Maps","name_short":"syd-1","host":"syd-1.au.uncletopia.com","port":27015,"enabled":true,"region":"au","cc":"au","latitude":-33.865143,"longitude":151.2099,"reserved":0,"last_update":"0001-01-01T00:00:00Z","name_a2s":"Uncletopia | Sydney | 1 | All Maps","protocol":17,"map":"koth_viaduct","folder":"tf","game":"Team Fortress","app_id":440,"player_count":0,"max_players":24,"Bots":0,"server_type":"Dedicated","server_os":"Linux","password":true,"vac":true,"version":"7961495","steam_id":85568392924470001,"keywords":["cp","nocrits","nodmgspread","uncletopia"],"game_id":440,"stv_port":27016,"stv_name":"Uncletopia | Sydney | 1 | All Maps | STV","players":null},{"server_id":123,"name":"Uncletopia | Sydney | 2 | All Maps","name_short":"syd-2","host":"syd-1.au.uncletopia.com","port":27025,"enabled":true,"region":"au","cc":"au","latitude":-33.865143,"longitude":151.2099,"reserved":0,"last_update":"0001-01-01T00:00:00Z","name_a2s":"Uncletopia | Sydney | 2 | All Maps","protocol":17,"map":"koth_lakeside_final","folder":"tf","game":"Team Fortress","app_id":440,"player_count":0,"max_players":24,"Bots":0,"server_type":"Dedicated","server_os":"Linux","password":true,"vac":true,"version":"7961495","steam_id":85568392924470002,"keywords":["cp","nocrits","nodmgspread","uncletopia"],"game_id":440,"stv_port":27026,"stv_name":"Uncletopia | Sydney | 2 | All Maps | STV","players":null},{"server_id":395,"name":"Uncletopia | Sydney | 3 | All Maps","name_short":"syd-3","host":"syd-1.au.uncletopia.com","port":27035,"enabled":true,"region":"au","cc":"au","latitude":-33.865143,"longitude":151.2099,"reserved":0,"last_update":"0001-01-01T00:00:00Z","name_a2s":"Uncletopia | Sydney | 3 | All Maps","protocol":17,"map":"pl_frontier_final","folder":"tf","game":"Team Fortress","app_id":440,"player_count":0,"max_players":24,"Bots":0,"server_type":"Dedicated","server_os":"Linux","password":true,"vac":true,"version":"7961495","steam_id":85568392925194467,"keywords":["nocrits","nodmgspread","payload","uncletopia"],"game_id":440,"stv_port":27036,"stv_name":"Uncletopia | Sydney | 3 | All Maps | STV","players":null},{"server_id":396,"name":"Uncletopia | Sydney | 4 | All Maps","name_short":"syd-4","host":"syd-1.au.uncletopia.com","port":27045,"enabled":true,"region":"au","cc":"au","latitude":-33.865143,"longitude":151.2099,"reserved":0,"last_update":"0001-01-01T00:00:00Z","name_a2s":"Uncletopia | Sydney | 4 | All Maps","protocol":17,"map":"cp_process_final","folder":"tf","game":"Team Fortress","app_id":440,"player_count":0,"max_players":24,"Bots":0,"server_type":"Dedicated","server_os":"Linux","password":true,"vac":true,"version":"7961495","steam_id":85568392925397958,"keywords":["cp","nocrits","nodmgspread","uncletopia"],"game_id":440,"stv_port":27046,"stv_name":"Uncletopia | Sydney | 4 | All Maps | STV","players":null},{"server_id":58,"name":"Uncletopia | Sydney | 5 | Stopwatch","name_short":"syd-5","host":"syd-1.au.uncletopia.com","port":27055,"enabled":true,"region":"au","cc":"au","latitude":-33.865143,"longitude":151.2099,"reserved":0,"last_update":"0001-01-01T00:00:00Z","name_a2s":"Uncletopia | Sydney | 5 | Stopwatch","protocol":17,"map":"pl_frontier_final","folder":"tf","game":"Team Fortress","app_id":440,"player_count":0,"max_players":24,"Bots":0,"server_type":"Dedicated","server_os":"Linux","password":true,"vac":true,"version":"7961495","steam_id":85568392925397959,"keywords":["nocrits","nodmgspread","payload","uncletopia"],"game_id":440,"stv_port":27056,"stv_name":"Uncletopia | Sydney | 5 | Stopwatch | STV","players":null},{"server_id":59,"name":"Uncletopia | Sydney | 6 | Community","name_short":"syd-6","host":"syd-1.au.uncletopia.com","port":27065,"enabled":true,"region":"au","cc":"au","latitude":-33.865143,"longitude":151.2099,"reserved":0,"last_update":"0001-01-01T00:00:00Z","name_a2s":"Uncletopia | Sydney | 6 | Community","protocol":17,"map":"cp_sunshine","folder":"tf","game":"Team Fortress","app_id":440,"player_count":0,"max_players":24,"Bots":0,"server_type":"Dedicated","server_os":"Linux","password":true,"vac":true,"version":"7961495","steam_id":85568392925397960,"keywords":["cp","nocrits","nodmgspread","uncletopia"],"game_id":440,"stv_port":27066,"stv_name":"Uncletopia | Sydney | 6 | Community | STV","players":null},{"server_id":49,"name":"Uncletopia | Warsaw | 1 | One Thousand Uncles","name_short":"waw-1","host":"waw-1.pl.uncletopia.com","port":27015,"enabled":true,"region":"eu","cc":"pl","latitude":52.2297,"longitude":21.017532,"reserved":0,"last_update":"0001-01-01T00:00:00Z","name_a2s":"Uncletopia | Warsaw | 1 | One Thousand Uncles","protocol":17,"map":"pl_hoodoo_final","folder":"tf","game":"Team Fortress","app_id":440,"player_count":17,"max_players":32,"Bots":16,"server_type":"Dedicated","server_os":"Linux","password":true,"vac":true,"version":"7961495","steam_id":85568392925397850,"keywords":["alltalk","bots","danepve","increased_maxplayers","nocrits","norespawntime","payload","uncletopia"],"game_id":440,"stv_port":0,"stv_name":"","players":[{"user_id":408,"name":"Voks_","steam_id":76561198159687785,"connected_time":188000000000,"state":"active","ping":65}]},{"server_id":50,"name":"Uncletopia | Warsaw | 2 | One Thousand Uncles","name_short":"waw-2","host":"waw-1.pl.uncletopia.com","port":27025,"enabled":true,"region":"eu","cc":"pl","latitude":52.2297,"longitude":21.017532,"reserved":0,"last_update":"0001-01-01T00:00:00Z","name_a2s":"Uncletopia | Warsaw | 2 | One Thousand Uncles","protocol":17,"map":"cp_dustbowl","folder":"tf","game":"Team Fortress","app_id":440,"player_count":27,"max_players":32,"Bots":16,"server_type":"Dedicated","server_os":"Linux","password":true,"vac":true,"version":"7961495","steam_id":85568392925397851,"keywords":["alltalk","bots","cp","danepve","increased_maxplayers","nocrits","norespawntime","uncletopia"],"game_id":440,"stv_port":0,"stv_name":"","players":[{"user_id":843,"name":"63756d","steam_id":76561198808699024,"connected_time":851000000000,"state":"active","ping":63},{"user_id":814,"name":"hawkson","steam_id":76561198328814390,"connected_time":3206000000000,"state":"active","ping":178},{"user_id":840,"name":"jjkun786","steam_id":76561199438517484,"connected_time":1459000000000,"state":"active","ping":102},{"user_id":844,"name":"FreonAddict9x19","steam_id":76561198060010824,"connected_time":445000000000,"state":"active","ping":150},{"user_id":845,"name":"GeraldyJones65","steam_id":76561199122297098,"connected_time":404000000000,"state":"active","ping":143},{"user_id":848,"name":"Ash","steam_id":76561198381715288,"connected_time":15000000000,"state":"spawning","ping":74},{"user_id":847,"name":"I can't aim!","steam_id":76561198223603960,"connected_time":323000000000,"state":"active","ping":75},{"user_id":819,"name":"TylowStar","steam_id":76561198357107806,"connected_time":2574000000000,"state":"active","ping":81},{"user_id":736,"name":"Monke Hartmann","steam_id":76561198281389701,"connected_time":9978000000000,"state":"active","ping":106},{"user_id":812,"name":"Mirson","steam_id":76561198216819539,"connected_time":3732000000000,"state":"active","ping":44},{"user_id":813,"name":"Vibing Wave","steam_id":76561198866358613,"connected_time":3730000000000,"state":"active","ping":164}]},{"server_id":51,"name":"Uncletopia | Warsaw | 3 | All Maps","name_short":"waw-3","host":"waw-1.pl.uncletopia.com","port":27035,"enabled":true,"region":"eu","cc":"pl","latitude":52.2297,"longitude":21.017532,"reserved":0,"last_update":"0001-01-01T00:00:00Z","name_a2s":"Uncletopia | Warsaw | 3 | All Maps","protocol":17,"map":"pl_pier","folder":"tf","game":"Team Fortress","app_id":440,"player_count":2,"max_players":24,"Bots":0,"server_type":"Dedicated","server_os":"Linux","password":true,"vac":true,"version":"7961495","steam_id":85568392925397852,"keywords":["nocrits","nodmgspread","payload","uncletopia"],"game_id":440,"stv_port":27036,"stv_name":"Uncletopia | Warsaw | 3 | All Maps | STV","players":[{"user_id":578,"name":"Laryssa","steam_id":76561198271084076,"connected_time":2704000000000,"state":"active","ping":36},{"user_id":579,"name":"Guthlaf","steam_id":76561198153564078,"connected_time":2622000000000,"state":"active","ping":48}]},{"server_id":52,"name":"Uncletopia | Warsaw | 4 | All Maps","name_short":"waw-4","host":"waw-1.pl.uncletopia.com","port":27045,"enabled":true,"region":"eu","cc":"pl","latitude":52.2297,"longitude":21.017532,"reserved":0,"last_update":"0001-01-01T00:00:00Z","name_a2s":"Uncletopia | Warsaw | 4 | All Maps","protocol":17,"map":"pl_swiftwater_final1","folder":"tf","game":"Team Fortress","app_id":440,"player_count":0,"max_players":24,"Bots":0,"server_type":"Dedicated","server_os":"Linux","password":true,"vac":true,"version":"7961495","steam_id":85568392925397853,"keywords":["nocrits","nodmgspread","payload","uncletopia"],"game_id":440,"stv_port":27046,"stv_name":"Uncletopia | Warsaw | 4 | All Maps | STV","players":null},{"server_id":53,"name":"Uncletopia | Warsaw | 5 | Stopwatch","name_short":"waw-5","host":"waw-1.pl.uncletopia.com","port":27055,"enabled":true,"region":"eu","cc":"pl","latitude":52.2297,"longitude":21.017532,"reserved":0,"last_update":"0001-01-01T00:00:00Z","name_a2s":"Uncletopia | Warsaw | 5 | Stopwatch","protocol":17,"map":"workshop/koth_clearcut_b15.ugc2107050255","folder":"tf","game":"Team Fortress","app_id":440,"player_count":0,"max_players":24,"Bots":0,"server_type":"Dedicated","server_os":"Linux","password":true,"vac":true,"version":"7961495","steam_id":85568392925397854,"keywords":["cp","nocrits","nodmgspread","uncletopia"],"game_id":440,"stv_port":27056,"stv_name":"Uncletopia | Warsaw | 5 | Stopwatch | STV","players":null},{"server_id":54,"name":"Uncletopia | Warsaw | 6 | Community","name_short":"waw-6","host":"waw-1.pl.uncletopia.com","port":27065,"enabled":true,"region":"eu","cc":"pl","latitude":52.2297,"longitude":21.017532,"reserved":0,"last_update":"0001-01-01T00:00:00Z","name_a2s":"Uncletopia | Warsaw | 6 | Community","protocol":17,"map":"workshop/pl_badwater_pro_v12.ugc2142942074","folder":"tf","game":"Team Fortress","app_id":440,"player_count":0,"max_players":24,"Bots":0,"server_type":"Dedicated","server_os":"Linux","password":true,"vac":true,"version":"7961495","steam_id":85568392925397856,"keywords":["nocrits","nodmgspread","payload","uncletopia"],"game_id":440,"stv_port":27066,"stv_name":"Uncletopia | Warsaw | 6 | Community | STV","players":null}]}