{"status":true,"message":"","result":[{"server_id":9,"name":"Uncletopia | Atlanta | 1 | All Maps","name_short":"atl-1","host":"atl-1.us.uncletopia.com","port":27015,"enabled":true,"region":"us-east","cc":"us","latitude":33.753746,"longitude":-84.38633,"reserved":0,"last_update":"0001-01-01T00:00:00Z","name_a2s":"Uncletopia | Atlanta | 1 | All Maps","protocol":17,"map":"pl_upward","folder":"tf","game":"Team Fortress","app_id":440,"player_count":24,"max_players":24,"Bots":0,"server_type":"Dedicated","server_os":"Linux","password":true,"vac":true,"version":"7961495","steam_id":85568392924469982,"keywords":["nocrits","nodmgspread","payload","uncletopia"],"game_id":440,"stv_port":27016,"stv_name":"Uncletopia | Atlanta | 1 | All Maps | STV","players":[{"user_id":1303,"name":"AL","steam_id":76561198381136912,"connected_time":248000000000,"state":"active","ping":76},{"user_id":1302,"name":"kite","steam_id":76561198346516392,"connected_time":257000000000,"state":"active","ping":80},{"user_id":1300,"name":"floppy muppet","steam_id":76561198003076261,"connected_time":283000000000,"state":"active","ping":73},{"user_id":1305,"name":"420lb medic","steam_id":76561198084582998,"connected_time":202000000000,"state":"active","ping":75},{"user_id":1306,"name":"glimbo the goblin","steam_id":76561198060133892,"connected_time":183000000000,"state":"active","ping":93},{"user_id":1312,"name":"Stapler","steam_id":76561198099295077,"connected_time":27000000000,"state":"active","ping":105},{"user_id":1283,"name":"com lag","steam_id":76561198019019392,"connected_time":1280000000000,"state":"active","ping":82},{"user_id":1307,"name":"[I LOVE THUNDERMOUTAIN] Tanner","steam_id":76561198172024365,"connected_time":163000000000,"state":"active","ping":111},{"user_id":1311,"name":"superx","steam_id":76561198044976613,"connected_time":47000000000,"state":"active","ping":66},{"user_id":1309,"name":"Papillon","steam_id":76561198049725849,"connected_time":120000000000,"state":"active","ping":76},{"user_id":1254,"name":"DuckMann","steam_id":76561198197058638,"connected_time":3095000000000,"state":"active","ping":45},{"user_id":1314,"name":"sausage juice","steam_id":76561198319442494,"connected_time":10000000000,"state":"active","ping":144},{"user_id":1296,"name":"ImWishin","steam_id":76561198277198222,"connected_time":575000000000,"state":"active","ping":55},{"user_id":1301,"name":"KJ","steam_id":76561199004313996,"connected_time":282000000000,"state":"active","ping":69},{"user_id":1269,"name":"catface","steam_id":76561198096347625,"connected_time":1895000000000,"state":"active","ping":64},{"user_id":1257,"name":"Heathcliff","steam_id":76561198044288534,"connected_time":2246000000000,"state":"active","ping":72},{"user_id":1315,"name":"[·µá·µò·µç·µç·∂¶] Gambet81","steam_id":76561198985810752,"connected_time":8000000000,"state":"spawning","ping":72},{"user_id":1281,"name":"Eat It Up Worms Hero","steam_id":76561198259956719,"connected_time":1364000000000,"state":"active","ping":59},{"user_id":1249,"name":"sansa musa","steam_id":76561198163723555,"connected_time":3535000000000,"state":"active","ping":68},{"user_id":1255,"name":"Drygongames","steam_id":76561198250418424,"connected_time":2951000000000,"state":"active","ping":80},{"user_id":1265,"name":"Boneless Blithen","steam_id":76561197989955619,"connected_time":2102000000000,"state":"active","ping":129},{"user_id":1297,"name":"Oddball","steam_id":76561198040440984,"connected_time":461000000000,"state":"active","ping":90},{"user_id":1290,"name":"Emmagination","steam_id":76561198107217884,"connected_time":892000000000,"state":"active","ping":106},{"user_id":1310,"name":"tahm","steam_id":76561198062335386,"connected_time":116000000000,"state":"active","ping":125}]},{"server_id":104,"name":"Uncletopia | Atlanta | 2 | All Maps","name_short":"atl-2","host":"atl-1.us.uncletopia.com","port":27025,"enabled":true,"region":"us-east","cc":"us","latitude":33.753746,"longitude":-84.38633,"reserved":0,"last_update":"0001-01-01T00:00:00Z","name_a2s":"Uncletopia | Atlanta | 2 | All Maps","protocol":17,"map":"pl_barnblitz","folder":"tf","game":"Team Fortress","app_id":440,"player_count":22,"max_players":24,"Bots":0,"server_type":"Dedicated","server_os":"Linux","password":true,"vac":true,"version":"7961495","steam_id":85568392924469983,"keywords":["nocrits","nodmgspread","payload","uncletopia"],"game_id":440,"stv_port":27026,"stv_name":"Uncletopia | Atlanta | 2 | All Maps | STV","players":[{"user_id":488,"name":"JustADuck","steam_id":76561198311260943,"connected_time":2950000000000,"state":"active","ping":52},{"user_id":536,"name":"Terraria Harpy","steam_id":76561199061965517,"connected_time":545000000000,"state":"active","ping":64},{"user_id":517,"name":"swimmuician","steam_id":76561198154265853,"connected_time":1932000000000,"state":"active","ping":76},{"user_id":543,"name":"Drapph","steam_id":76561199384213314,"connected_time":56000000000,"state":"active","ping":86},{"user_id":533,"name":"Butters495","steam_id":76561197998689042,"connected_time":646000000000,"state":"active","ping":85},{"user_id":512,"name":"googa","steam_id":76561198133130452,"connected_time":1983000000000,"state":"active","ping":60},{"user_id":541,"name":"puzzlemaster","steam_id":76561198095997869,"connected_time":132000000000,"state":"active","ping":74},{"user_id":527,"name":"De","steam_id":76561198206728044,"connected_time":819000000000,"state":"active","ping":57},{"user_id":521,"name":"Oshel","steam_id":76561198388097417,"connected_time":1672000000000,"state":"active","ping":69},{"user_id":469,"name":"nino","steam_id":76561198853681221,"connected_time":3196000000000,"state":"active","ping":96},{"user_id":509,"name":"Incoming","steam_id":76561199062581310,"connected_time":2274000000000,"state":"active","ping":72},{"user_id":534,"name":"neph","steam_id":76561198962318010,"connected_time":606000000000,"state":"active","ping":91},{"user_id":540,"name":"rf","steam_id":76561198195359229,"connected_time":362000000000,"state":"active","ping":110},{"user_id":522,"name":"üåä‚ôíYAKUZA_TRAP$TAR‚ôíüåä","steam_id":76561198354533463,"connected_time":1371000000000,"state":"active","ping":45},{"user_id":519,"name":"Techne","steam_id":76561198090486583,"connected_time":1746000000000,"state":"active","ping":82},{"user_id":497,"name":"Darkdrake","steam_id":76561198107200600,"connected_time":2630000000000,"state":"active","ping":58},{"user_id":526,"name":"phroliax","steam_id":76561198207075529,"connected_time":872000000000,"state":"active","ping":89},{"user_id":481,"name":"SpaceLeezerd","steam_id":76561198171026678,"connected_time":3058000000000,"state":"active","ping":91},{"user_id":532,"name":"Prometheus (Zim)","steam_id":76561198045552121,"connected_time":707000000000,"state":"active","ping":72},{"user_id":515,"name":"sumerian death metal warrior","steam_id":76561198997380708,"connected_time":1967000000000,"state":"active","ping":106},{"user_id":490,"name":"hmmm","steam_id":76561199384284520,"connected_time":2936000000000,"state":"active","ping":73},{"user_id":539,"name":"aaaxel","steam_id":76561198137430598,"connected_time":526000000000,"state":"active","ping":76}]},{"server_id":400,"name":"Uncletopia | Atlanta | 3 | Stopwatch","name_short":"atl-3","host":"atl-1.us.uncletopia.com","port":27035,"enabled":true,"region":"us-east","cc":"us","latitude":33.753746,"longitude":-84.38633,"reserved":0,"last_update":"0001-01-01T00:00:00Z","name_a2s":"Uncletopia | Atlanta | 3 | Stopwatch","protocol":17,"map":"workshop/koth_product_final.ugc454272353","folder":"tf","game":"Team Fortress","app_id":440,"player_count":0,"max_players":24,"Bots":0,"server_type":"Dedicated","server_os":"Linux","password":true,"vac":true,"version":"7961495","steam_id":85568392924515187,"keywords":["cp","nocrits","nodmgspread","uncletopia"],"game_id":440,"stv_port":27036,"stv_name":"Uncletopia | Atlanta | 3 | Stopwatch | STV","players":null},{"server_id":401,"name":"Uncletopia | Atlanta | 4 | Community","name_short":"atl-4","host":"atl-1.us.uncletopia.com","port":27045,"enabled":true,"region":"us-east","cc":"us","latitude":33.753746,"longitude":-84.38633,"reserved":0,"last_update":"0001-01-01T00:00:00Z","name_a2s":"Uncletopia | Atlanta | 4 | Community","protocol":17,"map":"workshop/pl_cactuscanyon_redux_final2.ugc2579644293","folder":"tf","game":"Team Fortress","app_id":440,"player_count":24,"max_players":24,"Bots":0,"server_type":"Dedicated","server_os":"Linux","password":true,"vac":true,"version":"7961495","steam_id":85568392924515188,"keywords":["nocrits","nodmgspread","payload","uncletopia"],"game_id":440,"stv_port":27046,"stv_name":"Uncletopia | Atlanta | 4 | Community | STV","players":[{"user_id":380,"name":"Heir","steam_id":76561198350772943,"connected_time":2236000000000,"state":"active","ping":59},{"user_id":382,"name":"AstronautPug","steam_id":76561198162372709,"connected_time":1810000000000,"state":"active","ping":79},{"user_id":349,"name":"Vind Gnyr","steam_id":76561198042641211,"connected_time":4048000000000,"state":"active","ping":85},{"user_id":418,"name":"red","steam_id":76561199122057677,"connected_time":261000000000,"state":"active","ping":68},{"user_id":383,"name":"Carpet enthusiast","steam_id":76561198024040142,"connected_time":1763000000000,"state":"active","ping":108},{"user_id":408,"name":"transbian disaster","steam_id":76561198407600762,"connected_time":488000000000,"state":"active","ping":104},{"user_id":409,"name":"WitheringLeo","steam_id":76561198046722918,"connected_time":480000000000,"state":"active","ping":89},{"user_id":416,"name":"Thotimus Begonimus","steam_id":76561197970275938,"connected_time":308000000000,"state":"active","ping":44},{"user_id":378,"name":"cuddles","steam_id":76561199471390987,"connected_time":2664000000000,"state":"active","ping":70},{"user_id":386,"name":"Ockulus","steam_id":76561199069638460,"connected_time":1553000000000,"state":"active","ping":94},{"user_id":387,"name":"Iwisp","steam_id":76561199146075380,"connected_time":1525000000000,"state":"active","ping":87},{"user_id":395,"name":"Fikou","steam_id":76561198119383418,"connected_time":1201000000000,"state":"active","ping":160},{"user_id":399,"name":"QuintupletPuppies","steam_id":76561198926124738,"connected_time":791000000000,"state":"active","ping":73},{"user_id":413,"name":"Naffty","steam_id":76561198119734981,"connected_time":393000000000,"state":"active","ping":76},{"user_id":379,"name":"Cerebral Malfunction","steam_id":76561198885651598,"connected_time":2500000000000,"state":"active","ping":43},{"user_id":421,"name":"StudioMania (#SAVETF2)","steam_id":76561198211315795,"connected_time":73000000000,"state":"active","ping":84},{"user_id":398,"name":"Duncan Idaho","steam_id":76561197988963861,"connected_time":836000000000,"state":"active","ping":75},{"user_id":410,"name":"ginosaurusx","steam_id":76561198410640142,"connected_time":465000000000,"state":"active","ping":81},{"user_id":401,"name":"joachym","steam_id":76561198428579761,"connected_time":642000000000,"state":"active","ping":174},{"user_id":419,"name":"SLaPPy- oNaSiS","steam_id":76561198009286862,"connected_time":248000000000,"state":"active","ping":96},{"user_id":415,"name":"dogerich404","steam_id":76561199124102546,"connected_time":355000000000,"state":"active","ping":104},{"user_id":360,"name":"Fasthink","steam_id":76561197985512715,"connected_time":3888000000000,"state":"active","ping":63},{"user_id":404,"name":"BigHam","steam_id":76561198157249056,"connected_time":596000000000,"state":"active","ping":98},{"user_id":406,"name":"Gwendolyn","steam_id":76561198170458145,"connected_time":563000000000,"state":"active","ping":93}]},{"server_id":2,"name":"Uncletopia | Chicago | 1 | All Maps","name_short":"chi-1","host":"chi-1.us.uncletopia.com","port":27015,"enabled":true,"region":"us-central","cc":"us","latitude":41.881832,"longitude":-87.62318,"reserved":0,"last_update":"0001-01-01T00:00:00Z","name_a2s":"Uncletopia | Chicago | 1 | All Maps","protocol":17,"map":"pl_barnblitz","folder":"tf","game":"Team Fortress","app_id":440,"player_count":24,"max_players":24,"Bots":0,"server_type":"Dedicated","server_os":"Linux","password":true,"vac":true,"version":"7961495","steam_id":85568392924469984,"keywords":["nocrits","nodmgspread","payload","uncletopia"],"game_id":440,"stv_port":27016,"stv_name":"Uncletopia | Chicago | 1 | All Maps | STV","players":[{"user_id":624,"name":"ranroll, Ph.D.","steam_id":76561197980733511,"connected_time":922000000000,"state":"active","ping":66},{"user_id":588,"name":"DuckKey","steam_id":76561198904477889,"connected_time":4360000000000,"state":"active","ping":58},{"user_id":620,"name":"milkshake","steam_id":76561197997469207,"connected_time":1809000000000,"state":"active","ping":118},{"user_id":623,"name":"CHIPS","steam_id":76561199085414584,"connected_time":976000000000,"state":"active","ping":78},{"user_id":600,"name":"AtomicSpeedFT","steam_id":76561198378581038,"connected_time":3601000000000,"state":"active","ping":67},{"user_id":627,"name":"EvilMrPotoo ÔΩ°‚óï‚Äø‚óïÔΩ°","steam_id":76561198012566870,"connected_time":880000000000,"state":"active","ping":73},{"user_id":556,"name":"Huloon","steam_id":76561198070837568,"connected_time":5825000000000,"state":"active","ping":77},{"user_id":567,"name":"Some_Arse","steam_id":76561198039095394,"connected_time":5368000000000,"state":"active","ping":64},{"user_id":552,"name":"TheRatBoi","steam_id":76561199123032506,"connected_time":6164000000000,"state":"active","ping":66},{"user_id":618,"name":"Portaldude626","steam_id":76561198954610452,"connected_time":2035000000000,"state":"active","ping":77},{"user_id":601,"name":"Boyos","steam_id":76561197995225368,"connected_time":3557000000000,"state":"active","ping":40},{"user_id":622,"name":"‚ù§Womp‚ù§","steam_id":76561198167488304,"connected_time":1058000000000,"state":"active","ping":46},{"user_id":583,"name":"auts","steam_id":76561198055198646,"connected_time":4920000000000,"state":"active","ping":73},{"user_id":603,"name":"steppa pig","steam_id":76561198034141393,"connected_time":3476000000000,"state":"active","ping":78},{"user_id":635,"name":"deadass1215","steam_id":76561199052886723,"connected_time":162000000000,"state":"active","ping":152},{"user_id":608,"name":"ThunderMonkey (SMOKE)","steam_id":76561198017631728,"connected_time":3018000000000,"state":"active","ping":51},{"user_id":595,"name":"BlipBloop","steam_id":76561198205320223,"connected_time":3888000000000,"state":"active","ping":79},{"user_id":628,"name":"fartzilla","steam_id":76561198057116531,"connected_time":878000000000,"state":"active","ping":57},{"user_id":485,"name":"on that zaza?","steam_id":76561198038713198,"connected_time":10647000000000,"state":"active","ping":71},{"user_id":604,"name":"King Crust of Crustmus","steam_id":76561198160930421,"connected_time":3442000000000,"state":"active","ping":74},{"user_id":637,"name":"Snom","steam_id":76561198333827920,"connected_time":146000000000,"state":"active","ping":408},{"user_id":579,"name":"TheGuyWhoPlays","steam_id":76561198277363002,"connected_time":5106000000000,"state":"active","ping":67},{"user_id":605,"name":"Silence","steam_id":76561197965880569,"connected_time":3271000000000,"state":"active","ping":64},{"user_id":631,"name":"jawsh","steam_id":76561197997811982,"connected_time":582000000000,"state":"active","ping":86}]},{"server_id":106,"name":"Uncletopia | Chicago | 2 | All Maps","name_short":"chi-2","host":"chi-1.us.uncletopia.com","port":27025,"enabled":true,"region":"us-central","cc":"us","latitude":41.881832,"longitude":-87.62318,"reserved":0,"last_update":"0001-01-01T00:00:00Z","name_a2s":"Uncletopia | Chicago | 2 | All Maps","protocol":17,"map":"pl_upward","folder":"tf","game":"Team Fortress","app_id":440,"player_count":24,"max_players":24,"Bots":0,"server_type":"Dedicated","server_os":"Linux","password":true,"vac":true,"version":"7961495","steam_id":85568392924469985,"keywords":["nocrits","nodmgspread","payload","uncletopia"],"game_id":440,"stv_port":27026,"stv_name":"Uncletopia | Chicago | 2 | All Maps | STV","players":[{"user_id":556,"name":"MibWib","steam_id":76561199149786430,"connected_time":1530000000000,"state":"active","ping":79},{"user_id":531,"name":"Cyber Cylon","steam_id":76561198048972781,"connected_time":2961000000000,"state":"active","ping":66},{"user_id":561,"name":"Crombun","steam_id":76561198031559642,"connected_time":1452000000000,"state":"active","ping":78},{"user_id":479,"name":"Wiener Hole Paper Cut","steam_id":76561198000808203,"connected_time":5848000000000,"state":"active","ping":78},{"user_id":543,"name":"The Notorious P.U.E.R.","steam_id":76561198046715542,"connected_time":2527000000000,"state":"active","ping":63},{"user_id":546,"name":"1920","steam_id":76561198111669774,"connected_time":2127000000000,"state":"active","ping":49},{"user_id":570,"name":"MechaSixVII","steam_id":76561198014927379,"connected_time":703000000000,"state":"active","ping":81},{"user_id":504,"name":"Carton","steam_id":76561198989473391,"connected_time":4267000000000,"state":"active","ping":66},{"user_id":544,"name":"Piyono","steam_id":76561197962188504,"connected_time":2420000000000,"state":"active","ping":71},{"user_id":571,"name":"caca sniffer","steam_id":76561199099914725,"connected_time":697000000000,"state":"active","ping":94},{"user_id":572,"name":"Adnapeht","steam_id":76561198395949213,"connected_time":670000000000,"state":"active","ping":114},{"user_id":573,"name":"Lord Brocktree","steam_id":76561198415527061,"connected_time":658000000000,"state":"active","ping":101},{"user_id":562,"name":"Dr.Nooo!!!!!!!!","steam_id":76561198064738479,"connected_time":1281000000000,"state":"active","ping":79},{"user_id":569,"name":"Worst Scenario","steam_id":76561199052130229,"connected_time":865000000000,"state":"active","ping":55},{"user_id":557,"name":"Amtyk","steam_id":76561197979130554,"connected_time":1527000000000,"state":"active","ping":63},{"user_id":529,"name":"swan","steam_id":76561198012569200,"connected_time":3292000000000,"state":"active","ping":75},{"user_id":568,"name":"Barron_Of_Ducks","steam_id":76561199394603713,"connected_time":1090000000000,"state":"active","ping":104},{"user_id":503,"name":"NvAka","steam_id":76561199044781490,"connected_time":4286000000000,"state":"active","ping":64},{"user_id":555,"name":"Mycelion","steam_id":76561198024999530,"connected_time":1611000000000,"state":"active","ping":88},{"user_id":566,"name":"DeadErebus","steam_id":76561198286117045,"connected_time":1127000000000,"state":"active","ping":37},{"user_id":574,"name":"shadowthehedgehog2008","steam_id":76561198278008225,"connected_time":657000000000,"state":"active","ping":91},{"user_id":575,"name":"Harpua","steam_id":76561197988020228,"connected_time":586000000000,"state":"active","ping":68},{"user_id":514,"name":"what the freak","steam_id":76561198080754727,"connected_time":3941000000000,"state":"active","ping":81},{"user_id":550,"name":"Dwanor","steam_id":76561198039571887,"connected_time":2075000000000,"state":"active","ping":65}]},{"server_id":402,"name":"Uncletopia | Chicago | 3 | All Maps","name_short":"chi-3","host":"chi-1.us.uncletopia.com","port":27035,"enabled":true,"region":"us-central","cc":"us","latitude":41.881832,"longitude":-87.62318,"reserved":0,"last_update":"0001-01-01T00:00:00Z","name_a2s":"Uncletopia | Chicago | 3 | All Maps","protocol":17,"map":"pl_barnblitz","folder":"tf","game":"Team Fortress","app_id":440,"player_count":23,"max_players":24,"Bots":0,"server_type":"Dedicated","server_os":"Linux","password":true,"vac":true,"version":"7961495","steam_id":85568392924515191,"keywords":["nocrits","nodmgspread","payload","uncletopia"],"game_id":440,"stv_port":27036,"stv_name":"Uncletopia | Chicago | 3 | All Maps | STV","players":[{"user_id":461,"name":"Snugboo","steam_id":76561198147970327,"connected_time":2292000000000,"state":"active","ping":54},{"user_id":471,"name":"Aino","steam_id":76561198053662930,"connected_time":742000000000,"state":"active","ping":111},{"user_id":473,"name":"james_bondage","steam_id":76561199476062624,"connected_time":208000000000,"state":"active","ping":85},{"user_id":459,"name":"lucky","steam_id":76561198323426623,"connected_time":2392000000000,"state":"active","ping":100},{"user_id":474,"name":"JtsRes","steam_id":76561197994809241,"connected_time":185000000000,"state":"active","ping":61},{"user_id":486,"name":"TrashBoat","steam_id":76561199089671432,"connected_time":21000000000,"state":"spawning","ping":69},{"user_id":469,"name":"heck","steam_id":76561198308547958,"connected_time":1408000000000,"state":"active","ping":56},{"user_id":446,"name":"Keegan","steam_id":76561198051325763,"connected_time":2692000000000,"state":"active","ping":160},{"user_id":463,"name":"Grand Piano Tuna","steam_id":76561198135137213,"connected_time":1831000000000,"state":"active","ping":54},{"user_id":478,"name":"jolo","steam_id":76561198042831480,"connected_time":126000000000,"state":"active","ping":71},{"user_id":457,"name":"Selment","steam_id":76561198026489601,"connected_time":2459000000000,"state":"active","ping":43},{"user_id":442,"name":"MR SKELTAL","steam_id":76561198031089598,"connected_time":3353000000000,"state":"active","ping":69},{"user_id":487,"name":"Catfish","steam_id":76561198088009583,"connected_time":10000000000,"state":"active","ping":72},{"user_id":480,"name":"Shichinitzi","steam_id":76561198003833732,"connected_time":97000000000,"state":"active","ping":51},{"user_id":470,"name":"Soy King","steam_id":76561198263025614,"connected_time":1058000000000,"state":"active","ping":107},{"user_id":468,"name":"54","steam_id":76561197998851566,"connected_time":1444000000000,"state":"active","ping":57},{"user_id":481,"name":"Comfy Monkey","steam_id":76561197998434936,"connected_time":81000000000,"state":"active","ping":58},{"user_id":427,"name":"Ms Twig","steam_id":76561198144111736,"connected_time":4795000000000,"state":"active","ping":55},{"user_id":462,"name":"catfish from toontown","steam_id":76561198060070002,"connected_time":2056000000000,"state":"active","ping":72},{"user_id":482,"name":"Aurora","steam_id":76561198151842770,"connected_time":79000000000,"state":"active","ping":59},{"user_id":483,"name":"Generic Name","steam_id":76561198094225684,"connected_time":68000000000,"state":"active","ping":69},{"user_id":484,"name":"Commander Aegis","steam_id":76561198014318521,"connected_time":67000000000,"state":"active","ping":59},{"user_id":472,"name":"Captain Underbelly","steam_id":76561198811270935,"connected_time":418000000000,"state":"active","ping":97}]},{"server_id":403,"name":"Uncletopia | Chicago | 4 | All Maps","name_short":"chi-4","host":"chi-1.us.uncletopia.com","port":27045,"enabled":true,"region":"us-central","cc":"us","latitude":41.881832,"longitude":-87.62318,"reserved":0,"last_update":"0001-01-01T00:00:00Z","name_a2s":"Uncletopia | Chicago | 4 | All Maps","protocol":17,"map":"pl_thundermountain","folder":"tf","game":"Team Fortress","app_id":440,"player_count":24,"max_players":24,"Bots":0,"server_type":"Dedicated","server_os":"Linux","password":true,"vac":true,"version":"7961495","steam_id":85568392924515193,"keywords":["nocrits","nodmgspread","payload","uncletopia"],"game_id":440,"stv_port":27046,"stv_name":"Uncletopia | Chicago | 4 | All Maps | STV","players":[{"user_id":620,"name":"[NAME-REDACTED]","steam_id":76561198035682975,"connected_time":1076000000000,"state":"active","ping":72},{"user_id":632,"name":"Haveltherock27","steam_id":76561199219844391,"connected_time":302000000000,"state":"active","ping":106},{"user_id":552,"name":"hej","steam_id":76561197996366940,"connected_time":7152000000000,"state":"active","ping":61},{"user_id":634,"name":"Mr Struggle","steam_id":76561198320434551,"connected_time":268000000000,"state":"active","ping":96},{"user_id":626,"name":"debby","steam_id":76561198073253904,"connected_time":661000000000,"state":"active","ping":108},{"user_id":628,"name":"n00dle","steam_id":76561198120798040,"connected_time":395000000000,"state":"active","ping":45},{"user_id":621,"name":"alextruckman97","steam_id":76561198066867150,"connected_time":961000000000,"state":"active","ping":60},{"user_id":601,"name":"Swash","steam_id":76561197969421355,"connected_time":2853000000000,"state":"active","ping":60},{"user_id":622,"name":"Javaris Jamar Javarison-Lamar","steam_id":76561198146951387,"connected_time":960000000000,"state":"active","ping":73},{"user_id":598,"name":"otw way to mars off the bars","steam_id":76561199085974120,"connected_time":3310000000000,"state":"active","ping":75},{"user_id":617,"name":"YOU WHAT?!","steam_id":76561198418679471,"connected_time":1532000000000,"state":"active","ping":60},{"user_id":553,"name":"MedRed‚Ñ¢ #IATAH","steam_id":76561198002962970,"connected_time":7110000000000,"state":"active","ping":92},{"user_id":625,"name":"Buttfuck Armstrong","steam_id":76561198075547905,"connected_time":723000000000,"state":"active","ping":62},{"user_id":604,"name":"SPIRE_FAN","steam_id":76561198001486573,"connected_time":2241000000000,"state":"active","ping":70},{"user_id":635,"name":"Bacon","steam_id":76561199078407152,"connected_time":258000000000,"state":"active","ping":130},{"user_id":612,"name":"LknCuteinJammies","steam_id":76561198073177803,"connected_time":1789000000000,"state":"active","ping":85},{"user_id":636,"name":"Jeremy","steam_id":76561198283977979,"connected_time":227000000000,"state":"active","ping":69},{"user_id":637,"name":"Gh0w0st","steam_id":76561199471261226,"connected_time":209000000000,"state":"active","ping":84},{"user_id":578,"name":"Ojen","steam_id":76561197998414482,"connected_time":6134000000000,"state":"active","ping":60},{"user_id":597,"name":"john glaggle (rizzly bear)","steam_id":76561198129131996,"connected_time":3324000000000,"state":"active","ping":44},{"user_id":607,"name":"OddSlaush","steam_id":76561198043898488,"connected_time":2024000000000,"state":"active","ping":102},{"user_id":599,"name":"Oopsie Daisy ‚ùã","steam_id":76561198042144492,"connected_time":3282000000000,"state":"active","ping":76},{"user_id":613,"name":"CV_Golf","steam_id":76561198079236196,"connected_time":1775000000000,"state":"active","ping":89},{"user_id":638,"name":"Robin","steam_id":76561198988673485,"connected_time":208000000000,"state":"active","ping":93}]},{"server_id":36,"name":"Uncletopia | Chicago | 5 | All Maps","name_short":"chi-5","host":"chi-2.us.uncletopia.com","port":27015,"enabled":true,"region":"us-central","cc":"us","latitude":41.881832,"longitude":-87.62318,"reserved":0,"last_update":"0001-01-01T00:00:00Z","name_a2s":"Uncletopia | Chicago | 5 | All Maps","protocol":17,"map":"cp_metalworks","folder":"tf","game":"Team Fortress","app_id":440,"player_count":24,"max_players":24,"Bots":0,"server_type":"Dedicated","server_os":"Linux","password":true,"vac":true,"version":"7961495","steam_id":85568392924866362,"keywords":["cp","nocrits","nodmgspread","uncletopia"],"game_id":440,"stv_port":27016,"stv_name":"Uncletopia | Chicago | 5 | All Maps | STV","players":[{"user_id":565,"name":"Gen-E the Robot Catboy","steam_id":76561199497800989,"connected_time":2416000000000,"state":"active","ping":87},{"user_id":587,"name":"iamtheSpicer","steam_id":76561198263557044,"connected_time":1072000000000,"state":"active","ping":83},{"user_id":590,"name":"The local hobo","steam_id":76561198289650060,"connected_time":845000000000,"state":"active","ping":86},{"user_id":589,"name":"blood-thirsty pitbull","steam_id":76561198106690989,"connected_time":1008000000000,"state":"active","ping":74},{"user_id":552,"name":"Team Fartpiss Poo","steam_id":76561199163591880,"connected_time":3420000000000,"state":"active","ping":97},{"user_id":541,"name":"Nobody","steam_id":76561198286486517,"connected_time":4761000000000,"state":"active","ping":89},{"user_id":517,"name":"stick","steam_id":76561198049489094,"connected_time":5604000000000,"state":"active","ping":59},{"user_id":577,"name":"wavlog0124","steam_id":76561199079614516,"connected_time":1814000000000,"state":"active","ping":58},{"user_id":461,"name":"fresco","steam_id":76561199101199477,"connected_time":8581000000000,"state":"active","ping":61},{"user_id":597,"name":"EYE TO EYE TO EYE","steam_id":76561198072179483,"connected_time":263000000000,"state":"active","ping":90},{"user_id":571,"name":"Xsquad","steam_id":76561199243620763,"connected_time":2006000000000,"state":"active","ping":131},{"user_id":592,"name":"Chicago Shoplifter","steam_id":76561197986530028,"connected_time":506000000000,"state":"active","ping":100},{"user_id":475,"name":"Clean Lines","steam_id":76561197960691518,"connected_time":7344000000000,"state":"active","ping":54},{"user_id":591,"name":"checkswing","steam_id":76561198999816132,"connected_time":723000000000,"state":"active","ping":83},{"user_id":596,"name":"Epha","steam_id":76561198079379951,"connected_time":367000000000,"state":"active","ping":60},{"user_id":599,"name":"the222attacker","steam_id":76561198969690191,"connected_time":168000000000,"state":"spawning","ping":61},{"user_id":574,"name":"Person","steam_id":76561198093244204,"connected_time":1937000000000,"state":"active","ping":79},{"user_id":464,"name":"aureli","steam_id":76561199031411031,"connected_time":8320000000000,"state":"active","ping":70},{"user_id":598,"name":"0","steam_id":76561199165331311,"connected_time":249000000000,"state":"active","ping":100},{"user_id":536,"name":"gaming gerald","steam_id":76561198011707083,"connected_time":4891000000000,"state":"active","ping":61},{"user_id":600,"name":"squart guy","steam_id":76561199411560141,"connected_time":109000000000,"state":"active","ping":86},{"user_id":586,"name":"Nortel Network Telephone T7316","steam_id":76561198399261089,"connected_time":1085000000000,"state":"active","ping":89},{"user_id":558,"name":"A Shiny Meat Bicycle","steam_id":76561198358757709,"connected_time":3370000000000,"state":"active","ping":109},{"user_id":576,"name":"West","steam_id":76561199156365366,"connected_time":1915000000000,"state":"active","ping":98}]},{"server_id":37,"name":"Uncletopia | Chicago | 6 | All Maps","name_short":"chi-6","host":"chi-2.us.uncletopia.com","port":27025,"enabled":true,"region":"us-central","cc":"us","latitude":41.881832,"longitude":-87.62318,"reserved":0,"last_update":"0001-01-01T00:00:00Z","name_a2s":"Uncletopia | Chicago | 6 | All Maps","protocol":17,"map":"cp_steel","folder":"tf","game":"Team Fortress","app_id":440,"player_count":24,"max_players":24,"Bots":0,"server_type":"Dedicated","server_os":"Linux","password":true,"vac":true,"version":"7961495","steam_id":85568392924866363,"keywords":["cp","nocrits","nodmgspread","uncletopia"],"game_id":440,"stv_port":27026,"stv_name":"Uncletopia | Chicago | 6 | All Maps | STV","players":[{"user_id":373,"name":"Û†Ä°Û†Ä°","steam_id":76561198348035053,"connected_time":6826000000000,"state":"active","ping":122},{"user_id":423,"name":"Petrichor","steam_id":76561198323397375,"connected_time":2767000000000,"state":"active","ping":85},{"user_id":448,"name":"Cosmo","steam_id":76561198042147273,"connected_time":972000000000,"state":"active","ping":59},{"user_id":418,"name":"bill","steam_id":76561199142779872,"connected_time":3175000000000,"state":"active","ping":76},{"user_id":441,"name":"jan kili","steam_id":76561198289894834,"connected_time":1315000000000,"state":"active","ping":62},{"user_id":380,"name":"Lifial","steam_id":76561198271885819,"connected_time":6523000000000,"state":"active","ping":72},{"user_id":414,"name":"Theory-WiFi","steam_id":76561198116419931,"connected_time":3898000000000,"state":"active","ping":111},{"user_id":444,"name":"Cat","steam_id":76561198328159094,"connected_time":1291000000000,"state":"active","ping":78},{"user_id":437,"name":"i am so sed","steam_id":76561199064964587,"connected_time":1982000000000,"state":"active","ping":79},{"user_id":449,"name":"SgtHotLead","steam_id":76561197995477998,"connected_time":878000000000,"state":"active","ping":86},{"user_id":401,"name":"cajun thotsauce","steam_id":76561198101636066,"connected_time":4962000000000,"state":"active","ping":100},{"user_id":450,"name":"Orange","steam_id":76561198046966962,"connected_time":821000000000,"state":"active","ping":64},{"user_id":455,"name":"zen","steam_id":76561198066485047,"connected_time":705000000000,"state":"active","ping":64},{"user_id":438,"name":"Another Neko Weeb","steam_id":76561198051785884,"connected_time":1958000000000,"state":"active","ping":67},{"user_id":445,"name":"Rowmaster","steam_id":76561198271659574,"connected_time":1127000000000,"state":"active","ping":99},{"user_id":431,"name":"Maxwell Gaming","steam_id":76561199100160919,"connected_time":2283000000000,"state":"active","ping":88},{"user_id":395,"name":"Christophe","steam_id":76561198116640007,"connected_time":5649000000000,"state":"active","ping":150},{"user_id":457,"name":"Senator Armstrong","steam_id":76561199201435182,"connected_time":384000000000,"state":"active","ping":124},{"user_id":393,"name":"Dr. Pl0x","steam_id":76561198040785401,"connected_time":5713000000000,"state":"active","ping":107},{"user_id":392,"name":"vanta","steam_id":76561198084317504,"connected_time":5733000000000,"state":"active","ping":57},{"user_id":446,"name":"Monterfart","steam_id":76561198125034271,"connected_time":1124000000000,"state":"active","ping":72},{"user_id":458,"name":"Paquisnail","steam_id":76561198115076715,"connected_time":369000000000,"state":"active","ping":96},{"user_id":443,"name":"Rudy","steam_id":76561198013456828,"connected_time":1293000000000,"state":"active","ping":68},{"user_id":459,"name":"bengineer","steam_id":76561198171912174,"connected_time":350000000000,"state":"active","ping":93}]},{"server_id":38,"name":"Uncletopia | Chicago | 7 | Stopwatch","name_short":"chi-7","host":"chi-2.us.uncletopia.com","port":27035,"enabled":true,"region":"us-central","cc":"us","latitude":41.881832,"longitude":-87.62318,"reserved":0,"last_update":"0001-01-01T00:00:00Z","name_a2s":"Uncletopia | Chicago | 7 | Stopwatch","protocol":17,"map":"workshop/koth_ashville_final.ugc2130459942","folder":"tf","game":"Team Fortress","app_id":440,"player_count":24,"max_players":24,"Bots":0,"server_type":"Dedicated","server_os":"Linux","password":true,"vac":true,"version":"7961495","steam_id":85568392924866364,"keywords":["cp","nocrits","nodmgspread","uncletopia"],"game_id":440,"stv_port":27036,"stv_name":"Uncletopia | Chicago | 7 | Stopwatch | STV","players":[{"user_id":19,"name":"9gon Danmar33","steam_id":76561198056453091,"connected_time":1834000000000,"state":"active","ping":52},{"user_id":20,"name":"9gon Salt","steam_id":76561198116645978,"connected_time":1832000000000,"state":"active","ping":50},{"user_id":47,"name":"Marineland","steam_id":76561198081285187,"connected_time":668000000000,"state":"active","ping":73},{"user_id":22,"name":"HitomiChan_","steam_id":76561198150627999,"connected_time":1820000000000,"state":"active","ping":78},{"user_id":23,"name":"LegacyKiwi","steam_id":76561198423721454,"connected_time":1819000000000,"state":"active","ping":65},{"user_id":24,"name":"[DEEP] the being of power","steam_id":76561198839503937,"connected_time":1814000000000,"state":"active","ping":63},{"user_id":48,"name":"GoldtoothFour","steam_id":76561198055529332,"connected_time":640000000000,"state":"active","ping":55},{"user_id":61,"name":"„ÄéJesman101„Äè","steam_id":76561198038295051,"connected_time":323000000000,"state":"active","ping":63},{"user_id":54,"name":"SleepySwimpy","steam_id":76561199095494639,"connected_time":425000000000,"state":"active","ping":97},{"user_id":29,"name":"the end of 9gon","steam_id":76561198254604438,"connected_time":1628000000000,"state":"active","ping":176},{"user_id":30,"name":"I Like Planes","steam_id":76561198448931183,"connected_time":1587000000000,"state":"active","ping":83},{"user_id":31,"name":"Squadle","steam_id":76561198366535794,"connected_time":1477000000000,"state":"active","ping":97},{"user_id":57,"name":"Quigi","steam_id":76561198144645874,"connected_time":395000000000,"state":"active","ping":115},{"user_id":62,"name":"Super Splint","steam_id":76561199465781208,"connected_time":237000000000,"state":"active","ping":72},{"user_id":37,"name":"Greymanz","steam_id":76561198062783697,"connected_time":1167000000000,"state":"active","ping":72},{"user_id":64,"name":"Hatsune Miku IRL","steam_id":76561198023770512,"connected_time":154000000000,"state":"active","ping":89},{"user_id":65,"name":"Trigger!","steam_id":76561198061514186,"connected_time":115000000000,"state":"active","ping":87},{"user_id":59,"name":"sasharudzik","steam_id":76561199126617781,"connected_time":389000000000,"state":"active","ping":84},{"user_id":55,"name":"Grandpa 1MinecraftEmpire","steam_id":76561198069046338,"connected_time":423000000000,"state":"active","ping":70},{"user_id":42,"name":"Peketo","steam_id":76561199104376294,"connected_time":893000000000,"state":"active","ping":61},{"user_id":43,"name":"Glopex","steam_id":76561198067097889,"connected_time":887000000000,"state":"active","ping":80},{"user_id":52,"name":"GoodleShoes","steam_id":76561198030993521,"connected_time":463000000000,"state":"active","ping":68},{"user_id":46,"name":"Jatt","steam_id":76561198822011219,"connected_time":775000000000,"state":"active","ping":76},{"user_id":56,"name":"chill","steam_id":76561198313364985,"connected_time":423000000000,"state":"active","ping":78}]},{"server_id":39,"name":"Uncletopia | Chicago | 8 | Community","name_short":"chi-8","host":"chi-2.us.uncletopia.com","port":27045,"enabled":true,"region":"us-central","cc":"us","latitude":41.881832,"longitude":-87.62318,"reserved":0,"last_update":"0001-01-01T00:00:00Z","name_a2s":"Uncletopia | Chicago | 8 | Community","protocol":17,"map":"workshop/cp_reckoner_rc6.ugc674719999","folder":"tf","game":"Team Fortress","app_id":440,"player_count":24,"max_players":24,"Bots":0,"server_type":"Dedicated","server_os":"Linux","password":true,"vac":true,"version":"7961495","steam_id":85568392924866365,"keywords":["cp","nocrits","nodmgspread","uncletopia"],"game_id":440,"stv_port":27046,"stv_name":"Uncletopia | Chicago | 8 | Community | STV","players":[{"user_id":29,"name":"han","steam_id":76561198058374130,"connected_time":12037000000000,"state":"active","ping":56},{"user_id":30,"name":"SimplePants","steam_id":76561198059434838,"connected_time":12010000000000,"state":"active","ping":67},{"user_id":181,"name":"gummy","steam_id":76561198290474559,"connected_time":456000000000,"state":"active","ping":68},{"user_id":114,"name":"IsleBound","steam_id":76561198278451717,"connected_time":5626000000000,"state":"active","ping":62},{"user_id":115,"name":"Swaganometry","steam_id":76561198880490872,"connected_time":5601000000000,"state":"active","ping":79},{"user_id":177,"name":"who_dis?","steam_id":76561199156798560,"connected_time":1125000000000,"state":"active","ping":96},{"user_id":147,"name":"Based Nass","steam_id":76561198035200651,"connected_time":3231000000000,"state":"active","ping":116},{"user_id":144,"name":"Dr.Joker95","steam_id":76561198355039654,"connected_time":3920000000000,"state":"active","ping":61},{"user_id":165,"name":"Cash MoneyBlue","steam_id":76561198934825927,"connected_time":1605000000000,"state":"active","ping":97},{"user_id":185,"name":"Hasterberg","steam_id":76561198968097614,"connected_time":83000000000,"state":"active","ping":103},{"user_id":178,"name":"Sushi","steam_id":76561198081110786,"connected_time":1122000000000,"state":"active","ping":91},{"user_id":56,"name":"green bean","steam_id":76561198113099204,"connected_time":9060000000000,"state":"active","ping":77},{"user_id":186,"name":"fatass gaming","steam_id":76561199057166683,"connected_time":54000000000,"state":"active","ping":106},{"user_id":179,"name":"Swifgz","steam_id":76561198162875756,"connected_time":1079000000000,"state":"active","ping":64},{"user_id":135,"name":"DankDeath","steam_id":76561199236956827,"connected_time":4347000000000,"state":"active","ping":100},{"user_id":134,"name":"majima construction employee","steam_id":76561198441246401,"connected_time":4639000000000,"state":"active","ping":61},{"user_id":160,"name":"Toast","steam_id":76561198401995265,"connected_time":2512000000000,"state":"active","ping":60},{"user_id":175,"name":"Synthic","steam_id":76561198999659192,"connected_time":1249000000000,"state":"active","ping":56},{"user_id":174,"name":"Calypso","steam_id":76561198082939544,"connected_time":1352000000000,"state":"active","ping":88},{"user_id":187,"name":"Cereal Killer","steam_id":76561198052368295,"connected_time":30000000000,"state":"active","ping":88},{"user_id":184,"name":"Hawkborne","steam_id":76561198107249245,"connected_time":314000000000,"state":"active","ping":71},{"user_id":188,"name":"Shrebbie","steam_id":76561198875230824,"connected_time":29000000000,"state":"active","ping":59},{"user_id":171,"name":"swagaholic","steam_id":76561199014715203,"connected_time":1447000000000,"state":"active","ping":116},{"user_id":172,"name":"jeff_fan","steam_id":76561198086420687,"connected_time":1446000000000,"state":"active","ping":93}]},{"server_id":8,"name":"Uncletopia | Dallas | 1 | All Maps","name_short":"dal-1","host":"dal-1.us.uncletopia.com","port":27015,"enabled":true,"region":"us-central","cc":"us","latitude":32.779167,"longitude":-96.80889,"reserved":0,"last_update":"0001-01-01T00:00:00Z","name_a2s":"Uncletopia | Dallas | 1 | All Maps","protocol":17,"map":"pl_pier","folder":"tf","game":"Team Fortress","app_id":440,"player_count":23,"max_players":24,"Bots":0,"server_type":"Dedicated","server_os":"Linux","password":true,"vac":true,"version":"7961495","steam_id":85568392924469986,"keywords":["nocrits","nodmgspread","payload","uncletopia"],"game_id":440,"stv_port":27016,"stv_name":"Uncletopia | Dallas | 1 | All Maps | STV","players":[{"user_id":509,"name":"Jerome","steam_id":76561198054796296,"connected_time":154000000000,"state":"connecting","ping":71},{"user_id":513,"name":"Sinta","steam_id":76561198098398841,"connected_time":22000000000,"state":"connecting","ping":83},{"user_id":503,"name":"FanaticSalt","steam_id":76561199380123059,"connected_time":919000000000,"state":"connecting","ping":45},{"user_id":514,"name":"sebjzy ‚ô•","steam_id":76561198009959034,"connected_time":11000000000,"state":"connecting","ping":48},{"user_id":475,"name":"CHIEF_JUSTICE_FUCKASS","steam_id":76561199261675844,"connected_time":2575000000000,"state":"connecting","ping":125},{"user_id":439,"name":"leesh","steam_id":76561198079603938,"connected_time":4537000000000,"state":"connecting","ping":72},{"user_id":505,"name":"Skyhawk1124","steam_id":76561198290842387,"connected_time":718000000000,"state":"connecting","ping":94},{"user_id":472,"name":"Ballista","steam_id":76561197983182562,"connected_time":2615000000000,"state":"connecting","ping":57},{"user_id":486,"name":"corviraptor (bison sweep)","steam_id":76561198058284392,"connected_time":2143000000000,"state":"connecting","ping":62},{"user_id":468,"name":"barker bill","steam_id":76561198018451994,"connected_time":3089000000000,"state":"connecting","ping":66},{"user_id":510,"name":"mkl","steam_id":76561197986401685,"connected_time":28000000000,"state":"connecting","ping":70},{"user_id":511,"name":"LampMan","steam_id":76561198079857527,"connected_time":23000000000,"state":"connecting","ping":58},{"user_id":485,"name":"Gryffinator","steam_id":76561198800478056,"connected_time":2289000000000,"state":"connecting","ping":119},{"user_id":446,"name":"the bone zone","steam_id":76561198022141048,"connected_time":4348000000000,"state":"connecting","ping":75},{"user_id":409,"name":"Verily","steam_id":76561198200558318,"connected_time":7006000000000,"state":"connecting","ping":113},{"user_id":501,"name":"Boogie03","steam_id":76561198995812187,"connected_time":1173000000000,"state":"connecting","ping":78},{"user_id":512,"name":"Microsoft Excel","steam_id":76561199401598364,"connected_time":23000000000,"state":"connecting","ping":98},{"user_id":494,"name":"Morbea","steam_id":76561199071098451,"connected_time":1350000000000,"state":"connecting","ping":106},{"user_id":507,"name":"flaccid","steam_id":76561198299241777,"connected_time":624000000000,"state":"connecting","ping":89},{"user_id":506,"name":"Locomotive","steam_id":76561199152926930,"connected_time":690000000000,"state":"connecting","ping":72},{"user_id":504,"name":"Jonatello","steam_id":76561198045699189,"connected_time":739000000000,"state":"connecting","ping":111}]},{"server_id":108,"name":"Uncletopia | Dallas | 2 | All Maps","name_short":"dal-2","host":"dal-1.us.uncletopia.com","port":27025,"enabled":true,"region":"us-central","cc":"us","latitude":32.779167,"longitude":-96.80889,"reserved":0,"last_update":"0001-01-01T00:00:00Z","name_a2s":"Uncletopia | Dallas | 2 | All Maps","protocol":17,"map":"pl_barnblitz","folder":"tf","game":"Team Fortress","app_id":440,"player_count":23,"max_players":24,"Bots":0,"server_type":"Dedicated","server_os":"Linux","password":true,"vac":true,"version":"7961495","steam_id":85568392924469988,"keywords":["nocrits","nodmgspread","payload","uncletopia"],"game_id":440,"stv_port":27026,"stv_name":"Uncletopia | Dallas | 2 | All Maps | STV","players":[{"user_id":479,"name":".realt1me","steam_id":76561198055449744,"connected_time":449000000000,"state":"active","ping":98},{"user_id":439,"name":"denzell05","steam_id":76561198086987061,"connected_time":3608000000000,"state":"active","ping":84},{"user_id":399,"name":"fats","steam_id":76561198118971856,"connected_time":6843000000000,"state":"active","ping":95},{"user_id":430,"name":"excellenceinmotion","steam_id":76561199471390378,"connected_time":4809000000000,"state":"active","ping":77},{"user_id":450,"name":"Hobbes","steam_id":76561197967448497,"connected_time":3019000000000,"state":"active","ping":80},{"user_id":424,"name":"Wet","steam_id":76561199474220124,"connected_time":5261000000000,"state":"active","ping":86},{"user_id":456,"name":"SQbuilder","steam_id":76561198076473375,"connected_time":2390000000000,"state":"active","ping":66},{"user_id":437,"name":"Ahkmid the Emoji Turban Guy","steam_id":76561198142599650,"connected_time":3722000000000,"state":"active","ping":72},{"user_id":425,"name":"gooch_masta","steam_id":76561198151578423,"connected_time":5098000000000,"state":"active","ping":87},{"user_id":462,"name":"DeftlyDyl","steam_id":76561198098986187,"connected_time":1770000000000,"state":"active","ping":81},{"user_id":477,"name":"Glaceon","steam_id":76561198177715869,"connected_time":665000000000,"state":"active","ping":66},{"user_id":457,"name":"artichoke","steam_id":76561198980994364,"connected_time":2388000000000,"state":"active","ping":113},{"user_id":483,"name":"big tim","steam_id":76561198075510786,"connected_time":13000000000,"state":"active","ping":154},{"user_id":468,"name":"big ol' buford","steam_id":76561198290675957,"connected_time":1110000000000,"state":"active","ping":45},{"user_id":448,"name":"Useless","steam_id":76561198116079299,"connected_time":3136000000000,"state":"active","ping":118},{"user_id":426,"name":"jumpingjacks","steam_id":76561197964839440,"connected_time":5091000000000,"state":"active","ping":87},{"user_id":475,"name":"Nyplestheclown","steam_id":76561198028600291,"connected_time":754000000000,"state":"active","ping":53},{"user_id":471,"name":"Marcisamo","steam_id":76561198968745286,"connected_time":1080000000000,"state":"active","ping":102},{"user_id":478,"name":"SoldMyKidneyForCollege","steam_id":76561198096329559,"connected_time":503000000000,"state":"active","ping":89},{"user_id":476,"name":"Metbol","steam_id":76561198001362410,"connected_time":689000000000,"state":"active","ping":65},{"user_id":459,"name":"Horse","steam_id":76561198004583631,"connected_time":2356000000000,"state":"active","ping":102},{"user_id":445,"name":"MagMattock","steam_id":76561198170411518,"connected_time":3435000000000,"state":"active","ping":119},{"user_id":451,"name":"Argon","steam_id":76561199254804349,"connected_time":2963000000000,"state":"active","ping":87}]},{"server_id":404,"name":"Uncletopia | Dallas | 3 | All Maps","name_short":"dal-3","host":"dal-1.us.uncletopia.com","port":27035,"enabled":true,"region":"us-central","cc":"us","latitude":32.779167,"longitude":-96.80889,"reserved":0,"last_update":"0001-01-01T00:00:00Z","name_a2s":"Uncletopia | Dallas | 3 | All Maps","protocol":17,"map":"cp_altitude","folder":"tf","game":"Team Fortress","app_id":440,"player_count":24,"max_players":24,"Bots":0,"server_type":"Dedicated","server_os":"Linux","password":true,"vac":true,"version":"7961495","steam_id":85568392924515219,"keywords":["cp","nocrits","nodmgspread","uncletopia"],"game_id":440,"stv_port":27036,"stv_name":"Uncletopia | Dallas | 3 | All Maps | STV","players":[{"user_id":290,"name":"GhastlyPann","steam_id":76561198825373404,"connected_time":843000000000,"state":"active","ping":86},{"user_id":307,"name":"[COB] Irckings","steam_id":76561198307298574,"connected_time":177000000000,"state":"active","ping":68},{"user_id":300,"name":"üçíbutaüçí","steam_id":76561198135538212,"connected_time":605000000000,"state":"active","ping":74},{"user_id":293,"name":"Dosux2","steam_id":76561198390916062,"connected_time":677000000000,"state":"active","ping":136},{"user_id":271,"name":"≈Ωin√¢lyga","steam_id":76561198067803679,"connected_time":3446000000000,"state":"active","ping":60},{"user_id":296,"name":"ChebJeb","steam_id":76561198981377081,"connected_time":656000000000,"state":"active","ping":106},{"user_id":276,"name":"Rearranging furniture","steam_id":76561199054971009,"connected_time":2812000000000,"state":"active","ping":51},{"user_id":304,"name":"mud","steam_id":76561199085742317,"connected_time":213000000000,"state":"active","ping":90},{"user_id":305,"name":"asm_ghost","steam_id":76561199205363547,"connected_time":207000000000,"state":"active","ping":100},{"user_id":297,"name":"KYLE KYLESON","steam_id":76561198021920887,"connected_time":617000000000,"state":"active","ping":60},{"user_id":226,"name":"schnedwob","steam_id":76561197999146588,"connected_time":6421000000000,"state":"active","ping":61},{"user_id":275,"name":"Bucket of Chestnuts","steam_id":76561198115079427,"connected_time":2845000000000,"state":"active","ping":93},{"user_id":284,"name":"scout main (derogatory)","steam_id":76561199117424896,"connected_time":2404000000000,"state":"active","ping":79},{"user_id":303,"name":"Jon Arbuckle","steam_id":76561198153295874,"connected_time":382000000000,"state":"active","ping":104},{"user_id":281,"name":"Ratemis","steam_id":76561198069790264,"connected_time":2462000000000,"state":"active","ping":90},{"user_id":282,"name":"shimp","steam_id":76561198067613190,"connected_time":2456000000000,"state":"active","ping":76},{"user_id":306,"name":"deemo","steam_id":76561198821340084,"connected_time":202000000000,"state":"active","ping":91},{"user_id":308,"name":"[ OTF ] piper perri","steam_id":76561198137252059,"connected_time":136000000000,"state":"active","ping":91},{"user_id":283,"name":"menk3","steam_id":76561198120888597,"connected_time":2433000000000,"state":"active","ping":99},{"user_id":273,"name":"mr. gomble","steam_id":76561198353865966,"connected_time":3169000000000,"state":"active","ping":77},{"user_id":286,"name":"shield","steam_id":76561198976876859,"connected_time":1771000000000,"state":"active","ping":87},{"user_id":301,"name":"Pixel Beat","steam_id":76561198027624919,"connected_time":588000000000,"state":"active","ping":69},{"user_id":285,"name":"Nordie","steam_id":76561198102297774,"connected_time":2338000000000,"state":"active","ping":71},{"user_id":299,"name":"EcgBlitz","steam_id":76561198404142456,"connected_time":607000000000,"state":"active","ping":77}]},{"server_id":405,"name":"Uncletopia | Dallas | 4 | Community","name_short":"dal-4","host":"dal-1.us.uncletopia.com","port":27045,"enabled":true,"region":"us-central","cc":"us","latitude":32.779167,"longitude":-96.80889,"reserved":0,"last_update":"0001-01-01T00:00:00Z","name_a2s":"Uncletopia | Dallas | 4 | Community","protocol":17,"map":"workshop/rd_asteroid_redux_b1.ugc2154902912","folder":"tf","game":"Team Fortress","app_id":440,"player_count":0,"max_players":24,"Bots":0,"server_type":"Dedicated","server_os":"Linux","password":true,"vac":true,"version":"7961495","steam_id":85568392924515220,"keywords":["beta","nocrits","nodmgspread","rd","uncletopia"],"game_id":440,"stv_port":27046,"stv_name":"Uncletopia | Dallas | 4 | Community | STV","players":null},{"server_id":5,"name":"Uncletopia | Frankfurt | 1 | All Maps","name_short":"frk-1","host":"frk-1.de.uncletopia.com","port":27015,"enabled":true,"region":"eu","cc":"de","latitude":50.110924,"longitude":8.682127,"reserved":0,"last_update":"0001-01-01T00:00:00Z","name_a2s":"Uncletopia | Frankfurt | 1 | All Maps","protocol":17,"map":"pl_badwater","folder":"tf","game":"Team Fortress","app_id":440,"player_count":0,"max_players":24,"Bots":0,"server_type":"Dedicated","server_os":"Linux","password":true,"vac":true,"version":"7961495","steam_id":85568392924469989,"keywords":["nocrits","nodmgspread","payload","uncletopia"],"game_id":440,"stv_port":27016,"stv_name":"Uncletopia | Frankfurt | 1 | All Maps | STV","players":null},{"server_id":110,"name":"Uncletopia | Frankfurt | 2 | All Maps","name_short":"frk-2","host":"frk-1.de.uncletopia.com","port":27025,"enabled":true,"region":"eu","cc":"de","latitude":50.110924,"longitude":8.682127,"reserved":0,"last_update":"0001-01-01T00:00:00Z","name_a2s":"Uncletopia | Frankfurt | 2 | All Maps","protocol":17,"map":"pl_snowycoast","folder":"tf","game":"Team Fortress","app_id":440,"player_count":15,"max_players":24,"Bots":0,"server_type":"Dedicated","server_os":"Linux","password":true,"vac":true,"version":"7961495","steam_id":85568392924469990,"keywords":["nocrits","nodmgspread","payload","uncletopia"],"game_id":440,"stv_port":27026,"stv_name":"Uncletopia | Frankfurt | 2 | All Maps | STV","players":[{"user_id":911,"name":"Disciplinary Clarkson","steam_id":76561198042748864,"connected_time":419000000000,"state":"active","ping":175},{"user_id":907,"name":"FanFish","steam_id":76561199389558024,"connected_time":1208000000000,"state":"active","ping":59},{"user_id":868,"name":"maxtea084","steam_id":76561199333951195,"connected_time":5255000000000,"state":"active","ping":163},{"user_id":918,"name":"Feels Good","steam_id":76561198058030054,"connected_time":24000000000,"state":"active","ping":100},{"user_id":909,"name":"GAU-8","steam_id":76561199497719804,"connected_time":941000000000,"state":"active","ping":91},{"user_id":910,"name":"torn","steam_id":76561198223003236,"connected_time":918000000000,"state":"active","ping":54},{"user_id":843,"name":"Nome","steam_id":76561198867982828,"connected_time":10449000000000,"state":"active","ping":102},{"user_id":912,"name":"Goose of Wisdom","steam_id":76561198233465044,"connected_time":361000000000,"state":"active","ping":153},{"user_id":913,"name":"Artificial.Ignorance","steam_id":76561198453090180,"connected_time":231000000000,"state":"active","ping":153},{"user_id":914,"name":"The G key","steam_id":76561198140809301,"connected_time":159000000000,"state":"active","ping":61},{"user_id":898,"name":"TheFox.tf","steam_id":76561197996851702,"connected_time":2726000000000,"state":"active","ping":74},{"user_id":915,"name":"Tutiwit","steam_id":76561198254481528,"connected_time":149000000000,"state":"active","ping":51},{"user_id":916,"name":"the brave little toaster","steam_id":76561199403298146,"connected_time":128000000000,"state":"active","ping":72},{"user_id":917,"name":"Scrumpy Main","steam_id":76561198146302597,"connected_time":60000000000,"state":"active","ping":157},{"user_id":919,"name":"shh.... tiny carrots r sleeping","steam_id":76561198069649097,"connected_time":2000000000,"state":"spawning","ping":41}]},{"server_id":308,"name":"Uncletopia | Frankfurt | 3 | All Maps","name_short":"frk-3","host":"frk-1.de.uncletopia.com","port":27035,"enabled":true,"region":"eu","cc":"de","latitude":50.110924,"longitude":8.682127,"reserved":0,"last_update":"0001-01-01T00:00:00Z","name_a2s":"Uncletopia | Frankfurt | 3 | All Maps","protocol":17,"map":"pl_snowycoast","folder":"tf","game":"Team Fortress","app_id":440,"player_count":0,"max_players":24,"Bots":0,"server_type":"Dedicated","server_os":"Linux","password":true,"vac":true,"version":"7961495","steam_id":85568392924504274,"keywords":["nocrits","nodmgspread","payload","uncletopia"],"game_id":440,"stv_port":27036,"stv_name":"Uncletopia | Frankfurt | 3 | All Maps | STV","players":null},{"server_id":309,"name":"Uncletopia | Frankfurt | 4 | All Maps","name_short":"frk-4","host":"frk-1.de.uncletopia.com","port":27045,"enabled":true,"region":"eu","cc":"de","latitude":50.110924,"longitude":8.682127,"reserved":0,"last_update":"0001-01-01T00:00:00Z","name_a2s":"Uncletopia | Frankfurt | 4 | All Maps","protocol":17,"map":"pl_frontier_final","folder":"tf","game":"Team Fortress","app_id":440,"player_count":0,"max_players":24,"Bots":0,"server_type":"Dedicated","server_os":"Linux","password":true,"vac":true,"version":"7961495","steam_id":85568392924504275,"keywords":["nocrits","nodmgspread","payload","uncletopia"],"game_id":440,"stv_port":27046,"stv_name":"Uncletopia | Frankfurt | 4 | All Maps | STV","players":null},{"server_id":310,"name":"Uncletopia | Frankfurt | 5 | All Maps","name_short":"frk-5","host":"frk-1.de.uncletopia.com","port":27055,"enabled":true,"region":"eu","cc":"de","latitude":50.110924,"longitude":8.682127,"reserved":0,"last_update":"0001-01-01T00:00:00Z","name_a2s":"Uncletopia | Frankfurt | 5 | All Maps","protocol":17,"map":"pl_swiftwater_final1","folder":"tf","game":"Team Fortress","app_id":440,"player_count":0,"max_players":24,"Bots":0,"server_type":"Dedicated","server_os":"Linux","password":true,"vac":true,"version":"7961495","steam_id":85568392924504277,"keywords":["nocrits","nodmgspread","payload","uncletopia"],"game_id":440,"stv_port":27056,"stv_name":"Uncletopia | Frankfurt | 5 | All Maps | STV","players":null},{"server_id":311,"name":"Uncletopia | Frankfurt | 6 | All Maps","name_short":"frk-6","host":"frk-1.de.uncletopia.com","port":27065,"enabled":true,"region":"eu","cc":"de","latitude":50.110924,"longitude":8.682127,"reserved":0,"last_update":"0001-01-01T00:00:00Z","name_a2s":"Uncletopia | Frankfurt | 6 | All Maps","protocol":17,"map":"cp_mountainlab","folder":"tf","game":"Team Fortress","app_id":440,"player_count":0,"max_players":24,"Bots":0,"server_type":"Dedicated","server_os":"Linux","password":true,"vac":true,"version":"7961495","steam_id":85568392924504278,"keywords":["cp","nocrits","nodmgspread","uncletopia"],"game_id":440,"stv_port":27066,"stv_name":"Uncletopia | Frankfurt | 6 | All Maps | STV","players":null},{"server_id":23,"name":"Uncletopia | Frankfurt | 7 | Stopwatch","name_short":"frk-7","host":"frk-1.de.uncletopia.com","port":27075,"enabled":true,"region":"eu","cc":"de","latitude":50.110924,"longitude":8.682127,"reserved":0,"last_update":"0001-01-01T00:00:00Z","name_a2s":"Uncletopia | Frankfurt | 7 | Stopwatch","protocol":17,"map":"koth_highpass","folder":"tf","game":"Team Fortress","app_id":440,"player_count":0,"max_players":24,"Bots":0,"server_type":"Dedicated","server_os":"Linux","password":true,"vac":true,"version":"7961495","steam_id":85568392924742827,"keywords":["cp","nocrits","nodmgspread","uncletopia"],"game_id":440,"stv_port":27076,"stv_name":"Uncletopia | Frankfurt | 7 | Stopwatch | STV","players":null},{"server_id":24,"name":"Uncletopia | Frankfurt | 8 | Community","name_short":"frk-8","host":"frk-1.de.uncletopia.com","port":27085,"enabled":true,"region":"eu","cc":"de","latitude":50.110924,"longitude":8.682127,"reserved":0,"last_update":"0001-01-01T00:00:00Z","name_a2s":"Uncletopia | Frankfurt | 8 | Community","protocol":17,"map":"workshop/koth_ashville_final.ugc2130459942","folder":"tf","game":"Team Fortress","app_id":440,"player_count":0,"max_players":24,"Bots":0,"server_type":"Dedicated","server_os":"Linux","password":true,"vac":true,"version":"7961495","steam_id":85568392924742828,"keywords":["cp","nocrits","nodmgspread","uncletopia"],"game_id":440,"stv_port":27086,"stv_name":"Uncletopia | Frankfurt | 8 | Community | STV","players":null},{"server_id":202,"name":"Uncletopia | Hong Kong | 1 | All Maps","name_short":"hgk-1","host":"hgk-1.hk.uncletopia.com","port":27015,"enabled":true,"region":"asia","cc":"hk","latitude":22.302711,"longitude":114.177216,"reserved":0,"last_update":"0001-01-01T00:00:00Z","name_a2s":"Uncletopia | Hong Kong | 1 | All Maps","protocol":17,"map":"cp_dustbowl","folder":"tf","game":"Team Fortress","app_id":440,"player_count":0,"max_players":24,"Bots":0,"server_type":"Dedicated","server_os":"Linux","password":true,"vac":true,"version":"7961495","steam_id":85568392924494504,"keywords":["cp","nocrits","nodmgspread","uncletopia"],"game_id":440,"stv_port":27016,"stv_name":"Uncletopia | Hong Kong | 1 | All Maps | STV","players":null},{"server_id":1,"name":"Uncletopia | Los Angeles | 1 | All Maps","name_short":"lax-1","host":"lax-1.us.uncletopia.com","port":27015,"enabled":true,"region":"us-west","cc":"us","latitude":33.94279,"longitude":-118.41004,"reserved":0,"last_update":"0001-01-01T00:00:00Z","name_a2s":"Uncletopia | Los Angeles | 1 | All Maps","protocol":17,"map":"pl_pier","folder":"tf","game":"Team Fortress","app_id":440,"player_count":24,"max_players":24,"Bots":0,"server_type":"Dedicated","server_os":"Linux","password":true,"vac":true,"version":"7961495","steam_id":85568392924469991,"keywords":["nocrits","nodmgspread","payload","uncletopia"],"game_id":440,"stv_port":27016,"stv_name":"Uncletopia | Los Angeles | 1 | All Maps | STV","players":[{"user_id":528,"name":"nella","steam_id":76561198079349621,"connected_time":45000000000,"state":"active","ping":60},{"user_id":524,"name":"ButteryJack","steam_id":76561198021691102,"connected_time":182000000000,"state":"active","ping":59},{"user_id":516,"name":"Pluto","steam_id":76561198012630802,"connected_time":784000000000,"state":"active","ping":66},{"user_id":485,"name":"M.I.R.A.I.Drive","steam_id":76561198098018436,"connected_time":3008000000000,"state":"active","ping":90},{"user_id":525,"name":"FI LO","steam_id":76561198976530881,"connected_time":172000000000,"state":"active","ping":30},{"user_id":424,"name":"Foreplay","steam_id":76561198097871363,"connected_time":7336000000000,"state":"active","ping":51},{"user_id":486,"name":"Noponz","steam_id":76561198176891054,"connected_time":3001000000000,"state":"active","ping":107},{"user_id":512,"name":"Wacks","steam_id":76561198079476100,"connected_time":871000000000,"state":"active","ping":58},{"user_id":490,"name":"Jekoinquiloinks","steam_id":76561198309542241,"connected_time":2045000000000,"state":"active","ping":62},{"user_id":505,"name":"[MF] Thicc Dark Elf Meat","steam_id":76561198047681421,"connected_time":1536000000000,"state":"active","ping":123},{"user_id":481,"name":"furry police","steam_id":76561198065662025,"connected_time":3126000000000,"state":"active","ping":61},{"user_id":513,"name":"Hectic_Puppy (bday in 3 DAYS)","steam_id":76561198111645213,"connected_time":869000000000,"state":"active","ping":47},{"user_id":514,"name":"greens beans","steam_id":76561198153611491,"connected_time":837000000000,"state":"active","ping":73},{"user_id":494,"name":"Igrium","steam_id":76561198119549811,"connected_time":2021000000000,"state":"active","ping":62},{"user_id":506,"name":"PJ2009","steam_id":76561198318126190,"connected_time":1265000000000,"state":"active","ping":156},{"user_id":507,"name":"Polfloe10","steam_id":76561198013702833,"connected_time":1134000000000,"state":"active","ping":108},{"user_id":517,"name":"STARZ#1400","steam_id":76561198965593434,"connected_time":779000000000,"state":"active","ping":101},{"user_id":526,"name":"Raiden","steam_id":76561198024407472,"connected_time":101000000000,"state":"active","ping":54},{"user_id":408,"name":"sobaka","steam_id":76561198116008934,"connected_time":8211000000000,"state":"active","ping":61},{"user_id":521,"name":"TimeForHype","steam_id":76561197996714494,"connected_time":664000000000,"state":"active","ping":72},{"user_id":431,"name":"Alf Creepypasta","steam_id":76561198841844093,"connected_time":6966000000000,"state":"active","ping":45},{"user_id":502,"name":"Mr. CubeX","steam_id":76561198805603832,"connected_time":1867000000000,"state":"active","ping":122},{"user_id":522,"name":"Kat-Chan","steam_id":76561198815823728,"connected_time":538000000000,"state":"active","ping":150},{"user_id":448,"name":"sola venereum","steam_id":76561198368179166,"connected_time":5976000000000,"state":"active","ping":38}]},{"server_id":112,"name":"Uncletopia | Los Angeles | 2 | All Maps","name_short":"lax-2","host":"lax-1.us.uncletopia.com","port":27025,"enabled":true,"region":"us-west","cc":"us","latitude":33.94279,"longitude":-118.41004,"reserved":0,"last_update":"0001-01-01T00:00:00Z","name_a2s":"Uncletopia | Los Angeles | 2 | All Maps","protocol":17,"map":"cp_snakewater_final1","folder":"tf","game":"Team Fortress","app_id":440,"player_count":24,"max_players":24,"Bots":0,"server_type":"Dedicated","server_os":"Linux","password":true,"vac":true,"version":"7961495","steam_id":85568392924469992,"keywords":["cp","nocrits","nodmgspread","uncletopia"],"game_id":440,"stv_port":27026,"stv_name":"Uncletopia | Los Angeles | 2 | All Maps | STV","players":[{"user_id":107,"name":"Sozuki","steam_id":76561198961150367,"connected_time":476000000000,"state":"active","ping":51},{"user_id":91,"name":"bingus :3","steam_id":76561199198633203,"connected_time":1669000000000,"state":"active","ping":102},{"user_id":83,"name":"Dog","steam_id":76561198450992953,"connected_time":1823000000000,"state":"active","ping":62},{"user_id":108,"name":"jdm","steam_id":76561199497603020,"connected_time":476000000000,"state":"active","ping":46},{"user_id":113,"name":"broge","steam_id":76561198110002068,"connected_time":298000000000,"state":"active","ping":47},{"user_id":81,"name":"Billosky Time Lord","steam_id":76561199159626560,"connected_time":1891000000000,"state":"active","ping":168},{"user_id":101,"name":"Gem","steam_id":76561198106330075,"connected_time":788000000000,"state":"active","ping":61},{"user_id":95,"name":"RoastyToast408","steam_id":76561198273018783,"connected_time":1452000000000,"state":"active","ping":57},{"user_id":114,"name":"Pacemaker","steam_id":76561198046865217,"connected_time":171000000000,"state":"active","ping":47},{"user_id":110,"name":"merkury731","steam_id":76561198110565430,"connected_time":468000000000,"state":"active","ping":111},{"user_id":48,"name":"Mom","steam_id":76561198207936000,"connected_time":3183000000000,"state":"active","ping":44},{"user_id":73,"name":"Soapbar","steam_id":76561198081714169,"connected_time":2226000000000,"state":"active","ping":117},{"user_id":111,"name":"turn around","steam_id":76561198046526036,"connected_time":461000000000,"state":"active","ping":45},{"user_id":51,"name":"Hazeyboi","steam_id":76561198130687838,"connected_time":3085000000000,"state":"active","ping":90},{"user_id":52,"name":"snail2646","steam_id":76561198061411251,"connected_time":3079000000000,"state":"active","ping":89},{"user_id":53,"name":"Brass Beastiality","steam_id":76561198100249037,"connected_time":3077000000000,"state":"active","ping":90},{"user_id":54,"name":"Maximum Flame","steam_id":76561198073682529,"connected_time":3073000000000,"state":"active","ping":94},{"user_id":99,"name":"tf2bot","steam_id":76561199016742478,"connected_time":949000000000,"state":"active","ping":75},{"user_id":116,"name":"BenUpde","steam_id":76561198003554034,"connected_time":43000000000,"state":"active","ping":119},{"user_id":105,"name":"vvitch","steam_id":76561198279661941,"connected_time":502000000000,"state":"active","ping":46},{"user_id":58,"name":"bonk man","steam_id":76561198386542309,"connected_time":2995000000000,"state":"active","ping":118},{"user_id":59,"name":"walrooos","steam_id":76561198024521839,"connected_time":2974000000000,"state":"active","ping":48},{"user_id":97,"name":"Gerbias","steam_id":76561198001002427,"connected_time":1011000000000,"state":"active","ping":67},{"user_id":112,"name":"Snootzdog","steam_id":76561198835737236,"connected_time":457000000000,"state":"active","ping":124}]},{"server_id":324,"name":"Uncletopia | Los Angeles | 3 | All Maps","name_short":"lax-3","host":"lax-1.us.uncletopia.com","port":27035,"enabled":true,"region":"us-west","cc":"us","latitude":33.94279,"longitude":-118.41004,"reserved":0,"last_update":"0001-01-01T00:00:00Z","name_a2s":"Uncletopia | Los Angeles | 3 | All Maps","protocol":17,"map":"cp_altitude","folder":"tf","game":"Team Fortress","app_id":440,"player_count":0,"max_players":24,"Bots":0,"server_type":"Dedicated","server_os":"Linux","password":true,"vac":true,"version":"7961495","steam_id":85568392924510198,"keywords":["cp","nocrits","nodmgspread","uncletopia"],"game_id":440,"stv_port":27036,"stv_name":"Uncletopia | Los Angeles | 3 | All Maps | STV","players":null},{"server_id":25,"name":"Uncletopia | Los Angeles | 4 | Stopwatch","name_short":"lax-4","host":"lax-1.us.uncletopia.com","port":27045,"enabled":true,"region":"us-west","cc":"us","latitude":33.94279,"longitude":-118.41004,"reserved":0,"last_update":"0001-01-01T00:00:00Z","name_a2s":"Uncletopia | Los Angeles | 4 | Stopwatch","protocol":17,"map":"workshop/koth_ashville_final.ugc2130459942","folder":"tf","game":"Team Fortress","app_id":440,"player_count":0,"max_players":24,"Bots":0,"server_type":"Dedicated","server_os":"Linux","password":true,"vac":true,"version":"7961495","steam_id":85568392924510199,"keywords":["cp","nocrits","nodmgspread","uncletopia"],"game_id":440,"stv_port":27046,"stv_name":"Uncletopia | Los Angeles | 4 | Stopwatch | STV","players":null},{"server_id":11,"name":"Uncletopia | London | 1 | All Maps","name_short":"lon-1","host":"lon-1.uk.uncletopia.com","port":27015,"enabled":true,"region":"eu","cc":"gb","latitude":51.509865,"longitude":-0.118092,"reserved":0,"last_update":"0001-01-01T00:00:00Z","name_a2s":"Uncletopia | London | 1 | All Maps","protocol":17,"map":"pl_thundermountain","folder":"tf","game":"Team Fortress","app_id":440,"player_count":24,"max_players":24,"Bots":0,"server_type":"Dedicated","server_os":"Linux","password":true,"vac":true,"version":"7961495","steam_id":85568392924367362,"keywords":["nocrits","nodmgspread","payload","uncletopia"],"game_id":440,"stv_port":27016,"stv_name":"Uncletopia | London | 1 | All Maps | STV","players":[{"user_id":645,"name":"stun","steam_id":76561198276681691,"connected_time":984000000000,"state":"active","ping":45},{"user_id":610,"name":"Black Tom","steam_id":76561198335730273,"connected_time":5229000000000,"state":"active","ping":63},{"user_id":646,"name":"ywyw","steam_id":76561198088624259,"connected_time":976000000000,"state":"active","ping":58},{"user_id":657,"name":"Tattletails","steam_id":76561198055690341,"connected_time":429000000000,"state":"active","ping":55},{"user_id":614,"name":"pad6z23h8s","steam_id":76561198880756741,"connected_time":5007000000000,"state":"active","ping":74},{"user_id":606,"name":"Dalm (She/Her)","steam_id":76561198010878552,"connected_time":5437000000000,"state":"active","ping":46},{"user_id":620,"name":"shooer!","steam_id":76561198074097655,"connected_time":3807000000000,"state":"active","ping":60},{"user_id":656,"name":"etc","steam_id":76561197998394797,"connected_time":614000000000,"state":"active","ping":56},{"user_id":544,"name":"Yelowchy","steam_id":76561198199416121,"connected_time":13769000000000,"state":"active","ping":68},{"user_id":647,"name":"lawn","steam_id":76561198001243486,"connected_time":915000000000,"state":"active","ping":44},{"user_id":660,"name":"œ°cloud","steam_id":76561198081895622,"connected_time":21000000000,"state":"active","ping":64},{"user_id":619,"name":"minn","steam_id":76561198099101232,"connected_time":3894000000000,"state":"active","ping":57},{"user_id":492,"name":"gibb (official)","steam_id":76561198110531281,"connected_time":19001000000000,"state":"active","ping":69},{"user_id":612,"name":"FurbyZone","steam_id":76561198268344503,"connected_time":5050000000000,"state":"active","ping":38},{"user_id":648,"name":"ËôæÊâØËõã.Lonely","steam_id":76561198022989560,"connected_time":907000000000,"state":"active","ping":51},{"user_id":661,"name":"SuperBob103","steam_id":76561199175360012,"connected_time":21000000000,"state":"active","ping":45},{"user_id":600,"name":"beebo","steam_id":76561199120277007,"connected_time":5965000000000,"state":"active","ping":41},{"user_id":638,"name":"Biscuit","steam_id":76561198034318885,"connected_time":2017000000000,"state":"active","ping":42},{"user_id":652,"name":"derwin","steam_id":76561198062075870,"connected_time":798000000000,"state":"active","ping":70},{"user_id":650,"name":"Borat","steam_id":76561198122226417,"connected_time":899000000000,"state":"active","ping":44},{"user_id":641,"name":"devious timeline","steam_id":76561198307037169,"connected_time":1725000000000,"state":"active","ping":59},{"user_id":651,"name":"glyph","steam_id":76561197980736364,"connected_time":870000000000,"state":"active","ping":81},{"user_id":643,"name":"Visphiric","steam_id":76561198071938027,"connected_time":1022000000000,"state":"active","ping":38},{"user_id":644,"name":"puck","steam_id":76561198121260981,"connected_time":1022000000000,"state":"active","ping":43}]},{"server_id":114,"name":"Uncletopia | London | 2 | All Maps","name_short":"lon-2","host":"lon-1.uk.uncletopia.com","port":27025,"enabled":true,"region":"eu","cc":"gb","latitude":51.509865,"longitude":-0.118092,"reserved":0,"last_update":"0001-01-01T00:00:00Z","name_a2s":"Uncletopia | London | 2 | All Maps","protocol":17,"map":"pl_pier","folder":"tf","game":"Team Fortress","app_id":440,"player_count":0,"max_players":24,"Bots":0,"server_type":"Dedicated","server_os":"Linux","password":true,"vac":true,"version":"7961495","steam_id":85568392924470941,"keywords":["nocrits","nodmgspread","payload","uncletopia"],"game_id":440,"stv_port":27026,"stv_name":"Uncletopia | London | 2 | All Maps | STV","players":null},{"server_id":320,"name":"Uncletopia | London | 3 | All Maps","name_short":"lon-3","host":"lon-1.uk.uncletopia.com","port":27035,"enabled":true,"region":"eu","cc":"gb","latitude":51.509865,"longitude":-0.118092,"reserved":0,"last_update":"0001-01-01T00:00:00Z","name_a2s":"Uncletopia | London | 3 | All Maps","protocol":17,"map":"koth_viaduct","folder":"tf","game":"Team Fortress","app_id":440,"player_count":0,"max_players":24,"Bots":0,"server_type":"Dedicated","server_os":"Linux","password":true,"vac":true,"version":"7961495","steam_id":85568392924510192,"keywords":["cp","nocrits","nodmgspread","uncletopia"],"game_id":440,"stv_port":27036,"stv_name":"Uncletopia | London | 3 | All Maps | STV","players":null},{"server_id":321,"name":"Uncletopia | London | 4 | All Maps","name_short":"lon-4","host":"lon-1.uk.uncletopia.com","port":27045,"enabled":true,"region":"eu","cc":"gb","latitude":51.509865,"longitude":-0.118092,"reserved":0,"last_update":"0001-01-01T00:00:00Z","name_a2s":"Uncletopia | London | 4 | All Maps","protocol":17,"map":"koth_cascade","folder":"tf","game":"Team Fortress","app_id":440,"player_count":0,"max_players":24,"Bots":0,"server_type":"Dedicated","server_os":"Linux","password":true,"vac":true,"version":"7961495","steam_id":85568392924510193,"keywords":["cp","nocrits","nodmgspread","uncletopia"],"game_id":440,"stv_port":27046,"stv_name":"Uncletopia | London | 4 | All Maps | STV","players":null},{"server_id":21,"name":"Uncletopia | London | 5 | All Maps","name_short":"lon-5","host":"lon-1.uk.uncletopia.com","port":27055,"enabled":true,"region":"eu","cc":"gb","latitude":51.509865,"longitude":-0.118092,"reserved":0,"last_update":"0001-01-01T00:00:00Z","name_a2s":"Uncletopia | London | 5 | All Maps","protocol":17,"map":"pl_pier","folder":"tf","game":"Team Fortress","app_id":440,"player_count":0,"max_players":24,"Bots":0,"server_type":"Dedicated","server_os":"Linux","password":true,"vac":true,"version":"7961495","steam_id":85568392924742829,"keywords":["nocrits","nodmgspread","payload","uncletopia"],"game_id":440,"stv_port":27056,"stv_name":"Uncletopia | London | 5 | All Maps | STV","players":null},{"server_id":22,"name":"Uncletopia | London | 6 | All Maps","name_short":"lon-6","host":"lon-1.uk.uncletopia.com","port":27065,"enabled":true,"region":"eu","cc":"gb","latitude":51.509865,"longitude":-0.118092,"reserved":0,"last_update":"0001-01-01T00:00:00Z","name_a2s":"Uncletopia | London | 6 | All Maps","protocol":17,"map":"cp_snakewater_final1","folder":"tf","game":"Team Fortress","app_id":440,"player_count":0,"max_players":24,"Bots":0,"server_type":"Dedicated","server_os":"Linux","password":true,"vac":true,"version":"7961495","steam_id":85568392924742830,"keywords":["cp","nocrits","nodmgspread","uncletopia"],"game_id":440,"stv_port":27066,"stv_name":"Uncletopia | London | 6 | All Maps | STV","players":null},{"server_id":40,"name":"Uncletopia | London | 7 | Stopwatch","name_short":"lon-7","host":"lon-1.uk.uncletopia.com","port":27075,"enabled":true,"region":"eu","cc":"gb","latitude":51.509865,"longitude":-0.118092,"reserved":0,"last_update":"0001-01-01T00:00:00Z","name_a2s":"Uncletopia | London | 7 | Stopwatch","protocol":17,"map":"workshop/koth_ashville_final.ugc2130459942","folder":"tf","game":"Team Fortress","app_id":440,"player_count":0,"max_players":24,"Bots":0,"server_type":"Dedicated","server_os":"Linux","password":true,"vac":true,"version":"7961495","steam_id":85568392924964314,"keywords":["cp","nocrits","nodmgspread","uncletopia"],"game_id":440,"stv_port":27076,"stv_name":"Uncletopia | London | 7 | Stopwatch | STV","players":null},{"server_id":41,"name":"Uncletopia | London | 8 | Community","name_short":"lon-8","host":"lon-1.uk.uncletopia.com","port":27085,"enabled":true,"region":"eu","cc":"gb","latitude":51.509865,"longitude":-0.118092,"reserved":0,"last_update":"0001-01-01T00:00:00Z","name_a2s":"Uncletopia | London | 8 | Community","protocol":17,"map":"workshop/pl_boundary_final1.ugc456799153","folder":"tf","game":"Team Fortress","app_id":440,"player_count":0,"max_players":24,"Bots":0,"server_type":"Dedicated","server_os":"Linux","password":true,"vac":true,"version":"7961495","steam_id":85568392924964315,"keywords":["nocrits","nodmgspread","payload","uncletopia"],"game_id":440,"stv_port":27086,"stv_name":"Uncletopia | London | 8 | Community | STV","players":null},{"server_id":300,"name":"Uncletopia | Montr√©al | 1 | One Thousand Uncles","name_short":"mtl-1","host":"mtl-1.ca.uncletopia.com","port":27015,"enabled":true,"region":"us-east","cc":"ca","latitude":45.50889,"longitude":-73.56167,"reserved":0,"last_update":"0001-01-01T00:00:00Z","name_a2s":"","protocol":0,"map":"","folder":"","game":"","app_id":0,"player_count":7,"max_players":0,"Bots":0,"server_type":"","server_os":"","password":false,"vac":false,"version":"","steam_id":0,"keywords":null,"game_id":0,"stv_port":0,"stv_name":"","players":[{"user_id":146,"name":"prospike","steam_id":76561199491903111,"connected_time":2094000000000,"state":"active","ping":64},{"user_id":169,"name":"Cacodemon","steam_id":76561198121797960,"connected_time":141000000000,"state":"active","ping":50},{"user_id":171,"name":"DoggyDogWhirl","steam_id":76561198042841344,"connected_time":110000000000,"state":"active","ping":59},{"user_id":152,"name":"GoldGauntlet","steam_id":76561199022017655,"connected_time":791000000000,"state":"active","ping":45},{"user_id":172,"name":"puffy","steam_id":76561198411347037,"connected_time":10000000000,"state":"spawning","ping":59},{"user_id":104,"name":"Wang of Wall St","steam_id":76561198047460598,"connected_time":3377000000000,"state":"active","ping":53},{"user_id":106,"name":"The Last Thing","steam_id":76561198047192080,"connected_time":3254000000000,"state":"active","ping":80}]},{"server_id":301,"name":"Uncletopia | Montr√©al | 2 | One Thousand Uncles","name_short":"mtl-2","host":"mtl-1.ca.uncletopia.com","port":27025,"enabled":true,"region":"us-east","cc":"ca","latitude":45.50889,"longitude":-73.56167,"reserved":0,"last_update":"0001-01-01T00:00:00Z","name_a2s":"","protocol":0,"map":"","folder":"","game":"","app_id":0,"player_count":2,"max_players":0,"Bots":0,"server_type":"","server_os":"","password":false,"vac":false,"version":"","steam_id":0,"keywords":null,"game_id":0,"stv_port":0,"stv_name":"","players":[{"user_id":163,"name":"Warbler_","steam_id":76561198242541680,"connected_time":902000000000,"state":"active","ping":45},{"user_id":180,"name":"d4efeb","steam_id":76561198148098761,"connected_time":813000000000,"state":"active","ping":55}]},{"server_id":302,"name":"Uncletopia | Montr√©al | 3 | One Thousand Uncles","name_short":"mtl-3","host":"mtl-1.ca.uncletopia.com","port":27035,"enabled":true,"region":"us-east","cc":"ca","latitude":45.50889,"longitude":-73.56167,"reserved":0,"last_update":"0001-01-01T00:00:00Z","name_a2s":"","protocol":0,"map":"","folder":"","game":"","app_id":0,"player_count":12,"max_players":0,"Bots":0,"server_type":"","server_os":"","password":false,"vac":false,"version":"","steam_id":0,"keywords":null,"game_id":0,"stv_port":0,"stv_name":"","players":[{"user_id":89,"name":"snake","steam_id":76561198841257835,"connected_time":4039000000000,"state":"active","ping":168},{"user_id":106,"name":"CrashoQuemado","steam_id":76561199088362195,"connected_time":3837000000000,"state":"active","ping":222},{"user_id":126,"name":"Napoleon Dynamite","steam_id":76561198068064706,"connected_time":357000000000,"state":"active","ping":56},{"user_id":109,"name":"Lots0","steam_id":76561198043143145,"connected_time":3083000000000,"state":"active","ping":94},{"user_id":110,"name":"Poyo Boyo","steam_id":76561198010201227,"connected_time":3069000000000,"state":"active","ping":59},{"user_id":124,"name":"C Papi","steam_id":76561198027779564,"connected_time":1168000000000,"state":"active","ping":65},{"user_id":113,"name":"HollyBlocky","steam_id":76561198030156100,"connected_time":2345000000000,"state":"active","ping":86},{"user_id":114,"name":"Maguel","steam_id":76561199175573001,"connected_time":2273000000000,"state":"active","ping":120},{"user_id":115,"name":"jerdrip","steam_id":76561199154250078,"connected_time":2238000000000,"state":"active","ping":130},{"user_id":117,"name":"adiarn","steam_id":76561199154821818,"connected_time":2113000000000,"state":"active","ping":198},{"user_id":118,"name":"Disc0","steam_id":76561198067337267,"connected_time":2033000000000,"state":"active","ping":134},{"user_id":121,"name":"Sen","steam_id":76561199030540078,"connected_time":1525000000000,"state":"active","ping":204}]},{"server_id":13,"name":"Uncletopia | New York City | 1 | All Maps","name_short":"nyc-1","host":"nyc-1.us.uncletopia.com","port":27015,"enabled":true,"region":"us-east","cc":"us","latitude":40.73061,"longitude":-73.93524,"reserved":0,"last_update":"0001-01-01T00:00:00Z","name_a2s":"Uncletopia | New York City | 1 | All Maps","protocol":17,"map":"pl_barnblitz","folder":"tf","game":"Team Fortress","app_id":440,"player_count":24,"max_players":24,"Bots":0,"server_type":"Dedicated","server_os":"Linux","password":true,"vac":true,"version":"7961495","steam_id":85568392924469993,"keywords":["nocrits","nodmgspread","payload","uncletopia"],"game_id":440,"stv_port":27016,"stv_name":"Uncletopia | New York City | 1 | All Maps | STV","players":[{"user_id":621,"name":"Gentoo Linux Gaming","steam_id":76561197999657118,"connected_time":1219000000000,"state":"active","ping":62},{"user_id":612,"name":"c tommy","steam_id":76561198094037582,"connected_time":1951000000000,"state":"active","ping":54},{"user_id":561,"name":"Dareu","steam_id":76561198081781710,"connected_time":6870000000000,"state":"active","ping":58},{"user_id":600,"name":"GooniOoni","steam_id":76561198102154561,"connected_time":2855000000000,"state":"active","ping":66},{"user_id":632,"name":"Diamond Stuff","steam_id":76561198064359644,"connected_time":752000000000,"state":"active","ping":60},{"user_id":642,"name":"EririBestGirl","steam_id":76561198200976259,"connected_time":206000000000,"state":"active","ping":72},{"user_id":619,"name":"mostly ham","steam_id":76561199479937232,"connected_time":1289000000000,"state":"active","ping":65},{"user_id":622,"name":"Runny Eggs","steam_id":76561198006785882,"connected_time":1203000000000,"state":"active","ping":82},{"user_id":641,"name":"Peter","steam_id":76561198065796300,"connected_time":268000000000,"state":"active","ping":95},{"user_id":631,"name":"SHPEE","steam_id":76561198091611460,"connected_time":973000000000,"state":"active","ping":86},{"user_id":591,"name":"Mega_Man23","steam_id":76561198138341391,"connected_time":3839000000000,"state":"active","ping":73},{"user_id":623,"name":"Rotarius","steam_id":76561198109893506,"connected_time":1200000000000,"state":"active","ping":133},{"user_id":606,"name":"Bert.","steam_id":76561198140666346,"connected_time":2219000000000,"state":"active","ping":47},{"user_id":627,"name":"Gustavo Fring","steam_id":76561198132807405,"connected_time":1151000000000,"state":"active","ping":92},{"user_id":635,"name":"That Guy","steam_id":76561198074138740,"connected_time":623000000000,"state":"active","ping":80},{"user_id":617,"name":"really hot pocket","steam_id":76561198239297686,"connected_time":1701000000000,"state":"active","ping":83},{"user_id":565,"name":"Spiral Mountain","steam_id":76561198058683715,"connected_time":6654000000000,"state":"active","ping":65},{"user_id":640,"name":"Fredrick","steam_id":76561197981419964,"connected_time":282000000000,"state":"active","ping":48},{"user_id":629,"name":"VaporBaboon","steam_id":76561198043610439,"connected_time":1136000000000,"state":"active","ping":101},{"user_id":630,"name":"McMahonism","steam_id":76561198066138208,"connected_time":1135000000000,"state":"active","ping":47},{"user_id":555,"name":"Propaniac Gaming ‚òë","steam_id":76561198133963270,"connected_time":7320000000000,"state":"active","ping":60},{"user_id":613,"name":"Nerrrd_","steam_id":76561198870129960,"connected_time":1951000000000,"state":"active","ping":44},{"user_id":634,"name":"Buck","steam_id":76561198064244796,"connected_time":723000000000,"state":"active","ping":55},{"user_id":594,"name":"Bullahorns","steam_id":76561197997138052,"connected_time":3665000000000,"state":"active","ping":71}]},{"server_id":14,"name":"Uncletopia | New York City | 2 | All Maps","name_short":"nyc-2","host":"nyc-1.us.uncletopia.com","port":27025,"enabled":true,"region":"us-east","cc":"us","latitude":40.73061,"longitude":-73.93524,"reserved":0,"last_update":"0001-01-01T00:00:00Z","name_a2s":"Uncletopia | New York City | 2 | All Maps","protocol":17,"map":"pl_barnblitz","folder":"tf","game":"Team Fortress","app_id":440,"player_count":24,"max_players":24,"Bots":0,"server_type":"Dedicated","server_os":"Linux","password":true,"vac":true,"version":"7961495","steam_id":85568392924469994,"keywords":["nocrits","nodmgspread","payload","uncletopia"],"game_id":440,"stv_port":27026,"stv_name":"Uncletopia | New York City | 2 | All Maps | STV","players":[{"user_id":670,"name":"MAXIMUS","steam_id":76561198085809453,"connected_time":564000000000,"state":"active","ping":82},{"user_id":636,"name":"ShowGoat","steam_id":76561198050539261,"connected_time":3677000000000,"state":"active","ping":60},{"user_id":635,"name":"ÓÑë Mistah Static ÓÑë","steam_id":76561198039275341,"connected_time":4100000000000,"state":"active","ping":56},{"user_id":668,"name":"shop","steam_id":76561198411274746,"connected_time":652000000000,"state":"active","ping":51},{"user_id":661,"name":"GunSpy872","steam_id":76561198290866348,"connected_time":1377000000000,"state":"active","ping":60},{"user_id":673,"name":"Guil","steam_id":76561197993289176,"connected_time":320000000000,"state":"active","ping":68},{"user_id":669,"name":"Sir Barold, IIIst of his name","steam_id":76561197989038965,"connected_time":621000000000,"state":"active","ping":74},{"user_id":625,"name":"Unk","steam_id":76561198031717617,"connected_time":5483000000000,"state":"active","ping":38},{"user_id":612,"name":"buhers256","steam_id":76561198927077674,"connected_time":6332000000000,"state":"active","ping":103},{"user_id":613,"name":"Sir Rimmington","steam_id":76561198019476636,"connected_time":6321000000000,"state":"active","ping":63},{"user_id":665,"name":"ElPeach","steam_id":76561198845008687,"connected_time":928000000000,"state":"active","ping":80},{"user_id":653,"name":"Ellis McGruber","steam_id":76561198060739536,"connected_time":1776000000000,"state":"active","ping":64},{"user_id":630,"name":"VisibleForce","steam_id":76561198104178938,"connected_time":5073000000000,"state":"active","ping":61},{"user_id":637,"name":"guppy","steam_id":76561198041380190,"connected_time":3666000000000,"state":"active","ping":84},{"user_id":615,"name":"The One True Luke","steam_id":76561198180891187,"connected_time":6225000000000,"state":"active","ping":60},{"user_id":627,"name":"Nak","steam_id":76561198058151893,"connected_time":5456000000000,"state":"active","ping":68},{"user_id":657,"name":"maZe","steam_id":76561198025769991,"connected_time":1541000000000,"state":"active","ping":67},{"user_id":628,"name":"Invis","steam_id":76561198054546884,"connected_time":5448000000000,"state":"active","ping":50},{"user_id":671,"name":"chud smoker","steam_id":76561198120973162,"connected_time":426000000000,"state":"active","ping":77},{"user_id":642,"name":"Hoopla","steam_id":76561198327775508,"connected_time":3596000000000,"state":"active","ping":43},{"user_id":663,"name":"TheDudeofDC","steam_id":76561199059346175,"connected_time":1373000000000,"state":"active","ping":48},{"user_id":664,"name":"Philo","steam_id":76561198061873341,"connected_time":1041000000000,"state":"active","ping":94},{"user_id":672,"name":"It's FoolMoon","steam_id":76561198153344375,"connected_time":356000000000,"state":"active","ping":44},{"user_id":675,"name":"maringam","steam_id":76561198127193708,"connected_time":17000000000,"state":"active","ping":69}]},{"server_id":15,"name":"Uncletopia | New York City | 3 | Stopwatch","name_short":"nyc-3","host":"nyc-1.us.uncletopia.com","port":27035,"enabled":true,"region":"us-east","cc":"us","latitude":40.73061,"longitude":-73.93524,"reserved":0,"last_update":"0001-01-01T00:00:00Z","name_a2s":"Uncletopia | New York City | 3 | Stopwatch","protocol":17,"map":"cp_process_final","folder":"tf","game":"Team Fortress","app_id":440,"player_count":0,"max_players":24,"Bots":0,"server_type":"Dedicated","server_os":"Linux","password":true,"vac":true,"version":"7961495","steam_id":85568392924742820,"keywords":["cp","nocrits","nodmgspread","uncletopia"],"game_id":440,"stv_port":27036,"stv_name":"Uncletopia | New York City | 3 | Stopwatch | STV","players":null},{"server_id":16,"name":"Uncletopia | New York City | 4 | Community","name_short":"nyc-4","host":"nyc-1.us.uncletopia.com","port":27045,"enabled":true,"region":"us-east","cc":"us","latitude":40.73061,"longitude":-73.93524,"reserved":0,"last_update":"0001-01-01T00:00:00Z","name_a2s":"Uncletopia | New York City | 4 | Community","protocol":17,"map":"workshop/koth_ramjam_rc1.ugc459778887","folder":"tf","game":"Team Fortress","app_id":440,"player_count":0,"max_players":24,"Bots":0,"server_type":"Dedicated","server_os":"Linux","password":true,"vac":true,"version":"7961495","steam_id":85568392924742821,"keywords":["cp","nocrits","nodmgspread","uncletopia"],"game_id":440,"stv_port":27046,"stv_name":"Uncletopia | New York City | 4 | Community | STV","players":null},{"server_id":142,"name":"Uncletopia | S√£o Paulo | 1 | All Maps","name_short":"sao-1","host":"sao-1.br.uncletopia.com","port":27015,"enabled":true,"region":"sa","cc":"br","latitude":-23.533773,"longitude":-46.62529,"reserved":0,"last_update":"0001-01-01T00:00:00Z","name_a2s":"Uncletopia | S√£o Paulo | 1 | All Maps","protocol":17,"map":"pl_pier","folder":"tf","game":"Team Fortress","app_id":440,"player_count":0,"max_players":24,"Bots":0,"server_type":"Dedicated","server_os":"Linux","password":true,"vac":true,"version":"7961495","steam_id":85568392924469996,"keywords":["nocrits","nodmgspread","payload","uncletopia"],"game_id":440,"stv_port":27016,"stv_name":"Uncletopia | S√£o Paulo | 1 | All Maps | STV","players":null},{"server_id":143,"name":"Uncletopia | S√£o Paulo | 2 | Community","name_short":"sao-2","host":"sao-2.br.uncletopia.com","port":27015,"enabled":true,"region":"sa","cc":"br","latitude":-23.533773,"longitude":-46.62529,"reserved":0,"last_update":"0001-01-01T00:00:00Z","name_a2s":"Uncletopia | S√£o Paulo | 2 | Community","protocol":17,"map":"workshop/koth_product_final.ugc454272353","folder":"tf","game":"Team Fortress","app_id":440,"player_count":0,"max_players":24,"Bots":0,"server_type":"Dedicated","server_os":"Linux","password":true,"vac":true,"version":"7961495","steam_id":85568392924485349,"keywords":["cp","nocrits","nodmgspread","uncletopia"],"game_id":440,"stv_port":27016,"stv_name":"Uncletopia | S√£o Paulo | 2 | Community | STV","players":null},{"server_id":7,"name":"Uncletopia | Seattle | 1 | All Maps","name_short":"sea-1","host":"sea-1.us.uncletopia.com","port":27015,"enabled":true,"region":"us-west","cc":"us","latitude":47.608013,"longitude":-122.33517,"reserved":0,"last_update":"0001-01-01T00:00:00Z","name_a2s":"Uncletopia | Seattle | 1 | All Maps","protocol":17,"map":"koth_highpass","folder":"tf","game":"Team Fortress","app_id":440,"player_count":24,"max_players":24,"Bots":0,"server_type":"Dedicated","server_os":"Linux","password":true,"vac":true,"version":"7961495","steam_id":85568392924469997,"keywords":["cp","nocrits","nodmgspread","uncletopia"],"game_id":440,"stv_port":27016,"stv_name":"Uncletopia | Seattle | 1 | All Maps | STV","players":[{"user_id":594,"name":"FwuffyKittens","steam_id":76561198451834946,"connected_time":861000000000,"state":"active","ping":69},{"user_id":551,"name":"Fh","steam_id":76561198000903511,"connected_time":4619000000000,"state":"active","ping":70},{"user_id":499,"name":"nolove","steam_id":76561198274550638,"connected_time":8962000000000,"state":"active","ping":112},{"user_id":589,"name":"thomas","steam_id":76561198412353895,"connected_time":1307000000000,"state":"active","ping":40},{"user_id":598,"name":"Greskrendtregk","steam_id":76561197969553142,"connected_time":660000000000,"state":"active","ping":58},{"user_id":492,"name":"you just got dyked on","steam_id":76561198018977723,"connected_time":9502000000000,"state":"active","ping":44},{"user_id":586,"name":"lukamine","steam_id":76561198166827208,"connected_time":1490000000000,"state":"active","ping":48},{"user_id":577,"name":"Banette","steam_id":76561198215458333,"connected_time":2899000000000,"state":"active","ping":53},{"user_id":599,"name":"zinnk","steam_id":76561198092081825,"connected_time":196000000000,"state":"active","ping":59},{"user_id":572,"name":"krakn","steam_id":76561199125572659,"connected_time":3030000000000,"state":"active","ping":57},{"user_id":588,"name":"Nom Skirrett","steam_id":76561198014600788,"connected_time":1311000000000,"state":"active","ping":62},{"user_id":591,"name":"Crazy Cane","steam_id":76561198993941174,"connected_time":1280000000000,"state":"active","ping":117},{"user_id":579,"name":"TheCowledWiz","steam_id":76561198016735868,"connected_time":2748000000000,"state":"active","ping":53},{"user_id":582,"name":"slushy :))","steam_id":76561198135281802,"connected_time":2426000000000,"state":"active","ping":35},{"user_id":552,"name":"Mr.Autistik","steam_id":76561198861596654,"connected_time":4529000000000,"state":"active","ping":71},{"user_id":482,"name":"Haven","steam_id":76561198087584756,"connected_time":9994000000000,"state":"active","ping":62},{"user_id":585,"name":"rushy :))","steam_id":76561198065825165,"connected_time":1992000000000,"state":"active","ping":108},{"user_id":593,"name":"Spectre","steam_id":76561198037535169,"connected_time":1008000000000,"state":"active","ping":92},{"user_id":560,"name":"GotDip","steam_id":76561198012764949,"connected_time":4040000000000,"state":"active","ping":74},{"user_id":487,"name":"vfa","steam_id":76561198055729118,"connected_time":9729000000000,"state":"active","ping":67},{"user_id":522,"name":"Ayayayayayahuasca","steam_id":76561199002906056,"connected_time":6857000000000,"state":"active","ping":55},{"user_id":543,"name":"Dim","steam_id":76561198061411324,"connected_time":4929000000000,"state":"active","ping":138},{"user_id":597,"name":"Grand","steam_id":76561198290143399,"connected_time":788000000000,"state":"active","ping":75},{"user_id":489,"name":"Streamline","steam_id":76561198031098638,"connected_time":9657000000000,"state":"active","ping":103}]},{"server_id":119,"name":"Uncletopia | Seattle | 2 | All Maps","name_short":"sea-2","host":"sea-1.us.uncletopia.com","port":27025,"enabled":true,"region":"us-west","cc":"us","latitude":47.608013,"longitude":-122.33517,"reserved":0,"last_update":"0001-01-01T00:00:00Z","name_a2s":"Uncletopia | Seattle | 2 | All Maps","protocol":17,"map":"pl_swiftwater_final1","folder":"tf","game":"Team Fortress","app_id":440,"player_count":24,"max_players":24,"Bots":0,"server_type":"Dedicated","server_os":"Linux","password":true,"vac":true,"version":"7961495","steam_id":85568392924469998,"keywords":["nocrits","nodmgspread","payload","uncletopia"],"game_id":440,"stv_port":27026,"stv_name":"Uncletopia | Seattle | 2 | All Maps | STV","players":[{"user_id":364,"name":"weed lesbian","steam_id":76561198042263805,"connected_time":409000000000,"state":"active","ping":53},{"user_id":354,"name":"Paint Huffing Yoshi Player","steam_id":76561198028969023,"connected_time":1001000000000,"state":"active","ping":53},{"user_id":372,"name":"James The Juicer","steam_id":76561198153248257,"connected_time":103000000000,"state":"active","ping":45},{"user_id":362,"name":"Spread Joy, Not Hate","steam_id":76561198053117503,"connected_time":688000000000,"state":"active","ping":54},{"user_id":359,"name":"Throws Before BrosÛ†Ä°","steam_id":76561197992905530,"connected_time":851000000000,"state":"active","ping":67},{"user_id":341,"name":"PootZilla","steam_id":76561198073870352,"connected_time":1675000000000,"state":"active","ping":115},{"user_id":348,"name":"‚ù§ Ashley ‚ù§","steam_id":76561198056428303,"connected_time":1235000000000,"state":"active","ping":75},{"user_id":358,"name":"M249 | Spectre","steam_id":76561198118334485,"connected_time":897000000000,"state":"active","ping":105},{"user_id":366,"name":"Astronomical-Ravs","steam_id":76561197993919776,"connected_time":407000000000,"state":"active","ping":46},{"user_id":349,"name":"self sufficient kitten","steam_id":76561197960592612,"connected_time":1228000000000,"state":"active","ping":64},{"user_id":330,"name":"Furry Femboy Hooters (CEO)","steam_id":76561198097745857,"connected_time":3059000000000,"state":"active","ping":62},{"user_id":274,"name":"Sudsen","steam_id":76561198370603787,"connected_time":4725000000000,"state":"active","ping":78},{"user_id":322,"name":"PorgyPork","steam_id":76561198824399078,"connected_time":3856000000000,"state":"active","ping":48},{"user_id":335,"name":"moosein","steam_id":76561198354272434,"connected_time":2429000000000,"state":"active","ping":67},{"user_id":336,"name":"Dongus","steam_id":76561197979056451,"connected_time":2424000000000,"state":"active","ping":62},{"user_id":365,"name":"albert581_gaming","steam_id":76561198219209367,"connected_time":408000000000,"state":"active","ping":51},{"user_id":369,"name":"female toby fox","steam_id":76561198259650356,"connected_time":139000000000,"state":"active","ping":67},{"user_id":368,"name":"Thanks Ants","steam_id":76561197966221018,"connected_time":225000000000,"state":"active","ping":43},{"user_id":370,"name":"ArchmageF","steam_id":76561197992246851,"connected_time":128000000000,"state":"active","ping":68},{"user_id":347,"name":"GregGaming098","steam_id":76561198882415360,"connected_time":1266000000000,"state":"active","ping":51},{"user_id":338,"name":"Branta","steam_id":76561199103842843,"connected_time":1882000000000,"state":"active","ping":39},{"user_id":351,"name":"=Silver=","steam_id":76561198292307127,"connected_time":1145000000000,"state":"active","ping":71},{"user_id":356,"name":"Crylec","steam_id":76561198092755279,"connected_time":975000000000,"state":"active","ping":110},{"user_id":367,"name":"Context","steam_id":76561197972634187,"connected_time":387000000000,"state":"active","ping":56}]},{"server_id":406,"name":"Uncletopia | Seattle | 3 | Stopwatch","name_short":"sea-3","host":"sea-1.us.uncletopia.com","port":27035,"enabled":true,"region":"us-west","cc":"us","latitude":47.608013,"longitude":-122.33517,"reserved":0,"last_update":"0001-01-01T00:00:00Z","name_a2s":"Uncletopia | Seattle | 3 | Stopwatch","protocol":17,"map":"koth_lakeside_final","folder":"tf","game":"Team Fortress","app_id":440,"player_count":0,"max_players":24,"Bots":0,"server_type":"Dedicated","server_os":"Linux","password":true,"vac":true,"version":"7961495","steam_id":85568392924515217,"keywords":["cp","nocrits","nodmgspread","uncletopia"],"game_id":440,"stv_port":27036,"stv_name":"Uncletopia | Seattle | 3 | Stopwatch | STV","players":null},{"server_id":17,"name":"Uncletopia | San Francisco | 1 | All Maps","name_short":"sfo-1","host":"sfo-1.us.uncletopia.com","port":27015,"enabled":true,"region":"us-west","cc":"us","latitude":37.77397,"longitude":-122.4313,"reserved":0,"last_update":"0001-01-01T00:00:00Z","name_a2s":"Uncletopia | San Francisco | 1 | All Maps","protocol":17,"map":"koth_cascade","folder":"tf","game":"Team Fortress","app_id":440,"player_count":0,"max_players":24,"Bots":0,"server_type":"Dedicated","server_os":"Linux","password":true,"vac":true,"version":"7961495","steam_id":85568392924469999,"keywords":["cp","nocrits","nodmgspread","uncletopia"],"game_id":440,"stv_port":27016,"stv_name":"Uncletopia | San Francisco | 1 | All Maps | STV","players":null},{"server_id":18,"name":"Uncletopia | San Francisco | 2 | All Maps","name_short":"sfo-2","host":"sfo-1.us.uncletopia.com","port":27025,"enabled":true,"region":"us-west","cc":"us","latitude":37.77397,"longitude":-122.4313,"reserved":0,"last_update":"0001-01-01T00:00:00Z","name_a2s":"Uncletopia | San Francisco | 2 | All Maps","protocol":17,"map":"cp_snakewater_final1","folder":"tf","game":"Team Fortress","app_id":440,"player_count":0,"max_players":24,"Bots":0,"server_type":"Dedicated","server_os":"Linux","password":true,"vac":true,"version":"7961495","steam_id":85568392924470000,"keywords":["cp","nocrits","nodmgspread","uncletopia"],"game_id":440,"stv_port":27026,"stv_name":"Uncletopia | San Francisco | 2 | All Maps | STV","players":null},{"server_id":19,"name":"Uncletopia | San Francisco | 3 | Stopwatch","name_short":"sfo-3","host":"sfo-1.us.uncletopia.com","port":27035,"enabled":true,"region":"us-west","cc":"us","latitude":37.77397,"longitude":-122.4313,"reserved":0,"last_update":"0001-01-01T00:00:00Z","name_a2s":"Uncletopia | San Francisco | 3 | Stopwatch","protocol":17,"map":"cp_sunshine","folder":"tf","game":"Team Fortress","app_id":440,"player_count":0,"max_players":24,"Bots":0,"server_type":"Dedicated","server_os":"Linux","password":true,"vac":true,"version":"7961495","steam_id":85568392924742824,"keywords":["cp","nocrits","nodmgspread","uncletopia"],"game_id":440,"stv_port":27036,"stv_name":"Uncletopia | San Francisco | 3 | Stopwatch | STV","players":null},{"server_id":20,"name":"Uncletopia | San Francisco | 4 | Community","name_short":"sfo-4","host":"sfo-1.us.uncletopia.com","port":27045,"enabled":true,"region":"us-west","cc":"us","latitude":37.77397,"longitude":-122.4313,"reserved":0,"last_update":"0001-01-01T00:00:00Z","name_a2s":"Uncletopia | San Francisco | 4 | Community","protocol":17,"map":"workshop/koth_trenchfoot_b1a.ugc731436616","folder":"tf","game":"Team Fortress","app_id":440,"player_count":0,"max_players":24,"Bots":0,"server_type":"Dedicated","server_os":"Linux","password":true,"vac":true,"version":"7961495","steam_id":85568392924742826,"keywords":["cp","nocrits","nodmgspread","uncletopia"],"game_id":440,"stv_port":27046,"stv_name":"Uncletopia | San Francisco | 4 | Community | STV","players":null},{"server_id":141,"name":"Uncletopia | Sydney | 1 | All Maps","name_short":"syd-1","host":"syd-1.au.uncletopia.com","port":27015,"enabled":true,"region":"au","cc":"au","latitude":-33.865143,"longitude":151.2099,"reserved":0,"last_update":"0001-01-01T00:00:00Z","name_a2s":"Uncletopia | Sydney | 1 | All Maps","protocol":17,"map":"pl_upward","folder":"tf","game":"Team Fortress","app_id":440,"player_count":3,"max_players":24,"Bots":0,"server_type":"Dedicated","server_os":"Linux","password":true,"vac":true,"version":"7961495","steam_id":85568392924470001,"keywords":["nocrits","nodmgspread","payload","uncletopia"],"game_id":440,"stv_port":27016,"stv_name":"Uncletopia | Sydney | 1 | All Maps | STV","players":[{"user_id":27,"name":"ToxicFlame","steam_id":76561199439459721,"connected_time":245000000000,"state":"active","ping":346},{"user_id":14,"name":"chonk","steam_id":76561198002924796,"connected_time":2639000000000,"state":"active","ping":45},{"user_id":24,"name":"sheytoon","steam_id":76561198060824434,"connected_time":857000000000,"state":"active","ping":49}]},{"server_id":123,"name":"Uncletopia | Sydney | 2 | All Maps","name_short":"syd-2","host":"syd-1.au.uncletopia.com","port":27025,"enabled":true,"region":"au","cc":"au","latitude":-33.865143,"longitude":151.2099,"reserved":0,"last_update":"0001-01-01T00:00:00Z","name_a2s":"Uncletopia | Sydney | 2 | All Maps","protocol":17,"map":"koth_lakeside_final","folder":"tf","game":"Team Fortress","app_id":440,"player_count":0,"max_players":24,"Bots":0,"server_type":"Dedicated","server_os":"Linux","password":true,"vac":true,"version":"7961495","steam_id":85568392924470002,"keywords":["cp","nocrits","nodmgspread","uncletopia"],"game_id":440,"stv_port":27026,"stv_name":"Uncletopia | Sydney | 2 | All Maps | STV","players":null},{"server_id":395,"name":"Uncletopia | Sydney | 3 | All Maps","name_short":"syd-3","host":"syd-1.au.uncletopia.com","port":27035,"enabled":true,"region":"au","cc":"au","latitude":-33.865143,"longitude":151.2099,"reserved":0,"last_update":"0001-01-01T00:00:00Z","name_a2s":"Uncletopia | Sydney | 3 | All Maps","protocol":17,"map":"pl_frontier_final","folder":"tf","game":"Team Fortress","app_id":440,"player_count":9,"max_players":24,"Bots":0,"server_type":"Dedicated","server_os":"Linux","password":true,"vac":true,"version":"7961495","steam_id":85568392925194467,"keywords":["nocrits","nodmgspread","payload","uncletopia"],"game_id":440,"stv_port":27036,"stv_name":"Uncletopia | Sydney | 3 | All Maps | STV","players":[{"user_id":3,"name":"camchoobies","steam_id":76561198951609539,"connected_time":897000000000,"state":"active","ping":68},{"user_id":4,"name":"hdmparkz","steam_id":76561198244973576,"connected_time":885000000000,"state":"active","ping":67},{"user_id":5,"name":"kuytyuadsnbhd","steam_id":76561199133341419,"connected_time":815000000000,"state":"active","ping":68},{"user_id":6,"name":"Billson's Pink Lemonade","steam_id":76561198176091874,"connected_time":745000000000,"state":"active","ping":70},{"user_id":13,"name":"Amalthia","steam_id":76561198048945880,"connected_time":75000000000,"state":"active","ping":57},{"user_id":12,"name":"El","steam_id":76561198095659550,"connected_time":286000000000,"state":"active","ping":361},{"user_id":11,"name":"4LOW","steam_id":76561199156942316,"connected_time":306000000000,"state":"active","ping":76},{"user_id":14,"name":"monkeyjones671","steam_id":76561198136218040,"connected_time":51000000000,"state":"active","ping":58},{"user_id":16,"name":"{Azura Sarah}","steam_id":76561197989210208,"connected_time":27000000000,"state":"active","ping":46}]},{"server_id":396,"name":"Uncletopia | Sydney | 4 | All Maps","name_short":"syd-4","host":"syd-1.au.uncletopia.com","port":27045,"enabled":true,"region":"au","cc":"au","latitude":-33.865143,"longitude":151.2099,"reserved":0,"last_update":"0001-01-01T00:00:00Z","name_a2s":"Uncletopia | Sydney | 4 | All Maps","protocol":17,"map":"cp_dustbowl","folder":"tf","game":"Team Fortress","app_id":440,"player_count":0,"max_players":24,"Bots":0,"server_type":"Dedicated","server_os":"Linux","password":true,"vac":true,"version":"7961495","steam_id":85568392925397958,"keywords":["cp","nocrits","nodmgspread","uncletopia"],"game_id":440,"stv_port":27046,"stv_name":"Uncletopia | Sydney | 4 | All Maps | STV","players":null},{"server_id":58,"name":"Uncletopia | Sydney | 5 | Stopwatch","name_short":"syd-5","host":"syd-1.au.uncletopia.com","port":27055,"enabled":true,"region":"au","cc":"au","latitude":-33.865143,"longitude":151.2099,"reserved":0,"last_update":"0001-01-01T00:00:00Z","name_a2s":"Uncletopia | Sydney | 5 | Stopwatch","protocol":17,"map":"pl_frontier_final","folder":"tf","game":"Team Fortress","app_id":440,"player_count":0,"max_players":24,"Bots":0,"server_type":"Dedicated","server_os":"Linux","password":true,"vac":true,"version":"7961495","steam_id":85568392925397959,"keywords":["nocrits","nodmgspread","payload","uncletopia"],"game_id":440,"stv_port":27056,"stv_name":"Uncletopia | Sydney | 5 | Stopwatch | STV","players":null},{"server_id":59,"name":"Uncletopia | Sydney | 6 | Community","name_short":"syd-6","host":"syd-1.au.uncletopia.com","port":27065,"enabled":true,"region":"au","cc":"au","latitude":-33.865143,"longitude":151.2099,"reserved":0,"last_update":"0001-01-01T00:00:00Z","name_a2s":"Uncletopia | Sydney | 6 | Community","protocol":17,"map":"workshop/cp_croissant_final.ugc458840209","folder":"tf","game":"Team Fortress","app_id":440,"player_count":0,"max_players":24,"Bots":0,"server_type":"Dedicated","server_os":"Linux","password":true,"vac":true,"version":"7961495","steam_id":85568392925397960,"keywords":["cp","nocrits","nodmgspread","uncletopia"],"game_id":440,"stv_port":27066,"stv_name":"Uncletopia | Sydney | 6 | Community | STV","players":null},{"server_id":49,"name":"Uncletopia | Warsaw | 1 | One Thousand Uncles","name_short":"waw-1","host":"waw-1.pl.uncletopia.com","port":27015,"enabled":true,"region":"eu","cc":"pl","latitude":52.2297,"longitude":21.017532,"reserved":0,"last_update":"0001-01-01T00:00:00Z","name_a2s":"Uncletopia | Warsaw | 1 | One Thousand Uncles","protocol":17,"map":"pl_thundermountain","folder":"tf","game":"Team Fortress","app_id":440,"player_count":22,"max_players":32,"Bots":16,"server_type":"Dedicated","server_os":"Linux","password":true,"vac":true,"version":"7961495","steam_id":85568392925397850,"keywords":["alltalk","bots","danepve","increased_maxplayers","nocrits","norespawntime","payload","uncletopia"],"game_id":440,"stv_port":0,"stv_name":"","players":[{"user_id":522,"name":"bema600","steam_id":76561199381550416,"connected_time":471000000000,"state":"active","ping":312},{"user_id":460,"name":"Philosophos_Alpha","steam_id":76561198951264580,"connected_time":10316000000000,"state":"active","ping":102},{"user_id":498,"name":"ikcikoR","steam_id":76561198208906749,"connected_time":6671000000000,"state":"active","ping":41},{"user_id":463,"name":"Edgy Name","steam_id":76561198378270820,"connected_time":9585000000000,"state":"active","ping":42},{"user_id":523,"name":"Jolvard","steam_id":76561198050953597,"connected_time":393000000000,"state":"active","ping":124},{"user_id":518,"name":"RacoonGamer","steam_id":76561198100907657,"connected_time":3496000000000,"state":"active","ping":152}]},{"server_id":50,"name":"Uncletopia | Warsaw | 2 | One Thousand Uncles","name_short":"waw-2","host":"waw-1.pl.uncletopia.com","port":27025,"enabled":true,"region":"eu","cc":"pl","latitude":52.2297,"longitude":21.017532,"reserved":0,"last_update":"0001-01-01T00:00:00Z","name_a2s":"Uncletopia | Warsaw | 2 | One Thousand Uncles","protocol":17,"map":"pl_upward","folder":"tf","game":"Team Fortress","app_id":440,"player_count":0,"max_players":32,"Bots":0,"server_type":"Dedicated","server_os":"Linux","password":true,"vac":true,"version":"7961495","steam_id":85568392925397851,"keywords":["alltalk","danepve","increased_maxplayers","nocrits","norespawntime","payload","uncletopia"],"game_id":440,"stv_port":0,"stv_name":"","players":null},{"server_id":51,"name":"Uncletopia | Warsaw | 3 | All Maps","name_short":"waw-3","host":"waw-1.pl.uncletopia.com","port":27035,"enabled":true,"region":"eu","cc":"pl","latitude":52.2297,"longitude":21.017532,"reserved":0,"last_update":"0001-01-01T00:00:00Z","name_a2s":"Uncletopia | Warsaw | 3 | All Maps","protocol":17,"map":"koth_lakeside_final","folder":"tf","game":"Team Fortress","app_id":440,"player_count":0,"max_players":24,"Bots":0,"server_type":"Dedicated","server_os":"Linux","password":true,"vac":true,"version":"7961495","steam_id":85568392925397852,"keywords":["cp","nocrits","nodmgspread","uncletopia"],"game_id":440,"stv_port":27036,"stv_name":"Uncletopia | Warsaw | 3 | All Maps | STV","players":null},{"server_id":52,"name":"Uncletopia | Warsaw | 4 | All Maps","name_short":"waw-4","host":"waw-1.pl.uncletopia.com","port":27045,"enabled":true,"region":"eu","cc":"pl","latitude":52.2297,"longitude":21.017532,"reserved":0,"last_update":"0001-01-01T00:00:00Z","name_a2s":"Uncletopia | Warsaw | 4 | All Maps","protocol":17,"map":"koth_viaduct","folder":"tf","game":"Team Fortress","app_id":440,"player_count":0,"max_players":24,"Bots":0,"server_type":"Dedicated","server_os":"Linux","password":true,"vac":true,"version":"7961495","steam_id":85568392925397853,"keywords":["cp","nocrits","nodmgspread","uncletopia"],"game_id":440,"stv_port":27046,"stv_name":"Uncletopia | Warsaw | 4 | All Maps | STV","players":null},{"server_id":53,"name":"Uncletopia | Warsaw | 5 | Stopwatch","name_short":"waw-5","host":"waw-1.pl.uncletopia.com","port":27055,"enabled":true,"region":"eu","cc":"pl","latitude":52.2297,"longitude":21.017532,"reserved":0,"last_update":"0001-01-01T00:00:00Z","name_a2s":"Uncletopia | Warsaw | 5 | Stopwatch","protocol":17,"map":"koth_highpass","folder":"tf","game":"Team Fortress","app_id":440,"player_count":0,"max_players":24,"Bots":0,"server_type":"Dedicated","server_os":"Linux","password":true,"vac":true,"version":"7961495","steam_id":85568392925397854,"keywords":["cp","nocrits","nodmgspread","uncletopia"],"game_id":440,"stv_port":27056,"stv_name":"Uncletopia | Warsaw | 5 | Stopwatch | STV","players":null},{"server_id":54,"name":"Uncletopia | Warsaw | 6 | Community","name_short":"waw-6","host":"waw-1.pl.uncletopia.com","port":27065,"enabled":true,"region":"eu","cc":"pl","latitude":52.2297,"longitude":21.017532,"reserved":0,"last_update":"0001-01-01T00:00:00Z","name_a2s":"Uncletopia | Warsaw | 6 | Community","protocol":17,"map":"workshop/koth_synthetic_rc6a.ugc1549817316","folder":"tf","game":"Team Fortress","app_id":440,"player_count":0,"max_players":24,"Bots":0,"server_type":"Dedicated","server_os":"Linux","password":true,"vac":true,"version":"7961495","steam_id":85568392925397856,"keywords":["cp","nocrits","nodmgspread","uncletopia"],"game_id":440,"stv_port":27066,"stv_name":"Uncletopia | Warsaw | 6 | Community | STV","players":null}]}