{"status":true,"message":"","result":[{"server_id":9,"name":"Uncletopia | Atlanta | 1 | All Maps","name_short":"atl-1","host":"atl-1.us.uncletopia.com","port":27015,"enabled":true,"region":"us-east","cc":"us","latitude":33.753746,"longitude":-84.38633,"reserved":0,"last_update":"0001-01-01T00:00:00Z","name_a2s":"Uncletopia | Atlanta | 1 | All Maps","protocol":17,"map":"pl_frontier_final","folder":"tf","game":"Team Fortress","app_id":440,"player_count":24,"max_players":24,"Bots":0,"server_type":"Dedicated","server_os":"Linux","password":true,"vac":true,"version":"7757534","steam_id":85568392924469982,"keywords":["nocrits","nodmgspread","payload","uncletopia"],"game_id":440,"stv_port":27016,"stv_name":"Uncletopia | Atlanta | 1 | All Maps | STV","players":[{"user_id":170,"name":"PinkLemonade","steam_id":76561198799286228,"connected_time":5785000000000,"state":"active","ping":66},{"user_id":192,"name":"ATL1 | on my hunting trip","steam_id":76561198315341646,"connected_time":3966000000000,"state":"active","ping":74},{"user_id":177,"name":"i love machine girl","steam_id":76561199187747394,"connected_time":5191000000000,"state":"active","ping":68},{"user_id":236,"name":"Reisen Udongein Inaba","steam_id":76561198051082314,"connected_time":797000000000,"state":"active","ping":120},{"user_id":224,"name":"chubbbo","steam_id":76561198943598378,"connected_time":2392000000000,"state":"active","ping":38},{"user_id":235,"name":"Uung","steam_id":76561198183956731,"connected_time":1168000000000,"state":"active","ping":49},{"user_id":186,"name":"_normal","steam_id":76561198338505734,"connected_time":4449000000000,"state":"active","ping":34},{"user_id":175,"name":"Dr. drips","steam_id":76561198209380493,"connected_time":5205000000000,"state":"active","ping":63},{"user_id":154,"name":"VVB","steam_id":76561198056367220,"connected_time":6761000000000,"state":"active","ping":90},{"user_id":219,"name":"Shmurg","steam_id":76561199368485421,"connected_time":2941000000000,"state":"active","ping":60},{"user_id":188,"name":"Stewie","steam_id":76561199053600691,"connected_time":4156000000000,"state":"active","ping":64},{"user_id":182,"name":"vitamin","steam_id":76561198277799227,"connected_time":4660000000000,"state":"active","ping":60},{"user_id":214,"name":"custodian","steam_id":76561198058793778,"connected_time":3043000000000,"state":"active","ping":71},{"user_id":233,"name":"e0e0","steam_id":76561198293839750,"connected_time":2248000000000,"state":"active","ping":57},{"user_id":223,"name":"Junko","steam_id":76561198146089003,"connected_time":2470000000000,"state":"active","ping":59},{"user_id":239,"name":"ATL1 | Avo","steam_id":76561197993340494,"connected_time":122000000000,"state":"active","ping":60},{"user_id":238,"name":"ATL1 | p4ka","steam_id":76561198315291317,"connected_time":585000000000,"state":"active","ping":81},{"user_id":222,"name":"JaredTheCrow","steam_id":76561198918117347,"connected_time":2692000000000,"state":"active","ping":100},{"user_id":225,"name":"Ryalcon","steam_id":76561198049485534,"connected_time":2326000000000,"state":"active","ping":81},{"user_id":230,"name":"Eins","steam_id":76561199030343810,"connected_time":2295000000000,"state":"active","ping":42},{"user_id":231,"name":"Electroid","steam_id":76561199092263960,"connected_time":2294000000000,"state":"active","ping":57},{"user_id":242,"name":"bloger","steam_id":76561198263412513,"connected_time":88000000000,"state":"spawning","ping":119},{"user_id":169,"name":"Brian","steam_id":76561198089908485,"connected_time":5933000000000,"state":"active","ping":62}]},{"server_id":104,"name":"Uncletopia | Atlanta | 2 | All Maps","name_short":"atl-2","host":"atl-1.us.uncletopia.com","port":27025,"enabled":true,"region":"us-east","cc":"us","latitude":33.753746,"longitude":-84.38633,"reserved":0,"last_update":"0001-01-01T00:00:00Z","name_a2s":"Uncletopia | Atlanta | 2 | All Maps","protocol":17,"map":"koth_cascade","folder":"tf","game":"Team Fortress","app_id":440,"player_count":0,"max_players":24,"Bots":0,"server_type":"Dedicated","server_os":"Linux","password":true,"vac":true,"version":"7757534","steam_id":85568392924469983,"keywords":["cp","nocrits","nodmgspread","uncletopia"],"game_id":440,"stv_port":27026,"stv_name":"Uncletopia | Atlanta | 2 | All Maps | STV","players":null},{"server_id":400,"name":"Uncletopia | Atlanta | 3 | Community","name_short":"atl-3","host":"atl-1.us.uncletopia.com","port":27035,"enabled":true,"region":"us-east","cc":"us","latitude":33.753746,"longitude":-84.38633,"reserved":0,"last_update":"0001-01-01T00:00:00Z","name_a2s":"Uncletopia | Atlanta | 3 | Community","protocol":17,"map":"workshop/cp_snowbase_b18.ugc2081770490","folder":"tf","game":"Team Fortress","app_id":440,"player_count":0,"max_players":24,"Bots":0,"server_type":"Dedicated","server_os":"Linux","password":true,"vac":true,"version":"7757534","steam_id":85568392924515187,"keywords":["cp","nocrits","nodmgspread","uncletopia"],"game_id":440,"stv_port":27036,"stv_name":"Uncletopia | Atlanta | 3 | Community | STV","players":null},{"server_id":401,"name":"Uncletopia | Atlanta | 4 | No Payload","name_short":"atl-4","host":"atl-1.us.uncletopia.com","port":27045,"enabled":true,"region":"us-east","cc":"us","latitude":33.753746,"longitude":-84.38633,"reserved":0,"last_update":"0001-01-01T00:00:00Z","name_a2s":"","protocol":0,"map":"","folder":"","game":"","app_id":0,"player_count":0,"max_players":0,"Bots":0,"server_type":"","server_os":"","password":false,"vac":false,"version":"","steam_id":0,"keywords":null,"game_id":0,"stv_port":0,"stv_name":"","players":null},{"server_id":2,"name":"Uncletopia | Chicago | 1 | All Maps","name_short":"chi-1","host":"chi-1.us.uncletopia.com","port":27015,"enabled":true,"region":"us-central","cc":"us","latitude":41.881832,"longitude":-87.62318,"reserved":0,"last_update":"0001-01-01T00:00:00Z","name_a2s":"Uncletopia | Chicago | 1 | All Maps","protocol":17,"map":"cp_well","folder":"tf","game":"Team Fortress","app_id":440,"player_count":24,"max_players":24,"Bots":0,"server_type":"Dedicated","server_os":"Linux","password":true,"vac":true,"version":"7757534","steam_id":85568392924469984,"keywords":["cp","nocrits","nodmgspread","uncletopia"],"game_id":440,"stv_port":27016,"stv_name":"Uncletopia | Chicago | 1 | All Maps | STV","players":[{"user_id":378,"name":"Yuri Tarded","steam_id":76561198034339940,"connected_time":849000000000,"state":"active","ping":60},{"user_id":358,"name":"Soul_Intern","steam_id":76561198310238109,"connected_time":2342000000000,"state":"active","ping":103},{"user_id":387,"name":"Femboy","steam_id":76561198333128330,"connected_time":326000000000,"state":"active","ping":35},{"user_id":370,"name":"Tom","steam_id":76561198070630154,"connected_time":1153000000000,"state":"active","ping":88},{"user_id":61,"name":"HOODEDLAWYER285","steam_id":76561198156496197,"connected_time":25412000000000,"state":"active","ping":49},{"user_id":317,"name":"Tako","steam_id":76561199264073138,"connected_time":4736000000000,"state":"active","ping":90},{"user_id":384,"name":"Uncle Garrow","steam_id":76561198044092599,"connected_time":520000000000,"state":"active","ping":60},{"user_id":341,"name":"Brokayo","steam_id":76561198053802723,"connected_time":3541000000000,"state":"active","ping":89},{"user_id":376,"name":"ItsThatBear","steam_id":76561198169617659,"connected_time":941000000000,"state":"active","ping":82},{"user_id":343,"name":"chaffy","steam_id":76561198021754567,"connected_time":3401000000000,"state":"active","ping":53},{"user_id":380,"name":"Shame","steam_id":76561198100490994,"connected_time":771000000000,"state":"active","ping":75},{"user_id":348,"name":"Jona2180","steam_id":76561198807012900,"connected_time":2971000000000,"state":"active","ping":84},{"user_id":389,"name":"Ape","steam_id":76561198132535311,"connected_time":188000000000,"state":"active","ping":70},{"user_id":377,"name":"AL SPUGNAR","steam_id":76561199020253203,"connected_time":935000000000,"state":"active","ping":121},{"user_id":334,"name":"crack crisis","steam_id":76561198332519926,"connected_time":4135000000000,"state":"active","ping":86},{"user_id":306,"name":"Beast_727","steam_id":76561198390289197,"connected_time":5344000000000,"state":"active","ping":51},{"user_id":363,"name":"Chechens Spotted","steam_id":76561199028910893,"connected_time":2242000000000,"state":"active","ping":89},{"user_id":386,"name":"Kapitan Bomba","steam_id":76561199102087660,"connected_time":422000000000,"state":"active","ping":68},{"user_id":388,"name":"HeisenBurger","steam_id":76561198040632080,"connected_time":297000000000,"state":"active","ping":48},{"user_id":354,"name":"[UHS] K24A4 2.4","steam_id":76561199072970627,"connected_time":2766000000000,"state":"active","ping":47},{"user_id":381,"name":"Herobrineclone7","steam_id":76561199193733613,"connected_time":594000000000,"state":"active","ping":83},{"user_id":382,"name":"neeK","steam_id":76561198106571410,"connected_time":591000000000,"state":"active","ping":89},{"user_id":383,"name":"Minnow","steam_id":76561199215043894,"connected_time":553000000000,"state":"active","ping":84},{"user_id":367,"name":"Ciaphas Cain","steam_id":76561198185598330,"connected_time":2235000000000,"state":"active","ping":74}]},{"server_id":106,"name":"Uncletopia | Chicago | 2 | All Maps","name_short":"chi-2","host":"chi-1.us.uncletopia.com","port":27025,"enabled":true,"region":"us-central","cc":"us","latitude":41.881832,"longitude":-87.62318,"reserved":0,"last_update":"0001-01-01T00:00:00Z","name_a2s":"Uncletopia | Chicago | 2 | All Maps","protocol":17,"map":"pl_upward","folder":"tf","game":"Team Fortress","app_id":440,"player_count":24,"max_players":24,"Bots":0,"server_type":"Dedicated","server_os":"Linux","password":true,"vac":true,"version":"7757534","steam_id":85568392924469985,"keywords":["nocrits","nodmgspread","payload","uncletopia"],"game_id":440,"stv_port":27026,"stv_name":"Uncletopia | Chicago | 2 | All Maps | STV","players":[{"user_id":67,"name":"[-WA-]wolf2128","steam_id":76561198332156914,"connected_time":4105000000000,"state":"active","ping":130},{"user_id":56,"name":"finger","steam_id":76561198068558572,"connected_time":5549000000000,"state":"active","ping":80},{"user_id":115,"name":"Cheeeeeeeen","steam_id":76561198986388085,"connected_time":235000000000,"state":"active","ping":113},{"user_id":87,"name":"BoxCutter","steam_id":76561198420199882,"connected_time":2755000000000,"state":"active","ping":63},{"user_id":123,"name":"Krom","steam_id":76561198107896376,"connected_time":178000000000,"state":"active","ping":55},{"user_id":66,"name":"Risemonger","steam_id":76561198326896596,"connected_time":4116000000000,"state":"active","ping":125},{"user_id":124,"name":"Whys there a level 3 there?","steam_id":76561198309696109,"connected_time":143000000000,"state":"active","ping":83},{"user_id":117,"name":"Ansuz();","steam_id":76561198260732135,"connected_time":215000000000,"state":"active","ping":71},{"user_id":118,"name":"skill issues","steam_id":76561198069033704,"connected_time":215000000000,"state":"active","ping":42},{"user_id":112,"name":"purple diesel","steam_id":76561197976548449,"connected_time":666000000000,"state":"active","ping":86},{"user_id":70,"name":"Sprucelass","steam_id":76561197998391724,"connected_time":4046000000000,"state":"active","ping":47},{"user_id":119,"name":"Idiot","steam_id":76561198973316284,"connected_time":209000000000,"state":"active","ping":79},{"user_id":94,"name":"Luis wid a mic","steam_id":76561198349570006,"connected_time":2215000000000,"state":"active","ping":58},{"user_id":91,"name":"Aeris","steam_id":76561198287271028,"connected_time":2250000000000,"state":"active","ping":61},{"user_id":125,"name":"Zeta","steam_id":76561198178693059,"connected_time":9000000000,"state":"spawning","ping":288},{"user_id":120,"name":"Len","steam_id":76561199141913673,"connected_time":209000000000,"state":"active","ping":78},{"user_id":108,"name":"beta central","steam_id":76561198301876831,"connected_time":1394000000000,"state":"active","ping":61},{"user_id":99,"name":"Persona 5 Gaming","steam_id":76561198362884509,"connected_time":2051000000000,"state":"active","ping":45},{"user_id":83,"name":"PeopleOrderOurPatties","steam_id":76561198323144922,"connected_time":3243000000000,"state":"active","ping":61},{"user_id":111,"name":"Vapourium","steam_id":76561198943316255,"connected_time":986000000000,"state":"active","ping":74},{"user_id":101,"name":"-Silke-","steam_id":76561198066481985,"connected_time":1978000000000,"state":"active","ping":87},{"user_id":114,"name":"Tigros","steam_id":76561198021569362,"connected_time":291000000000,"state":"active","ping":82},{"user_id":121,"name":"ThreatLvl9","steam_id":76561198079410533,"connected_time":207000000000,"state":"active","ping":84},{"user_id":113,"name":"jrdoran","steam_id":76561197984753094,"connected_time":333000000000,"state":"active","ping":65}]},{"server_id":402,"name":"Uncletopia | Chicago | 3 | All Maps","name_short":"chi-3","host":"chi-1.us.uncletopia.com","port":27035,"enabled":true,"region":"us-central","cc":"us","latitude":41.881832,"longitude":-87.62318,"reserved":0,"last_update":"0001-01-01T00:00:00Z","name_a2s":"Uncletopia | Chicago | 3 | All Maps","protocol":17,"map":"cp_steel","folder":"tf","game":"Team Fortress","app_id":440,"player_count":23,"max_players":24,"Bots":0,"server_type":"Dedicated","server_os":"Linux","password":true,"vac":true,"version":"7757534","steam_id":85568392924515191,"keywords":["cp","nocrits","nodmgspread","uncletopia"],"game_id":440,"stv_port":27036,"stv_name":"Uncletopia | Chicago | 3 | All Maps | STV","players":[{"user_id":134,"name":"Zenabie","steam_id":76561198088372680,"connected_time":2000000000,"state":"spawning","ping":70},{"user_id":132,"name":"Alaea WInters","steam_id":76561198116274337,"connected_time":691000000000,"state":"active","ping":65},{"user_id":107,"name":"The Chosen One","steam_id":76561199046984627,"connected_time":1792000000000,"state":"active","ping":85},{"user_id":104,"name":"[_Dr.Scythe_]","steam_id":76561198845245858,"connected_time":1861000000000,"state":"active","ping":86},{"user_id":135,"name":"LerN","steam_id":76561198083463877,"connected_time":1000000000,"state":"spawning","ping":80},{"user_id":133,"name":"Rein","steam_id":76561198300340427,"connected_time":195000000000,"state":"active","ping":62},{"user_id":75,"name":"Apple Crisp","steam_id":76561198129518886,"connected_time":5136000000000,"state":"active","ping":80},{"user_id":128,"name":"Araganor","steam_id":76561198041988085,"connected_time":995000000000,"state":"active","ping":68},{"user_id":21,"name":"Midi","steam_id":76561199179087677,"connected_time":8156000000000,"state":"active","ping":54},{"user_id":22,"name":"NUT","steam_id":76561198014089542,"connected_time":8148000000000,"state":"active","ping":87},{"user_id":108,"name":"Gerald Jay Sussman","steam_id":76561198114515026,"connected_time":1778000000000,"state":"active","ping":45},{"user_id":109,"name":"neet","steam_id":76561197968115168,"connected_time":1775000000000,"state":"active","ping":59},{"user_id":129,"name":"Titar Industries","steam_id":76561198143078476,"connected_time":937000000000,"state":"active","ping":69},{"user_id":131,"name":"white ray","steam_id":76561198026664629,"connected_time":831000000000,"state":"active","ping":51},{"user_id":114,"name":"Bavi Ratto","steam_id":76561198333569494,"connected_time":1639000000000,"state":"active","ping":78},{"user_id":130,"name":"tulpa","steam_id":76561198013253513,"connected_time":860000000000,"state":"active","ping":70},{"user_id":122,"name":"ItsRoy","steam_id":76561198119525485,"connected_time":1204000000000,"state":"active","ping":54},{"user_id":123,"name":"mau","steam_id":76561198354473513,"connected_time":1162000000000,"state":"active","ping":54},{"user_id":62,"name":"Cousin Corn on the Cob","steam_id":76561198049837377,"connected_time":6127000000000,"state":"active","ping":46},{"user_id":97,"name":"Kasane","steam_id":76561198209006780,"connected_time":2687000000000,"state":"active","ping":86},{"user_id":43,"name":"aiden","steam_id":76561198449527009,"connected_time":7510000000000,"state":"active","ping":74},{"user_id":120,"name":"TheCheeseWizard","steam_id":76561198058931315,"connected_time":1420000000000,"state":"active","ping":54},{"user_id":136,"name":"big ernie","steam_id":76561198190323610,"connected_time":1000000000,"state":"spawning","ping":104}]},{"server_id":403,"name":"Uncletopia | Chicago | 4 | All Maps","name_short":"chi-4","host":"chi-1.us.uncletopia.com","port":27045,"enabled":true,"region":"us-central","cc":"us","latitude":41.881832,"longitude":-87.62318,"reserved":0,"last_update":"0001-01-01T00:00:00Z","name_a2s":"Uncletopia | Chicago | 4 | All Maps","protocol":17,"map":"pl_pier","folder":"tf","game":"Team Fortress","app_id":440,"player_count":20,"max_players":24,"Bots":0,"server_type":"Dedicated","server_os":"Linux","password":true,"vac":true,"version":"7757534","steam_id":85568392924515193,"keywords":["nocrits","nodmgspread","payload","uncletopia"],"game_id":440,"stv_port":27046,"stv_name":"Uncletopia | Chicago | 4 | All Maps | STV","players":[{"user_id":224,"name":"Barlon","steam_id":76561198023717515,"connected_time":6442000000000,"state":"active","ping":74},{"user_id":280,"name":"El Bondin","steam_id":76561198820792434,"connected_time":1816000000000,"state":"active","ping":95},{"user_id":300,"name":"wheres my drink?","steam_id":76561198031675881,"connected_time":5000000000,"state":"spawning","ping":53},{"user_id":265,"name":"sweppy","steam_id":76561198035457667,"connected_time":2663000000000,"state":"active","ping":63},{"user_id":284,"name":"BasicPeaches","steam_id":76561198190890150,"connected_time":1392000000000,"state":"active","ping":79},{"user_id":278,"name":"Cat_Gaben","steam_id":76561198308094558,"connected_time":1989000000000,"state":"active","ping":74},{"user_id":285,"name":"[BBW] Justario","steam_id":76561198016095410,"connected_time":1392000000000,"state":"active","ping":62},{"user_id":291,"name":"Redrock442","steam_id":76561198178085142,"connected_time":1255000000000,"state":"active","ping":106},{"user_id":295,"name":"LukeLeal","steam_id":76561198049822995,"connected_time":566000000000,"state":"active","ping":165},{"user_id":289,"name":"Kamikazedoctor","steam_id":76561198157078818,"connected_time":1336000000000,"state":"active","ping":61},{"user_id":274,"name":"The Best 8bit Fan","steam_id":76561199098464343,"connected_time":2112000000000,"state":"active","ping":65},{"user_id":230,"name":"shanghai","steam_id":76561197997961542,"connected_time":6346000000000,"state":"active","ping":61},{"user_id":299,"name":"TheSnipersHat","steam_id":76561198057684066,"connected_time":218000000000,"state":"active","ping":67},{"user_id":282,"name":"Shrek Forever After","steam_id":76561198023152320,"connected_time":1457000000000,"state":"active","ping":72},{"user_id":275,"name":"Highphin","steam_id":76561198986584680,"connected_time":2111000000000,"state":"active","ping":66},{"user_id":276,"name":"Pure","steam_id":76561198382134521,"connected_time":2102000000000,"state":"active","ping":74},{"user_id":297,"name":"Z4LTte","steam_id":76561198283258068,"connected_time":354000000000,"state":"active","ping":69},{"user_id":256,"name":"viv","steam_id":76561198975527343,"connected_time":3393000000000,"state":"active","ping":44},{"user_id":294,"name":"D(b) Hell","steam_id":76561198067869016,"connected_time":642000000000,"state":"active","ping":41},{"user_id":237,"name":"Clean Lines","steam_id":76561197960691518,"connected_time":4885000000000,"state":"active","ping":52}]},{"server_id":36,"name":"Uncletopia | Chicago | 5 | All Maps","name_short":"chi-5","host":"chi-2.us.uncletopia.com","port":27015,"enabled":true,"region":"us-central","cc":"us","latitude":41.881832,"longitude":-87.62318,"reserved":0,"last_update":"0001-01-01T00:00:00Z","name_a2s":"Uncletopia | Chicago | 5 | All Maps","protocol":17,"map":"koth_lakeside_final","folder":"tf","game":"Team Fortress","app_id":440,"player_count":2,"max_players":24,"Bots":0,"server_type":"Dedicated","server_os":"Linux","password":true,"vac":true,"version":"7757534","steam_id":85568392924866362,"keywords":["cp","nocrits","nodmgspread","uncletopia"],"game_id":440,"stv_port":27016,"stv_name":"Uncletopia | Chicago | 5 | All Maps | STV","players":[{"user_id":14,"name":"champsw17","steam_id":76561199470441954,"connected_time":111000000000,"state":"active","ping":92},{"user_id":15,"name":"Loleo","steam_id":76561198348132374,"connected_time":77000000000,"state":"active","ping":51}]},{"server_id":37,"name":"Uncletopia | Chicago | 6 | All Maps","name_short":"chi-6","host":"chi-2.us.uncletopia.com","port":27025,"enabled":true,"region":"us-central","cc":"us","latitude":41.881832,"longitude":-87.62318,"reserved":0,"last_update":"0001-01-01T00:00:00Z","name_a2s":"Uncletopia | Chicago | 6 | All Maps","protocol":17,"map":"koth_lakeside_final","folder":"tf","game":"Team Fortress","app_id":440,"player_count":0,"max_players":24,"Bots":0,"server_type":"Dedicated","server_os":"Linux","password":true,"vac":true,"version":"7757534","steam_id":85568392924866363,"keywords":["cp","nocrits","nodmgspread","uncletopia"],"game_id":440,"stv_port":27026,"stv_name":"Uncletopia | Chicago | 6 | All Maps | STV","players":null},{"server_id":38,"name":"Uncletopia | Chicago | 7 | Stopwatch Beta","name_short":"chi-7","host":"chi-2.us.uncletopia.com","port":27035,"enabled":true,"region":"us-central","cc":"us","latitude":41.881832,"longitude":-87.62318,"reserved":0,"last_update":"0001-01-01T00:00:00Z","name_a2s":"Uncletopia | Chicago | 7 | Stopwatch Beta","protocol":17,"map":"koth_viaduct","folder":"tf","game":"Team Fortress","app_id":440,"player_count":0,"max_players":24,"Bots":0,"server_type":"Dedicated","server_os":"Linux","password":true,"vac":true,"version":"7757534","steam_id":85568392924866364,"keywords":["cp","nocrits","nodmgspread","uncletopia"],"game_id":440,"stv_port":27036,"stv_name":"Uncletopia | Chicago | 7 | Stopwatch Beta | STV","players":null},{"server_id":39,"name":"Uncletopia | Chicago | 8 | Community","name_short":"chi-8","host":"chi-2.us.uncletopia.com","port":27045,"enabled":true,"region":"us-central","cc":"us","latitude":41.881832,"longitude":-87.62318,"reserved":0,"last_update":"0001-01-01T00:00:00Z","name_a2s":"Uncletopia | Chicago | 8 | Community","protocol":17,"map":"koth_lakeside_final","folder":"tf","game":"Team Fortress","app_id":440,"player_count":0,"max_players":24,"Bots":0,"server_type":"Dedicated","server_os":"Linux","password":true,"vac":true,"version":"7757534","steam_id":85568392924866365,"keywords":["cp","nocrits","nodmgspread","uncletopia"],"game_id":440,"stv_port":27046,"stv_name":"Uncletopia | Chicago | 8 | Community | STV","players":null},{"server_id":8,"name":"Uncletopia | Dallas | 1 | All Maps","name_short":"dal-1","host":"dal-1.us.uncletopia.com","port":27015,"enabled":true,"region":"us-central","cc":"us","latitude":32.779167,"longitude":-96.80889,"reserved":0,"last_update":"0001-01-01T00:00:00Z","name_a2s":"Uncletopia | Dallas | 1 | All Maps","protocol":17,"map":"koth_highpass","folder":"tf","game":"Team Fortress","app_id":440,"player_count":7,"max_players":24,"Bots":0,"server_type":"Dedicated","server_os":"Linux","password":true,"vac":true,"version":"7757534","steam_id":85568392924469986,"keywords":["cp","nocrits","nodmgspread","uncletopia"],"game_id":440,"stv_port":27016,"stv_name":"Uncletopia | Dallas | 1 | All Maps | STV","players":[{"user_id":27,"name":"DragonHeart","steam_id":76561198013245625,"connected_time":415000000000,"state":"active","ping":60},{"user_id":28,"name":"Waaaaz","steam_id":76561198029754301,"connected_time":241000000000,"state":"active","ping":99},{"user_id":29,"name":"dr drip.","steam_id":76561198393681429,"connected_time":157000000000,"state":"active","ping":82},{"user_id":30,"name":"Cement Drinker","steam_id":76561198143315013,"connected_time":35000000000,"state":"spawning","ping":65},{"user_id":31,"name":"Minlit","steam_id":76561198205832799,"connected_time":32000000000,"state":"active","ping":45},{"user_id":32,"name":"BigWack","steam_id":76561198334878169,"connected_time":27000000000,"state":"active","ping":61},{"user_id":33,"name":"Sexy Microsoft Shrek Clone","steam_id":76561199067722266,"connected_time":23000000000,"state":"spawning","ping":89}]},{"server_id":108,"name":"Uncletopia | Dallas | 2 | All Maps","name_short":"dal-2","host":"dal-1.us.uncletopia.com","port":27025,"enabled":true,"region":"us-central","cc":"us","latitude":32.779167,"longitude":-96.80889,"reserved":0,"last_update":"0001-01-01T00:00:00Z","name_a2s":"Uncletopia | Dallas | 2 | All Maps","protocol":17,"map":"pl_borneo","folder":"tf","game":"Team Fortress","app_id":440,"player_count":24,"max_players":24,"Bots":0,"server_type":"Dedicated","server_os":"Linux","password":true,"vac":true,"version":"7757534","steam_id":85568392924469988,"keywords":["nocrits","nodmgspread","payload","uncletopia"],"game_id":440,"stv_port":27026,"stv_name":"Uncletopia | Dallas | 2 | All Maps | STV","players":[{"user_id":371,"name":"pylot","steam_id":76561198119460618,"connected_time":668000000000,"state":"active","ping":64},{"user_id":361,"name":"aya fumo","steam_id":76561198061621275,"connected_time":1012000000000,"state":"active","ping":85},{"user_id":377,"name":"Haula","steam_id":76561198076586592,"connected_time":555000000000,"state":"active","ping":59},{"user_id":354,"name":"boombox","steam_id":76561198237013798,"connected_time":1622000000000,"state":"active","ping":98},{"user_id":372,"name":"LG_Fridge_User","steam_id":76561198977815014,"connected_time":598000000000,"state":"active","ping":74},{"user_id":317,"name":"Cofi","steam_id":76561199026721822,"connected_time":5383000000000,"state":"active","ping":83},{"user_id":326,"name":"jturner1nm","steam_id":76561198344493652,"connected_time":4098000000000,"state":"active","ping":94},{"user_id":366,"name":"MoiMoi","steam_id":76561198873850038,"connected_time":987000000000,"state":"active","ping":66},{"user_id":357,"name":"Mr.Pwng3","steam_id":76561198139469530,"connected_time":1038000000000,"state":"active","ping":77},{"user_id":378,"name":"poiuytrewqwqwqwqwqwqwqwqwqwqwqw","steam_id":76561199105253001,"connected_time":549000000000,"state":"active","ping":94},{"user_id":333,"name":"Sir Jangle","steam_id":76561198038142389,"connected_time":3382000000000,"state":"active","ping":61},{"user_id":363,"name":"Doomagedden","steam_id":76561198272589475,"connected_time":1012000000000,"state":"active","ping":58},{"user_id":368,"name":"Mr. Soupman","steam_id":76561198021649598,"connected_time":943000000000,"state":"active","ping":76},{"user_id":351,"name":"LX-24","steam_id":76561198016168993,"connected_time":2435000000000,"state":"active","ping":111},{"user_id":375,"name":"Kidzbopsicle","steam_id":76561198047660691,"connected_time":582000000000,"state":"active","ping":76},{"user_id":355,"name":"Humon Player","steam_id":76561198013593178,"connected_time":1081000000000,"state":"active","ping":59},{"user_id":380,"name":"Alkimia","steam_id":76561198385763137,"connected_time":60000000000,"state":"active","ping":141},{"user_id":346,"name":"mongoose deity","steam_id":76561198017539604,"connected_time":2632000000000,"state":"active","ping":76},{"user_id":327,"name":"Bombat","steam_id":76561198083096946,"connected_time":4068000000000,"state":"active","ping":81},{"user_id":358,"name":"doctor large","steam_id":76561199195836752,"connected_time":1029000000000,"state":"active","ping":85},{"user_id":364,"name":"Lord Marshmallow","steam_id":76561198410456480,"connected_time":1009000000000,"state":"active","ping":48},{"user_id":365,"name":"momiji fumo","steam_id":76561198066698922,"connected_time":1009000000000,"state":"active","ping":98},{"user_id":379,"name":"thedittoguy","steam_id":76561199013129784,"connected_time":94000000000,"state":"active","ping":60},{"user_id":350,"name":"Sullivate","steam_id":76561198247267324,"connected_time":2508000000000,"state":"active","ping":90}]},{"server_id":5,"name":"Uncletopia | Frankfurt | 1 | All Maps","name_short":"frk-1","host":"frk-1.de.uncletopia.com","port":27015,"enabled":true,"region":"eu","cc":"de","latitude":50.110924,"longitude":8.682127,"reserved":0,"last_update":"0001-01-01T00:00:00Z","name_a2s":"Uncletopia | Frankfurt | 1 | All Maps","protocol":17,"map":"cp_mountainlab","folder":"tf","game":"Team Fortress","app_id":440,"player_count":0,"max_players":24,"Bots":0,"server_type":"Dedicated","server_os":"Linux","password":true,"vac":true,"version":"7757534","steam_id":85568392924469989,"keywords":["cp","nocrits","nodmgspread","uncletopia"],"game_id":440,"stv_port":27016,"stv_name":"Uncletopia | Frankfurt | 1 | All Maps | STV","players":null},{"server_id":110,"name":"Uncletopia | Frankfurt | 2 | All Maps","name_short":"frk-2","host":"frk-1.de.uncletopia.com","port":27025,"enabled":true,"region":"eu","cc":"de","latitude":50.110924,"longitude":8.682127,"reserved":0,"last_update":"0001-01-01T00:00:00Z","name_a2s":"Uncletopia | Frankfurt | 2 | All Maps","protocol":17,"map":"koth_cascade","folder":"tf","game":"Team Fortress","app_id":440,"player_count":12,"max_players":24,"Bots":0,"server_type":"Dedicated","server_os":"Linux","password":true,"vac":true,"version":"7757534","steam_id":85568392924469990,"keywords":["cp","nocrits","nodmgspread","uncletopia"],"game_id":440,"stv_port":27026,"stv_name":"Uncletopia | Frankfurt | 2 | All Maps | STV","players":[{"user_id":407,"name":"Couch/Luper","steam_id":76561198531978435,"connected_time":130000000000,"state":"active","ping":79},{"user_id":373,"name":"zdrdan","steam_id":76561198107905551,"connected_time":2051000000000,"state":"active","ping":72},{"user_id":394,"name":"zdX","steam_id":76561198163735277,"connected_time":949000000000,"state":"active","ping":58},{"user_id":392,"name":"SDCK JackyLegs tf2easy.com","steam_id":76561197998944560,"connected_time":1260000000000,"state":"active","ping":78},{"user_id":398,"name":"mud","steam_id":76561198141497461,"connected_time":537000000000,"state":"active","ping":65},{"user_id":399,"name":"Altocumulus","steam_id":76561198165953969,"connected_time":536000000000,"state":"active","ping":82},{"user_id":374,"name":"drogoz","steam_id":76561198078538472,"connected_time":2046000000000,"state":"active","ping":50},{"user_id":402,"name":"im red","steam_id":76561199087284519,"connected_time":497000000000,"state":"active","ping":63},{"user_id":378,"name":"Dispenser","steam_id":76561198081051880,"connected_time":1907000000000,"state":"active","ping":35},{"user_id":363,"name":"kreeekz","steam_id":76561198014431602,"connected_time":2629000000000,"state":"active","ping":61},{"user_id":404,"name":"BELADIT","steam_id":76561198011911501,"connected_time":214000000000,"state":"active","ping":60},{"user_id":406,"name":"[No Class]","steam_id":76561199019412162,"connected_time":165000000000,"state":"active","ping":61}]},{"server_id":308,"name":"Uncletopia | Frankfurt | 3 | All Maps","name_short":"frk-3","host":"frk-1.de.uncletopia.com","port":27035,"enabled":true,"region":"eu","cc":"de","latitude":50.110924,"longitude":8.682127,"reserved":0,"last_update":"0001-01-01T00:00:00Z","name_a2s":"Uncletopia | Frankfurt | 3 | All Maps","protocol":17,"map":"koth_suijin","folder":"tf","game":"Team Fortress","app_id":440,"player_count":0,"max_players":24,"Bots":0,"server_type":"Dedicated","server_os":"Linux","password":true,"vac":true,"version":"7757534","steam_id":85568392924504274,"keywords":["cp","nocrits","nodmgspread","uncletopia"],"game_id":440,"stv_port":27036,"stv_name":"Uncletopia | Frankfurt | 3 | All Maps | STV","players":null},{"server_id":309,"name":"Uncletopia | Frankfurt | 4 | All Maps","name_short":"frk-4","host":"frk-1.de.uncletopia.com","port":27045,"enabled":true,"region":"eu","cc":"de","latitude":50.110924,"longitude":8.682127,"reserved":0,"last_update":"0001-01-01T00:00:00Z","name_a2s":"Uncletopia | Frankfurt | 4 | All Maps","protocol":17,"map":"pl_swiftwater_final1","folder":"tf","game":"Team Fortress","app_id":440,"player_count":24,"max_players":24,"Bots":0,"server_type":"Dedicated","server_os":"Linux","password":true,"vac":true,"version":"7757534","steam_id":85568392924504275,"keywords":["nocrits","nodmgspread","payload","uncletopia"],"game_id":440,"stv_port":27046,"stv_name":"Uncletopia | Frankfurt | 4 | All Maps | STV","players":[{"user_id":277,"name":"Gryoss","steam_id":76561197999837111,"connected_time":936000000000,"state":"active","ping":100},{"user_id":210,"name":"♥ Aura ♥","steam_id":76561198066258544,"connected_time":6188000000000,"state":"active","ping":49},{"user_id":282,"name":"Princess Fuzz","steam_id":76561198025783000,"connected_time":481000000000,"state":"active","ping":59},{"user_id":115,"name":"rz-/Atomic Punch","steam_id":76561199195508541,"connected_time":12816000000000,"state":"active","ping":85},{"user_id":103,"name":"Sigma Bale","steam_id":76561198365750503,"connected_time":14066000000000,"state":"active","ping":49},{"user_id":258,"name":"Anti_Dragon","steam_id":76561198969060607,"connected_time":2769000000000,"state":"active","ping":121},{"user_id":255,"name":"flange","steam_id":76561198040182692,"connected_time":2956000000000,"state":"active","ping":54},{"user_id":287,"name":"Cryspoeth47","steam_id":76561198892776023,"connected_time":230000000000,"state":"active","ping":115},{"user_id":283,"name":"WaLRosH","steam_id":76561198035741341,"connected_time":460000000000,"state":"active","ping":86},{"user_id":280,"name":"sv_opor 13123","steam_id":76561198002229612,"connected_time":518000000000,"state":"active","ping":74},{"user_id":281,"name":"nynon","steam_id":76561197998432126,"connected_time":506000000000,"state":"active","ping":76},{"user_id":278,"name":"desnot","steam_id":76561198862581894,"connected_time":584000000000,"state":"active","ping":78},{"user_id":288,"name":"Pixelo","steam_id":76561198947949422,"connected_time":226000000000,"state":"active","ping":57},{"user_id":289,"name":"X45Y","steam_id":76561198112534025,"connected_time":156000000000,"state":"active","ping":45},{"user_id":226,"name":"Ansari","steam_id":76561198074982971,"connected_time":4739000000000,"state":"active","ping":56},{"user_id":272,"name":"strahphic","steam_id":76561199279295106,"connected_time":1288000000000,"state":"active","ping":120},{"user_id":285,"name":"0","steam_id":76561198267909207,"connected_time":334000000000,"state":"active","ping":84},{"user_id":279,"name":"Femboy Gaming","steam_id":76561198174108515,"connected_time":542000000000,"state":"active","ping":45},{"user_id":275,"name":"Yachox","steam_id":76561198158259745,"connected_time":1041000000000,"state":"active","ping":89},{"user_id":232,"name":"Cosmetic brain","steam_id":76561198055936410,"connected_time":4649000000000,"state":"active","ping":89},{"user_id":286,"name":"Sabour","steam_id":76561197963965445,"connected_time":316000000000,"state":"active","ping":56},{"user_id":270,"name":"Qwerty","steam_id":76561198023525894,"connected_time":2028000000000,"state":"active","ping":95},{"user_id":254,"name":"Anonymous47007","steam_id":76561199005211417,"connected_time":2975000000000,"state":"active","ping":69},{"user_id":290,"name":"Setter Ball Gaul","steam_id":76561198130427881,"connected_time":139000000000,"state":"active","ping":165}]},{"server_id":310,"name":"Uncletopia | Frankfurt | 5 | All Maps","name_short":"frk-5","host":"frk-1.de.uncletopia.com","port":27055,"enabled":true,"region":"eu","cc":"de","latitude":50.110924,"longitude":8.682127,"reserved":0,"last_update":"0001-01-01T00:00:00Z","name_a2s":"Uncletopia | Frankfurt | 5 | All Maps","protocol":17,"map":"pl_swiftwater_final1","folder":"tf","game":"Team Fortress","app_id":440,"player_count":24,"max_players":24,"Bots":0,"server_type":"Dedicated","server_os":"Linux","password":true,"vac":true,"version":"7757534","steam_id":85568392924504277,"keywords":["nocrits","nodmgspread","payload","uncletopia"],"game_id":440,"stv_port":27056,"stv_name":"Uncletopia | Frankfurt | 5 | All Maps | STV","players":[{"user_id":455,"name":"Dim {the musical}","steam_id":76561198141549249,"connected_time":271000000000,"state":"active","ping":164},{"user_id":394,"name":"Maćko Z Bogdańca","steam_id":76561198114612861,"connected_time":3651000000000,"state":"active","ping":71},{"user_id":452,"name":"FLAIR","steam_id":76561198112588005,"connected_time":467000000000,"state":"active","ping":61},{"user_id":428,"name":"Gnarville","steam_id":76561198006373329,"connected_time":1826000000000,"state":"active","ping":65},{"user_id":409,"name":"OhMyGodcat","steam_id":76561198054299459,"connected_time":3150000000000,"state":"active","ping":98},{"user_id":419,"name":"Djingis Khan","steam_id":76561197967864460,"connected_time":2320000000000,"state":"active","ping":46},{"user_id":368,"name":"fallingpencil","steam_id":76561199230233148,"connected_time":5849000000000,"state":"active","ping":65},{"user_id":450,"name":"THVG","steam_id":76561199156685368,"connected_time":505000000000,"state":"active","ping":64},{"user_id":432,"name":"jail or the grave","steam_id":76561198274105878,"connected_time":1464000000000,"state":"active","ping":89},{"user_id":438,"name":"Juiceydough","steam_id":76561197997323419,"connected_time":1085000000000,"state":"active","ping":90},{"user_id":449,"name":"tone","steam_id":76561197975301462,"connected_time":568000000000,"state":"active","ping":87},{"user_id":447,"name":"AmadStatistician","steam_id":76561198163654770,"connected_time":860000000000,"state":"active","ping":67},{"user_id":377,"name":"hmmmmm","steam_id":76561198024619679,"connected_time":5490000000000,"state":"active","ping":72},{"user_id":398,"name":"Quororque The Defiler-Alchemist","steam_id":76561198070659234,"connected_time":3574000000000,"state":"active","ping":68},{"user_id":354,"name":"KRÁL PODSVĚTÍ","steam_id":76561198060698967,"connected_time":6442000000000,"state":"active","ping":56},{"user_id":436,"name":"sloppy transgirl toppy","steam_id":76561198057092208,"connected_time":1144000000000,"state":"active","ping":60},{"user_id":439,"name":"eduardo","steam_id":76561198014491925,"connected_time":1064000000000,"state":"active","ping":84},{"user_id":440,"name":"doodgie","steam_id":76561198264934115,"connected_time":1058000000000,"state":"active","ping":75},{"user_id":441,"name":"lanzer","steam_id":76561198049983016,"connected_time":1033000000000,"state":"active","ping":102},{"user_id":437,"name":"Clitorina","steam_id":76561198077570815,"connected_time":1114000000000,"state":"active","ping":58},{"user_id":454,"name":"Guuse | Chuds.tf","steam_id":76561198030956814,"connected_time":334000000000,"state":"active","ping":96},{"user_id":443,"name":"Swedde","steam_id":76561198297296440,"connected_time":1016000000000,"state":"active","ping":85},{"user_id":446,"name":"Will or Mole","steam_id":76561198046415938,"connected_time":975000000000,"state":"active","ping":75},{"user_id":445,"name":"一 デ︻(❛‿❛✿)","steam_id":76561198017686306,"connected_time":1009000000000,"state":"active","ping":60}]},{"server_id":311,"name":"Uncletopia | Frankfurt | 6 | All Maps","name_short":"frk-6","host":"frk-1.de.uncletopia.com","port":27065,"enabled":true,"region":"eu","cc":"de","latitude":50.110924,"longitude":8.682127,"reserved":0,"last_update":"0001-01-01T00:00:00Z","name_a2s":"Uncletopia | Frankfurt | 6 | All Maps","protocol":17,"map":"pl_upward","folder":"tf","game":"Team Fortress","app_id":440,"player_count":24,"max_players":24,"Bots":0,"server_type":"Dedicated","server_os":"Linux","password":true,"vac":true,"version":"7757534","steam_id":85568392924504278,"keywords":["nocrits","nodmgspread","payload","uncletopia"],"game_id":440,"stv_port":27066,"stv_name":"Uncletopia | Frankfurt | 6 | All Maps | STV","players":[{"user_id":388,"name":"avi","steam_id":76561198971428831,"connected_time":341000000000,"state":"active","ping":130},{"user_id":297,"name":"Piteras","steam_id":76561198858532207,"connected_time":4726000000000,"state":"active","ping":77},{"user_id":387,"name":"Kumquat","steam_id":76561198200490386,"connected_time":375000000000,"state":"active","ping":72},{"user_id":389,"name":"Janti ❤  #NEWTF2Hunt","steam_id":76561199387238623,"connected_time":244000000000,"state":"active","ping":105},{"user_id":380,"name":"LIGHTWEIGHT BABY","steam_id":76561198002761980,"connected_time":1336000000000,"state":"active","ping":60},{"user_id":390,"name":"grmtwtr","steam_id":76561198263260743,"connected_time":194000000000,"state":"active","ping":99},{"user_id":391,"name":"BarrackOmaha","steam_id":76561198027922724,"connected_time":160000000000,"state":"active","ping":71},{"user_id":398,"name":"tone'","steam_id":76561198055552635,"connected_time":63000000000,"state":"active","ping":54},{"user_id":384,"name":"Fox","steam_id":76561198052541711,"connected_time":958000000000,"state":"active","ping":61},{"user_id":392,"name":"Deckard","steam_id":76561198004704647,"connected_time":156000000000,"state":"active","ping":79},{"user_id":333,"name":"hedon/","steam_id":76561198249832770,"connected_time":2845000000000,"state":"active","ping":61},{"user_id":381,"name":"BallinScout","steam_id":76561198152443697,"connected_time":1265000000000,"state":"active","ping":82},{"user_id":393,"name":"C0d3s","steam_id":76561198093907544,"connected_time":153000000000,"state":"active","ping":98},{"user_id":302,"name":"Rexu","steam_id":76561198246738850,"connected_time":4440000000000,"state":"active","ping":70},{"user_id":304,"name":"KatTheCookiCat","steam_id":76561199054643392,"connected_time":4400000000000,"state":"active","ping":54},{"user_id":394,"name":"jones","steam_id":76561198044434971,"connected_time":143000000000,"state":"active","ping":63},{"user_id":395,"name":"rummy","steam_id":76561197997573379,"connected_time":142000000000,"state":"active","ping":61},{"user_id":399,"name":"Destinys","steam_id":76561198056132894,"connected_time":31000000000,"state":"spawning","ping":57},{"user_id":396,"name":"elijah","steam_id":76561198093936708,"connected_time":141000000000,"state":"active","ping":68},{"user_id":397,"name":"Dorich","steam_id":76561198287126217,"connected_time":139000000000,"state":"active","ping":60},{"user_id":370,"name":"Mussolini","steam_id":76561198218384865,"connected_time":1686000000000,"state":"active","ping":95},{"user_id":386,"name":"rigel_","steam_id":76561198148640847,"connected_time":384000000000,"state":"active","ping":68},{"user_id":378,"name":"kbbq","steam_id":76561198346638308,"connected_time":1530000000000,"state":"active","ping":60},{"user_id":336,"name":"Magic","steam_id":76561198401602586,"connected_time":2703000000000,"state":"active","ping":77}]},{"server_id":23,"name":"Uncletopia | Frankfurt | 7 | Stopwatch Beta","name_short":"frk-7","host":"frk-1.de.uncletopia.com","port":27075,"enabled":true,"region":"eu","cc":"de","latitude":50.110924,"longitude":8.682127,"reserved":0,"last_update":"0001-01-01T00:00:00Z","name_a2s":"Uncletopia | Frankfurt | 7 | Stopwatch Beta","protocol":17,"map":"pl_borneo","folder":"tf","game":"Team Fortress","app_id":440,"player_count":0,"max_players":24,"Bots":0,"server_type":"Dedicated","server_os":"Linux","password":true,"vac":true,"version":"7757534","steam_id":85568392924742827,"keywords":["nocrits","nodmgspread","payload","uncletopia"],"game_id":440,"stv_port":27076,"stv_name":"Uncletopia | Frankfurt | 7 | Stopwatch Beta | STV","players":null},{"server_id":24,"name":"Uncletopia | Frankfurt | 8 | Community","name_short":"frk-8","host":"frk-1.de.uncletopia.com","port":27085,"enabled":true,"region":"eu","cc":"de","latitude":50.110924,"longitude":8.682127,"reserved":0,"last_update":"0001-01-01T00:00:00Z","name_a2s":"Uncletopia | Frankfurt | 8 | Community","protocol":17,"map":"koth_viaduct","folder":"tf","game":"Team Fortress","app_id":440,"player_count":0,"max_players":24,"Bots":0,"server_type":"Dedicated","server_os":"Linux","password":true,"vac":true,"version":"7757534","steam_id":85568392924742828,"keywords":["cp","nocrits","nodmgspread","uncletopia"],"game_id":440,"stv_port":27086,"stv_name":"Uncletopia | Frankfurt | 8 | Community | STV","players":null},{"server_id":202,"name":"Uncletopia | Hong Kong | 1 | All Maps","name_short":"hgk-1","host":"hgk-1.hk.uncletopia.com","port":27015,"enabled":true,"region":"asia","cc":"hk","latitude":22.302711,"longitude":114.177216,"reserved":0,"last_update":"0001-01-01T00:00:00Z","name_a2s":"Uncletopia | Hong Kong | 1 | All Maps","protocol":17,"map":"cp_sunshine","folder":"tf","game":"Team Fortress","app_id":440,"player_count":0,"max_players":24,"Bots":0,"server_type":"Dedicated","server_os":"Linux","password":true,"vac":true,"version":"7757534","steam_id":85568392924494504,"keywords":["cp","nocrits","nodmgspread","uncletopia"],"game_id":440,"stv_port":27016,"stv_name":"Uncletopia | Hong Kong | 1 | All Maps | STV","players":null},{"server_id":1,"name":"Uncletopia | Los Angeles | 1 | All Maps","name_short":"lax-1","host":"lax-1.us.uncletopia.com","port":27015,"enabled":true,"region":"us-west","cc":"us","latitude":33.94279,"longitude":-118.41004,"reserved":0,"last_update":"0001-01-01T00:00:00Z","name_a2s":"Uncletopia | Los Angeles | 1 | All Maps","protocol":17,"map":"koth_harvest_final","folder":"tf","game":"Team Fortress","app_id":440,"player_count":0,"max_players":24,"Bots":0,"server_type":"Dedicated","server_os":"Linux","password":true,"vac":true,"version":"7757534","steam_id":85568392924469991,"keywords":["cp","nocrits","nodmgspread","uncletopia"],"game_id":440,"stv_port":27016,"stv_name":"Uncletopia | Los Angeles | 1 | All Maps | STV","players":null},{"server_id":112,"name":"Uncletopia | Los Angeles | 2 | All Maps","name_short":"lax-2","host":"lax-1.us.uncletopia.com","port":27025,"enabled":true,"region":"us-west","cc":"us","latitude":33.94279,"longitude":-118.41004,"reserved":0,"last_update":"0001-01-01T00:00:00Z","name_a2s":"Uncletopia | Los Angeles | 2 | All Maps","protocol":17,"map":"koth_viaduct","folder":"tf","game":"Team Fortress","app_id":440,"player_count":0,"max_players":24,"Bots":0,"server_type":"Dedicated","server_os":"Linux","password":true,"vac":true,"version":"7757534","steam_id":85568392924469992,"keywords":["cp","nocrits","nodmgspread","uncletopia"],"game_id":440,"stv_port":27026,"stv_name":"Uncletopia | Los Angeles | 2 | All Maps | STV","players":null},{"server_id":324,"name":"Uncletopia | Los Angeles | 3 | All Maps","name_short":"lax-3","host":"lax-1.us.uncletopia.com","port":27035,"enabled":true,"region":"us-west","cc":"us","latitude":33.94279,"longitude":-118.41004,"reserved":0,"last_update":"0001-01-01T00:00:00Z","name_a2s":"Uncletopia | Los Angeles | 3 | All Maps","protocol":17,"map":"pl_borneo","folder":"tf","game":"Team Fortress","app_id":440,"player_count":0,"max_players":24,"Bots":0,"server_type":"Dedicated","server_os":"Linux","password":true,"vac":true,"version":"7757534","steam_id":85568392924510198,"keywords":["nocrits","nodmgspread","payload","uncletopia"],"game_id":440,"stv_port":27036,"stv_name":"Uncletopia | Los Angeles | 3 | All Maps | STV","players":null},{"server_id":25,"name":"Uncletopia | Los Angeles | 4 | Stopwatch Beta","name_short":"lax-4","host":"lax-1.us.uncletopia.com","port":27045,"enabled":true,"region":"us-west","cc":"us","latitude":33.94279,"longitude":-118.41004,"reserved":0,"last_update":"0001-01-01T00:00:00Z","name_a2s":"Uncletopia | Los Angeles | 4 | Stopwatch Beta","protocol":17,"map":"cp_dustbowl","folder":"tf","game":"Team Fortress","app_id":440,"player_count":0,"max_players":24,"Bots":0,"server_type":"Dedicated","server_os":"Linux","password":true,"vac":true,"version":"7757534","steam_id":85568392924510199,"keywords":["cp","nocrits","nodmgspread","uncletopia"],"game_id":440,"stv_port":27046,"stv_name":"Uncletopia | Los Angeles | 4 | Stopwatch Beta | STV","players":null},{"server_id":11,"name":"Uncletopia | London | 1 | All Maps","name_short":"lon-1","host":"lon-1.uk.uncletopia.com","port":27015,"enabled":true,"region":"eu","cc":"gb","latitude":51.509865,"longitude":-0.118092,"reserved":0,"last_update":"0001-01-01T00:00:00Z","name_a2s":"Uncletopia | London | 1 | All Maps","protocol":17,"map":"pl_pier","folder":"tf","game":"Team Fortress","app_id":440,"player_count":24,"max_players":24,"Bots":0,"server_type":"Dedicated","server_os":"Linux","password":true,"vac":true,"version":"7757534","steam_id":85568392924367362,"keywords":["nocrits","nodmgspread","payload","uncletopia"],"game_id":440,"stv_port":27016,"stv_name":"Uncletopia | London | 1 | All Maps | STV","players":[{"user_id":715,"name":"Vershal Smershal","steam_id":76561198116223995,"connected_time":4329000000000,"state":"active","ping":49},{"user_id":712,"name":"nedilya","steam_id":76561198039692077,"connected_time":4840000000000,"state":"active","ping":62},{"user_id":747,"name":"SuperBob103","steam_id":76561199175360012,"connected_time":984000000000,"state":"active","ping":47},{"user_id":748,"name":"✪ J","steam_id":76561198094911581,"connected_time":702000000000,"state":"active","ping":48},{"user_id":750,"name":"that fat croc from donkey kong","steam_id":76561198159172495,"connected_time":498000000000,"state":"active","ping":74},{"user_id":741,"name":"Joseph Stalin","steam_id":76561198033199746,"connected_time":2641000000000,"state":"active","ping":46},{"user_id":708,"name":"s a i","steam_id":76561197970379754,"connected_time":5918000000000,"state":"active","ping":62},{"user_id":751,"name":"Artur ☻","steam_id":76561198264297604,"connected_time":473000000000,"state":"active","ping":78},{"user_id":573,"name":"Serton♝","steam_id":76561198011061126,"connected_time":11917000000000,"state":"active","ping":72},{"user_id":745,"name":"Dwevy","steam_id":76561198090379437,"connected_time":1178000000000,"state":"active","ping":53},{"user_id":652,"name":"Bobirulez","steam_id":76561198009125458,"connected_time":8570000000000,"state":"active","ping":74},{"user_id":749,"name":"god's eepiest girl","steam_id":76561198128327529,"connected_time":500000000000,"state":"active","ping":54},{"user_id":753,"name":"wouris","steam_id":76561198876188003,"connected_time":20000000000,"state":"active","ping":72},{"user_id":737,"name":"regimiro","steam_id":76561198120457008,"connected_time":2928000000000,"state":"active","ping":49},{"user_id":742,"name":"Katie","steam_id":76561198056193753,"connected_time":2227000000000,"state":"active","ping":37},{"user_id":678,"name":"Pestdoktor","steam_id":76561198058159271,"connected_time":7391000000000,"state":"active","ping":70},{"user_id":731,"name":"monky","steam_id":76561199380595946,"connected_time":4153000000000,"state":"active","ping":64},{"user_id":733,"name":"ciliorkun18","steam_id":76561198228942500,"connected_time":3173000000000,"state":"active","ping":90},{"user_id":735,"name":"lowdash","steam_id":76561198327827635,"connected_time":2962000000000,"state":"active","ping":75},{"user_id":643,"name":"Kvicha Kvaratskhelia","steam_id":76561198179339326,"connected_time":9612000000000,"state":"active","ping":81},{"user_id":709,"name":"BreadBubbles","steam_id":76561198174332826,"connected_time":5280000000000,"state":"active","ping":60},{"user_id":714,"name":"dec","steam_id":76561198009660168,"connected_time":4341000000000,"state":"active","ping":53},{"user_id":326,"name":"LarsInABox","steam_id":76561198028329262,"connected_time":23381000000000,"state":"active","ping":75},{"user_id":651,"name":"xavier","steam_id":76561198076494034,"connected_time":8617000000000,"state":"active","ping":51}]},{"server_id":114,"name":"Uncletopia | London | 2 | All Maps","name_short":"lon-2","host":"lon-1.uk.uncletopia.com","port":27025,"enabled":true,"region":"eu","cc":"gb","latitude":51.509865,"longitude":-0.118092,"reserved":0,"last_update":"0001-01-01T00:00:00Z","name_a2s":"Uncletopia | London | 2 | All Maps","protocol":17,"map":"pl_swiftwater_final1","folder":"tf","game":"Team Fortress","app_id":440,"player_count":24,"max_players":24,"Bots":0,"server_type":"Dedicated","server_os":"Linux","password":true,"vac":true,"version":"7757534","steam_id":85568392924470941,"keywords":["nocrits","nodmgspread","payload","uncletopia"],"game_id":440,"stv_port":27026,"stv_name":"Uncletopia | London | 2 | All Maps | STV","players":[{"user_id":154,"name":"dochris.2","steam_id":76561198026478625,"connected_time":2896000000000,"state":"active","ping":59},{"user_id":158,"name":"Raulca25","steam_id":76561199068256964,"connected_time":2526000000000,"state":"active","ping":76},{"user_id":191,"name":"Noob_with_source","steam_id":76561198870362103,"connected_time":450000000000,"state":"active","ping":58},{"user_id":161,"name":"fshfkr","steam_id":76561198095979282,"connected_time":2345000000000,"state":"active","ping":38},{"user_id":185,"name":"Haha?","steam_id":76561198056882245,"connected_time":828000000000,"state":"active","ping":43},{"user_id":159,"name":"Slav-matros","steam_id":76561198251977912,"connected_time":2496000000000,"state":"active","ping":62},{"user_id":192,"name":"U1F","steam_id":76561198053700703,"connected_time":446000000000,"state":"active","ping":106},{"user_id":155,"name":"ldshwt","steam_id":76561198090364357,"connected_time":2890000000000,"state":"active","ping":60},{"user_id":145,"name":"hmscole09","steam_id":76561198811362788,"connected_time":3540000000000,"state":"active","ping":59},{"user_id":186,"name":"- rick.","steam_id":76561198026699226,"connected_time":811000000000,"state":"active","ping":73},{"user_id":166,"name":"Delightful MadCat","steam_id":76561198086178426,"connected_time":1973000000000,"state":"active","ping":170},{"user_id":194,"name":"BSantos57","steam_id":76561198000597094,"connected_time":422000000000,"state":"active","ping":87},{"user_id":187,"name":"Floyd","steam_id":76561198125333672,"connected_time":804000000000,"state":"active","ping":76},{"user_id":188,"name":"BepisR47","steam_id":76561198084515716,"connected_time":798000000000,"state":"active","ping":34},{"user_id":181,"name":"meriones","steam_id":76561198034234373,"connected_time":1586000000000,"state":"active","ping":43},{"user_id":153,"name":"Fifourche","steam_id":76561198078209480,"connected_time":3120000000000,"state":"active","ping":58},{"user_id":184,"name":"Purps","steam_id":76561198053886680,"connected_time":845000000000,"state":"active","ping":43},{"user_id":156,"name":"sareena","steam_id":76561198810194062,"connected_time":2868000000000,"state":"active","ping":72},{"user_id":189,"name":"pigswill","steam_id":76561197999081865,"connected_time":796000000000,"state":"active","ping":143},{"user_id":139,"name":"Marchew1200®","steam_id":76561198070145842,"connected_time":3806000000000,"state":"active","ping":89},{"user_id":193,"name":"beheading video from 2009","steam_id":76561198834897089,"connected_time":437000000000,"state":"active","ping":74},{"user_id":169,"name":"donal rump","steam_id":76561198136239861,"connected_time":1863000000000,"state":"active","ping":48},{"user_id":197,"name":"Dionysus","steam_id":76561199436529023,"connected_time":217000000000,"state":"active","ping":75},{"user_id":148,"name":"CumbustiblePunda","steam_id":76561197974274677,"connected_time":3454000000000,"state":"active","ping":58}]},{"server_id":320,"name":"Uncletopia | London | 3 | All Maps","name_short":"lon-3","host":"lon-1.uk.uncletopia.com","port":27035,"enabled":true,"region":"eu","cc":"gb","latitude":51.509865,"longitude":-0.118092,"reserved":0,"last_update":"0001-01-01T00:00:00Z","name_a2s":"Uncletopia | London | 3 | All Maps","protocol":17,"map":"koth_highpass","folder":"tf","game":"Team Fortress","app_id":440,"player_count":0,"max_players":24,"Bots":0,"server_type":"Dedicated","server_os":"Linux","password":true,"vac":true,"version":"7757534","steam_id":85568392924510192,"keywords":["cp","nocrits","nodmgspread","uncletopia"],"game_id":440,"stv_port":27036,"stv_name":"Uncletopia | London | 3 | All Maps | STV","players":null},{"server_id":321,"name":"Uncletopia | London | 4 | All Maps","name_short":"lon-4","host":"lon-1.uk.uncletopia.com","port":27045,"enabled":true,"region":"eu","cc":"gb","latitude":51.509865,"longitude":-0.118092,"reserved":0,"last_update":"0001-01-01T00:00:00Z","name_a2s":"Uncletopia | London | 4 | All Maps","protocol":17,"map":"cp_snakewater_final1","folder":"tf","game":"Team Fortress","app_id":440,"player_count":0,"max_players":24,"Bots":0,"server_type":"Dedicated","server_os":"Linux","password":true,"vac":true,"version":"7757534","steam_id":85568392924510193,"keywords":["cp","nocrits","nodmgspread","uncletopia"],"game_id":440,"stv_port":27046,"stv_name":"Uncletopia | London | 4 | All Maps | STV","players":null},{"server_id":21,"name":"Uncletopia | London | 5 | All Maps","name_short":"lon-5","host":"lon-1.uk.uncletopia.com","port":27055,"enabled":true,"region":"eu","cc":"gb","latitude":51.509865,"longitude":-0.118092,"reserved":0,"last_update":"0001-01-01T00:00:00Z","name_a2s":"Uncletopia | London | 5 | All Maps","protocol":17,"map":"cp_sunshine","folder":"tf","game":"Team Fortress","app_id":440,"player_count":23,"max_players":24,"Bots":0,"server_type":"Dedicated","server_os":"Linux","password":true,"vac":true,"version":"7757534","steam_id":85568392924742829,"keywords":["cp","nocrits","nodmgspread","uncletopia"],"game_id":440,"stv_port":27056,"stv_name":"Uncletopia | London | 5 | All Maps | STV","players":[{"user_id":694,"name":"Arcader","steam_id":76561198109860110,"connected_time":744000000000,"state":"active","ping":66},{"user_id":708,"name":"kektuse","steam_id":76561198088426580,"connected_time":313000000000,"state":"active","ping":60},{"user_id":681,"name":"☆MiNTERRRRR☆","steam_id":76561198799866156,"connected_time":1312000000000,"state":"active","ping":120},{"user_id":682,"name":"Freddy Fazbear Gaming","steam_id":76561198299179114,"connected_time":1284000000000,"state":"active","ping":84},{"user_id":656,"name":"N.M.E","steam_id":76561198012351470,"connected_time":3421000000000,"state":"active","ping":32},{"user_id":691,"name":"Shaaku","steam_id":76561198034901545,"connected_time":893000000000,"state":"active","ping":78},{"user_id":692,"name":"Waffle Wolf","steam_id":76561198029155787,"connected_time":872000000000,"state":"active","ping":71},{"user_id":688,"name":"Borat","steam_id":76561198122226417,"connected_time":954000000000,"state":"active","ping":39},{"user_id":713,"name":"tuna","steam_id":76561198121590248,"connected_time":229000000000,"state":"active","ping":49},{"user_id":695,"name":"Rijaldo","steam_id":76561198058545060,"connected_time":717000000000,"state":"active","ping":95},{"user_id":693,"name":"kinimon","steam_id":76561198178453270,"connected_time":863000000000,"state":"active","ping":40},{"user_id":704,"name":"Portal2Player","steam_id":76561198062870114,"connected_time":441000000000,"state":"active","ping":124},{"user_id":697,"name":"SWOLE AF","steam_id":76561198084599467,"connected_time":685000000000,"state":"active","ping":108},{"user_id":705,"name":"Pronton","steam_id":76561198082502910,"connected_time":422000000000,"state":"active","ping":59},{"user_id":677,"name":"GreggsConsumer76254","steam_id":76561198180361759,"connected_time":1492000000000,"state":"active","ping":45},{"user_id":700,"name":"Semblance","steam_id":76561198154463052,"connected_time":601000000000,"state":"active","ping":70},{"user_id":714,"name":"Captain HandicappedCock","steam_id":76561198109850402,"connected_time":171000000000,"state":"active","ping":77},{"user_id":703,"name":"If I top 3 my team sucks","steam_id":76561198147668373,"connected_time":481000000000,"state":"active","ping":64},{"user_id":706,"name":"Robbie","steam_id":76561198017504503,"connected_time":419000000000,"state":"active","ping":50},{"user_id":707,"name":"Speavy","steam_id":76561198847690613,"connected_time":371000000000,"state":"active","ping":131},{"user_id":709,"name":"Sandshee","steam_id":76561198088574666,"connected_time":286000000000,"state":"active","ping":43},{"user_id":712,"name":"Dog ?","steam_id":76561198347020945,"connected_time":231000000000,"state":"active","ping":94},{"user_id":711,"name":"katana on the trains","steam_id":76561198202464032,"connected_time":244000000000,"state":"active","ping":69}]},{"server_id":22,"name":"Uncletopia | London | 6 | All Maps","name_short":"lon-6","host":"lon-1.uk.uncletopia.com","port":27065,"enabled":true,"region":"eu","cc":"gb","latitude":51.509865,"longitude":-0.118092,"reserved":0,"last_update":"0001-01-01T00:00:00Z","name_a2s":"Uncletopia | London | 6 | All Maps","protocol":17,"map":"koth_highpass","folder":"tf","game":"Team Fortress","app_id":440,"player_count":0,"max_players":24,"Bots":0,"server_type":"Dedicated","server_os":"Linux","password":true,"vac":true,"version":"7757534","steam_id":85568392924742830,"keywords":["cp","nocrits","nodmgspread","uncletopia"],"game_id":440,"stv_port":27066,"stv_name":"Uncletopia | London | 6 | All Maps | STV","players":null},{"server_id":40,"name":"Uncletopia | London | 7 | No Payload","name_short":"lon-7","host":"lon-1.uk.uncletopia.com","port":27075,"enabled":true,"region":"eu","cc":"gb","latitude":51.509865,"longitude":-0.118092,"reserved":0,"last_update":"0001-01-01T00:00:00Z","name_a2s":"Uncletopia | London | 7 | No Payload","protocol":17,"map":"koth_harvest_final","folder":"tf","game":"Team Fortress","app_id":440,"player_count":0,"max_players":24,"Bots":0,"server_type":"Dedicated","server_os":"Linux","password":true,"vac":true,"version":"7757534","steam_id":85568392924964314,"keywords":["cp","nocrits","nodmgspread","uncletopia"],"game_id":440,"stv_port":27076,"stv_name":"Uncletopia | London | 7 | No Payload | STV","players":null},{"server_id":41,"name":"Uncletopia | London | 8 | Community","name_short":"lon-8","host":"lon-1.uk.uncletopia.com","port":27085,"enabled":true,"region":"eu","cc":"gb","latitude":51.509865,"longitude":-0.118092,"reserved":0,"last_update":"0001-01-01T00:00:00Z","name_a2s":"Uncletopia | London | 8 | Community","protocol":17,"map":"workshop/cp_fulgur_rc2a.ugc2068252300","folder":"tf","game":"Team Fortress","app_id":440,"player_count":4,"max_players":24,"Bots":0,"server_type":"Dedicated","server_os":"Linux","password":true,"vac":true,"version":"7757534","steam_id":85568392924964315,"keywords":["cp","nocrits","nodmgspread","uncletopia"],"game_id":440,"stv_port":27086,"stv_name":"Uncletopia | London | 8 | Community | STV","players":[{"user_id":358,"name":"Ork","steam_id":76561197968575924,"connected_time":998000000000,"state":"active","ping":48},{"user_id":354,"name":"Dorfde","steam_id":76561199013373515,"connected_time":1234000000000,"state":"active","ping":75},{"user_id":335,"name":"。。。","steam_id":76561198101624996,"connected_time":2488000000000,"state":"active","ping":102},{"user_id":345,"name":"Piquesque","steam_id":76561198286763046,"connected_time":1854000000000,"state":"active","ping":98}]},{"server_id":300,"name":"Uncletopia | Montréal | 1 | All Maps","name_short":"mtl-1","host":"mtl-1.ca.uncletopia.com","port":27015,"enabled":true,"region":"us-east","cc":"ca","latitude":45.50889,"longitude":-73.56167,"reserved":0,"last_update":"0001-01-01T00:00:00Z","name_a2s":"Uncletopia | Montréal | 1 | All Maps","protocol":17,"map":"koth_cascade","folder":"tf","game":"Team Fortress","app_id":440,"player_count":0,"max_players":24,"Bots":0,"server_type":"Dedicated","server_os":"Linux","password":true,"vac":true,"version":"7757534","steam_id":85568392924500087,"keywords":["cp","nocrits","nodmgspread","uncletopia"],"game_id":440,"stv_port":27016,"stv_name":"Uncletopia | Montréal | 1 | All Maps | STV","players":null},{"server_id":301,"name":"Uncletopia | Montréal | 2 | All Maps","name_short":"mtl-2","host":"mtl-1.ca.uncletopia.com","port":27025,"enabled":true,"region":"us-east","cc":"ca","latitude":45.50889,"longitude":-73.56167,"reserved":0,"last_update":"0001-01-01T00:00:00Z","name_a2s":"Uncletopia | Montréal | 2 | All Maps","protocol":17,"map":"koth_viaduct","folder":"tf","game":"Team Fortress","app_id":440,"player_count":0,"max_players":24,"Bots":0,"server_type":"Dedicated","server_os":"Linux","password":true,"vac":true,"version":"7757534","steam_id":85568392924500088,"keywords":["cp","nocrits","nodmgspread","uncletopia"],"game_id":440,"stv_port":27026,"stv_name":"Uncletopia | Montréal | 2 | All Maps | STV","players":null},{"server_id":302,"name":"Uncletopia | Montréal | 3 | All Maps","name_short":"mtl-3","host":"mtl-1.ca.uncletopia.com","port":27035,"enabled":true,"region":"us-east","cc":"ca","latitude":45.50889,"longitude":-73.56167,"reserved":0,"last_update":"0001-01-01T00:00:00Z","name_a2s":"Uncletopia | Montréal | 3 | All Maps","protocol":17,"map":"pl_snowycoast","folder":"tf","game":"Team Fortress","app_id":440,"player_count":0,"max_players":24,"Bots":0,"server_type":"Dedicated","server_os":"Linux","password":true,"vac":true,"version":"7757534","steam_id":85568392924500089,"keywords":["nocrits","nodmgspread","payload","uncletopia"],"game_id":440,"stv_port":27036,"stv_name":"Uncletopia | Montréal | 3 | All Maps | STV","players":null},{"server_id":303,"name":"Uncletopia | Montréal | 4 | No Payload","name_short":"mtl-4","host":"mtl-1.ca.uncletopia.com","port":27045,"enabled":true,"region":"us-east","cc":"ca","latitude":45.50889,"longitude":-73.56167,"reserved":0,"last_update":"0001-01-01T00:00:00Z","name_a2s":"Uncletopia | Montréal | 4 | No Payload","protocol":17,"map":"pl_pier","folder":"tf","game":"Team Fortress","app_id":440,"player_count":0,"max_players":24,"Bots":0,"server_type":"Dedicated","server_os":"Linux","password":true,"vac":true,"version":"7757534","steam_id":85568392924500090,"keywords":["nocrits","nodmgspread","payload","uncletopia"],"game_id":440,"stv_port":27046,"stv_name":"Uncletopia | Montréal | 4 | No Payload | STV","players":null},{"server_id":13,"name":"Uncletopia | New York City | 1 | All Maps","name_short":"nyc-1","host":"nyc-1.us.uncletopia.com","port":27015,"enabled":true,"region":"us-east","cc":"us","latitude":40.73061,"longitude":-73.93524,"reserved":0,"last_update":"0001-01-01T00:00:00Z","name_a2s":"Uncletopia | New York City | 1 | All Maps","protocol":17,"map":"cp_dustbowl","folder":"tf","game":"Team Fortress","app_id":440,"player_count":24,"max_players":24,"Bots":0,"server_type":"Dedicated","server_os":"Linux","password":true,"vac":true,"version":"7757534","steam_id":85568392924469993,"keywords":["cp","nocrits","nodmgspread","uncletopia"],"game_id":440,"stv_port":27016,"stv_name":"Uncletopia | New York City | 1 | All Maps | STV","players":[{"user_id":274,"name":"Cat in Your Backyard","steam_id":76561197979078330,"connected_time":2566000000000,"state":"active","ping":62},{"user_id":279,"name":"Brown_Dream","steam_id":76561198975766145,"connected_time":1711000000000,"state":"active","ping":77},{"user_id":303,"name":"ShadBad","steam_id":76561198248287390,"connected_time":655000000000,"state":"active","ping":138},{"user_id":312,"name":"PISSF****T","steam_id":76561199062570438,"connected_time":537000000000,"state":"active","ping":68},{"user_id":277,"name":"rontu","steam_id":76561199072955534,"connected_time":2291000000000,"state":"active","ping":59},{"user_id":237,"name":"jungus","steam_id":76561198119655907,"connected_time":3726000000000,"state":"active","ping":69},{"user_id":319,"name":"Decs","steam_id":76561198825197974,"connected_time":80000000000,"state":"active","ping":131},{"user_id":239,"name":"Anxious Bird Nerd","steam_id":76561198112178602,"connected_time":3714000000000,"state":"active","ping":115},{"user_id":281,"name":"The Worst Player in The World","steam_id":76561198850661159,"connected_time":1657000000000,"state":"active","ping":34},{"user_id":306,"name":"thug shaker","steam_id":76561198337692867,"connected_time":594000000000,"state":"active","ping":77},{"user_id":311,"name":"The Potato Romancer","steam_id":76561198204197648,"connected_time":539000000000,"state":"active","ping":107},{"user_id":313,"name":"Kraul","steam_id":76561198043682060,"connected_time":449000000000,"state":"active","ping":105},{"user_id":283,"name":"BerthaEartha","steam_id":76561198799428743,"connected_time":1608000000000,"state":"active","ping":54},{"user_id":308,"name":"Winkrill","steam_id":76561198108515561,"connected_time":582000000000,"state":"active","ping":51},{"user_id":314,"name":"a small yet large ant","steam_id":76561198042590396,"connected_time":370000000000,"state":"active","ping":59},{"user_id":315,"name":"Rhutebeer","steam_id":76561198018302761,"connected_time":281000000000,"state":"active","ping":105},{"user_id":285,"name":"Comfy Monkey","steam_id":76561197998434936,"connected_time":1562000000000,"state":"active","ping":38},{"user_id":234,"name":"Coughdrop Addict [F2P]","steam_id":76561199254281550,"connected_time":3852000000000,"state":"active","ping":58},{"user_id":286,"name":"silentpieceofbacon","steam_id":76561198869323351,"connected_time":1546000000000,"state":"active","ping":84},{"user_id":287,"name":"SuperFresh","steam_id":76561198200723198,"connected_time":1541000000000,"state":"active","ping":55},{"user_id":301,"name":"Joakt","steam_id":76561199171401911,"connected_time":807000000000,"state":"active","ping":70},{"user_id":298,"name":"SideLinesOfCode","steam_id":76561198025609940,"connected_time":986000000000,"state":"active","ping":74},{"user_id":318,"name":"just bacon","steam_id":76561198275147111,"connected_time":102000000000,"state":"active","ping":61},{"user_id":275,"name":"hidithebob","steam_id":76561198095826955,"connected_time":2562000000000,"state":"active","ping":76}]},{"server_id":14,"name":"Uncletopia | New York City | 2 | All Maps","name_short":"nyc-2","host":"nyc-1.us.uncletopia.com","port":27025,"enabled":true,"region":"us-east","cc":"us","latitude":40.73061,"longitude":-73.93524,"reserved":0,"last_update":"0001-01-01T00:00:00Z","name_a2s":"Uncletopia | New York City | 2 | All Maps","protocol":17,"map":"koth_badlands","folder":"tf","game":"Team Fortress","app_id":440,"player_count":23,"max_players":24,"Bots":0,"server_type":"Dedicated","server_os":"Linux","password":true,"vac":true,"version":"7757534","steam_id":85568392924469994,"keywords":["cp","nocrits","nodmgspread","uncletopia"],"game_id":440,"stv_port":27026,"stv_name":"Uncletopia | New York City | 2 | All Maps | STV","players":[{"user_id":439,"name":"JacripspyVulcano","steam_id":76561198966980576,"connected_time":597000000000,"state":"active","ping":42},{"user_id":442,"name":"a table","steam_id":76561198158461279,"connected_time":141000000000,"state":"active","ping":72},{"user_id":427,"name":"Jeugh","steam_id":76561198073498865,"connected_time":1298000000000,"state":"active","ping":86},{"user_id":440,"name":"Velvety","steam_id":76561198081922813,"connected_time":582000000000,"state":"active","ping":101},{"user_id":410,"name":"Blitzy","steam_id":76561198149472890,"connected_time":2496000000000,"state":"active","ping":91},{"user_id":432,"name":"Primal","steam_id":76561197983118203,"connected_time":786000000000,"state":"active","ping":84},{"user_id":424,"name":"Lil' ButterHead","steam_id":76561198344264859,"connected_time":1435000000000,"state":"active","ping":119},{"user_id":333,"name":"semaj (._. )/","steam_id":76561199072490942,"connected_time":7167000000000,"state":"active","ping":67},{"user_id":436,"name":"quadapalozle","steam_id":76561198327686110,"connected_time":712000000000,"state":"active","ping":155},{"user_id":395,"name":"♦♣Quadric♥♠","steam_id":76561198061003853,"connected_time":3472000000000,"state":"active","ping":53},{"user_id":414,"name":"JuJu The Human","steam_id":76561198152895619,"connected_time":2102000000000,"state":"active","ping":36},{"user_id":443,"name":"rabiddaffodil44","steam_id":76561198097973084,"connected_time":86000000000,"state":"active","ping":91},{"user_id":419,"name":"Oddjob","steam_id":76561198976160793,"connected_time":1656000000000,"state":"active","ping":61},{"user_id":423,"name":"many doors, yes?","steam_id":76561198328073211,"connected_time":1571000000000,"state":"active","ping":87},{"user_id":441,"name":"TacticalGlizzy","steam_id":76561198144786171,"connected_time":235000000000,"state":"active","ping":55},{"user_id":409,"name":"El Laminator","steam_id":76561198170313697,"connected_time":2608000000000,"state":"active","ping":83},{"user_id":398,"name":"Heavy is Meme","steam_id":76561198451168478,"connected_time":3449000000000,"state":"active","ping":87},{"user_id":428,"name":"Buttons :)","steam_id":76561198139478534,"connected_time":1289000000000,"state":"active","ping":120},{"user_id":412,"name":"🅜🅔🅔🅚🅢🅣🅔\ufffd\ufffd\ufffd","steam_id":76561197999748343,"connected_time":2167000000000,"state":"active","ping":75},{"user_id":430,"name":"CakeBlock","steam_id":76561198067238228,"connected_time":1064000000000,"state":"active","ping":48},{"user_id":438,"name":"AGagagaga","steam_id":76561199008585183,"connected_time":691000000000,"state":"active","ping":78},{"user_id":415,"name":"SAUL GOODMAN","steam_id":76561198328356716,"connected_time":1949000000000,"state":"active","ping":73},{"user_id":421,"name":"Egpta","steam_id":76561198237840238,"connected_time":1614000000000,"state":"active","ping":54}]},{"server_id":15,"name":"Uncletopia | New York City | 3 | Stopwatch Beta","name_short":"nyc-3","host":"nyc-1.us.uncletopia.com","port":27035,"enabled":true,"region":"us-east","cc":"us","latitude":40.73061,"longitude":-73.93524,"reserved":0,"last_update":"0001-01-01T00:00:00Z","name_a2s":"Uncletopia | New York City | 3 | Stopwatch Beta","protocol":17,"map":"koth_cascade","folder":"tf","game":"Team Fortress","app_id":440,"player_count":0,"max_players":24,"Bots":0,"server_type":"Dedicated","server_os":"Linux","password":true,"vac":true,"version":"7757534","steam_id":85568392924742820,"keywords":["cp","nocrits","nodmgspread","uncletopia"],"game_id":440,"stv_port":27036,"stv_name":"Uncletopia | New York City | 3 | Stopwatch Beta | STV","players":null},{"server_id":16,"name":"Uncletopia | New York City | 4 | Community","name_short":"nyc-4","host":"nyc-1.us.uncletopia.com","port":27045,"enabled":true,"region":"us-east","cc":"us","latitude":40.73061,"longitude":-73.93524,"reserved":0,"last_update":"0001-01-01T00:00:00Z","name_a2s":"Uncletopia | New York City | 4 | Community","protocol":17,"map":"workshop/cp_indulge.ugc528106646","folder":"tf","game":"Team Fortress","app_id":440,"player_count":0,"max_players":24,"Bots":0,"server_type":"Dedicated","server_os":"Linux","password":true,"vac":true,"version":"7757534","steam_id":85568392924742821,"keywords":["cp","nocrits","nodmgspread","uncletopia"],"game_id":440,"stv_port":27046,"stv_name":"Uncletopia | New York City | 4 | Community | STV","players":null},{"server_id":142,"name":"Uncletopia | São Paulo | 1 | All Maps","name_short":"sao-1","host":"sao-1.br.uncletopia.com","port":27015,"enabled":true,"region":"sa","cc":"br","latitude":-23.533773,"longitude":-46.62529,"reserved":0,"last_update":"0001-01-01T00:00:00Z","name_a2s":"Uncletopia | São Paulo | 1 | All Maps","protocol":17,"map":"koth_lakeside_final","folder":"tf","game":"Team Fortress","app_id":440,"player_count":2,"max_players":24,"Bots":0,"server_type":"Dedicated","server_os":"Linux","password":true,"vac":true,"version":"7757534","steam_id":85568392924469996,"keywords":["cp","nocrits","nodmgspread","uncletopia"],"game_id":440,"stv_port":27016,"stv_name":"Uncletopia | São Paulo | 1 | All Maps | STV","players":[{"user_id":9,"name":"Membrillo","steam_id":76561198842538871,"connected_time":59000000000,"state":"active","ping":63},{"user_id":10,"name":":)","steam_id":76561199158907231,"connected_time":31000000000,"state":"active","ping":79}]},{"server_id":143,"name":"Uncletopia | São Paulo | 2 | All Maps","name_short":"sao-2","host":"sao-2.br.uncletopia.com","port":27015,"enabled":true,"region":"sa","cc":"br","latitude":-23.533773,"longitude":-46.62529,"reserved":0,"last_update":"0001-01-01T00:00:00Z","name_a2s":"Uncletopia | São Paulo | 2 | All Maps","protocol":17,"map":"koth_viaduct","folder":"tf","game":"Team Fortress","app_id":440,"player_count":0,"max_players":24,"Bots":0,"server_type":"Dedicated","server_os":"Linux","password":true,"vac":true,"version":"7757534","steam_id":85568392924485349,"keywords":["cp","nocrits","nodmgspread","uncletopia"],"game_id":440,"stv_port":27016,"stv_name":"Uncletopia | São Paulo | 2 | All Maps | STV","players":null},{"server_id":7,"name":"Uncletopia | Seattle | 1 | All Maps","name_short":"sea-1","host":"sea-1.us.uncletopia.com","port":27015,"enabled":true,"region":"us-west","cc":"us","latitude":47.608013,"longitude":-122.33517,"reserved":0,"last_update":"0001-01-01T00:00:00Z","name_a2s":"Uncletopia | Seattle | 1 | All Maps","protocol":17,"map":"pl_frontier_final","folder":"tf","game":"Team Fortress","app_id":440,"player_count":24,"max_players":24,"Bots":0,"server_type":"Dedicated","server_os":"Linux","password":true,"vac":true,"version":"7757534","steam_id":85568392924469997,"keywords":["nocrits","nodmgspread","payload","uncletopia"],"game_id":440,"stv_port":27016,"stv_name":"Uncletopia | Seattle | 1 | All Maps | STV","players":[{"user_id":179,"name":"Resident Thrussy Lender","steam_id":76561198071790583,"connected_time":468000000000,"state":"active","ping":101},{"user_id":156,"name":"EEBIGAA","steam_id":76561198056535988,"connected_time":2137000000000,"state":"active","ping":74},{"user_id":177,"name":"Definitely Not A Replicant.","steam_id":76561198087464370,"connected_time":535000000000,"state":"active","ping":137},{"user_id":167,"name":"A2","steam_id":76561198068266632,"connected_time":1028000000000,"state":"active","ping":114},{"user_id":182,"name":"chud","steam_id":76561198032674116,"connected_time":202000000000,"state":"active","ping":115},{"user_id":170,"name":"Divine Kitty","steam_id":76561198293490689,"connected_time":1002000000000,"state":"active","ping":71},{"user_id":173,"name":"dust | she/it","steam_id":76561198045218909,"connected_time":808000000000,"state":"active","ping":44},{"user_id":164,"name":"Imrgrim","steam_id":76561198135866481,"connected_time":1577000000000,"state":"active","ping":113},{"user_id":174,"name":"squash","steam_id":76561198150281353,"connected_time":794000000000,"state":"active","ping":54},{"user_id":131,"name":"punaise","steam_id":76561198095105411,"connected_time":4064000000000,"state":"active","ping":128},{"user_id":103,"name":"Keamy","steam_id":76561199471434875,"connected_time":5834000000000,"state":"active","ping":42},{"user_id":165,"name":"what is","steam_id":76561198329367716,"connected_time":1528000000000,"state":"active","ping":87},{"user_id":97,"name":"lili","steam_id":76561199391478575,"connected_time":6599000000000,"state":"active","ping":76},{"user_id":132,"name":"Shadowy","steam_id":76561199021791121,"connected_time":4058000000000,"state":"active","ping":55},{"user_id":166,"name":"hakken","steam_id":76561199102391736,"connected_time":1513000000000,"state":"active","ping":80},{"user_id":134,"name":"oaty","steam_id":76561198165011303,"connected_time":4042000000000,"state":"active","ping":71},{"user_id":160,"name":"Mackle","steam_id":76561199066567418,"connected_time":1688000000000,"state":"active","ping":48},{"user_id":176,"name":"MatchMatch","steam_id":76561198048925904,"connected_time":554000000000,"state":"active","ping":92},{"user_id":116,"name":"Luca","steam_id":76561198125087140,"connected_time":5062000000000,"state":"active","ping":47},{"user_id":171,"name":"lil snipa","steam_id":76561199127423378,"connected_time":981000000000,"state":"active","ping":98},{"user_id":172,"name":"Dive(z)","steam_id":76561198140843225,"connected_time":896000000000,"state":"active","ping":105},{"user_id":178,"name":"A Duck With Socks","steam_id":76561198018844227,"connected_time":534000000000,"state":"active","ping":63},{"user_id":175,"name":"SoundKitKiller","steam_id":76561198053535873,"connected_time":760000000000,"state":"active","ping":136},{"user_id":181,"name":"Konnor","steam_id":76561199136300254,"connected_time":309000000000,"state":"active","ping":79}]},{"server_id":119,"name":"Uncletopia | Seattle | 2 | All Maps","name_short":"sea-2","host":"sea-1.us.uncletopia.com","port":27025,"enabled":true,"region":"us-west","cc":"us","latitude":47.608013,"longitude":-122.33517,"reserved":0,"last_update":"0001-01-01T00:00:00Z","name_a2s":"Uncletopia | Seattle | 2 | All Maps","protocol":17,"map":"pl_snowycoast","folder":"tf","game":"Team Fortress","app_id":440,"player_count":24,"max_players":24,"Bots":0,"server_type":"Dedicated","server_os":"Linux","password":true,"vac":true,"version":"7757534","steam_id":85568392924469998,"keywords":["nocrits","nodmgspread","payload","uncletopia"],"game_id":440,"stv_port":27026,"stv_name":"Uncletopia | Seattle | 2 | All Maps | STV","players":[{"user_id":144,"name":"wibby","steam_id":76561198996484291,"connected_time":1243000000000,"state":"active","ping":116},{"user_id":142,"name":"amagicowl","steam_id":76561199060487814,"connected_time":1397000000000,"state":"active","ping":60},{"user_id":141,"name":"Watatsuki no Yorihime","steam_id":76561198063315650,"connected_time":1509000000000,"state":"active","ping":87},{"user_id":137,"name":"DRACO$","steam_id":76561198389198223,"connected_time":1889000000000,"state":"active","ping":70},{"user_id":163,"name":"floppy muppet","steam_id":76561198003076261,"connected_time":518000000000,"state":"active","ping":141},{"user_id":119,"name":"Boyaredeen","steam_id":76561198880492636,"connected_time":3512000000000,"state":"active","ping":56},{"user_id":138,"name":"Training Arc","steam_id":76561198038832034,"connected_time":1865000000000,"state":"active","ping":60},{"user_id":122,"name":"Mr.Pan","steam_id":76561198069030613,"connected_time":3398000000000,"state":"active","ping":73},{"user_id":123,"name":"yaldabaoth","steam_id":76561198084606869,"connected_time":3369000000000,"state":"active","ping":88},{"user_id":94,"name":"weegeebad","steam_id":76561198280841437,"connected_time":4506000000000,"state":"active","ping":131},{"user_id":154,"name":"Drbush2","steam_id":76561199122317462,"connected_time":1025000000000,"state":"active","ping":124},{"user_id":150,"name":"bearzy","steam_id":76561199180441047,"connected_time":1204000000000,"state":"active","ping":50},{"user_id":124,"name":"BrightOrangeMango","steam_id":76561198023144607,"connected_time":3340000000000,"state":"active","ping":100},{"user_id":167,"name":"DennethThaThinather","steam_id":76561198098121768,"connected_time":339000000000,"state":"active","ping":64},{"user_id":164,"name":"Pathara44","steam_id":76561198048238620,"connected_time":503000000000,"state":"active","ping":105},{"user_id":165,"name":"Saul Goodman","steam_id":76561198968009574,"connected_time":501000000000,"state":"active","ping":111},{"user_id":159,"name":"gorilla","steam_id":76561199103766971,"connected_time":848000000000,"state":"active","ping":164},{"user_id":168,"name":"FRUITGOBLIN","steam_id":76561198051750641,"connected_time":232000000000,"state":"active","ping":86},{"user_id":131,"name":"The Horselords and Animal Gods","steam_id":76561197975094050,"connected_time":2761000000000,"state":"active","ping":88},{"user_id":156,"name":"H4V0C | Atomic Heart","steam_id":76561199129350925,"connected_time":969000000000,"state":"active","ping":55},{"user_id":166,"name":"Flo","steam_id":76561198880866690,"connected_time":357000000000,"state":"active","ping":106},{"user_id":158,"name":"Addy \u003c3","steam_id":76561198045819723,"connected_time":887000000000,"state":"active","ping":141},{"user_id":160,"name":"Birdman743","steam_id":76561198799636748,"connected_time":839000000000,"state":"active","ping":64},{"user_id":161,"name":"dave","steam_id":76561198052431073,"connected_time":827000000000,"state":"active","ping":89}]},{"server_id":406,"name":"Uncletopia | Seattle | 3 | Stopwatch Beta","name_short":"sea-3","host":"sea-1.us.uncletopia.com","port":27035,"enabled":true,"region":"us-west","cc":"us","latitude":47.608013,"longitude":-122.33517,"reserved":0,"last_update":"0001-01-01T00:00:00Z","name_a2s":"Uncletopia | Seattle | 3 | Stopwatch Beta","protocol":17,"map":"cp_process_final","folder":"tf","game":"Team Fortress","app_id":440,"player_count":0,"max_players":24,"Bots":0,"server_type":"Dedicated","server_os":"Linux","password":true,"vac":true,"version":"7757534","steam_id":85568392924515217,"keywords":["cp","nocrits","nodmgspread","uncletopia"],"game_id":440,"stv_port":27036,"stv_name":"Uncletopia | Seattle | 3 | Stopwatch Beta | STV","players":null},{"server_id":17,"name":"Uncletopia | San Francisco | 1 | All Maps","name_short":"sfo-1","host":"sfo-1.us.uncletopia.com","port":27015,"enabled":true,"region":"us-west","cc":"us","latitude":37.77397,"longitude":-122.4313,"reserved":0,"last_update":"0001-01-01T00:00:00Z","name_a2s":"Uncletopia | San Francisco | 1 | All Maps","protocol":17,"map":"koth_lakeside_final","folder":"tf","game":"Team Fortress","app_id":440,"player_count":0,"max_players":24,"Bots":0,"server_type":"Dedicated","server_os":"Linux","password":true,"vac":true,"version":"7757534","steam_id":85568392924469999,"keywords":["cp","nocrits","nodmgspread","uncletopia"],"game_id":440,"stv_port":27016,"stv_name":"Uncletopia | San Francisco | 1 | All Maps | STV","players":null},{"server_id":18,"name":"Uncletopia | San Francisco | 2 | All Maps","name_short":"sfo-2","host":"sfo-1.us.uncletopia.com","port":27025,"enabled":true,"region":"us-west","cc":"us","latitude":37.77397,"longitude":-122.4313,"reserved":0,"last_update":"0001-01-01T00:00:00Z","name_a2s":"Uncletopia | San Francisco | 2 | All Maps","protocol":17,"map":"ctf_2fort","folder":"tf","game":"Team Fortress","app_id":440,"player_count":24,"max_players":24,"Bots":0,"server_type":"Dedicated","server_os":"Linux","password":true,"vac":true,"version":"7757534","steam_id":85568392924470000,"keywords":["ctf","nocrits","nodmgspread","uncletopia"],"game_id":440,"stv_port":27026,"stv_name":"Uncletopia | San Francisco | 2 | All Maps | STV","players":[{"user_id":125,"name":"Maxsentia","steam_id":76561198113374406,"connected_time":606000000000,"state":"active","ping":125},{"user_id":130,"name":"DJ Pierce","steam_id":76561198394241466,"connected_time":72000000000,"state":"active","ping":117},{"user_id":131,"name":"patjiaviar","steam_id":76561199465783209,"connected_time":54000000000,"state":"spawning","ping":36},{"user_id":132,"name":"WhoIsFrosty","steam_id":76561198880588117,"connected_time":43000000000,"state":"active","ping":105},{"user_id":78,"name":"triph","steam_id":76561198067196509,"connected_time":3991000000000,"state":"active","ping":37},{"user_id":82,"name":"Zee","steam_id":76561199229870438,"connected_time":3634000000000,"state":"active","ping":122},{"user_id":76,"name":"California State Real ID","steam_id":76561198111293523,"connected_time":4083000000000,"state":"active","ping":66},{"user_id":122,"name":"ChipE","steam_id":76561198137146627,"connected_time":700000000000,"state":"active","ping":54},{"user_id":124,"name":"StatesideSnake","steam_id":76561198272957048,"connected_time":680000000000,"state":"active","ping":105},{"user_id":120,"name":"Matte :)","steam_id":76561198070631073,"connected_time":757000000000,"state":"active","ping":45},{"user_id":93,"name":"why","steam_id":76561198844433519,"connected_time":3100000000000,"state":"active","ping":118},{"user_id":133,"name":"N0Ne","steam_id":76561198376822522,"connected_time":37000000000,"state":"active","ping":81},{"user_id":85,"name":"Atomic Waffles","steam_id":76561197970935570,"connected_time":3612000000000,"state":"active","ping":101},{"user_id":109,"name":"Nikocado Avocado","steam_id":76561198251142108,"connected_time":1376000000000,"state":"active","ping":115},{"user_id":105,"name":"ScoutBox","steam_id":76561198111539895,"connected_time":1483000000000,"state":"active","ping":54},{"user_id":127,"name":"bob1444","steam_id":76561198110258432,"connected_time":592000000000,"state":"active","ping":71},{"user_id":128,"name":"Bradz","steam_id":76561198175090085,"connected_time":244000000000,"state":"active","ping":98},{"user_id":134,"name":"Shamrock Shake Oct.10.2020 @8pm","steam_id":76561198833313201,"connected_time":9000000000,"state":"spawning","ping":55},{"user_id":34,"name":"Gambler Suits","steam_id":76561199227594351,"connected_time":6743000000000,"state":"active","ping":70},{"user_id":115,"name":"zapato","steam_id":76561198142278437,"connected_time":926000000000,"state":"active","ping":104},{"user_id":112,"name":"Shrew","steam_id":76561198085421224,"connected_time":1226000000000,"state":"active","ping":61},{"user_id":135,"name":"ChromeOwl","steam_id":76561198953786715,"connected_time":2000000000,"state":"spawning","ping":47},{"user_id":89,"name":"Tmiracle","steam_id":76561198052375275,"connected_time":3507000000000,"state":"active","ping":49},{"user_id":114,"name":"Schmeple Tank Head","steam_id":76561199010857399,"connected_time":1190000000000,"state":"active","ping":107}]},{"server_id":19,"name":"Uncletopia | San Francisco | 3 | Stopwatch Beta","name_short":"sfo-3","host":"sfo-1.us.uncletopia.com","port":27035,"enabled":true,"region":"us-west","cc":"us","latitude":37.77397,"longitude":-122.4313,"reserved":0,"last_update":"0001-01-01T00:00:00Z","name_a2s":"Uncletopia | San Francisco | 3 | Stopwatch Beta","protocol":17,"map":"workshop/pl_vigil_rc9.ugc1266210012","folder":"tf","game":"Team Fortress","app_id":440,"player_count":0,"max_players":24,"Bots":0,"server_type":"Dedicated","server_os":"Linux","password":true,"vac":true,"version":"7757534","steam_id":85568392924742824,"keywords":["nocrits","nodmgspread","payload","uncletopia"],"game_id":440,"stv_port":27036,"stv_name":"Uncletopia | San Francisco | 3 | Stopwatch Beta | STV","players":null},{"server_id":20,"name":"Uncletopia | San Francisco | 4 | Community","name_short":"sfo-4","host":"sfo-1.us.uncletopia.com","port":27045,"enabled":true,"region":"us-west","cc":"us","latitude":37.77397,"longitude":-122.4313,"reserved":0,"last_update":"0001-01-01T00:00:00Z","name_a2s":"Uncletopia | San Francisco | 4 | Community","protocol":17,"map":"workshop/pl_corrode_rc2.ugc546577989","folder":"tf","game":"Team Fortress","app_id":440,"player_count":0,"max_players":24,"Bots":0,"server_type":"Dedicated","server_os":"Linux","password":true,"vac":true,"version":"7757534","steam_id":85568392924742826,"keywords":["nocrits","nodmgspread","payload","uncletopia"],"game_id":440,"stv_port":27046,"stv_name":"Uncletopia | San Francisco | 4 | Community | STV","players":null},{"server_id":141,"name":"Uncletopia | Sydney | 1 | All Maps","name_short":"syd-1","host":"syd-1.au.uncletopia.com","port":27015,"enabled":true,"region":"au","cc":"au","latitude":-33.865143,"longitude":151.2099,"reserved":0,"last_update":"0001-01-01T00:00:00Z","name_a2s":"Uncletopia | Sydney | 1 | All Maps","protocol":17,"map":"pl_borneo","folder":"tf","game":"Team Fortress","app_id":440,"player_count":0,"max_players":24,"Bots":0,"server_type":"Dedicated","server_os":"Linux","password":true,"vac":true,"version":"7757534","steam_id":85568392924470001,"keywords":["nocrits","nodmgspread","payload","uncletopia"],"game_id":440,"stv_port":27016,"stv_name":"Uncletopia | Sydney | 1 | All Maps | STV","players":null},{"server_id":123,"name":"Uncletopia | Sydney | 2 | All Maps","name_short":"syd-2","host":"syd-1.au.uncletopia.com","port":27025,"enabled":true,"region":"au","cc":"au","latitude":-33.865143,"longitude":151.2099,"reserved":0,"last_update":"0001-01-01T00:00:00Z","name_a2s":"Uncletopia | Sydney | 2 | All Maps","protocol":17,"map":"koth_highpass","folder":"tf","game":"Team Fortress","app_id":440,"player_count":0,"max_players":24,"Bots":0,"server_type":"Dedicated","server_os":"Linux","password":true,"vac":true,"version":"7757534","steam_id":85568392924470002,"keywords":["cp","nocrits","nodmgspread","uncletopia"],"game_id":440,"stv_port":27026,"stv_name":"Uncletopia | Sydney | 2 | All Maps | STV","players":null},{"server_id":395,"name":"Uncletopia | Sydney | 3 | All Maps","name_short":"syd-3","host":"syd-1.au.uncletopia.com","port":27035,"enabled":true,"region":"au","cc":"au","latitude":-33.865143,"longitude":151.2099,"reserved":0,"last_update":"0001-01-01T00:00:00Z","name_a2s":"Uncletopia | Sydney | 3 | All Maps","protocol":17,"map":"pl_borneo","folder":"tf","game":"Team Fortress","app_id":440,"player_count":0,"max_players":24,"Bots":0,"server_type":"Dedicated","server_os":"Linux","password":true,"vac":true,"version":"7757534","steam_id":85568392925194467,"keywords":["nocrits","nodmgspread","payload","uncletopia"],"game_id":440,"stv_port":27036,"stv_name":"Uncletopia | Sydney | 3 | All Maps | STV","players":null},{"server_id":396,"name":"Uncletopia | Sydney | 4 | All Maps","name_short":"syd-4","host":"syd-1.au.uncletopia.com","port":27045,"enabled":true,"region":"au","cc":"au","latitude":-33.865143,"longitude":151.2099,"reserved":0,"last_update":"0001-01-01T00:00:00Z","name_a2s":"Uncletopia | Sydney | 4 | All Maps","protocol":17,"map":"cp_process_final","folder":"tf","game":"Team Fortress","app_id":440,"player_count":0,"max_players":24,"Bots":0,"server_type":"Dedicated","server_os":"Linux","password":true,"vac":true,"version":"7757534","steam_id":85568392925397958,"keywords":["cp","nocrits","nodmgspread","uncletopia"],"game_id":440,"stv_port":27046,"stv_name":"Uncletopia | Sydney | 4 | All Maps | STV","players":null},{"server_id":58,"name":"Uncletopia | Sydney | 5 | Stopwatch Beta","name_short":"syd-5","host":"syd-1.au.uncletopia.com","port":27055,"enabled":true,"region":"au","cc":"au","latitude":-33.865143,"longitude":151.2099,"reserved":0,"last_update":"0001-01-01T00:00:00Z","name_a2s":"Uncletopia | Sydney | 5 | Stopwatch Beta","protocol":17,"map":"koth_cascade","folder":"tf","game":"Team Fortress","app_id":440,"player_count":0,"max_players":24,"Bots":0,"server_type":"Dedicated","server_os":"Linux","password":true,"vac":true,"version":"7757534","steam_id":85568392925397959,"keywords":["cp","nocrits","nodmgspread","uncletopia"],"game_id":440,"stv_port":27056,"stv_name":"Uncletopia | Sydney | 5 | Stopwatch Beta | STV","players":null},{"server_id":59,"name":"Uncletopia | Sydney | 6 | Community","name_short":"syd-6","host":"syd-1.au.uncletopia.com","port":27065,"enabled":true,"region":"au","cc":"au","latitude":-33.865143,"longitude":151.2099,"reserved":0,"last_update":"0001-01-01T00:00:00Z","name_a2s":"Uncletopia | Sydney | 6 | Community","protocol":17,"map":"pl_badwater","folder":"tf","game":"Team Fortress","app_id":440,"player_count":0,"max_players":24,"Bots":0,"server_type":"Dedicated","server_os":"Linux","password":true,"vac":true,"version":"7757534","steam_id":85568392925397960,"keywords":["nocrits","nodmgspread","payload","uncletopia"],"game_id":440,"stv_port":27066,"stv_name":"Uncletopia | Sydney | 6 | Community | STV","players":null},{"server_id":49,"name":"Uncletopia | Warsaw | 1 | All Maps","name_short":"waw-1","host":"waw-1.pl.uncletopia.com","port":27015,"enabled":true,"region":"eu","cc":"pl","latitude":52.2297,"longitude":21.017532,"reserved":0,"last_update":"0001-01-01T00:00:00Z","name_a2s":"","protocol":0,"map":"","folder":"","game":"","app_id":0,"player_count":0,"max_players":0,"Bots":0,"server_type":"","server_os":"","password":false,"vac":false,"version":"","steam_id":0,"keywords":null,"game_id":0,"stv_port":0,"stv_name":"","players":null},{"server_id":50,"name":"Uncletopia | Warsaw | 2 | All Maps","name_short":"waw-2","host":"waw-1.pl.uncletopia.com","port":27025,"enabled":true,"region":"eu","cc":"pl","latitude":52.2297,"longitude":21.017532,"reserved":0,"last_update":"0001-01-01T00:00:00Z","name_a2s":"Uncletopia | Warsaw | 2 | All Maps","protocol":17,"map":"koth_cascade","folder":"tf","game":"Team Fortress","app_id":440,"player_count":0,"max_players":24,"Bots":0,"server_type":"Dedicated","server_os":"Linux","password":true,"vac":true,"version":"7757534","steam_id":85568392925397851,"keywords":["cp","nocrits","nodmgspread","uncletopia"],"game_id":440,"stv_port":27026,"stv_name":"Uncletopia | Warsaw | 2 | All Maps | STV","players":null},{"server_id":51,"name":"Uncletopia | Warsaw | 3 | All Maps","name_short":"waw-3","host":"waw-1.pl.uncletopia.com","port":27035,"enabled":true,"region":"eu","cc":"pl","latitude":52.2297,"longitude":21.017532,"reserved":0,"last_update":"0001-01-01T00:00:00Z","name_a2s":"Uncletopia | Warsaw | 3 | All Maps","protocol":17,"map":"koth_cascade","folder":"tf","game":"Team Fortress","app_id":440,"player_count":0,"max_players":24,"Bots":0,"server_type":"Dedicated","server_os":"Linux","password":true,"vac":true,"version":"7757534","steam_id":85568392925397852,"keywords":["cp","nocrits","nodmgspread","uncletopia"],"game_id":440,"stv_port":27036,"stv_name":"Uncletopia | Warsaw | 3 | All Maps | STV","players":null},{"server_id":52,"name":"Uncletopia | Warsaw | 4 | All Maps","name_short":"waw-4","host":"waw-1.pl.uncletopia.com","port":27045,"enabled":true,"region":"eu","cc":"pl","latitude":52.2297,"longitude":21.017532,"reserved":0,"last_update":"0001-01-01T00:00:00Z","name_a2s":"Uncletopia | Warsaw | 4 | All Maps","protocol":17,"map":"cp_altitude","folder":"tf","game":"Team Fortress","app_id":440,"player_count":0,"max_players":24,"Bots":0,"server_type":"Dedicated","server_os":"Linux","password":true,"vac":true,"version":"7757534","steam_id":85568392925397853,"keywords":["cp","nocrits","nodmgspread","uncletopia"],"game_id":440,"stv_port":27046,"stv_name":"Uncletopia | Warsaw | 4 | All Maps | STV","players":null},{"server_id":53,"name":"Uncletopia | Warsaw | 5 | Stopwatch Beta","name_short":"waw-5","host":"waw-1.pl.uncletopia.com","port":27055,"enabled":true,"region":"eu","cc":"pl","latitude":52.2297,"longitude":21.017532,"reserved":0,"last_update":"0001-01-01T00:00:00Z","name_a2s":"Uncletopia | Warsaw | 5 | Stopwatch Beta","protocol":17,"map":"pl_pier","folder":"tf","game":"Team Fortress","app_id":440,"player_count":0,"max_players":24,"Bots":0,"server_type":"Dedicated","server_os":"Linux","password":true,"vac":true,"version":"7757534","steam_id":85568392925397854,"keywords":["nocrits","nodmgspread","payload","uncletopia"],"game_id":440,"stv_port":27056,"stv_name":"Uncletopia | Warsaw | 5 | Stopwatch Beta | STV","players":null},{"server_id":54,"name":"Uncletopia | Warsaw | 6 | Community","name_short":"waw-6","host":"waw-1.pl.uncletopia.com","port":27065,"enabled":true,"region":"eu","cc":"pl","latitude":52.2297,"longitude":21.017532,"reserved":0,"last_update":"0001-01-01T00:00:00Z","name_a2s":"Uncletopia | Warsaw | 6 | Community","protocol":17,"map":"koth_highpass","folder":"tf","game":"Team Fortress","app_id":440,"player_count":0,"max_players":24,"Bots":0,"server_type":"Dedicated","server_os":"Linux","password":true,"vac":true,"version":"7757534","steam_id":85568392925397856,"keywords":["cp","nocrits","nodmgspread","uncletopia"],"game_id":440,"stv_port":27066,"stv_name":"Uncletopia | Warsaw | 6 | Community | STV","players":null}]}