{"status":true,"message":"","result":[{"server_id":9,"name":"Uncletopia | Atlanta | 1 | All Maps","name_short":"atl-1","host":"atl-1.us.uncletopia.com","port":27015,"enabled":true,"region":"us-east","cc":"us","latitude":33.753746,"longitude":-84.38633,"reserved":0,"last_update":"0001-01-01T00:00:00Z","name_a2s":"Uncletopia | Atlanta | 1 | All Maps","protocol":17,"map":"cp_dustbowl","folder":"tf","game":"Team Fortress","app_id":440,"player_count":24,"max_players":24,"Bots":0,"server_type":"Dedicated","server_os":"Linux","password":true,"vac":true,"version":"7757534","steam_id":85568392924469982,"keywords":["cp","nocrits","nodmgspread","uncletopia"],"game_id":440,"stv_port":27016,"stv_name":"Uncletopia | Atlanta | 1 | All Maps | STV","players":[{"user_id":834,"name":"Angry Canadian","steam_id":76561198122643399,"connected_time":1365000000000,"state":"active","ping":45},{"user_id":796,"name":"Nox(She/They)","steam_id":76561198141950842,"connected_time":5766000000000,"state":"active","ping":42},{"user_id":847,"name":"Gichael","steam_id":76561198040602075,"connected_time":138000000000,"state":"active","ping":88},{"user_id":835,"name":"H00DEDRIOT","steam_id":76561198351880498,"connected_time":1335000000000,"state":"active","ping":79},{"user_id":846,"name":"PyroMorphik","steam_id":76561198157628007,"connected_time":249000000000,"state":"active","ping":89},{"user_id":838,"name":"Just PYE","steam_id":76561199439622967,"connected_time":1105000000000,"state":"active","ping":77},{"user_id":824,"name":"xjlm","steam_id":76561198043497260,"connected_time":2553000000000,"state":"active","ping":117},{"user_id":802,"name":"Dezorbo","steam_id":76561197971883897,"connected_time":5640000000000,"state":"active","ping":74},{"user_id":826,"name":"so true bestie!!111","steam_id":76561198089463603,"connected_time":2375000000000,"state":"active","ping":113},{"user_id":840,"name":"JJ","steam_id":76561198040955086,"connected_time":903000000000,"state":"active","ping":69},{"user_id":804,"name":"kbsfnk","steam_id":76561198036884600,"connected_time":5613000000000,"state":"active","ping":73},{"user_id":805,"name":"CupOJo","steam_id":76561198067153390,"connected_time":5594000000000,"state":"active","ping":77},{"user_id":841,"name":"Tattletails","steam_id":76561198055690341,"connected_time":897000000000,"state":"active","ping":146},{"user_id":797,"name":"Moonglass Kaiju","steam_id":76561198043431819,"connected_time":5764000000000,"state":"active","ping":65},{"user_id":832,"name":"so true bestie!!","steam_id":76561197998740399,"connected_time":1542000000000,"state":"active","ping":65},{"user_id":842,"name":"amjugan","steam_id":76561198018488216,"connected_time":868000000000,"state":"active","ping":65},{"user_id":843,"name":"Wise","steam_id":76561198080173101,"connected_time":846000000000,"state":"active","ping":98},{"user_id":831,"name":"so true bestie!!!","steam_id":76561198170408057,"connected_time":1817000000000,"state":"active","ping":68},{"user_id":827,"name":"so true bestie!!!!","steam_id":76561198072124799,"connected_time":2370000000000,"state":"active","ping":90},{"user_id":749,"name":"Mage","steam_id":76561198285026879,"connected_time":9385000000000,"state":"active","ping":83},{"user_id":830,"name":"so true bestie","steam_id":76561198402994885,"connected_time":1969000000000,"state":"active","ping":84},{"user_id":829,"name":"so true bestie!","steam_id":76561198163825955,"connected_time":2074000000000,"state":"active","ping":107},{"user_id":540,"name":"Bag","steam_id":76561198012395490,"connected_time":25960000000000,"state":"active","ping":62},{"user_id":845,"name":"Wren","steam_id":76561198071109787,"connected_time":592000000000,"state":"active","ping":86}]},{"server_id":104,"name":"Uncletopia | Atlanta | 2 | All Maps","name_short":"atl-2","host":"atl-1.us.uncletopia.com","port":27025,"enabled":true,"region":"us-east","cc":"us","latitude":33.753746,"longitude":-84.38633,"reserved":0,"last_update":"0001-01-01T00:00:00Z","name_a2s":"Uncletopia | Atlanta | 2 | All Maps","protocol":17,"map":"koth_highpass","folder":"tf","game":"Team Fortress","app_id":440,"player_count":13,"max_players":24,"Bots":0,"server_type":"Dedicated","server_os":"Linux","password":true,"vac":true,"version":"7757534","steam_id":85568392924469983,"keywords":["cp","nocrits","nodmgspread","uncletopia"],"game_id":440,"stv_port":27026,"stv_name":"Uncletopia | Atlanta | 2 | All Maps | STV","players":[{"user_id":848,"name":"spids","steam_id":76561198041133528,"connected_time":893000000000,"state":"active","ping":64},{"user_id":847,"name":"Sock Lobster","steam_id":76561198072945604,"connected_time":968000000000,"state":"active","ping":67},{"user_id":841,"name":"SIGMA [BS]","steam_id":76561197962604879,"connected_time":1727000000000,"state":"active","ping":64},{"user_id":849,"name":"SuperFresh","steam_id":76561198200723198,"connected_time":864000000000,"state":"active","ping":56},{"user_id":851,"name":"Kered13","steam_id":76561197985666167,"connected_time":640000000000,"state":"active","ping":58},{"user_id":834,"name":"Katkomander","steam_id":76561199002191803,"connected_time":1881000000000,"state":"active","ping":64},{"user_id":814,"name":"Nekro Kitty","steam_id":76561198025054596,"connected_time":3712000000000,"state":"active","ping":85},{"user_id":835,"name":"Phantom__Cobra","steam_id":76561198850713083,"connected_time":1866000000000,"state":"active","ping":82},{"user_id":811,"name":"The Gremlin","steam_id":76561198419066993,"connected_time":3842000000000,"state":"active","ping":119},{"user_id":843,"name":"Foof","steam_id":76561198068996707,"connected_time":1593000000000,"state":"active","ping":67},{"user_id":815,"name":"Fever Dreams","steam_id":76561198116614620,"connected_time":3668000000000,"state":"active","ping":73},{"user_id":844,"name":"WonderNote18","steam_id":76561198047579038,"connected_time":1577000000000,"state":"active","ping":69},{"user_id":829,"name":"Marcos Amador","steam_id":76561198964827313,"connected_time":2317000000000,"state":"active","ping":96}]},{"server_id":400,"name":"Uncletopia | Atlanta | 3 | Community","name_short":"atl-3","host":"atl-1.us.uncletopia.com","port":27035,"enabled":true,"region":"us-east","cc":"us","latitude":33.753746,"longitude":-84.38633,"reserved":0,"last_update":"0001-01-01T00:00:00Z","name_a2s":"Uncletopia | Atlanta | 3 | Community","protocol":17,"map":"workshop/cp_kalinka_rc6a.ugc1272700588","folder":"tf","game":"Team Fortress","app_id":440,"player_count":0,"max_players":24,"Bots":0,"server_type":"Dedicated","server_os":"Linux","password":true,"vac":true,"version":"7757534","steam_id":85568392924515187,"keywords":["cp","nocrits","nodmgspread","uncletopia"],"game_id":440,"stv_port":27036,"stv_name":"Uncletopia | Atlanta | 3 | Community | STV","players":null},{"server_id":401,"name":"Uncletopia | Atlanta | 4 | No Payload","name_short":"atl-4","host":"atl-1.us.uncletopia.com","port":27045,"enabled":true,"region":"us-east","cc":"us","latitude":33.753746,"longitude":-84.38633,"reserved":0,"last_update":"0001-01-01T00:00:00Z","name_a2s":"","protocol":0,"map":"","folder":"","game":"","app_id":0,"player_count":0,"max_players":0,"Bots":0,"server_type":"","server_os":"","password":false,"vac":false,"version":"","steam_id":0,"keywords":null,"game_id":0,"stv_port":0,"stv_name":"","players":null},{"server_id":2,"name":"Uncletopia | Chicago | 1 | All Maps","name_short":"chi-1","host":"chi-1.us.uncletopia.com","port":27015,"enabled":true,"region":"us-central","cc":"us","latitude":41.881832,"longitude":-87.62318,"reserved":0,"last_update":"0001-01-01T00:00:00Z","name_a2s":"Uncletopia | Chicago | 1 | All Maps","protocol":17,"map":"cp_dustbowl","folder":"tf","game":"Team Fortress","app_id":440,"player_count":12,"max_players":24,"Bots":0,"server_type":"Dedicated","server_os":"Linux","password":true,"vac":true,"version":"7757534","steam_id":85568392924469984,"keywords":["cp","nocrits","nodmgspread","uncletopia"],"game_id":440,"stv_port":27016,"stv_name":"Uncletopia | Chicago | 1 | All Maps | STV","players":[{"user_id":757,"name":"wretched thing","steam_id":76561198120973162,"connected_time":1599000000000,"state":"active","ping":70},{"user_id":774,"name":"Hey","steam_id":76561198447517893,"connected_time":74000000000,"state":"active","ping":77},{"user_id":749,"name":"Possum Witch","steam_id":76561199119125112,"connected_time":2781000000000,"state":"active","ping":46},{"user_id":759,"name":"Spare(8)Ball","steam_id":76561197982432995,"connected_time":1355000000000,"state":"active","ping":107},{"user_id":773,"name":"mormon mother of 12","steam_id":76561198096737300,"connected_time":246000000000,"state":"active","ping":75},{"user_id":758,"name":"edymario08","steam_id":76561199122593923,"connected_time":1465000000000,"state":"active","ping":157},{"user_id":659,"name":"MankTKO","steam_id":76561198189421005,"connected_time":11118000000000,"state":"active","ping":79},{"user_id":735,"name":"puzza","steam_id":76561198035535731,"connected_time":4383000000000,"state":"active","ping":60},{"user_id":762,"name":"Codo Sapien","steam_id":76561198014206810,"connected_time":1058000000000,"state":"active","ping":30},{"user_id":742,"name":"LederBoy","steam_id":76561198051822369,"connected_time":3403000000000,"state":"active","ping":70},{"user_id":763,"name":"Slippin' Jimmy","steam_id":76561198875469297,"connected_time":1015000000000,"state":"active","ping":82},{"user_id":765,"name":"Stalin","steam_id":76561198170088665,"connected_time":818000000000,"state":"active","ping":66}]},{"server_id":106,"name":"Uncletopia | Chicago | 2 | All Maps","name_short":"chi-2","host":"chi-1.us.uncletopia.com","port":27025,"enabled":true,"region":"us-central","cc":"us","latitude":41.881832,"longitude":-87.62318,"reserved":0,"last_update":"0001-01-01T00:00:00Z","name_a2s":"Uncletopia | Chicago | 2 | All Maps","protocol":17,"map":"koth_viaduct","folder":"tf","game":"Team Fortress","app_id":440,"player_count":0,"max_players":24,"Bots":0,"server_type":"Dedicated","server_os":"Linux","password":true,"vac":true,"version":"7757534","steam_id":85568392924469985,"keywords":["cp","nocrits","nodmgspread","uncletopia"],"game_id":440,"stv_port":27026,"stv_name":"Uncletopia | Chicago | 2 | All Maps | STV","players":null},{"server_id":402,"name":"Uncletopia | Chicago | 3 | All Maps","name_short":"chi-3","host":"chi-1.us.uncletopia.com","port":27035,"enabled":true,"region":"us-central","cc":"us","latitude":41.881832,"longitude":-87.62318,"reserved":0,"last_update":"0001-01-01T00:00:00Z","name_a2s":"Uncletopia | Chicago | 3 | All Maps","protocol":17,"map":"cp_dustbowl","folder":"tf","game":"Team Fortress","app_id":440,"player_count":0,"max_players":24,"Bots":0,"server_type":"Dedicated","server_os":"Linux","password":true,"vac":true,"version":"7757534","steam_id":85568392924515191,"keywords":["cp","nocrits","nodmgspread","uncletopia"],"game_id":440,"stv_port":27036,"stv_name":"Uncletopia | Chicago | 3 | All Maps | STV","players":null},{"server_id":403,"name":"Uncletopia | Chicago | 4 | All Maps","name_short":"chi-4","host":"chi-1.us.uncletopia.com","port":27045,"enabled":true,"region":"us-central","cc":"us","latitude":41.881832,"longitude":-87.62318,"reserved":0,"last_update":"0001-01-01T00:00:00Z","name_a2s":"Uncletopia | Chicago | 4 | All Maps","protocol":17,"map":"pl_barnblitz","folder":"tf","game":"Team Fortress","app_id":440,"player_count":8,"max_players":24,"Bots":0,"server_type":"Dedicated","server_os":"Linux","password":true,"vac":true,"version":"7757534","steam_id":85568392924515193,"keywords":["nocrits","nodmgspread","payload","uncletopia"],"game_id":440,"stv_port":27046,"stv_name":"Uncletopia | Chicago | 4 | All Maps | STV","players":[{"user_id":746,"name":"Walla","steam_id":76561198103379757,"connected_time":568000000000,"state":"active","ping":46},{"user_id":575,"name":"looloopaa","steam_id":76561198048179242,"connected_time":16436000000000,"state":"active","ping":58},{"user_id":618,"name":"WatchWill","steam_id":76561198157237945,"connected_time":13137000000000,"state":"active","ping":61},{"user_id":743,"name":"monstertimescary","steam_id":76561198079303767,"connected_time":656000000000,"state":"active","ping":55},{"user_id":678,"name":"Big Dick Swinging","steam_id":76561198053819929,"connected_time":6804000000000,"state":"active","ping":88},{"user_id":731,"name":"Resh420","steam_id":76561198066619792,"connected_time":2224000000000,"state":"active","ping":51},{"user_id":734,"name":"Nahvee","steam_id":76561198119759695,"connected_time":1696000000000,"state":"active","ping":71},{"user_id":733,"name":"antlers","steam_id":76561198072515851,"connected_time":2169000000000,"state":"active","ping":111}]},{"server_id":36,"name":"Uncletopia | Chicago | 5 | All Maps","name_short":"chi-5","host":"chi-2.us.uncletopia.com","port":27015,"enabled":true,"region":"us-central","cc":"us","latitude":41.881832,"longitude":-87.62318,"reserved":0,"last_update":"0001-01-01T00:00:00Z","name_a2s":"Uncletopia | Chicago | 5 | All Maps","protocol":17,"map":"cp_mountainlab","folder":"tf","game":"Team Fortress","app_id":440,"player_count":0,"max_players":24,"Bots":0,"server_type":"Dedicated","server_os":"Linux","password":true,"vac":true,"version":"7757534","steam_id":85568392924866362,"keywords":["cp","nocrits","nodmgspread","uncletopia"],"game_id":440,"stv_port":27016,"stv_name":"Uncletopia | Chicago | 5 | All Maps | STV","players":null},{"server_id":37,"name":"Uncletopia | Chicago | 6 | All Maps","name_short":"chi-6","host":"chi-2.us.uncletopia.com","port":27025,"enabled":true,"region":"us-central","cc":"us","latitude":41.881832,"longitude":-87.62318,"reserved":0,"last_update":"0001-01-01T00:00:00Z","name_a2s":"Uncletopia | Chicago | 6 | All Maps","protocol":17,"map":"pl_barnblitz","folder":"tf","game":"Team Fortress","app_id":440,"player_count":24,"max_players":24,"Bots":0,"server_type":"Dedicated","server_os":"Linux","password":true,"vac":true,"version":"7757534","steam_id":85568392924866363,"keywords":["nocrits","nodmgspread","payload","uncletopia"],"game_id":440,"stv_port":27026,"stv_name":"Uncletopia | Chicago | 6 | All Maps | STV","players":[{"user_id":630,"name":"Eden Hazard","steam_id":76561198089241053,"connected_time":1560000000000,"state":"active","ping":58},{"user_id":637,"name":"xFactr","steam_id":76561198129007422,"connected_time":615000000000,"state":"active","ping":58},{"user_id":638,"name":"speakers #4jammies","steam_id":76561198138221795,"connected_time":551000000000,"state":"active","ping":74},{"user_id":639,"name":"Parker","steam_id":76561198046044893,"connected_time":521000000000,"state":"active","ping":57},{"user_id":645,"name":"Person","steam_id":76561198093244204,"connected_time":239000000000,"state":"active","ping":92},{"user_id":641,"name":"N√©oGothiqueüïØ","steam_id":76561198003467269,"connected_time":406000000000,"state":"active","ping":71},{"user_id":642,"name":"capn","steam_id":76561198220172043,"connected_time":364000000000,"state":"active","ping":46},{"user_id":623,"name":"Paz \u0026 Quiet","steam_id":76561198097709539,"connected_time":2054000000000,"state":"active","ping":89},{"user_id":624,"name":"soupy","steam_id":76561197974283797,"connected_time":1982000000000,"state":"active","ping":44},{"user_id":625,"name":".-.. --- ...- . / -.-- --- ..-","steam_id":76561198002483206,"connected_time":1915000000000,"state":"active","ping":63},{"user_id":596,"name":"SCP-17XX","steam_id":76561198219209367,"connected_time":3180000000000,"state":"active","ping":68},{"user_id":635,"name":"Yesmar","steam_id":76561198236328806,"connected_time":826000000000,"state":"active","ping":79},{"user_id":626,"name":"sexyvillain","steam_id":76561198083127707,"connected_time":1874000000000,"state":"active","ping":76},{"user_id":597,"name":"weed","steam_id":76561199128192017,"connected_time":3134000000000,"state":"active","ping":99},{"user_id":621,"name":"sweaterfan","steam_id":76561199389567214,"connected_time":2260000000000,"state":"active","ping":66},{"user_id":643,"name":"Scufu","steam_id":76561198066665170,"connected_time":358000000000,"state":"active","ping":77},{"user_id":602,"name":"anastasia","steam_id":76561197994492154,"connected_time":3044000000000,"state":"active","ping":168},{"user_id":646,"name":"Mitsubishi Materials","steam_id":76561198151871198,"connected_time":224000000000,"state":"active","ping":54},{"user_id":644,"name":"mike\"3loavesofbread\"jones","steam_id":76561198064342804,"connected_time":304000000000,"state":"active","ping":178},{"user_id":647,"name":"skaska4","steam_id":76561198080606141,"connected_time":208000000000,"state":"active","ping":185},{"user_id":628,"name":"A1 Jack Spicer","steam_id":76561198063006665,"connected_time":1865000000000,"state":"active","ping":122},{"user_id":606,"name":"bkiller","steam_id":76561198029265697,"connected_time":3007000000000,"state":"active","ping":70},{"user_id":648,"name":"A Shiny Meat Bicycle","steam_id":76561198358757709,"connected_time":146000000000,"state":"active","ping":96},{"user_id":629,"name":"Yosh","steam_id":76561198027078899,"connected_time":1862000000000,"state":"active","ping":90}]},{"server_id":38,"name":"Uncletopia | Chicago | 7 | Stopwatch Beta","name_short":"chi-7","host":"chi-2.us.uncletopia.com","port":27035,"enabled":true,"region":"us-central","cc":"us","latitude":41.881832,"longitude":-87.62318,"reserved":0,"last_update":"0001-01-01T00:00:00Z","name_a2s":"Uncletopia | Chicago | 7 | Stopwatch Beta","protocol":17,"map":"workshop/pl_vigil_rc9.ugc1266210012","folder":"tf","game":"Team Fortress","app_id":440,"player_count":0,"max_players":24,"Bots":0,"server_type":"Dedicated","server_os":"Linux","password":true,"vac":true,"version":"7757534","steam_id":85568392924866364,"keywords":["nocrits","nodmgspread","payload","uncletopia"],"game_id":440,"stv_port":27036,"stv_name":"Uncletopia | Chicago | 7 | Stopwatch Beta | STV","players":null},{"server_id":39,"name":"Uncletopia | Chicago | 8 | Community","name_short":"chi-8","host":"chi-2.us.uncletopia.com","port":27045,"enabled":true,"region":"us-central","cc":"us","latitude":41.881832,"longitude":-87.62318,"reserved":0,"last_update":"0001-01-01T00:00:00Z","name_a2s":"Uncletopia | Chicago | 8 | Community","protocol":17,"map":"workshop/koth_synthetic_rc6a.ugc1549817316","folder":"tf","game":"Team Fortress","app_id":440,"player_count":0,"max_players":24,"Bots":0,"server_type":"Dedicated","server_os":"Linux","password":true,"vac":true,"version":"7757534","steam_id":85568392924866365,"keywords":["cp","nocrits","nodmgspread","uncletopia"],"game_id":440,"stv_port":27046,"stv_name":"Uncletopia | Chicago | 8 | Community | STV","players":null},{"server_id":8,"name":"Uncletopia | Dallas | 1 | All Maps","name_short":"dal-1","host":"dal-1.us.uncletopia.com","port":27015,"enabled":true,"region":"us-central","cc":"us","latitude":32.779167,"longitude":-96.80889,"reserved":0,"last_update":"0001-01-01T00:00:00Z","name_a2s":"Uncletopia | Dallas | 1 | All Maps","protocol":17,"map":"pl_barnblitz","folder":"tf","game":"Team Fortress","app_id":440,"player_count":21,"max_players":24,"Bots":0,"server_type":"Dedicated","server_os":"Linux","password":true,"vac":true,"version":"7757534","steam_id":85568392924469986,"keywords":["nocrits","nodmgspread","payload","uncletopia"],"game_id":440,"stv_port":27016,"stv_name":"Uncletopia | Dallas | 1 | All Maps | STV","players":[{"user_id":901,"name":"Sir Galahad","steam_id":76561198195999859,"connected_time":199000000000,"state":"active","ping":106},{"user_id":870,"name":"pim","steam_id":76561198095163441,"connected_time":2001000000000,"state":"active","ping":48},{"user_id":856,"name":"DeviledEgg","steam_id":76561198318797339,"connected_time":3421000000000,"state":"active","ping":65},{"user_id":889,"name":"{ST} Oxythemoron","steam_id":76561198060089965,"connected_time":672000000000,"state":"active","ping":51},{"user_id":888,"name":"stigma (Battle Medic)","steam_id":76561197960315263,"connected_time":730000000000,"state":"active","ping":74},{"user_id":903,"name":"BattleWriter","steam_id":76561198059618706,"connected_time":20000000000,"state":"active","ping":56},{"user_id":890,"name":"HammerHead","steam_id":76561197975668646,"connected_time":664000000000,"state":"active","ping":39},{"user_id":892,"name":"ShiverBorn","steam_id":76561198384811149,"connected_time":618000000000,"state":"active","ping":93},{"user_id":880,"name":"FishMilk","steam_id":76561198008261599,"connected_time":1353000000000,"state":"active","ping":86},{"user_id":891,"name":"Project_Counter","steam_id":76561198152786076,"connected_time":646000000000,"state":"active","ping":55},{"user_id":899,"name":"Duty Enjoyer","steam_id":76561198831760421,"connected_time":288000000000,"state":"active","ping":90},{"user_id":898,"name":"BuncusBeffer","steam_id":76561198285936616,"connected_time":389000000000,"state":"active","ping":100},{"user_id":900,"name":"monke","steam_id":76561198308289194,"connected_time":258000000000,"state":"active","ping":73},{"user_id":881,"name":"seats","steam_id":76561197998756039,"connected_time":1195000000000,"state":"active","ping":75},{"user_id":895,"name":"Anxiety","steam_id":76561198365627687,"connected_time":495000000000,"state":"active","ping":89},{"user_id":902,"name":"Koh","steam_id":76561198045467028,"connected_time":197000000000,"state":"active","ping":36},{"user_id":878,"name":"_pel7cu","steam_id":76561198323348986,"connected_time":1645000000000,"state":"active","ping":95},{"user_id":864,"name":"Hope Haver","steam_id":76561198048564906,"connected_time":2829000000000,"state":"active","ping":54},{"user_id":896,"name":"toilet water sommelier","steam_id":76561198023740285,"connected_time":488000000000,"state":"active","ping":75},{"user_id":897,"name":"Poppet","steam_id":76561198012301951,"connected_time":467000000000,"state":"active","ping":76},{"user_id":868,"name":"Ninjegeabey","steam_id":76561198217717789,"connected_time":2524000000000,"state":"active","ping":60}]},{"server_id":108,"name":"Uncletopia | Dallas | 2 | All Maps","name_short":"dal-2","host":"dal-1.us.uncletopia.com","port":27025,"enabled":true,"region":"us-central","cc":"us","latitude":32.779167,"longitude":-96.80889,"reserved":0,"last_update":"0001-01-01T00:00:00Z","name_a2s":"Uncletopia | Dallas | 2 | All Maps","protocol":17,"map":"pl_swiftwater_final1","folder":"tf","game":"Team Fortress","app_id":440,"player_count":24,"max_players":24,"Bots":0,"server_type":"Dedicated","server_os":"Linux","password":true,"vac":true,"version":"7757534","steam_id":85568392924469988,"keywords":["nocrits","nodmgspread","payload","uncletopia"],"game_id":440,"stv_port":27026,"stv_name":"Uncletopia | Dallas | 2 | All Maps | STV","players":[{"user_id":655,"name":"Mythical Lag","steam_id":76561198347031281,"connected_time":1375000000000,"state":"active","ping":45},{"user_id":654,"name":"worlds biggest train fan","steam_id":76561198008332777,"connected_time":1515000000000,"state":"active","ping":101},{"user_id":644,"name":"Karma's Camera","steam_id":76561198059385185,"connected_time":2441000000000,"state":"active","ping":80},{"user_id":659,"name":"JiminyJustin","steam_id":76561198103623389,"connected_time":899000000000,"state":"active","ping":90},{"user_id":652,"name":"Peter, what are you doing?","steam_id":76561198066452726,"connected_time":1759000000000,"state":"active","ping":74},{"user_id":669,"name":"souljaboytellem.com","steam_id":76561198095824426,"connected_time":351000000000,"state":"active","ping":70},{"user_id":633,"name":"Saikou!!!","steam_id":76561198044045406,"connected_time":2952000000000,"state":"active","ping":75},{"user_id":657,"name":"Alcohol Hominid","steam_id":76561198320313950,"connected_time":1135000000000,"state":"active","ping":60},{"user_id":651,"name":"SCATTER (she/her)","steam_id":76561198405168492,"connected_time":1939000000000,"state":"active","ping":101},{"user_id":668,"name":"skegeton","steam_id":76561198095581099,"connected_time":574000000000,"state":"active","ping":56},{"user_id":658,"name":"ki","steam_id":76561198277979851,"connected_time":1091000000000,"state":"active","ping":89},{"user_id":662,"name":"A Straw","steam_id":76561199367935846,"connected_time":879000000000,"state":"active","ping":66},{"user_id":663,"name":"Egretious #transrights","steam_id":76561199115467998,"connected_time":875000000000,"state":"active","ping":104},{"user_id":653,"name":"cass","steam_id":76561198074502046,"connected_time":1611000000000,"state":"active","ping":71},{"user_id":664,"name":"Globb","steam_id":76561198232629304,"connected_time":853000000000,"state":"active","ping":95},{"user_id":619,"name":"ArnoldGamingÔæ†Ÿ¥","steam_id":76561198040140247,"connected_time":5150000000000,"state":"active","ping":95},{"user_id":665,"name":"Beens","steam_id":76561199076061523,"connected_time":848000000000,"state":"active","ping":114},{"user_id":629,"name":"Cosmic sR","steam_id":76561198081738675,"connected_time":3858000000000,"state":"active","ping":85},{"user_id":670,"name":"warrior","steam_id":76561198074500319,"connected_time":255000000000,"state":"active","ping":101},{"user_id":649,"name":"ian","steam_id":76561198119616750,"connected_time":2142000000000,"state":"active","ping":74},{"user_id":671,"name":"Woozy","steam_id":76561198008220735,"connected_time":8000000000,"state":"spawning","ping":73},{"user_id":666,"name":"Made you look","steam_id":76561199309548879,"connected_time":740000000000,"state":"active","ping":60},{"user_id":650,"name":"Mrpeagod","steam_id":76561198138985101,"connected_time":2141000000000,"state":"active","ping":76},{"user_id":667,"name":"Tommy Provolone","steam_id":76561198170062377,"connected_time":708000000000,"state":"active","ping":70}]},{"server_id":5,"name":"Uncletopia | Frankfurt | 1 | All Maps","name_short":"frk-1","host":"frk-1.de.uncletopia.com","port":27015,"enabled":true,"region":"eu","cc":"de","latitude":50.110924,"longitude":8.682127,"reserved":0,"last_update":"0001-01-01T00:00:00Z","name_a2s":"Uncletopia | Frankfurt | 1 | All Maps","protocol":17,"map":"pl_snowycoast","folder":"tf","game":"Team Fortress","app_id":440,"player_count":1,"max_players":24,"Bots":0,"server_type":"Dedicated","server_os":"Linux","password":true,"vac":true,"version":"7757534","steam_id":85568392924469989,"keywords":["nocrits","nodmgspread","payload","uncletopia"],"game_id":440,"stv_port":27016,"stv_name":"Uncletopia | Frankfurt | 1 | All Maps | STV","players":[{"user_id":4,"name":"Blu (F2P, jittery ping)","steam_id":76561198874192746,"connected_time":473000000000,"state":"active","ping":178}]},{"server_id":110,"name":"Uncletopia | Frankfurt | 2 | All Maps","name_short":"frk-2","host":"frk-1.de.uncletopia.com","port":27025,"enabled":true,"region":"eu","cc":"de","latitude":50.110924,"longitude":8.682127,"reserved":0,"last_update":"0001-01-01T00:00:00Z","name_a2s":"Uncletopia | Frankfurt | 2 | All Maps","protocol":17,"map":"cp_snakewater_final1","folder":"tf","game":"Team Fortress","app_id":440,"player_count":0,"max_players":24,"Bots":0,"server_type":"Dedicated","server_os":"Linux","password":true,"vac":true,"version":"7757534","steam_id":85568392924469990,"keywords":["cp","nocrits","nodmgspread","uncletopia"],"game_id":440,"stv_port":27026,"stv_name":"Uncletopia | Frankfurt | 2 | All Maps | STV","players":null},{"server_id":308,"name":"Uncletopia | Frankfurt | 3 | All Maps","name_short":"frk-3","host":"frk-1.de.uncletopia.com","port":27035,"enabled":true,"region":"eu","cc":"de","latitude":50.110924,"longitude":8.682127,"reserved":0,"last_update":"0001-01-01T00:00:00Z","name_a2s":"Uncletopia | Frankfurt | 3 | All Maps","protocol":17,"map":"pl_swiftwater_final1","folder":"tf","game":"Team Fortress","app_id":440,"player_count":0,"max_players":24,"Bots":0,"server_type":"Dedicated","server_os":"Linux","password":true,"vac":true,"version":"7757534","steam_id":85568392924504274,"keywords":["nocrits","nodmgspread","payload","uncletopia"],"game_id":440,"stv_port":27036,"stv_name":"Uncletopia | Frankfurt | 3 | All Maps | STV","players":null},{"server_id":309,"name":"Uncletopia | Frankfurt | 4 | All Maps","name_short":"frk-4","host":"frk-1.de.uncletopia.com","port":27045,"enabled":true,"region":"eu","cc":"de","latitude":50.110924,"longitude":8.682127,"reserved":0,"last_update":"0001-01-01T00:00:00Z","name_a2s":"Uncletopia | Frankfurt | 4 | All Maps","protocol":17,"map":"koth_viaduct","folder":"tf","game":"Team Fortress","app_id":440,"player_count":0,"max_players":24,"Bots":0,"server_type":"Dedicated","server_os":"Linux","password":true,"vac":true,"version":"7757534","steam_id":85568392924504275,"keywords":["cp","nocrits","nodmgspread","uncletopia"],"game_id":440,"stv_port":27046,"stv_name":"Uncletopia | Frankfurt | 4 | All Maps | STV","players":null},{"server_id":310,"name":"Uncletopia | Frankfurt | 5 | All Maps","name_short":"frk-5","host":"frk-1.de.uncletopia.com","port":27055,"enabled":true,"region":"eu","cc":"de","latitude":50.110924,"longitude":8.682127,"reserved":0,"last_update":"0001-01-01T00:00:00Z","name_a2s":"Uncletopia | Frankfurt | 5 | All Maps","protocol":17,"map":"koth_lakeside_final","folder":"tf","game":"Team Fortress","app_id":440,"player_count":0,"max_players":24,"Bots":0,"server_type":"Dedicated","server_os":"Linux","password":true,"vac":true,"version":"7757534","steam_id":85568392924504277,"keywords":["cp","nocrits","nodmgspread","uncletopia"],"game_id":440,"stv_port":27056,"stv_name":"Uncletopia | Frankfurt | 5 | All Maps | STV","players":null},{"server_id":311,"name":"Uncletopia | Frankfurt | 6 | All Maps","name_short":"frk-6","host":"frk-1.de.uncletopia.com","port":27065,"enabled":true,"region":"eu","cc":"de","latitude":50.110924,"longitude":8.682127,"reserved":0,"last_update":"0001-01-01T00:00:00Z","name_a2s":"Uncletopia | Frankfurt | 6 | All Maps","protocol":17,"map":"pl_upward","folder":"tf","game":"Team Fortress","app_id":440,"player_count":0,"max_players":24,"Bots":0,"server_type":"Dedicated","server_os":"Linux","password":true,"vac":true,"version":"7757534","steam_id":85568392924504278,"keywords":["nocrits","nodmgspread","payload","uncletopia"],"game_id":440,"stv_port":27066,"stv_name":"Uncletopia | Frankfurt | 6 | All Maps | STV","players":null},{"server_id":23,"name":"Uncletopia | Frankfurt | 7 | Stopwatch Beta","name_short":"frk-7","host":"frk-1.de.uncletopia.com","port":27075,"enabled":true,"region":"eu","cc":"de","latitude":50.110924,"longitude":8.682127,"reserved":0,"last_update":"0001-01-01T00:00:00Z","name_a2s":"Uncletopia | Frankfurt | 7 | Stopwatch Beta","protocol":17,"map":"cp_sunshine","folder":"tf","game":"Team Fortress","app_id":440,"player_count":0,"max_players":24,"Bots":0,"server_type":"Dedicated","server_os":"Linux","password":true,"vac":true,"version":"7757534","steam_id":85568392924742827,"keywords":["cp","nocrits","nodmgspread","uncletopia"],"game_id":440,"stv_port":27076,"stv_name":"Uncletopia | Frankfurt | 7 | Stopwatch Beta | STV","players":null},{"server_id":24,"name":"Uncletopia | Frankfurt | 8 | Community","name_short":"frk-8","host":"frk-1.de.uncletopia.com","port":27085,"enabled":true,"region":"eu","cc":"de","latitude":50.110924,"longitude":8.682127,"reserved":0,"last_update":"0001-01-01T00:00:00Z","name_a2s":"Uncletopia | Frankfurt | 8 | Community","protocol":17,"map":"koth_lakeside_final","folder":"tf","game":"Team Fortress","app_id":440,"player_count":0,"max_players":24,"Bots":0,"server_type":"Dedicated","server_os":"Linux","password":true,"vac":true,"version":"7757534","steam_id":85568392924742828,"keywords":["cp","nocrits","nodmgspread","uncletopia"],"game_id":440,"stv_port":27086,"stv_name":"Uncletopia | Frankfurt | 8 | Community | STV","players":null},{"server_id":202,"name":"Uncletopia | Hong Kong | 1 | All Maps","name_short":"hgk-1","host":"hgk-1.hk.uncletopia.com","port":27015,"enabled":true,"region":"asia","cc":"hk","latitude":22.302711,"longitude":114.177216,"reserved":0,"last_update":"0001-01-01T00:00:00Z","name_a2s":"Uncletopia | Hong Kong | 1 | All Maps","protocol":17,"map":"pl_barnblitz","folder":"tf","game":"Team Fortress","app_id":440,"player_count":0,"max_players":24,"Bots":0,"server_type":"Dedicated","server_os":"Linux","password":true,"vac":true,"version":"7757534","steam_id":85568392924494504,"keywords":["nocrits","nodmgspread","payload","uncletopia"],"game_id":440,"stv_port":27016,"stv_name":"Uncletopia | Hong Kong | 1 | All Maps | STV","players":null},{"server_id":1,"name":"Uncletopia | Los Angeles | 1 | All Maps","name_short":"lax-1","host":"lax-1.us.uncletopia.com","port":27015,"enabled":true,"region":"us-west","cc":"us","latitude":33.94279,"longitude":-118.41004,"reserved":0,"last_update":"0001-01-01T00:00:00Z","name_a2s":"Uncletopia | Los Angeles | 1 | All Maps","protocol":17,"map":"pl_upward","folder":"tf","game":"Team Fortress","app_id":440,"player_count":24,"max_players":24,"Bots":0,"server_type":"Dedicated","server_os":"Linux","password":true,"vac":true,"version":"7757534","steam_id":85568392924469991,"keywords":["nocrits","nodmgspread","payload","uncletopia"],"game_id":440,"stv_port":27016,"stv_name":"Uncletopia | Los Angeles | 1 | All Maps | STV","players":[{"user_id":398,"name":"delight","steam_id":76561197980280272,"connected_time":4792000000000,"state":"active","ping":75},{"user_id":479,"name":"[_Dr.Scythe_]","steam_id":76561198845245858,"connected_time":123000000000,"state":"active","ping":88},{"user_id":396,"name":"werolat","steam_id":76561197960544784,"connected_time":5358000000000,"state":"active","ping":63},{"user_id":474,"name":"Jack from Jack in The Box","steam_id":76561199083594971,"connected_time":457000000000,"state":"active","ping":50},{"user_id":464,"name":"I have a boner","steam_id":76561198128156322,"connected_time":1150000000000,"state":"active","ping":105},{"user_id":426,"name":"Jamie","steam_id":76561198163164053,"connected_time":2951000000000,"state":"active","ping":148},{"user_id":453,"name":"Ducks","steam_id":76561198130038345,"connected_time":1789000000000,"state":"active","ping":101},{"user_id":466,"name":"Clit Yeastwood","steam_id":76561199042672094,"connected_time":1112000000000,"state":"active","ping":90},{"user_id":477,"name":"Tam Honks","steam_id":76561198044347961,"connected_time":304000000000,"state":"active","ping":68},{"user_id":472,"name":"Big Oil","steam_id":76561199238964574,"connected_time":602000000000,"state":"active","ping":59},{"user_id":481,"name":"NotAWeeb","steam_id":76561198165530739,"connected_time":24000000000,"state":"active","ping":57},{"user_id":452,"name":"squash","steam_id":76561198150281353,"connected_time":1790000000000,"state":"active","ping":87},{"user_id":437,"name":"cummy tummy","steam_id":76561198044180341,"connected_time":2772000000000,"state":"active","ping":80},{"user_id":478,"name":"Normal","steam_id":76561198025970990,"connected_time":269000000000,"state":"active","ping":54},{"user_id":457,"name":"Tristan Tate","steam_id":76561198112376653,"connected_time":1760000000000,"state":"active","ping":88},{"user_id":482,"name":"ebic","steam_id":76561198882446769,"connected_time":23000000000,"state":"active","ping":92},{"user_id":459,"name":"resh","steam_id":76561198239598834,"connected_time":1657000000000,"state":"active","ping":109},{"user_id":470,"name":"Saggle","steam_id":76561198056075147,"connected_time":664000000000,"state":"active","ping":185},{"user_id":463,"name":"tf3aflyingmouse","steam_id":76561198058134934,"connected_time":1282000000000,"state":"active","ping":67},{"user_id":473,"name":"rorywashere /·ê† - Àï -„Éû ‚≥ä","steam_id":76561198065825165,"connected_time":593000000000,"state":"active","ping":98},{"user_id":456,"name":"Vlad","steam_id":76561198072334604,"connected_time":1772000000000,"state":"active","ping":85},{"user_id":476,"name":"XxX420UwUMaster666XxX","steam_id":76561199351137762,"connected_time":431000000000,"state":"active","ping":81},{"user_id":387,"name":"smeasly","steam_id":76561198028718812,"connected_time":7455000000000,"state":"active","ping":78},{"user_id":365,"name":"jjorpts","steam_id":76561199041179985,"connected_time":10442000000000,"state":"active","ping":89}]},{"server_id":112,"name":"Uncletopia | Los Angeles | 2 | All Maps","name_short":"lax-2","host":"lax-1.us.uncletopia.com","port":27025,"enabled":true,"region":"us-west","cc":"us","latitude":33.94279,"longitude":-118.41004,"reserved":0,"last_update":"0001-01-01T00:00:00Z","name_a2s":"Uncletopia | Los Angeles | 2 | All Maps","protocol":17,"map":"pl_upward","folder":"tf","game":"Team Fortress","app_id":440,"player_count":0,"max_players":24,"Bots":0,"server_type":"Dedicated","server_os":"Linux","password":true,"vac":true,"version":"7757534","steam_id":85568392924469992,"keywords":["nocrits","nodmgspread","payload","uncletopia"],"game_id":440,"stv_port":27026,"stv_name":"Uncletopia | Los Angeles | 2 | All Maps | STV","players":null},{"server_id":324,"name":"Uncletopia | Los Angeles | 3 | All Maps","name_short":"lax-3","host":"lax-1.us.uncletopia.com","port":27035,"enabled":true,"region":"us-west","cc":"us","latitude":33.94279,"longitude":-118.41004,"reserved":0,"last_update":"0001-01-01T00:00:00Z","name_a2s":"Uncletopia | Los Angeles | 3 | All Maps","protocol":17,"map":"cp_mountainlab","folder":"tf","game":"Team Fortress","app_id":440,"player_count":24,"max_players":24,"Bots":0,"server_type":"Dedicated","server_os":"Linux","password":true,"vac":true,"version":"7757534","steam_id":85568392924510198,"keywords":["cp","nocrits","nodmgspread","uncletopia"],"game_id":440,"stv_port":27036,"stv_name":"Uncletopia | Los Angeles | 3 | All Maps | STV","players":[{"user_id":623,"name":"Mooksym","steam_id":76561198445747560,"connected_time":2964000000000,"state":"active","ping":131},{"user_id":596,"name":"squid","steam_id":76561198070236972,"connected_time":4608000000000,"state":"active","ping":58},{"user_id":544,"name":"Jolly","steam_id":76561198116357972,"connected_time":8307000000000,"state":"active","ping":47},{"user_id":637,"name":"Ghost Larper","steam_id":76561199407580843,"connected_time":1878000000000,"state":"active","ping":64},{"user_id":628,"name":"Crusader","steam_id":76561198204260501,"connected_time":2211000000000,"state":"active","ping":50},{"user_id":622,"name":"Lord Ballsack of Cum Castle","steam_id":76561198285996788,"connected_time":3040000000000,"state":"active","ping":58},{"user_id":509,"name":"Frank (#ripJimmyCarter)","steam_id":76561198126681511,"connected_time":10276000000000,"state":"active","ping":69},{"user_id":608,"name":"Hindmost","steam_id":76561199081837220,"connected_time":4016000000000,"state":"active","ping":96},{"user_id":521,"name":"SN0W","steam_id":76561198153665468,"connected_time":10121000000000,"state":"active","ping":87},{"user_id":630,"name":"The Bombinomicon","steam_id":76561198209881263,"connected_time":2105000000000,"state":"active","ping":48},{"user_id":640,"name":"moah380","steam_id":76561198090644581,"connected_time":913000000000,"state":"active","ping":76},{"user_id":641,"name":"bocaJ","steam_id":76561198374535092,"connected_time":450000000000,"state":"active","ping":39},{"user_id":511,"name":"the stallion","steam_id":76561198212242403,"connected_time":10269000000000,"state":"active","ping":45},{"user_id":598,"name":"airbudenjoyer2012","steam_id":76561198150428763,"connected_time":4567000000000,"state":"active","ping":52},{"user_id":642,"name":"Jakcie Chan","steam_id":76561198034113570,"connected_time":439000000000,"state":"active","ping":91},{"user_id":611,"name":"maplesyrup","steam_id":76561198083504935,"connected_time":3976000000000,"state":"active","ping":92},{"user_id":639,"name":"üëÅ sumixodic","steam_id":76561198090770710,"connected_time":923000000000,"state":"active","ping":79},{"user_id":643,"name":"Tomoko2001","steam_id":76561198047117990,"connected_time":386000000000,"state":"active","ping":62},{"user_id":633,"name":"Spruce","steam_id":76561198081684676,"connected_time":2019000000000,"state":"active","ping":95},{"user_id":624,"name":"big car","steam_id":76561198067082350,"connected_time":2912000000000,"state":"active","ping":51},{"user_id":638,"name":"‚ô•Cat in a Tub‚ô•","steam_id":76561198170443243,"connected_time":1568000000000,"state":"active","ping":57},{"user_id":516,"name":"bengy","steam_id":76561198264288798,"connected_time":10226000000000,"state":"active","ping":59},{"user_id":627,"name":"MrHour","steam_id":76561198097762732,"connected_time":2218000000000,"state":"active","ping":42},{"user_id":636,"name":"Musica Universalis","steam_id":76561198184794174,"connected_time":1954000000000,"state":"active","ping":129}]},{"server_id":25,"name":"Uncletopia | Los Angeles | 4 | Stopwatch Beta","name_short":"lax-4","host":"lax-1.us.uncletopia.com","port":27045,"enabled":true,"region":"us-west","cc":"us","latitude":33.94279,"longitude":-118.41004,"reserved":0,"last_update":"0001-01-01T00:00:00Z","name_a2s":"Uncletopia | Los Angeles | 4 | Stopwatch Beta","protocol":17,"map":"cp_snakewater_final1","folder":"tf","game":"Team Fortress","app_id":440,"player_count":0,"max_players":24,"Bots":0,"server_type":"Dedicated","server_os":"Linux","password":true,"vac":true,"version":"7757534","steam_id":85568392924510199,"keywords":["cp","nocrits","nodmgspread","uncletopia"],"game_id":440,"stv_port":27046,"stv_name":"Uncletopia | Los Angeles | 4 | Stopwatch Beta | STV","players":null},{"server_id":11,"name":"Uncletopia | London | 1 | All Maps","name_short":"lon-1","host":"lon-1.uk.uncletopia.com","port":27015,"enabled":true,"region":"eu","cc":"gb","latitude":51.509865,"longitude":-0.118092,"reserved":0,"last_update":"0001-01-01T00:00:00Z","name_a2s":"Uncletopia | London | 1 | All Maps","protocol":17,"map":"koth_highpass","folder":"tf","game":"Team Fortress","app_id":440,"player_count":0,"max_players":24,"Bots":0,"server_type":"Dedicated","server_os":"Linux","password":true,"vac":true,"version":"7757534","steam_id":85568392924367362,"keywords":["cp","nocrits","nodmgspread","uncletopia"],"game_id":440,"stv_port":27016,"stv_name":"Uncletopia | London | 1 | All Maps | STV","players":null},{"server_id":114,"name":"Uncletopia | London | 2 | All Maps","name_short":"lon-2","host":"lon-1.uk.uncletopia.com","port":27025,"enabled":true,"region":"eu","cc":"gb","latitude":51.509865,"longitude":-0.118092,"reserved":0,"last_update":"0001-01-01T00:00:00Z","name_a2s":"Uncletopia | London | 2 | All Maps","protocol":17,"map":"koth_viaduct","folder":"tf","game":"Team Fortress","app_id":440,"player_count":0,"max_players":24,"Bots":0,"server_type":"Dedicated","server_os":"Linux","password":true,"vac":true,"version":"7757534","steam_id":85568392924470941,"keywords":["cp","nocrits","nodmgspread","uncletopia"],"game_id":440,"stv_port":27026,"stv_name":"Uncletopia | London | 2 | All Maps | STV","players":null},{"server_id":320,"name":"Uncletopia | London | 3 | All Maps","name_short":"lon-3","host":"lon-1.uk.uncletopia.com","port":27035,"enabled":true,"region":"eu","cc":"gb","latitude":51.509865,"longitude":-0.118092,"reserved":0,"last_update":"0001-01-01T00:00:00Z","name_a2s":"Uncletopia | London | 3 | All Maps","protocol":17,"map":"ctf_doublecross","folder":"tf","game":"Team Fortress","app_id":440,"player_count":21,"max_players":24,"Bots":0,"server_type":"Dedicated","server_os":"Linux","password":true,"vac":true,"version":"7757534","steam_id":85568392924510192,"keywords":["ctf","nocrits","nodmgspread","uncletopia"],"game_id":440,"stv_port":27036,"stv_name":"Uncletopia | London | 3 | All Maps | STV","players":[{"user_id":88,"name":"trans werewolf 2nd of her name","steam_id":76561198369367211,"connected_time":179000000000,"state":"active","ping":76},{"user_id":40,"name":"MikeHawk","steam_id":76561198037050528,"connected_time":3733000000000,"state":"active","ping":103},{"user_id":92,"name":"Zizman","steam_id":76561198446562910,"connected_time":89000000000,"state":"active","ping":143},{"user_id":9,"name":"Phlurmph","steam_id":76561198170017429,"connected_time":6611000000000,"state":"active","ping":147},{"user_id":74,"name":"Mr_Gamr211","steam_id":76561198960079818,"connected_time":1389000000000,"state":"active","ping":107},{"user_id":85,"name":"Charles Darwin","steam_id":76561197973496139,"connected_time":546000000000,"state":"active","ping":75},{"user_id":80,"name":"Squash Banana","steam_id":76561198055480280,"connected_time":939000000000,"state":"active","ping":88},{"user_id":91,"name":"Croissant au chocolatine","steam_id":76561198162063872,"connected_time":99000000000,"state":"active","ping":61},{"user_id":38,"name":"trans werewolf","steam_id":76561198107235989,"connected_time":4094000000000,"state":"active","ping":71},{"user_id":86,"name":"big naked bruh","steam_id":76561199179040672,"connected_time":454000000000,"state":"active","ping":56},{"user_id":87,"name":"Watermelon","steam_id":76561198078349914,"connected_time":240000000000,"state":"active","ping":45},{"user_id":78,"name":"NestRoyal","steam_id":76561198196233254,"connected_time":988000000000,"state":"active","ping":89},{"user_id":84,"name":"Deacon Dracul","steam_id":76561198046880663,"connected_time":585000000000,"state":"active","ping":92},{"user_id":81,"name":"flavv","steam_id":76561199200418757,"connected_time":888000000000,"state":"active","ping":79},{"user_id":65,"name":"Dooting","steam_id":76561199069121777,"connected_time":1866000000000,"state":"active","ping":84},{"user_id":83,"name":"XPullaHiiri","steam_id":76561198031652375,"connected_time":687000000000,"state":"active","ping":86},{"user_id":51,"name":"RelativeTitan1 ŒªC","steam_id":76561198073717608,"connected_time":2879000000000,"state":"active","ping":147},{"user_id":53,"name":"regimiro","steam_id":76561198120457008,"connected_time":2812000000000,"state":"active","ping":51},{"user_id":67,"name":"Neimon","steam_id":76561198343485710,"connected_time":1823000000000,"state":"active","ping":135},{"user_id":75,"name":"Ôº≠ÔΩÅÔΩÉÔΩâÔΩéÔΩîÔΩèÔΩìÔΩà","steam_id":76561198074294565,"connected_time":1386000000000,"state":"active","ping":88},{"user_id":58,"name":"Dr.Livesey","steam_id":76561198423099559,"connected_time":2533000000000,"state":"active","ping":71}]},{"server_id":321,"name":"Uncletopia | London | 4 | All Maps","name_short":"lon-4","host":"lon-1.uk.uncletopia.com","port":27045,"enabled":true,"region":"eu","cc":"gb","latitude":51.509865,"longitude":-0.118092,"reserved":0,"last_update":"0001-01-01T00:00:00Z","name_a2s":"Uncletopia | London | 4 | All Maps","protocol":17,"map":"cp_dustbowl","folder":"tf","game":"Team Fortress","app_id":440,"player_count":0,"max_players":24,"Bots":0,"server_type":"Dedicated","server_os":"Linux","password":true,"vac":true,"version":"7757534","steam_id":85568392924510193,"keywords":["cp","nocrits","nodmgspread","uncletopia"],"game_id":440,"stv_port":27046,"stv_name":"Uncletopia | London | 4 | All Maps | STV","players":null},{"server_id":21,"name":"Uncletopia | London | 5 | All Maps","name_short":"lon-5","host":"lon-1.uk.uncletopia.com","port":27055,"enabled":true,"region":"eu","cc":"gb","latitude":51.509865,"longitude":-0.118092,"reserved":0,"last_update":"0001-01-01T00:00:00Z","name_a2s":"Uncletopia | London | 5 | All Maps","protocol":17,"map":"cp_altitude","folder":"tf","game":"Team Fortress","app_id":440,"player_count":0,"max_players":24,"Bots":0,"server_type":"Dedicated","server_os":"Linux","password":true,"vac":true,"version":"7757534","steam_id":85568392924742829,"keywords":["cp","nocrits","nodmgspread","uncletopia"],"game_id":440,"stv_port":27056,"stv_name":"Uncletopia | London | 5 | All Maps | STV","players":null},{"server_id":22,"name":"Uncletopia | London | 6 | All Maps","name_short":"lon-6","host":"lon-1.uk.uncletopia.com","port":27065,"enabled":true,"region":"eu","cc":"gb","latitude":51.509865,"longitude":-0.118092,"reserved":0,"last_update":"0001-01-01T00:00:00Z","name_a2s":"Uncletopia | London | 6 | All Maps","protocol":17,"map":"pl_barnblitz","folder":"tf","game":"Team Fortress","app_id":440,"player_count":0,"max_players":24,"Bots":0,"server_type":"Dedicated","server_os":"Linux","password":true,"vac":true,"version":"7757534","steam_id":85568392924742830,"keywords":["nocrits","nodmgspread","payload","uncletopia"],"game_id":440,"stv_port":27066,"stv_name":"Uncletopia | London | 6 | All Maps | STV","players":null},{"server_id":40,"name":"Uncletopia | London | 7 | No Payload","name_short":"lon-7","host":"lon-1.uk.uncletopia.com","port":27075,"enabled":true,"region":"eu","cc":"gb","latitude":51.509865,"longitude":-0.118092,"reserved":0,"last_update":"0001-01-01T00:00:00Z","name_a2s":"Uncletopia | London | 7 | No Payload","protocol":17,"map":"pl_badwater","folder":"tf","game":"Team Fortress","app_id":440,"player_count":0,"max_players":24,"Bots":0,"server_type":"Dedicated","server_os":"Linux","password":true,"vac":true,"version":"7757534","steam_id":85568392924964314,"keywords":["nocrits","nodmgspread","payload","uncletopia"],"game_id":440,"stv_port":27076,"stv_name":"Uncletopia | London | 7 | No Payload | STV","players":null},{"server_id":41,"name":"Uncletopia | London | 8 | Community","name_short":"lon-8","host":"lon-1.uk.uncletopia.com","port":27085,"enabled":true,"region":"eu","cc":"gb","latitude":51.509865,"longitude":-0.118092,"reserved":0,"last_update":"0001-01-01T00:00:00Z","name_a2s":"Uncletopia | London | 8 | Community","protocol":17,"map":"pl_barnblitz","folder":"tf","game":"Team Fortress","app_id":440,"player_count":0,"max_players":24,"Bots":0,"server_type":"Dedicated","server_os":"Linux","password":true,"vac":true,"version":"7757534","steam_id":85568392924964315,"keywords":["nocrits","nodmgspread","payload","uncletopia"],"game_id":440,"stv_port":27086,"stv_name":"Uncletopia | London | 8 | Community | STV","players":null},{"server_id":300,"name":"Uncletopia | Montr√©al | 1 | All Maps","name_short":"mtl-1","host":"mtl-1.ca.uncletopia.com","port":27015,"enabled":true,"region":"us-east","cc":"ca","latitude":45.50889,"longitude":-73.56167,"reserved":0,"last_update":"0001-01-01T00:00:00Z","name_a2s":"Uncletopia | Montr√©al | 1 | All Maps","protocol":17,"map":"koth_lakeside_final","folder":"tf","game":"Team Fortress","app_id":440,"player_count":0,"max_players":24,"Bots":0,"server_type":"Dedicated","server_os":"Linux","password":true,"vac":true,"version":"7757534","steam_id":85568392924500087,"keywords":["cp","nocrits","nodmgspread","uncletopia"],"game_id":440,"stv_port":27016,"stv_name":"Uncletopia | Montr√©al | 1 | All Maps | STV","players":null},{"server_id":301,"name":"Uncletopia | Montr√©al | 2 | All Maps","name_short":"mtl-2","host":"mtl-1.ca.uncletopia.com","port":27025,"enabled":true,"region":"us-east","cc":"ca","latitude":45.50889,"longitude":-73.56167,"reserved":0,"last_update":"0001-01-01T00:00:00Z","name_a2s":"Uncletopia | Montr√©al | 2 | All Maps","protocol":17,"map":"koth_cascade","folder":"tf","game":"Team Fortress","app_id":440,"player_count":0,"max_players":24,"Bots":0,"server_type":"Dedicated","server_os":"Linux","password":true,"vac":true,"version":"7757534","steam_id":85568392924500088,"keywords":["cp","nocrits","nodmgspread","uncletopia"],"game_id":440,"stv_port":27026,"stv_name":"Uncletopia | Montr√©al | 2 | All Maps | STV","players":null},{"server_id":302,"name":"Uncletopia | Montr√©al | 3 | All Maps","name_short":"mtl-3","host":"mtl-1.ca.uncletopia.com","port":27035,"enabled":true,"region":"us-east","cc":"ca","latitude":45.50889,"longitude":-73.56167,"reserved":0,"last_update":"0001-01-01T00:00:00Z","name_a2s":"Uncletopia | Montr√©al | 3 | All Maps","protocol":17,"map":"koth_cascade","folder":"tf","game":"Team Fortress","app_id":440,"player_count":0,"max_players":24,"Bots":0,"server_type":"Dedicated","server_os":"Linux","password":true,"vac":true,"version":"7757534","steam_id":85568392924500089,"keywords":["cp","nocrits","nodmgspread","uncletopia"],"game_id":440,"stv_port":27036,"stv_name":"Uncletopia | Montr√©al | 3 | All Maps | STV","players":null},{"server_id":303,"name":"Uncletopia | Montr√©al | 4 | No Payload","name_short":"mtl-4","host":"mtl-1.ca.uncletopia.com","port":27045,"enabled":true,"region":"us-east","cc":"ca","latitude":45.50889,"longitude":-73.56167,"reserved":0,"last_update":"0001-01-01T00:00:00Z","name_a2s":"Uncletopia | Montr√©al | 4 | No Payload","protocol":17,"map":"cp_mountainlab","folder":"tf","game":"Team Fortress","app_id":440,"player_count":0,"max_players":24,"Bots":0,"server_type":"Dedicated","server_os":"Linux","password":true,"vac":true,"version":"7757534","steam_id":85568392924500090,"keywords":["cp","nocrits","nodmgspread","uncletopia"],"game_id":440,"stv_port":27046,"stv_name":"Uncletopia | Montr√©al | 4 | No Payload | STV","players":null},{"server_id":13,"name":"Uncletopia | New York City | 1 | All Maps","name_short":"nyc-1","host":"nyc-1.us.uncletopia.com","port":27015,"enabled":true,"region":"us-east","cc":"us","latitude":40.73061,"longitude":-73.93524,"reserved":0,"last_update":"0001-01-01T00:00:00Z","name_a2s":"Uncletopia | New York City | 1 | All Maps","protocol":17,"map":"pl_borneo","folder":"tf","game":"Team Fortress","app_id":440,"player_count":0,"max_players":24,"Bots":0,"server_type":"Dedicated","server_os":"Linux","password":true,"vac":true,"version":"7757534","steam_id":85568392924469993,"keywords":["nocrits","nodmgspread","payload","uncletopia"],"game_id":440,"stv_port":27016,"stv_name":"Uncletopia | New York City | 1 | All Maps | STV","players":null},{"server_id":14,"name":"Uncletopia | New York City | 2 | All Maps","name_short":"nyc-2","host":"nyc-1.us.uncletopia.com","port":27025,"enabled":true,"region":"us-east","cc":"us","latitude":40.73061,"longitude":-73.93524,"reserved":0,"last_update":"0001-01-01T00:00:00Z","name_a2s":"Uncletopia | New York City | 2 | All Maps","protocol":17,"map":"pl_upward","folder":"tf","game":"Team Fortress","app_id":440,"player_count":1,"max_players":24,"Bots":0,"server_type":"Dedicated","server_os":"Linux","password":true,"vac":true,"version":"7757534","steam_id":85568392924469994,"keywords":["nocrits","nodmgspread","payload","uncletopia"],"game_id":440,"stv_port":27026,"stv_name":"Uncletopia | New York City | 2 | All Maps | STV","players":[{"user_id":819,"name":"[UA]Smereka","steam_id":76561198977982289,"connected_time":91000000000,"state":"active","ping":152}]},{"server_id":15,"name":"Uncletopia | New York City | 3 | Stopwatch Beta","name_short":"nyc-3","host":"nyc-1.us.uncletopia.com","port":27035,"enabled":true,"region":"us-east","cc":"us","latitude":40.73061,"longitude":-73.93524,"reserved":0,"last_update":"0001-01-01T00:00:00Z","name_a2s":"Uncletopia | New York City | 3 | Stopwatch Beta","protocol":17,"map":"cp_sunshine","folder":"tf","game":"Team Fortress","app_id":440,"player_count":0,"max_players":24,"Bots":0,"server_type":"Dedicated","server_os":"Linux","password":true,"vac":true,"version":"7757534","steam_id":85568392924742820,"keywords":["cp","nocrits","nodmgspread","uncletopia"],"game_id":440,"stv_port":27036,"stv_name":"Uncletopia | New York City | 3 | Stopwatch Beta | STV","players":null},{"server_id":16,"name":"Uncletopia | New York City | 4 | Community","name_short":"nyc-4","host":"nyc-1.us.uncletopia.com","port":27045,"enabled":true,"region":"us-east","cc":"us","latitude":40.73061,"longitude":-73.93524,"reserved":0,"last_update":"0001-01-01T00:00:00Z","name_a2s":"Uncletopia | New York City | 4 | Community","protocol":17,"map":"workshop/pl_cactuscanyon_redux_final2.ugc2579644293","folder":"tf","game":"Team Fortress","app_id":440,"player_count":0,"max_players":24,"Bots":0,"server_type":"Dedicated","server_os":"Linux","password":true,"vac":true,"version":"7757534","steam_id":85568392924742821,"keywords":["nocrits","nodmgspread","payload","uncletopia"],"game_id":440,"stv_port":27046,"stv_name":"Uncletopia | New York City | 4 | Community | STV","players":null},{"server_id":142,"name":"Uncletopia | S√£o Paulo | 1 | All Maps","name_short":"sao-1","host":"sao-1.br.uncletopia.com","port":27015,"enabled":true,"region":"sa","cc":"br","latitude":-23.533773,"longitude":-46.62529,"reserved":0,"last_update":"0001-01-01T00:00:00Z","name_a2s":"Uncletopia | S√£o Paulo | 1 | All Maps","protocol":17,"map":"pl_upward","folder":"tf","game":"Team Fortress","app_id":440,"player_count":0,"max_players":24,"Bots":0,"server_type":"Dedicated","server_os":"Linux","password":true,"vac":true,"version":"7757534","steam_id":85568392924469996,"keywords":["nocrits","nodmgspread","payload","uncletopia"],"game_id":440,"stv_port":27016,"stv_name":"Uncletopia | S√£o Paulo | 1 | All Maps | STV","players":null},{"server_id":143,"name":"Uncletopia | S√£o Paulo | 2 | All Maps","name_short":"sao-2","host":"sao-2.br.uncletopia.com","port":27015,"enabled":true,"region":"sa","cc":"br","latitude":-23.533773,"longitude":-46.62529,"reserved":0,"last_update":"0001-01-01T00:00:00Z","name_a2s":"Uncletopia | S√£o Paulo | 2 | All Maps","protocol":17,"map":"pl_frontier_final","folder":"tf","game":"Team Fortress","app_id":440,"player_count":0,"max_players":24,"Bots":0,"server_type":"Dedicated","server_os":"Linux","password":true,"vac":true,"version":"7757534","steam_id":85568392924485349,"keywords":["nocrits","nodmgspread","payload","uncletopia"],"game_id":440,"stv_port":27016,"stv_name":"Uncletopia | S√£o Paulo | 2 | All Maps | STV","players":null},{"server_id":7,"name":"Uncletopia | Seattle | 1 | All Maps","name_short":"sea-1","host":"sea-1.us.uncletopia.com","port":27015,"enabled":true,"region":"us-west","cc":"us","latitude":47.608013,"longitude":-122.33517,"reserved":0,"last_update":"0001-01-01T00:00:00Z","name_a2s":"Uncletopia | Seattle | 1 | All Maps","protocol":17,"map":"pl_pier","folder":"tf","game":"Team Fortress","app_id":440,"player_count":24,"max_players":24,"Bots":0,"server_type":"Dedicated","server_os":"Linux","password":true,"vac":true,"version":"7757534","steam_id":85568392924469997,"keywords":["nocrits","nodmgspread","payload","uncletopia"],"game_id":440,"stv_port":27016,"stv_name":"Uncletopia | Seattle | 1 | All Maps | STV","players":[{"user_id":657,"name":"Nakasmacka","steam_id":76561198049787270,"connected_time":5307000000000,"state":"active","ping":32},{"user_id":690,"name":"H0UZM@$T3R!!!!1","steam_id":76561198044297170,"connected_time":2769000000000,"state":"active","ping":78},{"user_id":672,"name":"forest (girldick)","steam_id":76561198157960257,"connected_time":4255000000000,"state":"active","ping":44},{"user_id":684,"name":"behr","steam_id":76561198196794414,"connected_time":3207000000000,"state":"active","ping":44},{"user_id":694,"name":"chuck","steam_id":76561198035695976,"connected_time":1966000000000,"state":"active","ping":48},{"user_id":682,"name":"Flesh Eating Turtle","steam_id":76561198116742139,"connected_time":3281000000000,"state":"active","ping":52},{"user_id":692,"name":"Closed.","steam_id":76561198212598967,"connected_time":2180000000000,"state":"active","ping":72},{"user_id":703,"name":"lavender","steam_id":76561199069518286,"connected_time":1082000000000,"state":"active","ping":75},{"user_id":691,"name":"Some Dood on the Internet","steam_id":76561198054657687,"connected_time":2668000000000,"state":"active","ping":60},{"user_id":714,"name":"Wisdom of Rage","steam_id":76561198110046630,"connected_time":212000000000,"state":"active","ping":98},{"user_id":713,"name":"gatorbelt","steam_id":76561198145784505,"connected_time":423000000000,"state":"active","ping":74},{"user_id":702,"name":"Skoad","steam_id":76561198104650528,"connected_time":1123000000000,"state":"active","ping":60},{"user_id":698,"name":"R3n3gade","steam_id":76561198145984116,"connected_time":1425000000000,"state":"active","ping":78},{"user_id":650,"name":"Hat in Time","steam_id":76561198045964573,"connected_time":5763000000000,"state":"active","ping":74},{"user_id":671,"name":"Alpdhuez [‚úö]","steam_id":76561198013808837,"connected_time":4316000000000,"state":"active","ping":66},{"user_id":705,"name":"FayeTheGay (she/her)","steam_id":76561199366682904,"connected_time":902000000000,"state":"active","ping":61},{"user_id":689,"name":"eee","steam_id":76561197996082967,"connected_time":2906000000000,"state":"active","ping":80},{"user_id":586,"name":"Lord Hater","steam_id":76561199158148782,"connected_time":12376000000000,"state":"active","ping":48},{"user_id":699,"name":"overwatch refugee","steam_id":76561199003985688,"connected_time":1402000000000,"state":"active","ping":99},{"user_id":707,"name":"Choc","steam_id":76561198113878570,"connected_time":765000000000,"state":"active","ping":45},{"user_id":708,"name":"CheeseCake488","steam_id":76561199407617942,"connected_time":742000000000,"state":"active","ping":108},{"user_id":667,"name":"cracky","steam_id":76561197971365444,"connected_time":4690000000000,"state":"active","ping":49},{"user_id":704,"name":"Killer Fish From San Diego","steam_id":76561199037594575,"connected_time":988000000000,"state":"active","ping":65},{"user_id":709,"name":"PerKnuckleChuckle","steam_id":76561198023221596,"connected_time":730000000000,"state":"active","ping":86}]},{"server_id":119,"name":"Uncletopia | Seattle | 2 | All Maps","name_short":"sea-2","host":"sea-1.us.uncletopia.com","port":27025,"enabled":true,"region":"us-west","cc":"us","latitude":47.608013,"longitude":-122.33517,"reserved":0,"last_update":"0001-01-01T00:00:00Z","name_a2s":"Uncletopia | Seattle | 2 | All Maps","protocol":17,"map":"pl_borneo","folder":"tf","game":"Team Fortress","app_id":440,"player_count":24,"max_players":24,"Bots":0,"server_type":"Dedicated","server_os":"Linux","password":true,"vac":true,"version":"7757534","steam_id":85568392924469998,"keywords":["nocrits","nodmgspread","payload","uncletopia"],"game_id":440,"stv_port":27026,"stv_name":"Uncletopia | Seattle | 2 | All Maps | STV","players":[{"user_id":580,"name":"schizophrenic Stack stan","steam_id":76561198214370515,"connected_time":3956000000000,"state":"active","ping":99},{"user_id":600,"name":"you need upgraded","steam_id":76561198138261545,"connected_time":2613000000000,"state":"active","ping":66},{"user_id":609,"name":"Dragne","steam_id":76561199001067598,"connected_time":1015000000000,"state":"active","ping":85},{"user_id":608,"name":"Thanks Ants","steam_id":76561197966221018,"connected_time":1081000000000,"state":"active","ping":49},{"user_id":599,"name":"S Q U I S H E  T H A T  C A T","steam_id":76561198293865429,"connected_time":2698000000000,"state":"active","ping":43},{"user_id":553,"name":"XxSquidwardxX","steam_id":76561198294455367,"connected_time":6865000000000,"state":"active","ping":104},{"user_id":621,"name":"Jabroni Kris","steam_id":76561198048736247,"connected_time":631000000000,"state":"active","ping":54},{"user_id":596,"name":"THAT CAT","steam_id":76561198010828625,"connected_time":3244000000000,"state":"active","ping":45},{"user_id":584,"name":"Freakoid","steam_id":76561198087177094,"connected_time":3891000000000,"state":"active","ping":37},{"user_id":607,"name":"GRAPE","steam_id":76561198150447896,"connected_time":1115000000000,"state":"active","ping":77},{"user_id":611,"name":"Drago","steam_id":76561198206572733,"connected_time":972000000000,"state":"active","ping":85},{"user_id":557,"name":"‚ô•haunti","steam_id":76561199235580556,"connected_time":6378000000000,"state":"active","ping":48},{"user_id":566,"name":"CreamFreaker","steam_id":76561198320293423,"connected_time":5616000000000,"state":"active","ping":56},{"user_id":612,"name":"HertLezz","steam_id":76561198159972289,"connected_time":958000000000,"state":"active","ping":83},{"user_id":585,"name":"weird opponent","steam_id":76561199199843311,"connected_time":3872000000000,"state":"active","ping":51},{"user_id":620,"name":"Professional Chef","steam_id":76561198197721155,"connected_time":846000000000,"state":"active","ping":79},{"user_id":576,"name":"PinguEnjoyer6","steam_id":76561199186723516,"connected_time":4552000000000,"state":"active","ping":62},{"user_id":615,"name":"Hector Salamanca","steam_id":76561199103213955,"connected_time":917000000000,"state":"active","ping":79},{"user_id":578,"name":"benji","steam_id":76561198084417967,"connected_time":4270000000000,"state":"active","ping":69},{"user_id":592,"name":"Maid 'n' China","steam_id":76561198423392976,"connected_time":3631000000000,"state":"active","ping":73},{"user_id":605,"name":"THE_VIRTUAL_DOG.exe","steam_id":76561197999522253,"connected_time":2298000000000,"state":"active","ping":34},{"user_id":551,"name":"MEDICINAL CRACK ENJOYER","steam_id":76561198113427343,"connected_time":7300000000000,"state":"active","ping":85},{"user_id":595,"name":"b4ss","steam_id":76561198116549222,"connected_time":3465000000000,"state":"active","ping":73},{"user_id":550,"name":"Lilith","steam_id":76561198120362654,"connected_time":7321000000000,"state":"active","ping":45}]},{"server_id":406,"name":"Uncletopia | Seattle | 3 | Stopwatch Beta","name_short":"sea-3","host":"sea-1.us.uncletopia.com","port":27035,"enabled":true,"region":"us-west","cc":"us","latitude":47.608013,"longitude":-122.33517,"reserved":0,"last_update":"0001-01-01T00:00:00Z","name_a2s":"Uncletopia | Seattle | 3 | Stopwatch Beta","protocol":17,"map":"workshop/pl_vigil_rc9.ugc1266210012","folder":"tf","game":"Team Fortress","app_id":440,"player_count":0,"max_players":24,"Bots":0,"server_type":"Dedicated","server_os":"Linux","password":true,"vac":true,"version":"7757534","steam_id":85568392924515217,"keywords":["nocrits","nodmgspread","payload","uncletopia"],"game_id":440,"stv_port":27036,"stv_name":"Uncletopia | Seattle | 3 | Stopwatch Beta | STV","players":null},{"server_id":17,"name":"Uncletopia | San Francisco | 1 | All Maps","name_short":"sfo-1","host":"sfo-1.us.uncletopia.com","port":27015,"enabled":true,"region":"us-west","cc":"us","latitude":37.77397,"longitude":-122.4313,"reserved":0,"last_update":"0001-01-01T00:00:00Z","name_a2s":"Uncletopia | San Francisco | 1 | All Maps","protocol":17,"map":"plr_bananabay","folder":"tf","game":"Team Fortress","app_id":440,"player_count":11,"max_players":24,"Bots":0,"server_type":"Dedicated","server_os":"Linux","password":true,"vac":true,"version":"7757534","steam_id":85568392924469999,"keywords":["nocrits","nodmgspread","payload","uncletopia"],"game_id":440,"stv_port":27016,"stv_name":"Uncletopia | San Francisco | 1 | All Maps | STV","players":[{"user_id":516,"name":"Crafty","steam_id":76561199217624073,"connected_time":737000000000,"state":"active","ping":53},{"user_id":511,"name":"Ian","steam_id":76561198159334435,"connected_time":1245000000000,"state":"active","ping":164},{"user_id":518,"name":"dog","steam_id":76561197999666480,"connected_time":604000000000,"state":"active","ping":58},{"user_id":430,"name":"darktheif54","steam_id":76561198043650119,"connected_time":8264000000000,"state":"active","ping":54},{"user_id":525,"name":"Phantom","steam_id":76561198091512249,"connected_time":114000000000,"state":"active","ping":143},{"user_id":464,"name":"mela ‚ô°","steam_id":76561198301598124,"connected_time":5813000000000,"state":"active","ping":69},{"user_id":505,"name":"Fruck","steam_id":76561197993454496,"connected_time":1548000000000,"state":"active","ping":116},{"user_id":479,"name":"FriskyDemon","steam_id":76561198043684646,"connected_time":4521000000000,"state":"active","ping":81},{"user_id":490,"name":"Gasoline the Vampire Queen","steam_id":76561198197352885,"connected_time":4081000000000,"state":"active","ping":85},{"user_id":502,"name":"denim repair service","steam_id":76561198075666613,"connected_time":1798000000000,"state":"active","ping":54},{"user_id":510,"name":"Col Ngohk","steam_id":76561198241643372,"connected_time":1312000000000,"state":"active","ping":69}]},{"server_id":18,"name":"Uncletopia | San Francisco | 2 | All Maps","name_short":"sfo-2","host":"sfo-1.us.uncletopia.com","port":27025,"enabled":true,"region":"us-west","cc":"us","latitude":37.77397,"longitude":-122.4313,"reserved":0,"last_update":"0001-01-01T00:00:00Z","name_a2s":"Uncletopia | San Francisco | 2 | All Maps","protocol":17,"map":"pl_swiftwater_final1","folder":"tf","game":"Team Fortress","app_id":440,"player_count":24,"max_players":24,"Bots":0,"server_type":"Dedicated","server_os":"Linux","password":true,"vac":true,"version":"7757534","steam_id":85568392924470000,"keywords":["nocrits","nodmgspread","payload","uncletopia"],"game_id":440,"stv_port":27026,"stv_name":"Uncletopia | San Francisco | 2 | All Maps | STV","players":[{"user_id":356,"name":"Pandie","steam_id":76561198090842335,"connected_time":3905000000000,"state":"active","ping":46},{"user_id":374,"name":"Jemmysponz","steam_id":76561198042440742,"connected_time":2154000000000,"state":"active","ping":68},{"user_id":393,"name":"ttv/whiteboyst0ner1997","steam_id":76561198064558316,"connected_time":1303000000000,"state":"active","ping":61},{"user_id":407,"name":"JonBoy","steam_id":76561198082052480,"connected_time":460000000000,"state":"active","ping":84},{"user_id":406,"name":"Sweese","steam_id":76561198863456987,"connected_time":797000000000,"state":"active","ping":64},{"user_id":400,"name":"Stev the Prurient Oxymoron","steam_id":76561197999442625,"connected_time":1042000000000,"state":"active","ping":81},{"user_id":375,"name":"Someguy6470","steam_id":76561198047240975,"connected_time":2153000000000,"state":"active","ping":55},{"user_id":395,"name":"FI LO","steam_id":76561198976530881,"connected_time":1186000000000,"state":"active","ping":44},{"user_id":358,"name":"+willow rebound","steam_id":76561198202841164,"connected_time":3869000000000,"state":"active","ping":60},{"user_id":349,"name":"[Zero] Lag","steam_id":76561198983494186,"connected_time":4568000000000,"state":"active","ping":123},{"user_id":376,"name":"Off-Brand Hotdogs","steam_id":76561197964153351,"connected_time":2150000000000,"state":"active","ping":57},{"user_id":363,"name":"BucketofIce","steam_id":76561199108563726,"connected_time":3578000000000,"state":"active","ping":55},{"user_id":408,"name":"iggybones (girl with balls)","steam_id":76561198101610291,"connected_time":450000000000,"state":"active","ping":61},{"user_id":404,"name":"Seanvich","steam_id":76561198065805500,"connected_time":940000000000,"state":"active","ping":105},{"user_id":389,"name":"mohamy_19","steam_id":76561198075833698,"connected_time":1669000000000,"state":"active","ping":86},{"user_id":409,"name":"Zebulon Pike","steam_id":76561198025719753,"connected_time":445000000000,"state":"active","ping":59},{"user_id":391,"name":"factory new lenovo laptop","steam_id":76561198798667624,"connected_time":1576000000000,"state":"active","ping":60},{"user_id":378,"name":"redburned","steam_id":76561198049214884,"connected_time":2078000000000,"state":"active","ping":53},{"user_id":360,"name":"Archangel","steam_id":76561198003484156,"connected_time":3842000000000,"state":"active","ping":120},{"user_id":361,"name":"st4rb0y^*","steam_id":76561198337487263,"connected_time":3824000000000,"state":"active","ping":67},{"user_id":382,"name":"Apex","steam_id":76561199058954656,"connected_time":1855000000000,"state":"active","ping":73},{"user_id":398,"name":"Mighty Morphin Flower Arrangers","steam_id":76561198133158032,"connected_time":1127000000000,"state":"active","ping":58},{"user_id":410,"name":"blackjack money 4502","steam_id":76561198136535844,"connected_time":400000000000,"state":"active","ping":72},{"user_id":405,"name":"Rollo","steam_id":76561198064812108,"connected_time":930000000000,"state":"active","ping":88}]},{"server_id":19,"name":"Uncletopia | San Francisco | 3 | Stopwatch Beta","name_short":"sfo-3","host":"sfo-1.us.uncletopia.com","port":27035,"enabled":true,"region":"us-west","cc":"us","latitude":37.77397,"longitude":-122.4313,"reserved":0,"last_update":"0001-01-01T00:00:00Z","name_a2s":"Uncletopia | San Francisco | 3 | Stopwatch Beta","protocol":17,"map":"workshop/koth_clearcut_b15.ugc2107050255","folder":"tf","game":"Team Fortress","app_id":440,"player_count":0,"max_players":24,"Bots":0,"server_type":"Dedicated","server_os":"Linux","password":true,"vac":true,"version":"7757534","steam_id":85568392924742824,"keywords":["cp","nocrits","nodmgspread","uncletopia"],"game_id":440,"stv_port":27036,"stv_name":"Uncletopia | San Francisco | 3 | Stopwatch Beta | STV","players":null},{"server_id":20,"name":"Uncletopia | San Francisco | 4 | Community","name_short":"sfo-4","host":"sfo-1.us.uncletopia.com","port":27045,"enabled":true,"region":"us-west","cc":"us","latitude":37.77397,"longitude":-122.4313,"reserved":0,"last_update":"0001-01-01T00:00:00Z","name_a2s":"Uncletopia | San Francisco | 4 | Community","protocol":17,"map":"cp_altitude","folder":"tf","game":"Team Fortress","app_id":440,"player_count":0,"max_players":24,"Bots":0,"server_type":"Dedicated","server_os":"Linux","password":true,"vac":true,"version":"7757534","steam_id":85568392924742826,"keywords":["cp","nocrits","nodmgspread","uncletopia"],"game_id":440,"stv_port":27046,"stv_name":"Uncletopia | San Francisco | 4 | Community | STV","players":null},{"server_id":141,"name":"Uncletopia | Sydney | 1 | All Maps","name_short":"syd-1","host":"syd-1.au.uncletopia.com","port":27015,"enabled":true,"region":"au","cc":"au","latitude":-33.865143,"longitude":151.2099,"reserved":0,"last_update":"0001-01-01T00:00:00Z","name_a2s":"Uncletopia | Sydney | 1 | All Maps","protocol":17,"map":"pl_upward","folder":"tf","game":"Team Fortress","app_id":440,"player_count":24,"max_players":24,"Bots":0,"server_type":"Dedicated","server_os":"Linux","password":true,"vac":true,"version":"7757534","steam_id":85568392924470001,"keywords":["nocrits","nodmgspread","payload","uncletopia"],"game_id":440,"stv_port":27016,"stv_name":"Uncletopia | Sydney | 1 | All Maps | STV","players":[{"user_id":71,"name":"MrMuffin16","steam_id":76561198257303774,"connected_time":229000000000,"state":"active","ping":56},{"user_id":76,"name":"Madallar","steam_id":76561198379635302,"connected_time":43000000000,"state":"active","ping":73},{"user_id":52,"name":"Overlold","steam_id":76561197978635495,"connected_time":1065000000000,"state":"active","ping":86},{"user_id":54,"name":"Sir Bigg","steam_id":76561199080759165,"connected_time":1057000000000,"state":"active","ping":69},{"user_id":33,"name":"Vortex Medico","steam_id":76561198833527091,"connected_time":2387000000000,"state":"active","ping":142},{"user_id":25,"name":"Glunky","steam_id":76561198277847223,"connected_time":2706000000000,"state":"active","ping":61},{"user_id":70,"name":"Snowy","steam_id":76561198255720598,"connected_time":357000000000,"state":"active","ping":59},{"user_id":67,"name":"bumbling idiot","steam_id":76561198127848228,"connected_time":430000000000,"state":"active","ping":65},{"user_id":72,"name":"Fledges","steam_id":76561198017381539,"connected_time":226000000000,"state":"active","ping":78},{"user_id":31,"name":"oniodera","steam_id":76561199173957130,"connected_time":2476000000000,"state":"active","ping":33},{"user_id":44,"name":"OmegaJay","steam_id":76561198069070596,"connected_time":1916000000000,"state":"active","ping":57},{"user_id":55,"name":"Owlenstein‚Ñ¢","steam_id":76561198093983826,"connected_time":1054000000000,"state":"active","ping":120},{"user_id":73,"name":"weezer","steam_id":76561199439508788,"connected_time":157000000000,"state":"active","ping":65},{"user_id":56,"name":"Deep Fried Pyro","steam_id":76561198063545062,"connected_time":1048000000000,"state":"active","ping":148},{"user_id":68,"name":"bat country","steam_id":76561197980015398,"connected_time":429000000000,"state":"active","ping":51},{"user_id":38,"name":"Zclipse_","steam_id":76561198406959622,"connected_time":2279000000000,"state":"active","ping":56},{"user_id":50,"name":"TheNeutrality","steam_id":76561199017954062,"connected_time":1339000000000,"state":"active","ping":184},{"user_id":57,"name":"=B0red=","steam_id":76561198021066913,"connected_time":1033000000000,"state":"active","ping":158},{"user_id":75,"name":"iLikePie836","steam_id":76561198361398038,"connected_time":92000000000,"state":"active","ping":70},{"user_id":61,"name":"blaze","steam_id":76561198241303512,"connected_time":848000000000,"state":"active","ping":56},{"user_id":60,"name":"DVUS Fresh","steam_id":76561198168212712,"connected_time":929000000000,"state":"active","ping":180},{"user_id":62,"name":"Corhix","steam_id":76561198968706355,"connected_time":827000000000,"state":"active","ping":171},{"user_id":65,"name":"applepine","steam_id":76561198128399166,"connected_time":541000000000,"state":"active","ping":71},{"user_id":66,"name":"soupy","steam_id":76561198073734936,"connected_time":507000000000,"state":"active","ping":90}]},{"server_id":123,"name":"Uncletopia | Sydney | 2 | All Maps","name_short":"syd-2","host":"syd-1.au.uncletopia.com","port":27025,"enabled":true,"region":"au","cc":"au","latitude":-33.865143,"longitude":151.2099,"reserved":0,"last_update":"0001-01-01T00:00:00Z","name_a2s":"Uncletopia | Sydney | 2 | All Maps","protocol":17,"map":"cp_altitude","folder":"tf","game":"Team Fortress","app_id":440,"player_count":23,"max_players":24,"Bots":0,"server_type":"Dedicated","server_os":"Linux","password":true,"vac":true,"version":"7757534","steam_id":85568392924470002,"keywords":["cp","nocrits","nodmgspread","uncletopia"],"game_id":440,"stv_port":27026,"stv_name":"Uncletopia | Sydney | 2 | All Maps | STV","players":[{"user_id":17,"name":"Jodelk√∂nig Franzl Lang","steam_id":76561198007667830,"connected_time":10305000000000,"state":"active","ping":53},{"user_id":96,"name":"Sentry Gun (EpicGuy4227)","steam_id":76561198094132328,"connected_time":4009000000000,"state":"active","ping":65},{"user_id":139,"name":"The Jazz Man","steam_id":76561198124387973,"connected_time":375000000000,"state":"active","ping":100},{"user_id":140,"name":"bom","steam_id":76561198325408008,"connected_time":247000000000,"state":"active","ping":79},{"user_id":135,"name":"whiteshaq","steam_id":76561198131988811,"connected_time":1077000000000,"state":"active","ping":48},{"user_id":111,"name":"Rashid Of The Dank Memes","steam_id":76561198281398078,"connected_time":2795000000000,"state":"active","ping":56},{"user_id":126,"name":"Quatz","steam_id":76561198048810399,"connected_time":1618000000000,"state":"active","ping":57},{"user_id":129,"name":"JBoss","steam_id":76561198321937857,"connected_time":1422000000000,"state":"active","ping":75},{"user_id":130,"name":"Bigrichard","steam_id":76561198032092945,"connected_time":1327000000000,"state":"active","ping":90},{"user_id":120,"name":"Local Trash Expert","steam_id":76561198145598622,"connected_time":2215000000000,"state":"active","ping":85},{"user_id":124,"name":"Treggles","steam_id":76561198042806226,"connected_time":1946000000000,"state":"active","ping":75},{"user_id":141,"name":"Krispy Kreme","steam_id":76561197997362731,"connected_time":209000000000,"state":"active","ping":45},{"user_id":138,"name":"pants money","steam_id":76561198066256359,"connected_time":634000000000,"state":"active","ping":56},{"user_id":118,"name":"demoKe","steam_id":76561199081848498,"connected_time":2587000000000,"state":"active","ping":54},{"user_id":142,"name":"Bamooxa","steam_id":76561198067160709,"connected_time":50000000000,"state":"active","ping":80},{"user_id":131,"name":"Monkey M√¶n","steam_id":76561198122470022,"connected_time":1297000000000,"state":"active","ping":72},{"user_id":132,"name":"monkeyman536","steam_id":76561197997717737,"connected_time":1229000000000,"state":"active","ping":175},{"user_id":143,"name":"Johnny Fairplay","steam_id":76561198121757287,"connected_time":16000000000,"state":"spawning","ping":44},{"user_id":57,"name":"Nugget","steam_id":76561198155517702,"connected_time":7097000000000,"state":"active","ping":87},{"user_id":133,"name":"MayorSeb","steam_id":76561197996456885,"connected_time":1143000000000,"state":"active","ping":64},{"user_id":134,"name":"TheDoctor30","steam_id":76561198433686866,"connected_time":1101000000000,"state":"active","ping":104},{"user_id":92,"name":"Worst Sniper","steam_id":76561198025733081,"connected_time":4266000000000,"state":"active","ping":80},{"user_id":104,"name":"Doctor Estonia","steam_id":76561198057365089,"connected_time":3263000000000,"state":"active","ping":97}]},{"server_id":395,"name":"Uncletopia | Sydney | 3 | All Maps","name_short":"syd-3","host":"syd-1.au.uncletopia.com","port":27035,"enabled":true,"region":"au","cc":"au","latitude":-33.865143,"longitude":151.2099,"reserved":0,"last_update":"0001-01-01T00:00:00Z","name_a2s":"Uncletopia | Sydney | 3 | All Maps","protocol":17,"map":"koth_cascade","folder":"tf","game":"Team Fortress","app_id":440,"player_count":0,"max_players":24,"Bots":0,"server_type":"Dedicated","server_os":"Linux","password":true,"vac":true,"version":"7757534","steam_id":85568392925194467,"keywords":["cp","nocrits","nodmgspread","uncletopia"],"game_id":440,"stv_port":27036,"stv_name":"Uncletopia | Sydney | 3 | All Maps | STV","players":null},{"server_id":396,"name":"Uncletopia | Sydney | 4 | All Maps","name_short":"syd-4","host":"syd-1.au.uncletopia.com","port":27045,"enabled":true,"region":"au","cc":"au","latitude":-33.865143,"longitude":151.2099,"reserved":0,"last_update":"0001-01-01T00:00:00Z","name_a2s":"Uncletopia | Sydney | 4 | All Maps","protocol":17,"map":"koth_highpass","folder":"tf","game":"Team Fortress","app_id":440,"player_count":0,"max_players":24,"Bots":0,"server_type":"Dedicated","server_os":"Linux","password":true,"vac":true,"version":"7757534","steam_id":85568392925397958,"keywords":["cp","nocrits","nodmgspread","uncletopia"],"game_id":440,"stv_port":27046,"stv_name":"Uncletopia | Sydney | 4 | All Maps | STV","players":null},{"server_id":58,"name":"Uncletopia | Sydney | 5 | Stopwatch Beta","name_short":"syd-5","host":"syd-1.au.uncletopia.com","port":27055,"enabled":true,"region":"au","cc":"au","latitude":-33.865143,"longitude":151.2099,"reserved":0,"last_update":"0001-01-01T00:00:00Z","name_a2s":"Uncletopia | Sydney | 5 | Stopwatch Beta","protocol":17,"map":"koth_cascade","folder":"tf","game":"Team Fortress","app_id":440,"player_count":0,"max_players":24,"Bots":0,"server_type":"Dedicated","server_os":"Linux","password":true,"vac":true,"version":"7757534","steam_id":85568392925397959,"keywords":["cp","nocrits","nodmgspread","uncletopia"],"game_id":440,"stv_port":27056,"stv_name":"Uncletopia | Sydney | 5 | Stopwatch Beta | STV","players":null},{"server_id":59,"name":"Uncletopia | Sydney | 6 | Community","name_short":"syd-6","host":"syd-1.au.uncletopia.com","port":27065,"enabled":true,"region":"au","cc":"au","latitude":-33.865143,"longitude":151.2099,"reserved":0,"last_update":"0001-01-01T00:00:00Z","name_a2s":"Uncletopia | Sydney | 6 | Community","protocol":17,"map":"workshop/pl_eruption_b9a.ugc2807898013","folder":"tf","game":"Team Fortress","app_id":440,"player_count":0,"max_players":24,"Bots":0,"server_type":"Dedicated","server_os":"Linux","password":true,"vac":true,"version":"7757534","steam_id":85568392925397960,"keywords":["nocrits","nodmgspread","payload","uncletopia"],"game_id":440,"stv_port":27066,"stv_name":"Uncletopia | Sydney | 6 | Community | STV","players":null},{"server_id":49,"name":"Uncletopia | Warsaw | 1 | All Maps","name_short":"waw-1","host":"waw-1.pl.uncletopia.com","port":27015,"enabled":true,"region":"eu","cc":"pl","latitude":52.2297,"longitude":21.017532,"reserved":0,"last_update":"0001-01-01T00:00:00Z","name_a2s":"","protocol":0,"map":"","folder":"","game":"","app_id":0,"player_count":0,"max_players":0,"Bots":0,"server_type":"","server_os":"","password":false,"vac":false,"version":"","steam_id":0,"keywords":null,"game_id":0,"stv_port":0,"stv_name":"","players":null},{"server_id":50,"name":"Uncletopia | Warsaw | 2 | All Maps","name_short":"waw-2","host":"waw-1.pl.uncletopia.com","port":27025,"enabled":true,"region":"eu","cc":"pl","latitude":52.2297,"longitude":21.017532,"reserved":0,"last_update":"0001-01-01T00:00:00Z","name_a2s":"Uncletopia | Warsaw | 2 | All Maps","protocol":17,"map":"koth_viaduct","folder":"tf","game":"Team Fortress","app_id":440,"player_count":0,"max_players":24,"Bots":0,"server_type":"Dedicated","server_os":"Linux","password":true,"vac":true,"version":"7757534","steam_id":85568392925397851,"keywords":["cp","nocrits","nodmgspread","uncletopia"],"game_id":440,"stv_port":27026,"stv_name":"Uncletopia | Warsaw | 2 | All Maps | STV","players":null},{"server_id":51,"name":"Uncletopia | Warsaw | 3 | All Maps","name_short":"waw-3","host":"waw-1.pl.uncletopia.com","port":27035,"enabled":true,"region":"eu","cc":"pl","latitude":52.2297,"longitude":21.017532,"reserved":0,"last_update":"0001-01-01T00:00:00Z","name_a2s":"Uncletopia | Warsaw | 3 | All Maps","protocol":17,"map":"pl_badwater","folder":"tf","game":"Team Fortress","app_id":440,"player_count":0,"max_players":24,"Bots":0,"server_type":"Dedicated","server_os":"Linux","password":true,"vac":true,"version":"7757534","steam_id":85568392925397852,"keywords":["nocrits","nodmgspread","payload","uncletopia"],"game_id":440,"stv_port":27036,"stv_name":"Uncletopia | Warsaw | 3 | All Maps | STV","players":null},{"server_id":52,"name":"Uncletopia | Warsaw | 4 | All Maps","name_short":"waw-4","host":"waw-1.pl.uncletopia.com","port":27045,"enabled":true,"region":"eu","cc":"pl","latitude":52.2297,"longitude":21.017532,"reserved":0,"last_update":"0001-01-01T00:00:00Z","name_a2s":"Uncletopia | Warsaw | 4 | All Maps","protocol":17,"map":"koth_lakeside_final","folder":"tf","game":"Team Fortress","app_id":440,"player_count":0,"max_players":24,"Bots":0,"server_type":"Dedicated","server_os":"Linux","password":true,"vac":true,"version":"7757534","steam_id":85568392925397853,"keywords":["cp","nocrits","nodmgspread","uncletopia"],"game_id":440,"stv_port":27046,"stv_name":"Uncletopia | Warsaw | 4 | All Maps | STV","players":null},{"server_id":53,"name":"Uncletopia | Warsaw | 5 | Stopwatch Beta","name_short":"waw-5","host":"waw-1.pl.uncletopia.com","port":27055,"enabled":true,"region":"eu","cc":"pl","latitude":52.2297,"longitude":21.017532,"reserved":0,"last_update":"0001-01-01T00:00:00Z","name_a2s":"Uncletopia | Warsaw | 5 | Stopwatch Beta","protocol":17,"map":"pl_borneo","folder":"tf","game":"Team Fortress","app_id":440,"player_count":0,"max_players":24,"Bots":0,"server_type":"Dedicated","server_os":"Linux","password":true,"vac":true,"version":"7757534","steam_id":85568392925397854,"keywords":["nocrits","nodmgspread","payload","uncletopia"],"game_id":440,"stv_port":27056,"stv_name":"Uncletopia | Warsaw | 5 | Stopwatch Beta | STV","players":null},{"server_id":54,"name":"Uncletopia | Warsaw | 6 | Community","name_short":"waw-6","host":"waw-1.pl.uncletopia.com","port":27065,"enabled":true,"region":"eu","cc":"pl","latitude":52.2297,"longitude":21.017532,"reserved":0,"last_update":"0001-01-01T00:00:00Z","name_a2s":"Uncletopia | Warsaw | 6 | Community","protocol":17,"map":"koth_lakeside_final","folder":"tf","game":"Team Fortress","app_id":440,"player_count":0,"max_players":24,"Bots":0,"server_type":"Dedicated","server_os":"Linux","password":true,"vac":true,"version":"7757534","steam_id":85568392925397856,"keywords":["cp","nocrits","nodmgspread","uncletopia"],"game_id":440,"stv_port":27066,"stv_name":"Uncletopia | Warsaw | 6 | Community | STV","players":null}]}