{"status":true,"message":"","result":[{"server_id":9,"name":"Uncletopia | Atlanta | 1 | All Maps","name_short":"atl-1","host":"atl-1.us.uncletopia.com","port":27015,"enabled":true,"region":"us-east","cc":"us","latitude":33.753746,"longitude":-84.38633,"reserved":0,"last_update":"0001-01-01T00:00:00Z","name_a2s":"Uncletopia | Atlanta | 1 | All Maps","protocol":17,"map":"koth_sawmill","folder":"tf","game":"Team Fortress","app_id":440,"player_count":24,"max_players":24,"Bots":0,"server_type":"Dedicated","server_os":"Linux","password":true,"vac":true,"version":"7961495","steam_id":85568392924469982,"keywords":["cp","nocrits","nodmgspread","uncletopia"],"game_id":440,"stv_port":27016,"stv_name":"Uncletopia | Atlanta | 1 | All Maps | STV","players":[{"user_id":509,"name":"Heathcliff","steam_id":76561198044288534,"connected_time":10229000000000,"state":"active","ping":70},{"user_id":600,"name":"MARIOPARTYDSFAN","steam_id":76561198872122117,"connected_time":3545000000000,"state":"active","ping":54},{"user_id":632,"name":"Brandonazz","steam_id":76561197994366351,"connected_time":162000000000,"state":"active","ping":72},{"user_id":602,"name":"Mikado282","steam_id":76561198061337732,"connected_time":2844000000000,"state":"active","ping":151},{"user_id":621,"name":"bighead","steam_id":76561198254859016,"connected_time":1344000000000,"state":"active","ping":87},{"user_id":623,"name":"pocket ranni","steam_id":76561198077366457,"connected_time":424000000000,"state":"active","ping":57},{"user_id":575,"name":"OrangeSodaMachine","steam_id":76561198079230156,"connected_time":5489000000000,"state":"active","ping":156},{"user_id":568,"name":"Blehnder","steam_id":76561198172097526,"connected_time":5793000000000,"state":"active","ping":84},{"user_id":624,"name":"ATL1 | cola","steam_id":76561198374390458,"connected_time":420000000000,"state":"active","ping":62},{"user_id":620,"name":"ViKING","steam_id":76561198183847785,"connected_time":1684000000000,"state":"active","ping":82},{"user_id":630,"name":"Echo","steam_id":76561198072092594,"connected_time":231000000000,"state":"active","ping":59},{"user_id":628,"name":"Nyle","steam_id":76561198045652639,"connected_time":413000000000,"state":"active","ping":109},{"user_id":558,"name":"joe","steam_id":76561198045781320,"connected_time":6712000000000,"state":"active","ping":62},{"user_id":592,"name":"bkiller","steam_id":76561198029265697,"connected_time":4169000000000,"state":"active","ping":54},{"user_id":631,"name":"average rust player","steam_id":76561198047627340,"connected_time":204000000000,"state":"active","ping":91},{"user_id":608,"name":"ElectricBurger36","steam_id":76561198847607639,"connected_time":2158000000000,"state":"active","ping":60},{"user_id":627,"name":"Sinta","steam_id":76561198098398841,"connected_time":418000000000,"state":"active","ping":54},{"user_id":618,"name":"jarrettconsult","steam_id":76561198249998262,"connected_time":1772000000000,"state":"active","ping":61},{"user_id":629,"name":"z","steam_id":76561198377478982,"connected_time":398000000000,"state":"active","ping":70},{"user_id":512,"name":"ATL1 | Uganda Knuckles lll","steam_id":76561199121276474,"connected_time":10057000000000,"state":"active","ping":84},{"user_id":612,"name":"Traveler","steam_id":76561199013528949,"connected_time":1871000000000,"state":"active","ping":44},{"user_id":609,"name":"Joe Rogan (real)","steam_id":76561198359511515,"connected_time":2106000000000,"state":"active","ping":74},{"user_id":588,"name":"zogs","steam_id":76561198323491654,"connected_time":4373000000000,"state":"active","ping":61},{"user_id":619,"name":"|= |2 /-\\ |\\| |\u003c","steam_id":76561198233792724,"connected_time":1772000000000,"state":"active","ping":84}]},{"server_id":104,"name":"Uncletopia | Atlanta | 2 | All Maps","name_short":"atl-2","host":"atl-1.us.uncletopia.com","port":27025,"enabled":true,"region":"us-east","cc":"us","latitude":33.753746,"longitude":-84.38633,"reserved":0,"last_update":"0001-01-01T00:00:00Z","name_a2s":"Uncletopia | Atlanta | 2 | All Maps","protocol":17,"map":"pl_badwater","folder":"tf","game":"Team Fortress","app_id":440,"player_count":24,"max_players":24,"Bots":0,"server_type":"Dedicated","server_os":"Linux","password":true,"vac":true,"version":"7961495","steam_id":85568392924469983,"keywords":["nocrits","nodmgspread","payload","uncletopia"],"game_id":440,"stv_port":27026,"stv_name":"Uncletopia | Atlanta | 2 | All Maps | STV","players":[{"user_id":356,"name":"Tribute","steam_id":76561198081594043,"connected_time":1004000000000,"state":"active","ping":71},{"user_id":307,"name":"brisky","steam_id":76561198869675719,"connected_time":4728000000000,"state":"active","ping":60},{"user_id":357,"name":"sawrik","steam_id":76561198018808213,"connected_time":947000000000,"state":"active","ping":80},{"user_id":364,"name":"Toa of Time","steam_id":76561198086867556,"connected_time":533000000000,"state":"active","ping":87},{"user_id":365,"name":"melvyn","steam_id":76561198113226381,"connected_time":316000000000,"state":"active","ping":53},{"user_id":337,"name":"warren","steam_id":76561198136331136,"connected_time":2668000000000,"state":"active","ping":75},{"user_id":341,"name":"the_batter","steam_id":76561199078138661,"connected_time":2168000000000,"state":"active","ping":71},{"user_id":318,"name":"Robo Boss","steam_id":76561199067098696,"connected_time":4393000000000,"state":"active","ping":81},{"user_id":349,"name":"Luffliet.","steam_id":76561198186593707,"connected_time":1599000000000,"state":"active","ping":69},{"user_id":373,"name":"FUSION","steam_id":76561197972659738,"connected_time":147000000000,"state":"active","ping":59},{"user_id":368,"name":"Big Titty Goth Boy","steam_id":76561198429471475,"connected_time":198000000000,"state":"active","ping":83},{"user_id":358,"name":"SneakySneak","steam_id":76561198064847921,"connected_time":940000000000,"state":"active","ping":65},{"user_id":300,"name":"purplerosie334","steam_id":76561199491020174,"connected_time":5617000000000,"state":"active","ping":101},{"user_id":367,"name":"Shook","steam_id":76561198054064995,"connected_time":273000000000,"state":"active","ping":92},{"user_id":369,"name":"Kael","steam_id":76561198041277031,"connected_time":195000000000,"state":"active","ping":75},{"user_id":363,"name":"Parron_T","steam_id":76561199045601265,"connected_time":707000000000,"state":"active","ping":131},{"user_id":350,"name":"Chicken Golem","steam_id":76561198138995247,"connected_time":1597000000000,"state":"active","ping":89},{"user_id":361,"name":"/dev/null","steam_id":76561198042144148,"connected_time":905000000000,"state":"active","ping":81},{"user_id":340,"name":"triangleman","steam_id":76561198972733542,"connected_time":2328000000000,"state":"active","ping":74},{"user_id":371,"name":"bobbymcbobington","steam_id":76561199089411172,"connected_time":177000000000,"state":"active","ping":97},{"user_id":372,"name":"Lars Ulrich (real)","steam_id":76561198099296029,"connected_time":162000000000,"state":"active","ping":68},{"user_id":313,"name":"Fudgely","steam_id":76561198039425862,"connected_time":4702000000000,"state":"active","ping":81},{"user_id":362,"name":"TheSecretNewbie","steam_id":76561198194671218,"connected_time":814000000000,"state":"active","ping":37},{"user_id":374,"name":"Gitgudgame","steam_id":76561198354761942,"connected_time":108000000000,"state":"active","ping":84}]},{"server_id":400,"name":"Uncletopia | Atlanta | 3 | Stopwatch","name_short":"atl-3","host":"atl-1.us.uncletopia.com","port":27035,"enabled":true,"region":"us-east","cc":"us","latitude":33.753746,"longitude":-84.38633,"reserved":0,"last_update":"0001-01-01T00:00:00Z","name_a2s":"Uncletopia | Atlanta | 3 | Stopwatch","protocol":17,"map":"workshop/koth_bagel_rc6.ugc2514036946","folder":"tf","game":"Team Fortress","app_id":440,"player_count":20,"max_players":24,"Bots":0,"server_type":"Dedicated","server_os":"Linux","password":true,"vac":true,"version":"7961495","steam_id":85568392924515187,"keywords":["cp","nocrits","nodmgspread","uncletopia"],"game_id":440,"stv_port":27036,"stv_name":"Uncletopia | Atlanta | 3 | Stopwatch | STV","players":[{"user_id":127,"name":"TheChickenChuck","steam_id":76561199192686708,"connected_time":2357000000000,"state":"active","ping":99},{"user_id":161,"name":"Squope","steam_id":76561198983129293,"connected_time":135000000000,"state":"active","ping":76},{"user_id":143,"name":"David Hasseloof","steam_id":76561198070864553,"connected_time":1743000000000,"state":"active","ping":87},{"user_id":144,"name":"The_Pacific_gamer","steam_id":76561198089491446,"connected_time":1718000000000,"state":"active","ping":105},{"user_id":131,"name":"JustAnormalUsername","steam_id":76561198891545498,"connected_time":2276000000000,"state":"active","ping":56},{"user_id":145,"name":"Sailor Galaxy Planet Man","steam_id":76561198039569373,"connected_time":1680000000000,"state":"active","ping":86},{"user_id":148,"name":"i be in situations","steam_id":76561198084885479,"connected_time":1500000000000,"state":"active","ping":100},{"user_id":160,"name":"Fry Enjoyer","steam_id":76561198987191738,"connected_time":474000000000,"state":"active","ping":121},{"user_id":133,"name":"Cringe Slayer","steam_id":76561198299929340,"connected_time":2258000000000,"state":"active","ping":95},{"user_id":156,"name":"catrinaisahuman","steam_id":76561198281355729,"connected_time":1159000000000,"state":"active","ping":88},{"user_id":162,"name":"monsterkill4567","steam_id":76561198272986367,"connected_time":120000000000,"state":"active","ping":119},{"user_id":159,"name":"misterspud","steam_id":76561198195306218,"connected_time":685000000000,"state":"active","ping":53},{"user_id":164,"name":"Some Octopus Wizard","steam_id":76561198005470354,"connected_time":83000000000,"state":"active","ping":61},{"user_id":153,"name":"Liver stealer","steam_id":76561199029954287,"connected_time":1353000000000,"state":"active","ping":131},{"user_id":165,"name":"Brendan","steam_id":76561198041079914,"connected_time":72000000000,"state":"active","ping":73},{"user_id":138,"name":"chrischrischris3018@yahoo.com","steam_id":76561198137316053,"connected_time":2010000000000,"state":"active","ping":49},{"user_id":109,"name":"TwistyBoi","steam_id":76561198201410603,"connected_time":3716000000000,"state":"active","ping":67},{"user_id":155,"name":"2kchr0","steam_id":76561198069681848,"connected_time":1262000000000,"state":"active","ping":123},{"user_id":154,"name":"Klitz Penischmidt","steam_id":76561198050582941,"connected_time":1350000000000,"state":"active","ping":79},{"user_id":142,"name":"bird who can't aim","steam_id":76561198062360755,"connected_time":1977000000000,"state":"active","ping":60}]},{"server_id":401,"name":"Uncletopia | Atlanta | 4 | Community","name_short":"atl-4","host":"atl-1.us.uncletopia.com","port":27045,"enabled":true,"region":"us-east","cc":"us","latitude":33.753746,"longitude":-84.38633,"reserved":0,"last_update":"0001-01-01T00:00:00Z","name_a2s":"Uncletopia | Atlanta | 4 | Community","protocol":17,"map":"workshop/pl_boundary_final1.ugc456799153","folder":"tf","game":"Team Fortress","app_id":440,"player_count":0,"max_players":24,"Bots":0,"server_type":"Dedicated","server_os":"Linux","password":true,"vac":true,"version":"7961495","steam_id":85568392924515188,"keywords":["nocrits","nodmgspread","payload","uncletopia"],"game_id":440,"stv_port":27046,"stv_name":"Uncletopia | Atlanta | 4 | Community | STV","players":null},{"server_id":2,"name":"Uncletopia | Chicago | 1 | All Maps","name_short":"chi-1","host":"chi-1.us.uncletopia.com","port":27015,"enabled":true,"region":"us-central","cc":"us","latitude":41.881832,"longitude":-87.62318,"reserved":0,"last_update":"0001-01-01T00:00:00Z","name_a2s":"Uncletopia | Chicago | 1 | All Maps","protocol":17,"map":"pl_borneo","folder":"tf","game":"Team Fortress","app_id":440,"player_count":24,"max_players":24,"Bots":0,"server_type":"Dedicated","server_os":"Linux","password":true,"vac":true,"version":"7961495","steam_id":85568392924469984,"keywords":["nocrits","nodmgspread","payload","uncletopia"],"game_id":440,"stv_port":27016,"stv_name":"Uncletopia | Chicago | 1 | All Maps | STV","players":[{"user_id":562,"name":"SandHanitizer","steam_id":76561198234676500,"connected_time":3338000000000,"state":"active","ping":68},{"user_id":596,"name":"wetto makaveli","steam_id":76561198224811504,"connected_time":678000000000,"state":"active","ping":61},{"user_id":607,"name":"Sprinklingmydoughnut","steam_id":76561198168009092,"connected_time":454000000000,"state":"active","ping":87},{"user_id":556,"name":"Bobbn","steam_id":76561198876124683,"connected_time":4204000000000,"state":"active","ping":79},{"user_id":514,"name":"Sooch","steam_id":76561198007043697,"connected_time":6929000000000,"state":"active","ping":86},{"user_id":570,"name":"BunnyBlitz","steam_id":76561198165881112,"connected_time":2273000000000,"state":"active","ping":85},{"user_id":598,"name":"JimmyDribblerJibblerGribbler","steam_id":76561198274536607,"connected_time":625000000000,"state":"active","ping":105},{"user_id":552,"name":"Your Local Queer Librarian","steam_id":76561198013077080,"connected_time":4267000000000,"state":"active","ping":56},{"user_id":582,"name":"Hunt0rb","steam_id":76561198120527608,"connected_time":1557000000000,"state":"active","ping":70},{"user_id":609,"name":"chungus","steam_id":76561198047451663,"connected_time":364000000000,"state":"active","ping":68},{"user_id":501,"name":"Bunnyboy","steam_id":76561198298416058,"connected_time":8053000000000,"state":"active","ping":65},{"user_id":576,"name":"CherriKat","steam_id":76561198821297512,"connected_time":1640000000000,"state":"active","ping":109},{"user_id":539,"name":"Sentry Gun Main Man","steam_id":76561198327938247,"connected_time":5922000000000,"state":"active","ping":84},{"user_id":600,"name":"XxProEndDragon_slayer 2011_xX","steam_id":76561198377868275,"connected_time":605000000000,"state":"active","ping":96},{"user_id":571,"name":"dP | I'm in a Wookie Suit","steam_id":76561198083307644,"connected_time":2251000000000,"state":"active","ping":102},{"user_id":601,"name":"Biffy","steam_id":76561198026335945,"connected_time":601000000000,"state":"active","ping":63},{"user_id":606,"name":"the rat gets the cheese","steam_id":76561199077027954,"connected_time":495000000000,"state":"active","ping":65},{"user_id":604,"name":"ms. capgras","steam_id":76561199080209996,"connected_time":564000000000,"state":"active","ping":55},{"user_id":589,"name":"FinnaBust","steam_id":76561198397669078,"connected_time":1286000000000,"state":"active","ping":82},{"user_id":588,"name":"yes daddy","steam_id":76561198166100997,"connected_time":1297000000000,"state":"active","ping":75},{"user_id":584,"name":"Major_Pippy","steam_id":76561198004482878,"connected_time":1549000000000,"state":"active","ping":99},{"user_id":593,"name":"Ace Chromatica","steam_id":76561198042211131,"connected_time":1067000000000,"state":"active","ping":82},{"user_id":504,"name":"Chris The Combustible Cow","steam_id":76561198449656454,"connected_time":7861000000000,"state":"active","ping":74},{"user_id":595,"name":"Dokkibai","steam_id":76561198355935693,"connected_time":839000000000,"state":"active","ping":49}]},{"server_id":106,"name":"Uncletopia | Chicago | 2 | All Maps","name_short":"chi-2","host":"chi-1.us.uncletopia.com","port":27025,"enabled":true,"region":"us-central","cc":"us","latitude":41.881832,"longitude":-87.62318,"reserved":0,"last_update":"0001-01-01T00:00:00Z","name_a2s":"Uncletopia | Chicago | 2 | All Maps","protocol":17,"map":"pl_swiftwater_final1","folder":"tf","game":"Team Fortress","app_id":440,"player_count":24,"max_players":24,"Bots":0,"server_type":"Dedicated","server_os":"Linux","password":true,"vac":true,"version":"7961495","steam_id":85568392924469985,"keywords":["nocrits","nodmgspread","payload","uncletopia"],"game_id":440,"stv_port":27026,"stv_name":"Uncletopia | Chicago | 2 | All Maps | STV","players":[{"user_id":428,"name":"itsPanzerPanda","steam_id":76561199441946346,"connected_time":2394000000000,"state":"active","ping":51},{"user_id":426,"name":"RealStanzy","steam_id":76561199060261003,"connected_time":2423000000000,"state":"active","ping":75},{"user_id":404,"name":"Dr Oshawott","steam_id":76561198042021629,"connected_time":4315000000000,"state":"active","ping":68},{"user_id":406,"name":"DiamondEpsilon","steam_id":76561198203883311,"connected_time":4150000000000,"state":"active","ping":79},{"user_id":435,"name":"Meh","steam_id":76561198078187920,"connected_time":1800000000000,"state":"active","ping":103},{"user_id":386,"name":"An Erect Penis :)","steam_id":76561198086477485,"connected_time":4960000000000,"state":"active","ping":44},{"user_id":422,"name":"He rolls his own","steam_id":76561198058162684,"connected_time":2730000000000,"state":"active","ping":78},{"user_id":425,"name":"Artemisia (She/They)","steam_id":76561198265616793,"connected_time":2426000000000,"state":"active","ping":77},{"user_id":387,"name":"KASHI","steam_id":76561198045285049,"connected_time":4902000000000,"state":"active","ping":83},{"user_id":439,"name":"Tobo","steam_id":76561198085846393,"connected_time":727000000000,"state":"active","ping":80},{"user_id":443,"name":"Epha","steam_id":76561198079379951,"connected_time":313000000000,"state":"active","ping":65},{"user_id":437,"name":"Howard Hamlin","steam_id":76561198881039861,"connected_time":1785000000000,"state":"active","ping":44},{"user_id":417,"name":"HRT","steam_id":76561198013781132,"connected_time":3153000000000,"state":"active","ping":85},{"user_id":430,"name":"qory","steam_id":76561198152064890,"connected_time":2375000000000,"state":"active","ping":52},{"user_id":434,"name":"OH BOY","steam_id":76561199052273428,"connected_time":1848000000000,"state":"active","ping":45},{"user_id":416,"name":"deimos","steam_id":76561198148357768,"connected_time":3331000000000,"state":"active","ping":73},{"user_id":347,"name":"Leadwolf","steam_id":76561198308533122,"connected_time":7645000000000,"state":"active","ping":78},{"user_id":405,"name":"✧･ﾟhooligan!!","steam_id":76561198874149130,"connected_time":4211000000000,"state":"active","ping":72},{"user_id":431,"name":"GotYourGoat","steam_id":76561197995171850,"connected_time":2368000000000,"state":"active","ping":93},{"user_id":397,"name":"Junipyre","steam_id":76561198044819364,"connected_time":4533000000000,"state":"active","ping":83},{"user_id":432,"name":"sasharudzik","steam_id":76561199126617781,"connected_time":2358000000000,"state":"active","ping":67},{"user_id":444,"name":"Shang","steam_id":76561198298637817,"connected_time":48000000000,"state":"spawning","ping":71},{"user_id":442,"name":"Six Piece Chicken McNobody","steam_id":76561198129848222,"connected_time":676000000000,"state":"active","ping":69},{"user_id":339,"name":"loser","steam_id":76561198259380127,"connected_time":8289000000000,"state":"active","ping":55}]},{"server_id":402,"name":"Uncletopia | Chicago | 3 | All Maps","name_short":"chi-3","host":"chi-1.us.uncletopia.com","port":27035,"enabled":true,"region":"us-central","cc":"us","latitude":41.881832,"longitude":-87.62318,"reserved":0,"last_update":"0001-01-01T00:00:00Z","name_a2s":"Uncletopia | Chicago | 3 | All Maps","protocol":17,"map":"cp_dustbowl","folder":"tf","game":"Team Fortress","app_id":440,"player_count":22,"max_players":24,"Bots":0,"server_type":"Dedicated","server_os":"Linux","password":true,"vac":true,"version":"7961495","steam_id":85568392924515191,"keywords":["cp","nocrits","nodmgspread","uncletopia"],"game_id":440,"stv_port":27036,"stv_name":"Uncletopia | Chicago | 3 | All Maps | STV","players":[{"user_id":386,"name":"hearthian","steam_id":76561198113235260,"connected_time":4090000000000,"state":"active","ping":97},{"user_id":394,"name":"Harpua","steam_id":76561197988020228,"connected_time":3053000000000,"state":"active","ping":74},{"user_id":419,"name":"I'm Only 4 Inches","steam_id":76561198055542546,"connected_time":524000000000,"state":"active","ping":56},{"user_id":418,"name":"∫ (x + 1) / (x^2 + x) d x","steam_id":76561198313364985,"connected_time":595000000000,"state":"active","ping":70},{"user_id":409,"name":"Bacon","steam_id":76561199078407152,"connected_time":1429000000000,"state":"active","ping":113},{"user_id":396,"name":"Blaze","steam_id":76561198043797702,"connected_time":3033000000000,"state":"active","ping":62},{"user_id":401,"name":"dankman","steam_id":76561198977064186,"connected_time":2983000000000,"state":"active","ping":48},{"user_id":405,"name":"PK","steam_id":76561198368722500,"connected_time":2272000000000,"state":"active","ping":82},{"user_id":421,"name":"swifthicky12op","steam_id":76561198262210064,"connected_time":201000000000,"state":"active","ping":55},{"user_id":420,"name":"chimpin","steam_id":76561198858089300,"connected_time":523000000000,"state":"active","ping":71},{"user_id":372,"name":"Neopyth","steam_id":76561198031868427,"connected_time":4533000000000,"state":"active","ping":65},{"user_id":416,"name":"JACOB","steam_id":76561198211874895,"connected_time":690000000000,"state":"active","ping":75},{"user_id":397,"name":"SKForm","steam_id":76561198381500437,"connected_time":3025000000000,"state":"active","ping":50},{"user_id":374,"name":"Yuck","steam_id":76561198001667870,"connected_time":4502000000000,"state":"active","ping":73},{"user_id":408,"name":"Lord Scrubling","steam_id":76561198263744445,"connected_time":1533000000000,"state":"active","ping":76},{"user_id":362,"name":"chesterwnimitz","steam_id":76561198062664377,"connected_time":5276000000000,"state":"active","ping":94},{"user_id":388,"name":"Kek","steam_id":76561198067689989,"connected_time":3921000000000,"state":"active","ping":65},{"user_id":412,"name":"bologna forklift 2012","steam_id":76561198199061206,"connected_time":1140000000000,"state":"active","ping":44},{"user_id":322,"name":"CONKER","steam_id":76561197986079320,"connected_time":7925000000000,"state":"active","ping":71},{"user_id":378,"name":"nomai","steam_id":76561198076201225,"connected_time":4404000000000,"state":"active","ping":98},{"user_id":348,"name":"CasualBacon","steam_id":76561198041182340,"connected_time":6131000000000,"state":"active","ping":59},{"user_id":400,"name":"Koopinator","steam_id":76561198135747412,"connected_time":3007000000000,"state":"active","ping":68}]},{"server_id":403,"name":"Uncletopia | Chicago | 4 | All Maps","name_short":"chi-4","host":"chi-1.us.uncletopia.com","port":27045,"enabled":true,"region":"us-central","cc":"us","latitude":41.881832,"longitude":-87.62318,"reserved":0,"last_update":"0001-01-01T00:00:00Z","name_a2s":"Uncletopia | Chicago | 4 | All Maps","protocol":17,"map":"pl_upward","folder":"tf","game":"Team Fortress","app_id":440,"player_count":24,"max_players":24,"Bots":0,"server_type":"Dedicated","server_os":"Linux","password":true,"vac":true,"version":"7961495","steam_id":85568392924515193,"keywords":["nocrits","nodmgspread","payload","uncletopia"],"game_id":440,"stv_port":27046,"stv_name":"Uncletopia | Chicago | 4 | All Maps | STV","players":[{"user_id":887,"name":"Stock Dog","steam_id":76561198070469034,"connected_time":280000000000,"state":"active","ping":93},{"user_id":876,"name":"HRTless","steam_id":76561198394284595,"connected_time":730000000000,"state":"active","ping":57},{"user_id":881,"name":"Lifial","steam_id":76561198271885819,"connected_time":370000000000,"state":"active","ping":73},{"user_id":644,"name":"Tony Bananas","steam_id":76561197986081494,"connected_time":8714000000000,"state":"active","ping":84},{"user_id":886,"name":"Rein","steam_id":76561198300340427,"connected_time":315000000000,"state":"active","ping":62},{"user_id":859,"name":"Shady Businessman","steam_id":76561198143855968,"connected_time":1622000000000,"state":"active","ping":103},{"user_id":865,"name":"omnislime","steam_id":76561199382475668,"connected_time":1228000000000,"state":"active","ping":71},{"user_id":879,"name":"Sweater-Fan","steam_id":76561199389567214,"connected_time":381000000000,"state":"active","ping":70},{"user_id":882,"name":"Twilight Princess","steam_id":76561198049460281,"connected_time":370000000000,"state":"active","ping":55},{"user_id":843,"name":"Remix.SMG","steam_id":76561198052895933,"connected_time":2307000000000,"state":"active","ping":75},{"user_id":852,"name":"stedman slick","steam_id":76561198088599835,"connected_time":1729000000000,"state":"active","ping":83},{"user_id":885,"name":"AkimboAoki","steam_id":76561198158323058,"connected_time":344000000000,"state":"active","ping":96},{"user_id":871,"name":"Chairman Meow","steam_id":76561198107795169,"connected_time":985000000000,"state":"active","ping":81},{"user_id":878,"name":"Lex Fridman","steam_id":76561198353840477,"connected_time":390000000000,"state":"active","ping":52},{"user_id":854,"name":"Violinja","steam_id":76561198324875899,"connected_time":1725000000000,"state":"active","ping":68},{"user_id":883,"name":"a small patch of brown liquid","steam_id":76561198091172158,"connected_time":370000000000,"state":"active","ping":44},{"user_id":874,"name":"GasterDog","steam_id":76561198844423506,"connected_time":808000000000,"state":"active","ping":98},{"user_id":884,"name":"CyborgHexapus4","steam_id":76561198160335724,"connected_time":366000000000,"state":"active","ping":114},{"user_id":501,"name":"Hobo Shanker","steam_id":76561198001785187,"connected_time":20117000000000,"state":"active","ping":89},{"user_id":888,"name":"VisciousPotato","steam_id":76561198992859414,"connected_time":144000000000,"state":"active","ping":58},{"user_id":867,"name":"loboto gaming","steam_id":76561199088321574,"connected_time":1194000000000,"state":"active","ping":91},{"user_id":800,"name":"HalfDead","steam_id":76561198049700226,"connected_time":2980000000000,"state":"active","ping":84},{"user_id":856,"name":"MrMineHeads","steam_id":76561198129344936,"connected_time":1715000000000,"state":"active","ping":73},{"user_id":857,"name":"Classic","steam_id":76561198215293509,"connected_time":1715000000000,"state":"active","ping":60}]},{"server_id":36,"name":"Uncletopia | Chicago | 5 | All Maps","name_short":"chi-5","host":"chi-2.us.uncletopia.com","port":27015,"enabled":true,"region":"us-central","cc":"us","latitude":41.881832,"longitude":-87.62318,"reserved":0,"last_update":"0001-01-01T00:00:00Z","name_a2s":"Uncletopia | Chicago | 5 | All Maps","protocol":17,"map":"koth_suijin","folder":"tf","game":"Team Fortress","app_id":440,"player_count":9,"max_players":24,"Bots":0,"server_type":"Dedicated","server_os":"Linux","password":true,"vac":true,"version":"7961495","steam_id":85568392924866362,"keywords":["cp","nocrits","nodmgspread","uncletopia"],"game_id":440,"stv_port":27016,"stv_name":"Uncletopia | Chicago | 5 | All Maps | STV","players":[{"user_id":300,"name":"Dogvan","steam_id":76561198176708643,"connected_time":2232000000000,"state":"active","ping":83},{"user_id":324,"name":"schnedwob","steam_id":76561197999146588,"connected_time":505000000000,"state":"active","ping":77},{"user_id":325,"name":"Mr_CrackerJackXD","steam_id":76561199304041971,"connected_time":341000000000,"state":"active","ping":85},{"user_id":327,"name":"CURSE OF RA","steam_id":76561198838282369,"connected_time":194000000000,"state":"active","ping":74},{"user_id":328,"name":"Cervidé","steam_id":76561198098579497,"connected_time":192000000000,"state":"active","ping":68},{"user_id":329,"name":"rhume","steam_id":76561198350747953,"connected_time":182000000000,"state":"active","ping":46},{"user_id":331,"name":"Piss God","steam_id":76561198090504334,"connected_time":90000000000,"state":"active","ping":66},{"user_id":304,"name":"cicero","steam_id":76561198174799574,"connected_time":1861000000000,"state":"active","ping":98},{"user_id":245,"name":"[NAME-REDACTED]","steam_id":76561198035682975,"connected_time":5994000000000,"state":"active","ping":70}]},{"server_id":37,"name":"Uncletopia | Chicago | 6 | All Maps","name_short":"chi-6","host":"chi-2.us.uncletopia.com","port":27025,"enabled":true,"region":"us-central","cc":"us","latitude":41.881832,"longitude":-87.62318,"reserved":0,"last_update":"0001-01-01T00:00:00Z","name_a2s":"Uncletopia | Chicago | 6 | All Maps","protocol":17,"map":"pl_pier","folder":"tf","game":"Team Fortress","app_id":440,"player_count":22,"max_players":24,"Bots":0,"server_type":"Dedicated","server_os":"Linux","password":true,"vac":true,"version":"7961495","steam_id":85568392924866363,"keywords":["nocrits","nodmgspread","payload","uncletopia"],"game_id":440,"stv_port":27026,"stv_name":"Uncletopia | Chicago | 6 | All Maps | STV","players":[{"user_id":292,"name":"Demongirlballs","steam_id":76561198035768829,"connected_time":3979000000000,"state":"active","ping":60},{"user_id":352,"name":"robert","steam_id":76561198398918486,"connected_time":15000000000,"state":"active","ping":64},{"user_id":335,"name":"ECCO","steam_id":76561198002821513,"connected_time":1503000000000,"state":"active","ping":57},{"user_id":344,"name":"oxy","steam_id":76561198089770351,"connected_time":673000000000,"state":"active","ping":72},{"user_id":347,"name":"thecal","steam_id":76561198307893384,"connected_time":605000000000,"state":"active","ping":48},{"user_id":353,"name":"stick","steam_id":76561198049489094,"connected_time":7000000000,"state":"spawning","ping":51},{"user_id":331,"name":"purple germ","steam_id":76561198859275463,"connected_time":2017000000000,"state":"active","ping":110},{"user_id":283,"name":"StretchySnail59","steam_id":76561198073535005,"connected_time":4469000000000,"state":"active","ping":50},{"user_id":354,"name":"Dakota","steam_id":76561198134092308,"connected_time":7000000000,"state":"spawning","ping":61},{"user_id":308,"name":"Dexidus","steam_id":76561198021840495,"connected_time":3168000000000,"state":"active","ping":60},{"user_id":346,"name":"ZeroAbyss00","steam_id":76561198859198386,"connected_time":658000000000,"state":"active","ping":54},{"user_id":295,"name":"Galaxxy Bun","steam_id":76561198275513037,"connected_time":3960000000000,"state":"active","ping":64},{"user_id":338,"name":"kennedy","steam_id":76561198304536343,"connected_time":1462000000000,"state":"active","ping":60},{"user_id":350,"name":"Thot Patrol","steam_id":76561198026003193,"connected_time":300000000000,"state":"active","ping":63},{"user_id":304,"name":"Rem","steam_id":76561198204641019,"connected_time":3465000000000,"state":"active","ping":69},{"user_id":355,"name":"Donnie","steam_id":76561198837857545,"connected_time":4000000000,"state":"spawning","ping":202},{"user_id":221,"name":"RyInc","steam_id":76561198874261643,"connected_time":10037000000000,"state":"active","ping":47},{"user_id":251,"name":"jimmyfnaf172198yay","steam_id":76561198311446636,"connected_time":8448000000000,"state":"active","ping":61},{"user_id":327,"name":"frank","steam_id":76561198137777483,"connected_time":2211000000000,"state":"active","ping":70},{"user_id":349,"name":"Videogames are for idiots.","steam_id":76561197993151595,"connected_time":441000000000,"state":"active","ping":78},{"user_id":306,"name":"Mega_Man23","steam_id":76561198138341391,"connected_time":3391000000000,"state":"active","ping":80},{"user_id":348,"name":"FiddyFoMike","steam_id":76561198057072581,"connected_time":496000000000,"state":"active","ping":91}]},{"server_id":38,"name":"Uncletopia | Chicago | 7 | Stopwatch","name_short":"chi-7","host":"chi-2.us.uncletopia.com","port":27035,"enabled":true,"region":"us-central","cc":"us","latitude":41.881832,"longitude":-87.62318,"reserved":0,"last_update":"0001-01-01T00:00:00Z","name_a2s":"Uncletopia | Chicago | 7 | Stopwatch","protocol":17,"map":"workshop/koth_ashville_final.ugc2130459942","folder":"tf","game":"Team Fortress","app_id":440,"player_count":0,"max_players":24,"Bots":0,"server_type":"Dedicated","server_os":"Linux","password":true,"vac":true,"version":"7961495","steam_id":85568392924866364,"keywords":["cp","nocrits","nodmgspread","uncletopia"],"game_id":440,"stv_port":27036,"stv_name":"Uncletopia | Chicago | 7 | Stopwatch | STV","players":null},{"server_id":39,"name":"Uncletopia | Chicago | 8 | Community","name_short":"chi-8","host":"chi-2.us.uncletopia.com","port":27045,"enabled":true,"region":"us-central","cc":"us","latitude":41.881832,"longitude":-87.62318,"reserved":0,"last_update":"0001-01-01T00:00:00Z","name_a2s":"Uncletopia | Chicago | 8 | Community","protocol":17,"map":"workshop/koth_ashville_final.ugc2130459942","folder":"tf","game":"Team Fortress","app_id":440,"player_count":0,"max_players":24,"Bots":0,"server_type":"Dedicated","server_os":"Linux","password":true,"vac":true,"version":"7961495","steam_id":85568392924866365,"keywords":["cp","nocrits","nodmgspread","uncletopia"],"game_id":440,"stv_port":27046,"stv_name":"Uncletopia | Chicago | 8 | Community | STV","players":null},{"server_id":8,"name":"Uncletopia | Dallas | 1 | All Maps","name_short":"dal-1","host":"dal-1.us.uncletopia.com","port":27015,"enabled":true,"region":"us-central","cc":"us","latitude":32.779167,"longitude":-96.80889,"reserved":0,"last_update":"0001-01-01T00:00:00Z","name_a2s":"Uncletopia | Dallas | 1 | All Maps","protocol":17,"map":"koth_cascade","folder":"tf","game":"Team Fortress","app_id":440,"player_count":24,"max_players":24,"Bots":0,"server_type":"Dedicated","server_os":"Linux","password":true,"vac":true,"version":"7961495","steam_id":85568392924469986,"keywords":["cp","nocrits","nodmgspread","uncletopia"],"game_id":440,"stv_port":27016,"stv_name":"Uncletopia | Dallas | 1 | All Maps | STV","players":[{"user_id":486,"name":"THRONGLER","steam_id":76561198198563466,"connected_time":2616000000000,"state":"active","ping":36},{"user_id":490,"name":"M.I.L.F (Man I love frogs)","steam_id":76561198323926258,"connected_time":1466000000000,"state":"active","ping":44},{"user_id":493,"name":"Caught a Thundah","steam_id":76561198054495572,"connected_time":1389000000000,"state":"active","ping":50},{"user_id":465,"name":"SAGE(सगे*)","steam_id":76561198811114074,"connected_time":4262000000000,"state":"active","ping":68},{"user_id":427,"name":"The CEO of cement","steam_id":76561199107177460,"connected_time":7020000000000,"state":"active","ping":94},{"user_id":479,"name":"Freddy Fazbear","steam_id":76561198272353440,"connected_time":3709000000000,"state":"active","ping":56},{"user_id":442,"name":"tomandjerry085","steam_id":76561198800789071,"connected_time":5939000000000,"state":"active","ping":91},{"user_id":503,"name":"cringeass nae-nae girl","steam_id":76561198108753857,"connected_time":954000000000,"state":"active","ping":69},{"user_id":421,"name":"Wooden E","steam_id":76561198020308956,"connected_time":7202000000000,"state":"active","ping":60},{"user_id":496,"name":"Crimpbunkle","steam_id":76561198413864523,"connected_time":1138000000000,"state":"active","ping":86},{"user_id":500,"name":"Fostrel","steam_id":76561198152160601,"connected_time":982000000000,"state":"active","ping":54},{"user_id":454,"name":"tail slap +36 (4d12+18)","steam_id":76561198040425096,"connected_time":5366000000000,"state":"active","ping":67},{"user_id":489,"name":"Kookies","steam_id":76561198085117729,"connected_time":2133000000000,"state":"active","ping":74},{"user_id":505,"name":"NeoWolf","steam_id":76561198144759784,"connected_time":556000000000,"state":"active","ping":100},{"user_id":510,"name":"BaconBlitz | troutsupply.net","steam_id":76561198079461770,"connected_time":7000000000,"state":"spawning","ping":233},{"user_id":498,"name":"eepy kitty uwu","steam_id":76561198106313563,"connected_time":1115000000000,"state":"active","ping":74},{"user_id":499,"name":"fey","steam_id":76561198119191002,"connected_time":1105000000000,"state":"active","ping":94},{"user_id":488,"name":"Inflation Jumpscare","steam_id":76561198137862444,"connected_time":2556000000000,"state":"active","ping":45},{"user_id":501,"name":"Surfing Garchomp","steam_id":76561199107236884,"connected_time":975000000000,"state":"active","ping":101},{"user_id":508,"name":"bocchi the dog","steam_id":76561198259650356,"connected_time":299000000000,"state":"active","ping":94},{"user_id":504,"name":"BB0P","steam_id":76561198048165348,"connected_time":934000000000,"state":"active","ping":75},{"user_id":509,"name":"weed lesbian","steam_id":76561198042263805,"connected_time":14000000000,"state":"active","ping":205},{"user_id":482,"name":"spectrumdoctor77","steam_id":76561198871003321,"connected_time":3134000000000,"state":"active","ping":45},{"user_id":485,"name":"ZILICON","steam_id":76561199044705592,"connected_time":2762000000000,"state":"active","ping":115}]},{"server_id":108,"name":"Uncletopia | Dallas | 2 | All Maps","name_short":"dal-2","host":"dal-1.us.uncletopia.com","port":27025,"enabled":true,"region":"us-central","cc":"us","latitude":32.779167,"longitude":-96.80889,"reserved":0,"last_update":"0001-01-01T00:00:00Z","name_a2s":"Uncletopia | Dallas | 2 | All Maps","protocol":17,"map":"pl_swiftwater_final1","folder":"tf","game":"Team Fortress","app_id":440,"player_count":25,"max_players":24,"Bots":0,"server_type":"Dedicated","server_os":"Linux","password":true,"vac":true,"version":"7961495","steam_id":85568392924469988,"keywords":["nocrits","nodmgspread","payload","uncletopia"],"game_id":440,"stv_port":27026,"stv_name":"Uncletopia | Dallas | 2 | All Maps | STV","players":[{"user_id":231,"name":"Pyro she/her","steam_id":76561198214080773,"connected_time":413000000000,"state":"active","ping":89},{"user_id":232,"name":"Rob","steam_id":76561199187786660,"connected_time":407000000000,"state":"active","ping":54},{"user_id":220,"name":"Misanthrope","steam_id":76561198090692884,"connected_time":1297000000000,"state":"active","ping":103},{"user_id":198,"name":"TwistTheCan","steam_id":76561198225790324,"connected_time":2973000000000,"state":"active","ping":90},{"user_id":203,"name":"Pootis","steam_id":76561198042482648,"connected_time":2540000000000,"state":"active","ping":115},{"user_id":251,"name":"Wrath","steam_id":76561198103920554,"connected_time":4000000000,"state":"spawning","ping":34},{"user_id":233,"name":"Dreamzapp","steam_id":76561199084936632,"connected_time":401000000000,"state":"active","ping":97},{"user_id":214,"name":"Bleok","steam_id":76561198078212322,"connected_time":1436000000000,"state":"active","ping":122},{"user_id":234,"name":"vcx","steam_id":76561198139371143,"connected_time":375000000000,"state":"active","ping":76},{"user_id":157,"name":"Cofi","steam_id":76561199026721822,"connected_time":5148000000000,"state":"active","ping":91},{"user_id":226,"name":"UnkownGamerLOL","steam_id":76561198225902368,"connected_time":623000000000,"state":"active","ping":72},{"user_id":215,"name":"❤ Ashley ❤","steam_id":76561198056428303,"connected_time":1424000000000,"state":"active","ping":80},{"user_id":180,"name":"Cat in a fedora","steam_id":76561198187502875,"connected_time":3645000000000,"state":"active","ping":59},{"user_id":206,"name":"Joyous Jenny","steam_id":76561198127998866,"connected_time":2243000000000,"state":"active","ping":80},{"user_id":235,"name":"Deaddropping","steam_id":76561198043711366,"connected_time":353000000000,"state":"active","ping":79},{"user_id":216,"name":"self sufficient kitten","steam_id":76561197960592612,"connected_time":1415000000000,"state":"active","ping":92},{"user_id":201,"name":"Mr Drug Addict","steam_id":76561199062081467,"connected_time":2601000000000,"state":"active","ping":82},{"user_id":227,"name":"OddSlaush","steam_id":76561198043898488,"connected_time":611000000000,"state":"active","ping":73},{"user_id":228,"name":"lightsword24","steam_id":76561198227552556,"connected_time":520000000000,"state":"active","ping":111},{"user_id":239,"name":"Richard","steam_id":76561198262012045,"connected_time":232000000000,"state":"active","ping":74},{"user_id":219,"name":"Sneed-poster","steam_id":76561198206198937,"connected_time":1362000000000,"state":"active","ping":73},{"user_id":237,"name":"carti","steam_id":76561198345528370,"connected_time":338000000000,"state":"active","ping":84},{"user_id":229,"name":"LooseJuice","steam_id":76561198042181014,"connected_time":513000000000,"state":"active","ping":138},{"user_id":230,"name":"Plurbia","steam_id":76561199126384555,"connected_time":488000000000,"state":"active","ping":73},{"user_id":238,"name":"Word To Your Mothership","steam_id":76561198034329138,"connected_time":318000000000,"state":"active","ping":90}]},{"server_id":404,"name":"Uncletopia | Dallas | 3 | All Maps","name_short":"dal-3","host":"dal-1.us.uncletopia.com","port":27035,"enabled":true,"region":"us-central","cc":"us","latitude":32.779167,"longitude":-96.80889,"reserved":0,"last_update":"0001-01-01T00:00:00Z","name_a2s":"Uncletopia | Dallas | 3 | All Maps","protocol":17,"map":"cp_sunshine","folder":"tf","game":"Team Fortress","app_id":440,"player_count":23,"max_players":24,"Bots":0,"server_type":"Dedicated","server_os":"Linux","password":true,"vac":true,"version":"7961495","steam_id":85568392924515219,"keywords":["cp","nocrits","nodmgspread","uncletopia"],"game_id":440,"stv_port":27036,"stv_name":"Uncletopia | Dallas | 3 | All Maps | STV","players":[{"user_id":210,"name":"elcarlos1010","steam_id":76561198201986832,"connected_time":281000000000,"state":"active","ping":56},{"user_id":165,"name":"galacticdragonlord","steam_id":76561198119755801,"connected_time":3230000000000,"state":"active","ping":89},{"user_id":191,"name":"Kirby","steam_id":76561199161858008,"connected_time":1036000000000,"state":"active","ping":73},{"user_id":207,"name":"batheman63","steam_id":76561198881818552,"connected_time":510000000000,"state":"active","ping":88},{"user_id":193,"name":"bazongo","steam_id":76561199034118826,"connected_time":955000000000,"state":"active","ping":87},{"user_id":192,"name":"lugi","steam_id":76561199101072932,"connected_time":1002000000000,"state":"active","ping":103},{"user_id":194,"name":"Hero","steam_id":76561199239997936,"connected_time":950000000000,"state":"active","ping":90},{"user_id":181,"name":"Young-OG","steam_id":76561198058800479,"connected_time":2543000000000,"state":"active","ping":68},{"user_id":213,"name":"boo_thefeared","steam_id":76561198127967685,"connected_time":17000000000,"state":"active","ping":146},{"user_id":197,"name":"quinndy","steam_id":76561199195274997,"connected_time":872000000000,"state":"active","ping":78},{"user_id":211,"name":"BLØRG","steam_id":76561198036126673,"connected_time":76000000000,"state":"active","ping":72},{"user_id":199,"name":"2002 Toyota Corolla VE","steam_id":76561198149172070,"connected_time":845000000000,"state":"active","ping":46},{"user_id":200,"name":"Dmonic Plays","steam_id":76561198006572380,"connected_time":832000000000,"state":"active","ping":89},{"user_id":182,"name":"FlameEmerald","steam_id":76561198407696514,"connected_time":2541000000000,"state":"active","ping":87},{"user_id":201,"name":"lil EGG","steam_id":76561198361321253,"connected_time":804000000000,"state":"active","ping":87},{"user_id":212,"name":"Bron Betta","steam_id":76561198083851689,"connected_time":70000000000,"state":"active","ping":44},{"user_id":208,"name":"Joe Biden","steam_id":76561198056170906,"connected_time":457000000000,"state":"active","ping":97},{"user_id":188,"name":"Legit_Jaxer","steam_id":76561198172234053,"connected_time":1695000000000,"state":"active","ping":86},{"user_id":203,"name":"Bussyknight TF2","steam_id":76561198028729177,"connected_time":707000000000,"state":"active","ping":88},{"user_id":204,"name":"Catto","steam_id":76561198104877442,"connected_time":681000000000,"state":"active","ping":59},{"user_id":205,"name":"Coms","steam_id":76561198204995668,"connected_time":652000000000,"state":"active","ping":92},{"user_id":206,"name":"Thylo","steam_id":76561199038581030,"connected_time":642000000000,"state":"active","ping":84},{"user_id":174,"name":"Shrebbie","steam_id":76561198875230824,"connected_time":3065000000000,"state":"active","ping":80}]},{"server_id":405,"name":"Uncletopia | Dallas | 4 | Community","name_short":"dal-4","host":"dal-1.us.uncletopia.com","port":27045,"enabled":true,"region":"us-central","cc":"us","latitude":32.779167,"longitude":-96.80889,"reserved":0,"last_update":"0001-01-01T00:00:00Z","name_a2s":"Uncletopia | Dallas | 4 | Community","protocol":17,"map":"workshop/cp_croissant_final.ugc458840209","folder":"tf","game":"Team Fortress","app_id":440,"player_count":0,"max_players":24,"Bots":0,"server_type":"Dedicated","server_os":"Linux","password":true,"vac":true,"version":"7961495","steam_id":85568392924515220,"keywords":["cp","nocrits","nodmgspread","uncletopia"],"game_id":440,"stv_port":27046,"stv_name":"Uncletopia | Dallas | 4 | Community | STV","players":null},{"server_id":5,"name":"Uncletopia | Frankfurt | 1 | All Maps","name_short":"frk-1","host":"frk-1.de.uncletopia.com","port":27015,"enabled":true,"region":"eu","cc":"de","latitude":50.110924,"longitude":8.682127,"reserved":0,"last_update":"0001-01-01T00:00:00Z","name_a2s":"Uncletopia | Frankfurt | 1 | All Maps","protocol":17,"map":"koth_cascade","folder":"tf","game":"Team Fortress","app_id":440,"player_count":0,"max_players":24,"Bots":0,"server_type":"Dedicated","server_os":"Linux","password":true,"vac":true,"version":"7961495","steam_id":85568392924469989,"keywords":["cp","nocrits","nodmgspread","uncletopia"],"game_id":440,"stv_port":27016,"stv_name":"Uncletopia | Frankfurt | 1 | All Maps | STV","players":null},{"server_id":110,"name":"Uncletopia | Frankfurt | 2 | All Maps","name_short":"frk-2","host":"frk-1.de.uncletopia.com","port":27025,"enabled":true,"region":"eu","cc":"de","latitude":50.110924,"longitude":8.682127,"reserved":0,"last_update":"0001-01-01T00:00:00Z","name_a2s":"Uncletopia | Frankfurt | 2 | All Maps","protocol":17,"map":"cp_mountainlab","folder":"tf","game":"Team Fortress","app_id":440,"player_count":18,"max_players":24,"Bots":0,"server_type":"Dedicated","server_os":"Linux","password":true,"vac":true,"version":"7961495","steam_id":85568392924469990,"keywords":["cp","nocrits","nodmgspread","uncletopia"],"game_id":440,"stv_port":27026,"stv_name":"Uncletopia | Frankfurt | 2 | All Maps | STV","players":[{"user_id":876,"name":"GreenMart","steam_id":76561198299349417,"connected_time":555000000000,"state":"active","ping":77},{"user_id":881,"name":"Yip","steam_id":76561198946540436,"connected_time":60000000000,"state":"active","ping":46},{"user_id":879,"name":"Arkainiel Silver","steam_id":76561198188302519,"connected_time":256000000000,"state":"active","ping":46},{"user_id":882,"name":"Nittugai","steam_id":76561198067366462,"connected_time":1000000000,"state":"spawning","ping":39},{"user_id":780,"name":"Iris","steam_id":76561198430295815,"connected_time":9464000000000,"state":"active","ping":67},{"user_id":742,"name":"GodFather","steam_id":76561198097779151,"connected_time":13706000000000,"state":"active","ping":87},{"user_id":856,"name":"@KINGDRIICK","steam_id":76561198048396162,"connected_time":1592000000000,"state":"active","ping":85},{"user_id":859,"name":"gatl","steam_id":76561198116926545,"connected_time":1427000000000,"state":"active","ping":63},{"user_id":821,"name":"squirrel - Allkeyshop","steam_id":76561199380974466,"connected_time":5935000000000,"state":"active","ping":77},{"user_id":875,"name":"Cyrrow","steam_id":76561198453758372,"connected_time":594000000000,"state":"active","ping":114},{"user_id":877,"name":"Marcus","steam_id":76561198205027963,"connected_time":546000000000,"state":"active","ping":62},{"user_id":762,"name":"else1","steam_id":76561197996558319,"connected_time":12027000000000,"state":"active","ping":74},{"user_id":693,"name":"Seb, Comrade","steam_id":76561198040279587,"connected_time":17345000000000,"state":"active","ping":89},{"user_id":838,"name":"Bubsy 3D","steam_id":76561197988942314,"connected_time":4441000000000,"state":"active","ping":45},{"user_id":829,"name":"blant commando","steam_id":76561198239996676,"connected_time":5539000000000,"state":"active","ping":71},{"user_id":807,"name":"Gamer Local","steam_id":76561198084157459,"connected_time":7100000000000,"state":"active","ping":64},{"user_id":840,"name":"Topounambir","steam_id":76561198215896476,"connected_time":4429000000000,"state":"active","ping":90},{"user_id":868,"name":"MineAGK","steam_id":76561198128372943,"connected_time":1039000000000,"state":"active","ping":161}]},{"server_id":308,"name":"Uncletopia | Frankfurt | 3 | All Maps","name_short":"frk-3","host":"frk-1.de.uncletopia.com","port":27035,"enabled":true,"region":"eu","cc":"de","latitude":50.110924,"longitude":8.682127,"reserved":0,"last_update":"0001-01-01T00:00:00Z","name_a2s":"Uncletopia | Frankfurt | 3 | All Maps","protocol":17,"map":"koth_lakeside_final","folder":"tf","game":"Team Fortress","app_id":440,"player_count":0,"max_players":24,"Bots":0,"server_type":"Dedicated","server_os":"Linux","password":true,"vac":true,"version":"7961495","steam_id":85568392924504274,"keywords":["cp","nocrits","nodmgspread","uncletopia"],"game_id":440,"stv_port":27036,"stv_name":"Uncletopia | Frankfurt | 3 | All Maps | STV","players":null},{"server_id":309,"name":"Uncletopia | Frankfurt | 4 | All Maps","name_short":"frk-4","host":"frk-1.de.uncletopia.com","port":27045,"enabled":true,"region":"eu","cc":"de","latitude":50.110924,"longitude":8.682127,"reserved":0,"last_update":"0001-01-01T00:00:00Z","name_a2s":"Uncletopia | Frankfurt | 4 | All Maps","protocol":17,"map":"cp_dustbowl","folder":"tf","game":"Team Fortress","app_id":440,"player_count":0,"max_players":24,"Bots":0,"server_type":"Dedicated","server_os":"Linux","password":true,"vac":true,"version":"7961495","steam_id":85568392924504275,"keywords":["cp","nocrits","nodmgspread","uncletopia"],"game_id":440,"stv_port":27046,"stv_name":"Uncletopia | Frankfurt | 4 | All Maps | STV","players":null},{"server_id":310,"name":"Uncletopia | Frankfurt | 5 | All Maps","name_short":"frk-5","host":"frk-1.de.uncletopia.com","port":27055,"enabled":true,"region":"eu","cc":"de","latitude":50.110924,"longitude":8.682127,"reserved":0,"last_update":"0001-01-01T00:00:00Z","name_a2s":"Uncletopia | Frankfurt | 5 | All Maps","protocol":17,"map":"pl_badwater","folder":"tf","game":"Team Fortress","app_id":440,"player_count":0,"max_players":24,"Bots":0,"server_type":"Dedicated","server_os":"Linux","password":true,"vac":true,"version":"7961495","steam_id":85568392924504277,"keywords":["nocrits","nodmgspread","payload","uncletopia"],"game_id":440,"stv_port":27056,"stv_name":"Uncletopia | Frankfurt | 5 | All Maps | STV","players":null},{"server_id":311,"name":"Uncletopia | Frankfurt | 6 | All Maps","name_short":"frk-6","host":"frk-1.de.uncletopia.com","port":27065,"enabled":true,"region":"eu","cc":"de","latitude":50.110924,"longitude":8.682127,"reserved":0,"last_update":"0001-01-01T00:00:00Z","name_a2s":"Uncletopia | Frankfurt | 6 | All Maps","protocol":17,"map":"koth_highpass","folder":"tf","game":"Team Fortress","app_id":440,"player_count":0,"max_players":24,"Bots":0,"server_type":"Dedicated","server_os":"Linux","password":true,"vac":true,"version":"7961495","steam_id":85568392924504278,"keywords":["cp","nocrits","nodmgspread","uncletopia"],"game_id":440,"stv_port":27066,"stv_name":"Uncletopia | Frankfurt | 6 | All Maps | STV","players":null},{"server_id":23,"name":"Uncletopia | Frankfurt | 7 | Stopwatch","name_short":"frk-7","host":"frk-1.de.uncletopia.com","port":27075,"enabled":true,"region":"eu","cc":"de","latitude":50.110924,"longitude":8.682127,"reserved":0,"last_update":"0001-01-01T00:00:00Z","name_a2s":"Uncletopia | Frankfurt | 7 | Stopwatch","protocol":17,"map":"workshop/koth_bagel_rc6.ugc2514036946","folder":"tf","game":"Team Fortress","app_id":440,"player_count":0,"max_players":24,"Bots":0,"server_type":"Dedicated","server_os":"Linux","password":true,"vac":true,"version":"7961495","steam_id":85568392924742827,"keywords":["cp","nocrits","nodmgspread","uncletopia"],"game_id":440,"stv_port":27076,"stv_name":"Uncletopia | Frankfurt | 7 | Stopwatch | STV","players":null},{"server_id":24,"name":"Uncletopia | Frankfurt | 8 | Community","name_short":"frk-8","host":"frk-1.de.uncletopia.com","port":27085,"enabled":true,"region":"eu","cc":"de","latitude":50.110924,"longitude":8.682127,"reserved":0,"last_update":"0001-01-01T00:00:00Z","name_a2s":"Uncletopia | Frankfurt | 8 | Community","protocol":17,"map":"workshop/koth_product_final.ugc454272353","folder":"tf","game":"Team Fortress","app_id":440,"player_count":0,"max_players":24,"Bots":0,"server_type":"Dedicated","server_os":"Linux","password":true,"vac":true,"version":"7961495","steam_id":85568392924742828,"keywords":["cp","nocrits","nodmgspread","uncletopia"],"game_id":440,"stv_port":27086,"stv_name":"Uncletopia | Frankfurt | 8 | Community | STV","players":null},{"server_id":202,"name":"Uncletopia | Hong Kong | 1 | All Maps","name_short":"hgk-1","host":"hgk-1.hk.uncletopia.com","port":27015,"enabled":true,"region":"asia","cc":"hk","latitude":22.302711,"longitude":114.177216,"reserved":0,"last_update":"0001-01-01T00:00:00Z","name_a2s":"Uncletopia | Hong Kong | 1 | All Maps","protocol":17,"map":"pl_pier","folder":"tf","game":"Team Fortress","app_id":440,"player_count":0,"max_players":24,"Bots":0,"server_type":"Dedicated","server_os":"Linux","password":true,"vac":true,"version":"7961495","steam_id":85568392924494504,"keywords":["nocrits","nodmgspread","payload","uncletopia"],"game_id":440,"stv_port":27016,"stv_name":"Uncletopia | Hong Kong | 1 | All Maps | STV","players":null},{"server_id":1,"name":"Uncletopia | Los Angeles | 1 | All Maps","name_short":"lax-1","host":"lax-1.us.uncletopia.com","port":27015,"enabled":true,"region":"us-west","cc":"us","latitude":33.94279,"longitude":-118.41004,"reserved":0,"last_update":"0001-01-01T00:00:00Z","name_a2s":"Uncletopia | Los Angeles | 1 | All Maps","protocol":17,"map":"cp_gorge","folder":"tf","game":"Team Fortress","app_id":440,"player_count":16,"max_players":24,"Bots":0,"server_type":"Dedicated","server_os":"Linux","password":true,"vac":true,"version":"7961495","steam_id":85568392924469991,"keywords":["cp","nocrits","nodmgspread","uncletopia"],"game_id":440,"stv_port":27016,"stv_name":"Uncletopia | Los Angeles | 1 | All Maps | STV","players":[{"user_id":363,"name":"cowboy","steam_id":76561198266320078,"connected_time":12000000000,"state":"active","ping":141},{"user_id":254,"name":"Dax","steam_id":76561198045549713,"connected_time":4717000000000,"state":"active","ping":79},{"user_id":340,"name":"Lucky","steam_id":76561198124910662,"connected_time":1238000000000,"state":"active","ping":62},{"user_id":358,"name":"Firedust19","steam_id":76561198153238631,"connected_time":62000000000,"state":"active","ping":56},{"user_id":359,"name":"smart fella","steam_id":76561198064059721,"connected_time":58000000000,"state":"active","ping":69},{"user_id":301,"name":"roody","steam_id":76561198066260405,"connected_time":3036000000000,"state":"active","ping":66},{"user_id":360,"name":"Chef Molbo","steam_id":76561198089045454,"connected_time":54000000000,"state":"spawning","ping":91},{"user_id":361,"name":"バックスラッシャート\ufffd","steam_id":76561198052513500,"connected_time":30000000000,"state":"active","ping":86},{"user_id":349,"name":"exx","steam_id":76561198090552145,"connected_time":828000000000,"state":"active","ping":48},{"user_id":362,"name":"Speedycat","steam_id":76561198024821259,"connected_time":19000000000,"state":"active","ping":47},{"user_id":307,"name":"duddlee","steam_id":76561198030052564,"connected_time":2964000000000,"state":"active","ping":88},{"user_id":335,"name":"Sefren","steam_id":76561198007657340,"connected_time":2153000000000,"state":"active","ping":84},{"user_id":350,"name":"sora","steam_id":76561198094256973,"connected_time":753000000000,"state":"active","ping":40},{"user_id":354,"name":"GalaxyDoug32","steam_id":76561197997126305,"connected_time":182000000000,"state":"active","ping":78},{"user_id":345,"name":"LazyDoll","steam_id":76561198053186338,"connected_time":927000000000,"state":"active","ping":50},{"user_id":356,"name":"cringy","steam_id":76561198323000455,"connected_time":157000000000,"state":"active","ping":54}]},{"server_id":112,"name":"Uncletopia | Los Angeles | 2 | All Maps","name_short":"lax-2","host":"lax-1.us.uncletopia.com","port":27025,"enabled":true,"region":"us-west","cc":"us","latitude":33.94279,"longitude":-118.41004,"reserved":0,"last_update":"0001-01-01T00:00:00Z","name_a2s":"Uncletopia | Los Angeles | 2 | All Maps","protocol":17,"map":"cp_dustbowl","folder":"tf","game":"Team Fortress","app_id":440,"player_count":24,"max_players":24,"Bots":0,"server_type":"Dedicated","server_os":"Linux","password":true,"vac":true,"version":"7961495","steam_id":85568392924469992,"keywords":["cp","nocrits","nodmgspread","uncletopia"],"game_id":440,"stv_port":27026,"stv_name":"Uncletopia | Los Angeles | 2 | All Maps | STV","players":[{"user_id":78,"name":"Schizo Femboy","steam_id":76561199162627150,"connected_time":10414000000000,"state":"active","ping":115},{"user_id":244,"name":"dlp1356","steam_id":76561199009994251,"connected_time":707000000000,"state":"active","ping":59},{"user_id":235,"name":"JayDuh","steam_id":76561198396293109,"connected_time":1255000000000,"state":"active","ping":93},{"user_id":236,"name":"Aglovail","steam_id":76561198276988844,"connected_time":1203000000000,"state":"active","ping":58},{"user_id":227,"name":"DORK","steam_id":76561198037384555,"connected_time":1655000000000,"state":"active","ping":63},{"user_id":247,"name":"Antking14","steam_id":76561198188971771,"connected_time":313000000000,"state":"active","ping":62},{"user_id":169,"name":"Charles","steam_id":76561198155322277,"connected_time":4699000000000,"state":"active","ping":62},{"user_id":228,"name":"Seriously Bruh","steam_id":76561198070408485,"connected_time":1619000000000,"state":"active","ping":75},{"user_id":248,"name":"Oktayey","steam_id":76561198143213426,"connected_time":245000000000,"state":"active","ping":56},{"user_id":232,"name":"a_gamer_that_games","steam_id":76561199083590146,"connected_time":1385000000000,"state":"active","ping":130},{"user_id":215,"name":"Who","steam_id":76561198013049671,"connected_time":2789000000000,"state":"active","ping":53},{"user_id":229,"name":"SmallErection","steam_id":76561198071770147,"connected_time":1610000000000,"state":"active","ping":91},{"user_id":243,"name":"Cyanid3","steam_id":76561198259972621,"connected_time":830000000000,"state":"active","ping":60},{"user_id":231,"name":"Cheeseburglar","steam_id":76561198880267007,"connected_time":1450000000000,"state":"active","ping":58},{"user_id":233,"name":"TacoMan4Life","steam_id":76561198832562728,"connected_time":1375000000000,"state":"active","ping":62},{"user_id":239,"name":"cielael","steam_id":76561198043971956,"connected_time":1077000000000,"state":"active","ping":45},{"user_id":240,"name":"Ok then","steam_id":76561198891914787,"connected_time":1051000000000,"state":"active","ping":67},{"user_id":246,"name":"[☯] randomshagz*","steam_id":76561197968666646,"connected_time":629000000000,"state":"active","ping":68},{"user_id":242,"name":"lucim","steam_id":76561198064755514,"connected_time":869000000000,"state":"active","ping":122},{"user_id":249,"name":"shitass (Reaping and Sowing)","steam_id":76561198210572481,"connected_time":221000000000,"state":"active","ping":44},{"user_id":241,"name":"Soviet Potato","steam_id":76561198068546113,"connected_time":883000000000,"state":"active","ping":45},{"user_id":197,"name":"type \"bad med\" to kick","steam_id":76561198076402476,"connected_time":3570000000000,"state":"active","ping":65},{"user_id":161,"name":"U ω U","steam_id":76561198118802562,"connected_time":5507000000000,"state":"active","ping":60},{"user_id":225,"name":"Noire","steam_id":76561198149370109,"connected_time":1829000000000,"state":"active","ping":77}]},{"server_id":324,"name":"Uncletopia | Los Angeles | 3 | All Maps","name_short":"lax-3","host":"lax-1.us.uncletopia.com","port":27035,"enabled":true,"region":"us-west","cc":"us","latitude":33.94279,"longitude":-118.41004,"reserved":0,"last_update":"0001-01-01T00:00:00Z","name_a2s":"Uncletopia | Los Angeles | 3 | All Maps","protocol":17,"map":"pl_swiftwater_final1","folder":"tf","game":"Team Fortress","app_id":440,"player_count":0,"max_players":24,"Bots":0,"server_type":"Dedicated","server_os":"Linux","password":true,"vac":true,"version":"7961495","steam_id":85568392924510198,"keywords":["nocrits","nodmgspread","payload","uncletopia"],"game_id":440,"stv_port":27036,"stv_name":"Uncletopia | Los Angeles | 3 | All Maps | STV","players":null},{"server_id":25,"name":"Uncletopia | Los Angeles | 4 | Stopwatch","name_short":"lax-4","host":"lax-1.us.uncletopia.com","port":27045,"enabled":true,"region":"us-west","cc":"us","latitude":33.94279,"longitude":-118.41004,"reserved":0,"last_update":"0001-01-01T00:00:00Z","name_a2s":"Uncletopia | Los Angeles | 4 | Stopwatch","protocol":17,"map":"workshop/pl_barnblitz_pro7.ugc582280235","folder":"tf","game":"Team Fortress","app_id":440,"player_count":0,"max_players":24,"Bots":0,"server_type":"Dedicated","server_os":"Linux","password":true,"vac":true,"version":"7961495","steam_id":85568392924510199,"keywords":["nocrits","nodmgspread","payload","uncletopia"],"game_id":440,"stv_port":27046,"stv_name":"Uncletopia | Los Angeles | 4 | Stopwatch | STV","players":null},{"server_id":11,"name":"Uncletopia | London | 1 | All Maps","name_short":"lon-1","host":"lon-1.uk.uncletopia.com","port":27015,"enabled":true,"region":"eu","cc":"gb","latitude":51.509865,"longitude":-0.118092,"reserved":0,"last_update":"0001-01-01T00:00:00Z","name_a2s":"Uncletopia | London | 1 | All Maps","protocol":17,"map":"ctf_2fort","folder":"tf","game":"Team Fortress","app_id":440,"player_count":19,"max_players":24,"Bots":0,"server_type":"Dedicated","server_os":"Linux","password":true,"vac":true,"version":"7961495","steam_id":85568392924367362,"keywords":["ctf","nocrits","nodmgspread","uncletopia"],"game_id":440,"stv_port":27016,"stv_name":"Uncletopia | London | 1 | All Maps | STV","players":[{"user_id":1086,"name":"Fried_Dough","steam_id":76561198068746207,"connected_time":2147000000000,"state":"active","ping":130},{"user_id":1112,"name":"Calsim","steam_id":76561198164877219,"connected_time":965000000000,"state":"active","ping":39},{"user_id":1097,"name":"lawn","steam_id":76561198001243486,"connected_time":1541000000000,"state":"active","ping":45},{"user_id":1098,"name":"skittlesorcerer","steam_id":76561198303232638,"connected_time":1489000000000,"state":"active","ping":64},{"user_id":1118,"name":"Jake from State Farm #Save TF2","steam_id":76561198277987173,"connected_time":9000000000,"state":"spawning","ping":144},{"user_id":1117,"name":"GeoJumper","steam_id":76561198391022888,"connected_time":80000000000,"state":"active","ping":55},{"user_id":1058,"name":"ywy","steam_id":76561198088624259,"connected_time":4524000000000,"state":"active","ping":55},{"user_id":1099,"name":"geroxe cruo","steam_id":76561199480942903,"connected_time":1481000000000,"state":"active","ping":132},{"user_id":1113,"name":"SnareBreaker","steam_id":76561198854045058,"connected_time":840000000000,"state":"active","ping":73},{"user_id":1069,"name":"stun","steam_id":76561198276681691,"connected_time":3450000000000,"state":"active","ping":40},{"user_id":1075,"name":"Wild Meep","steam_id":76561198199271438,"connected_time":2701000000000,"state":"active","ping":130},{"user_id":1076,"name":"F2P Challenge","steam_id":76561199498773639,"connected_time":2667000000000,"state":"active","ping":76},{"user_id":1094,"name":"Scoundrel","steam_id":76561198056672372,"connected_time":1695000000000,"state":"active","ping":131},{"user_id":1078,"name":"Shadow","steam_id":76561198080524596,"connected_time":2615000000000,"state":"active","ping":37},{"user_id":1110,"name":"Olvustin","steam_id":76561198272011453,"connected_time":983000000000,"state":"active","ping":109},{"user_id":1103,"name":"Taste","steam_id":76561197994506978,"connected_time":1388000000000,"state":"active","ping":55},{"user_id":1088,"name":"Berlioz","steam_id":76561198040532757,"connected_time":2132000000000,"state":"active","ping":146},{"user_id":1096,"name":"yuno appreciator","steam_id":76561198083286511,"connected_time":1591000000000,"state":"active","ping":45},{"user_id":1000,"name":"Brian","steam_id":76561198077756206,"connected_time":9322000000000,"state":"active","ping":39}]},{"server_id":114,"name":"Uncletopia | London | 2 | All Maps","name_short":"lon-2","host":"lon-1.uk.uncletopia.com","port":27025,"enabled":true,"region":"eu","cc":"gb","latitude":51.509865,"longitude":-0.118092,"reserved":0,"last_update":"0001-01-01T00:00:00Z","name_a2s":"Uncletopia | London | 2 | All Maps","protocol":17,"map":"cp_sunshine","folder":"tf","game":"Team Fortress","app_id":440,"player_count":0,"max_players":24,"Bots":0,"server_type":"Dedicated","server_os":"Linux","password":true,"vac":true,"version":"7961495","steam_id":85568392924470941,"keywords":["cp","nocrits","nodmgspread","uncletopia"],"game_id":440,"stv_port":27026,"stv_name":"Uncletopia | London | 2 | All Maps | STV","players":null},{"server_id":320,"name":"Uncletopia | London | 3 | All Maps","name_short":"lon-3","host":"lon-1.uk.uncletopia.com","port":27035,"enabled":true,"region":"eu","cc":"gb","latitude":51.509865,"longitude":-0.118092,"reserved":0,"last_update":"0001-01-01T00:00:00Z","name_a2s":"Uncletopia | London | 3 | All Maps","protocol":17,"map":"koth_cascade","folder":"tf","game":"Team Fortress","app_id":440,"player_count":0,"max_players":24,"Bots":0,"server_type":"Dedicated","server_os":"Linux","password":true,"vac":true,"version":"7961495","steam_id":85568392924510192,"keywords":["cp","nocrits","nodmgspread","uncletopia"],"game_id":440,"stv_port":27036,"stv_name":"Uncletopia | London | 3 | All Maps | STV","players":null},{"server_id":321,"name":"Uncletopia | London | 4 | All Maps","name_short":"lon-4","host":"lon-1.uk.uncletopia.com","port":27045,"enabled":true,"region":"eu","cc":"gb","latitude":51.509865,"longitude":-0.118092,"reserved":0,"last_update":"0001-01-01T00:00:00Z","name_a2s":"Uncletopia | London | 4 | All Maps","protocol":17,"map":"pl_upward","folder":"tf","game":"Team Fortress","app_id":440,"player_count":0,"max_players":24,"Bots":0,"server_type":"Dedicated","server_os":"Linux","password":true,"vac":true,"version":"7961495","steam_id":85568392924510193,"keywords":["nocrits","nodmgspread","payload","uncletopia"],"game_id":440,"stv_port":27046,"stv_name":"Uncletopia | London | 4 | All Maps | STV","players":null},{"server_id":21,"name":"Uncletopia | London | 5 | All Maps","name_short":"lon-5","host":"lon-1.uk.uncletopia.com","port":27055,"enabled":true,"region":"eu","cc":"gb","latitude":51.509865,"longitude":-0.118092,"reserved":0,"last_update":"0001-01-01T00:00:00Z","name_a2s":"Uncletopia | London | 5 | All Maps","protocol":17,"map":"koth_highpass","folder":"tf","game":"Team Fortress","app_id":440,"player_count":0,"max_players":24,"Bots":0,"server_type":"Dedicated","server_os":"Linux","password":true,"vac":true,"version":"7961495","steam_id":85568392924742829,"keywords":["cp","nocrits","nodmgspread","uncletopia"],"game_id":440,"stv_port":27056,"stv_name":"Uncletopia | London | 5 | All Maps | STV","players":null},{"server_id":22,"name":"Uncletopia | London | 6 | All Maps","name_short":"lon-6","host":"lon-1.uk.uncletopia.com","port":27065,"enabled":true,"region":"eu","cc":"gb","latitude":51.509865,"longitude":-0.118092,"reserved":0,"last_update":"0001-01-01T00:00:00Z","name_a2s":"Uncletopia | London | 6 | All Maps","protocol":17,"map":"pl_frontier_final","folder":"tf","game":"Team Fortress","app_id":440,"player_count":0,"max_players":24,"Bots":0,"server_type":"Dedicated","server_os":"Linux","password":true,"vac":true,"version":"7961495","steam_id":85568392924742830,"keywords":["nocrits","nodmgspread","payload","uncletopia"],"game_id":440,"stv_port":27066,"stv_name":"Uncletopia | London | 6 | All Maps | STV","players":null},{"server_id":40,"name":"Uncletopia | London | 7 | Stopwatch","name_short":"lon-7","host":"lon-1.uk.uncletopia.com","port":27075,"enabled":true,"region":"eu","cc":"gb","latitude":51.509865,"longitude":-0.118092,"reserved":0,"last_update":"0001-01-01T00:00:00Z","name_a2s":"Uncletopia | London | 7 | Stopwatch","protocol":17,"map":"workshop/koth_ashville_final.ugc2130459942","folder":"tf","game":"Team Fortress","app_id":440,"player_count":0,"max_players":24,"Bots":0,"server_type":"Dedicated","server_os":"Linux","password":true,"vac":true,"version":"7961495","steam_id":85568392924964314,"keywords":["cp","nocrits","nodmgspread","uncletopia"],"game_id":440,"stv_port":27076,"stv_name":"Uncletopia | London | 7 | Stopwatch | STV","players":null},{"server_id":41,"name":"Uncletopia | London | 8 | Community","name_short":"lon-8","host":"lon-1.uk.uncletopia.com","port":27085,"enabled":true,"region":"eu","cc":"gb","latitude":51.509865,"longitude":-0.118092,"reserved":0,"last_update":"0001-01-01T00:00:00Z","name_a2s":"Uncletopia | London | 8 | Community","protocol":17,"map":"workshop/pl_barnblitz_pro7.ugc582280235","folder":"tf","game":"Team Fortress","app_id":440,"player_count":0,"max_players":24,"Bots":0,"server_type":"Dedicated","server_os":"Linux","password":true,"vac":true,"version":"7961495","steam_id":85568392924964315,"keywords":["nocrits","nodmgspread","payload","uncletopia"],"game_id":440,"stv_port":27086,"stv_name":"Uncletopia | London | 8 | Community | STV","players":null},{"server_id":300,"name":"Uncletopia | Montréal | 1 | One Thousand Uncles","name_short":"mtl-1","host":"mtl-1.ca.uncletopia.com","port":27015,"enabled":true,"region":"us-east","cc":"ca","latitude":45.50889,"longitude":-73.56167,"reserved":0,"last_update":"0001-01-01T00:00:00Z","name_a2s":"","protocol":0,"map":"","folder":"","game":"","app_id":0,"player_count":0,"max_players":0,"Bots":0,"server_type":"","server_os":"","password":false,"vac":false,"version":"","steam_id":0,"keywords":null,"game_id":0,"stv_port":0,"stv_name":"","players":null},{"server_id":301,"name":"Uncletopia | Montréal | 2 | One Thousand Uncles","name_short":"mtl-2","host":"mtl-1.ca.uncletopia.com","port":27025,"enabled":true,"region":"us-east","cc":"ca","latitude":45.50889,"longitude":-73.56167,"reserved":0,"last_update":"0001-01-01T00:00:00Z","name_a2s":"","protocol":0,"map":"","folder":"","game":"","app_id":0,"player_count":0,"max_players":0,"Bots":0,"server_type":"","server_os":"","password":false,"vac":false,"version":"","steam_id":0,"keywords":null,"game_id":0,"stv_port":0,"stv_name":"","players":null},{"server_id":302,"name":"Uncletopia | Montréal | 3 | One Thousand Uncles","name_short":"mtl-3","host":"mtl-1.ca.uncletopia.com","port":27035,"enabled":true,"region":"us-east","cc":"ca","latitude":45.50889,"longitude":-73.56167,"reserved":0,"last_update":"0001-01-01T00:00:00Z","name_a2s":"","protocol":0,"map":"","folder":"","game":"","app_id":0,"player_count":9,"max_players":0,"Bots":0,"server_type":"","server_os":"","password":false,"vac":false,"version":"","steam_id":0,"keywords":null,"game_id":0,"stv_port":0,"stv_name":"","players":[{"user_id":174,"name":"1-800-GHOST-DANCE","steam_id":76561198835430429,"connected_time":223000000000,"state":"active","ping":79},{"user_id":151,"name":"Why not Zoidberg?","steam_id":76561197982207556,"connected_time":5084000000000,"state":"active","ping":76},{"user_id":150,"name":"Zero-Xyfer","steam_id":76561198351621003,"connected_time":5104000000000,"state":"active","ping":79},{"user_id":166,"name":"LightBulbGlue #SaveTF2","steam_id":76561198329573529,"connected_time":2373000000000,"state":"active","ping":73},{"user_id":120,"name":"Ignatius J. Reilly","steam_id":76561198066958868,"connected_time":7606000000000,"state":"active","ping":55},{"user_id":175,"name":"MrrPamplemousse","steam_id":76561198072241333,"connected_time":49000000000,"state":"active","ping":35},{"user_id":163,"name":"RacoonGamer","steam_id":76561198100907657,"connected_time":2787000000000,"state":"active","ping":43},{"user_id":164,"name":"olex","steam_id":76561197992305850,"connected_time":2669000000000,"state":"active","ping":43},{"user_id":170,"name":"Tim the enchanter","steam_id":76561198140046182,"connected_time":1777000000000,"state":"active","ping":92}]},{"server_id":13,"name":"Uncletopia | New York City | 1 | All Maps","name_short":"nyc-1","host":"nyc-1.us.uncletopia.com","port":27015,"enabled":true,"region":"us-east","cc":"us","latitude":40.73061,"longitude":-73.93524,"reserved":0,"last_update":"0001-01-01T00:00:00Z","name_a2s":"Uncletopia | New York City | 1 | All Maps","protocol":17,"map":"pl_barnblitz","folder":"tf","game":"Team Fortress","app_id":440,"player_count":22,"max_players":24,"Bots":0,"server_type":"Dedicated","server_os":"Linux","password":true,"vac":true,"version":"7961495","steam_id":85568392924469993,"keywords":["nocrits","nodmgspread","payload","uncletopia"],"game_id":440,"stv_port":27016,"stv_name":"Uncletopia | New York City | 1 | All Maps | STV","players":[{"user_id":394,"name":"asscastle 2","steam_id":76561198097330521,"connected_time":3776000000000,"state":"active","ping":152},{"user_id":271,"name":"› ActionBastard","steam_id":76561197966906273,"connected_time":11242000000000,"state":"active","ping":92},{"user_id":386,"name":"Porcupine's Revenge!","steam_id":76561199121615234,"connected_time":4157000000000,"state":"active","ping":50},{"user_id":373,"name":"Yuzu","steam_id":76561198417913035,"connected_time":4949000000000,"state":"active","ping":71},{"user_id":403,"name":"saurhead","steam_id":76561198132937722,"connected_time":2910000000000,"state":"active","ping":45},{"user_id":397,"name":"Ripping Heads","steam_id":76561198006146062,"connected_time":3597000000000,"state":"active","ping":63},{"user_id":349,"name":"OKAY","steam_id":76561198091980659,"connected_time":6386000000000,"state":"active","ping":57},{"user_id":396,"name":"ndvr","steam_id":76561199379200102,"connected_time":3627000000000,"state":"active","ping":54},{"user_id":412,"name":"M249 | Spectre","steam_id":76561198118334485,"connected_time":2211000000000,"state":"active","ping":56},{"user_id":375,"name":"emotional suppport e-cigarette","steam_id":76561198172120615,"connected_time":4845000000000,"state":"active","ping":33},{"user_id":414,"name":"lament","steam_id":76561198408747483,"connected_time":1499000000000,"state":"active","ping":96},{"user_id":413,"name":"Big Milk","steam_id":76561198066904836,"connected_time":1505000000000,"state":"active","ping":81},{"user_id":400,"name":"hrdurdur","steam_id":76561199204815638,"connected_time":3553000000000,"state":"active","ping":85},{"user_id":409,"name":"Blade Racer","steam_id":76561198155896703,"connected_time":2707000000000,"state":"active","ping":51},{"user_id":417,"name":"ʕ•ᴥ•ʔ the bear","steam_id":76561197989591976,"connected_time":1423000000000,"state":"active","ping":57},{"user_id":411,"name":"Chauncey von Snuffles III","steam_id":76561198021784746,"connected_time":2563000000000,"state":"active","ping":92},{"user_id":392,"name":"SpongedSocks","steam_id":76561198374009086,"connected_time":3808000000000,"state":"active","ping":54},{"user_id":418,"name":"Nickorea","steam_id":76561198025784788,"connected_time":1364000000000,"state":"active","ping":42},{"user_id":419,"name":"BreadFish","steam_id":76561198834556559,"connected_time":665000000000,"state":"active","ping":69},{"user_id":345,"name":"nice tea. good house","steam_id":76561197992669506,"connected_time":6779000000000,"state":"active","ping":71},{"user_id":415,"name":"elusivetruth","steam_id":76561198445452735,"connected_time":1494000000000,"state":"active","ping":63},{"user_id":422,"name":"Crab","steam_id":76561198067628664,"connected_time":16000000000,"state":"spawning","ping":86}]},{"server_id":14,"name":"Uncletopia | New York City | 2 | All Maps","name_short":"nyc-2","host":"nyc-1.us.uncletopia.com","port":27025,"enabled":true,"region":"us-east","cc":"us","latitude":40.73061,"longitude":-73.93524,"reserved":0,"last_update":"0001-01-01T00:00:00Z","name_a2s":"Uncletopia | New York City | 2 | All Maps","protocol":17,"map":"cp_snakewater_final1","folder":"tf","game":"Team Fortress","app_id":440,"player_count":22,"max_players":24,"Bots":0,"server_type":"Dedicated","server_os":"Linux","password":true,"vac":true,"version":"7961495","steam_id":85568392924469994,"keywords":["cp","nocrits","nodmgspread","uncletopia"],"game_id":440,"stv_port":27026,"stv_name":"Uncletopia | New York City | 2 | All Maps | STV","players":[{"user_id":317,"name":"Unk","steam_id":76561198031717617,"connected_time":5439000000000,"state":"active","ping":30},{"user_id":386,"name":"whoopsydoodle","steam_id":76561198045145360,"connected_time":168000000000,"state":"active","ping":45},{"user_id":372,"name":"Person","steam_id":76561198093244204,"connected_time":1857000000000,"state":"active","ping":69},{"user_id":383,"name":"trobin120","steam_id":76561199122420273,"connected_time":622000000000,"state":"active","ping":52},{"user_id":350,"name":"coda","steam_id":76561198092052685,"connected_time":2939000000000,"state":"active","ping":46},{"user_id":381,"name":"fatcat","steam_id":76561197993786013,"connected_time":998000000000,"state":"active","ping":55},{"user_id":352,"name":"Axio","steam_id":76561198046826031,"connected_time":2677000000000,"state":"active","ping":134},{"user_id":379,"name":"KFC Rat","steam_id":76561198135128086,"connected_time":1692000000000,"state":"active","ping":120},{"user_id":248,"name":"Whyamidoingthisaaaa","steam_id":76561199168837342,"connected_time":10850000000000,"state":"active","ping":51},{"user_id":334,"name":"Guitar Queero","steam_id":76561198880568662,"connected_time":4280000000000,"state":"active","ping":80},{"user_id":389,"name":"terrapieseven","steam_id":76561198072062415,"connected_time":132000000000,"state":"active","ping":62},{"user_id":388,"name":"Silverkeys","steam_id":76561197986012496,"connected_time":147000000000,"state":"active","ping":58},{"user_id":370,"name":"slothm442","steam_id":76561199487265826,"connected_time":1999000000000,"state":"active","ping":50},{"user_id":391,"name":"Major Woody","steam_id":76561198835541533,"connected_time":108000000000,"state":"active","ping":91},{"user_id":344,"name":"menonamed","steam_id":76561198199564382,"connected_time":3283000000000,"state":"active","ping":53},{"user_id":387,"name":"the pest","steam_id":76561198826298849,"connected_time":166000000000,"state":"active","ping":88},{"user_id":390,"name":"bhop","steam_id":76561198064885639,"connected_time":123000000000,"state":"active","ping":63},{"user_id":385,"name":"Truffleoil","steam_id":76561198114689041,"connected_time":319000000000,"state":"active","ping":58},{"user_id":375,"name":"Windup Monkey in a Human Suit","steam_id":76561198119501444,"connected_time":1769000000000,"state":"active","ping":92},{"user_id":368,"name":"Dr. Sus","steam_id":76561198344435644,"connected_time":2158000000000,"state":"active","ping":149},{"user_id":393,"name":"Valentime!","steam_id":76561198093806229,"connected_time":34000000000,"state":"active","ping":60},{"user_id":369,"name":"Tarot Warden","steam_id":76561198284383023,"connected_time":2050000000000,"state":"active","ping":73}]},{"server_id":15,"name":"Uncletopia | New York City | 3 | Stopwatch","name_short":"nyc-3","host":"nyc-1.us.uncletopia.com","port":27035,"enabled":true,"region":"us-east","cc":"us","latitude":40.73061,"longitude":-73.93524,"reserved":0,"last_update":"0001-01-01T00:00:00Z","name_a2s":"Uncletopia | New York City | 3 | Stopwatch","protocol":17,"map":"workshop/koth_ashville_final.ugc2130459942","folder":"tf","game":"Team Fortress","app_id":440,"player_count":0,"max_players":24,"Bots":0,"server_type":"Dedicated","server_os":"Linux","password":true,"vac":true,"version":"7961495","steam_id":85568392924742820,"keywords":["cp","nocrits","nodmgspread","uncletopia"],"game_id":440,"stv_port":27036,"stv_name":"Uncletopia | New York City | 3 | Stopwatch | STV","players":null},{"server_id":16,"name":"Uncletopia | New York City | 4 | Community","name_short":"nyc-4","host":"nyc-1.us.uncletopia.com","port":27045,"enabled":true,"region":"us-east","cc":"us","latitude":40.73061,"longitude":-73.93524,"reserved":0,"last_update":"0001-01-01T00:00:00Z","name_a2s":"Uncletopia | New York City | 4 | Community","protocol":17,"map":"workshop/koth_slaughter_rc1.ugc1712845210","folder":"tf","game":"Team Fortress","app_id":440,"player_count":0,"max_players":24,"Bots":0,"server_type":"Dedicated","server_os":"Linux","password":true,"vac":true,"version":"7961495","steam_id":85568392924742821,"keywords":["cp","nocrits","nodmgspread","uncletopia"],"game_id":440,"stv_port":27046,"stv_name":"Uncletopia | New York City | 4 | Community | STV","players":null},{"server_id":142,"name":"Uncletopia | São Paulo | 1 | All Maps","name_short":"sao-1","host":"sao-1.br.uncletopia.com","port":27015,"enabled":true,"region":"sa","cc":"br","latitude":-23.533773,"longitude":-46.62529,"reserved":0,"last_update":"0001-01-01T00:00:00Z","name_a2s":"Uncletopia | São Paulo | 1 | All Maps","protocol":17,"map":"koth_cascade","folder":"tf","game":"Team Fortress","app_id":440,"player_count":0,"max_players":24,"Bots":0,"server_type":"Dedicated","server_os":"Linux","password":true,"vac":true,"version":"7961495","steam_id":85568392924469996,"keywords":["cp","nocrits","nodmgspread","uncletopia"],"game_id":440,"stv_port":27016,"stv_name":"Uncletopia | São Paulo | 1 | All Maps | STV","players":null},{"server_id":143,"name":"Uncletopia | São Paulo | 2 | Community","name_short":"sao-2","host":"sao-2.br.uncletopia.com","port":27015,"enabled":true,"region":"sa","cc":"br","latitude":-23.533773,"longitude":-46.62529,"reserved":0,"last_update":"0001-01-01T00:00:00Z","name_a2s":"Uncletopia | São Paulo | 2 | Community","protocol":17,"map":"pl_badwater","folder":"tf","game":"Team Fortress","app_id":440,"player_count":0,"max_players":24,"Bots":0,"server_type":"Dedicated","server_os":"Linux","password":true,"vac":true,"version":"7961495","steam_id":85568392924485349,"keywords":["nocrits","nodmgspread","payload","uncletopia"],"game_id":440,"stv_port":27016,"stv_name":"Uncletopia | São Paulo | 2 | Community | STV","players":null},{"server_id":7,"name":"Uncletopia | Seattle | 1 | All Maps","name_short":"sea-1","host":"sea-1.us.uncletopia.com","port":27015,"enabled":true,"region":"us-west","cc":"us","latitude":47.608013,"longitude":-122.33517,"reserved":0,"last_update":"0001-01-01T00:00:00Z","name_a2s":"Uncletopia | Seattle | 1 | All Maps","protocol":17,"map":"pl_pier","folder":"tf","game":"Team Fortress","app_id":440,"player_count":24,"max_players":24,"Bots":0,"server_type":"Dedicated","server_os":"Linux","password":true,"vac":true,"version":"7961495","steam_id":85568392924469997,"keywords":["nocrits","nodmgspread","payload","uncletopia"],"game_id":440,"stv_port":27016,"stv_name":"Uncletopia | Seattle | 1 | All Maps | STV","players":[{"user_id":737,"name":"CORGI.EXE","steam_id":76561198077093432,"connected_time":884000000000,"state":"active","ping":107},{"user_id":744,"name":"bunceian","steam_id":76561198975662918,"connected_time":411000000000,"state":"active","ping":89},{"user_id":689,"name":"WaffleWithNoToppings","steam_id":76561199088280111,"connected_time":4726000000000,"state":"active","ping":48},{"user_id":738,"name":"GaningHero","steam_id":76561198449957141,"connected_time":877000000000,"state":"active","ping":55},{"user_id":745,"name":"[DATS➡] Sugar Meowth","steam_id":76561197995251793,"connected_time":318000000000,"state":"active","ping":45},{"user_id":743,"name":"Havi","steam_id":76561198197832829,"connected_time":450000000000,"state":"active","ping":45},{"user_id":673,"name":"DaddyGalaxy","steam_id":76561198139697796,"connected_time":6317000000000,"state":"active","ping":60},{"user_id":746,"name":"Beef Wellington","steam_id":76561197995635241,"connected_time":145000000000,"state":"active","ping":180},{"user_id":722,"name":"Branta","steam_id":76561199103842843,"connected_time":1705000000000,"state":"active","ping":45},{"user_id":727,"name":"Mignyanne :3","steam_id":76561198048754056,"connected_time":1358000000000,"state":"active","ping":62},{"user_id":719,"name":"mansteam905","steam_id":76561199488421021,"connected_time":1910000000000,"state":"active","ping":118},{"user_id":747,"name":"ORANGE","steam_id":76561198000401769,"connected_time":16000000000,"state":"active","ping":52},{"user_id":669,"name":"rat gets the cheese","steam_id":76561198031234032,"connected_time":6658000000000,"state":"active","ping":94},{"user_id":729,"name":"gunkystuff","steam_id":76561198116246942,"connected_time":1332000000000,"state":"active","ping":72},{"user_id":693,"name":"CashGordon","steam_id":76561197975594096,"connected_time":3777000000000,"state":"active","ping":42},{"user_id":742,"name":"MrYadaization","steam_id":76561198050770818,"connected_time":522000000000,"state":"active","ping":58},{"user_id":720,"name":"bobtheninjaman","steam_id":76561198066424544,"connected_time":1908000000000,"state":"active","ping":75},{"user_id":718,"name":"Furry Femboy Hooters (CEO)","steam_id":76561198097745857,"connected_time":1918000000000,"state":"active","ping":55},{"user_id":739,"name":"blonk-182","steam_id":76561198035304483,"connected_time":855000000000,"state":"active","ping":99},{"user_id":716,"name":"William P. Ennis","steam_id":76561198073464877,"connected_time":2330000000000,"state":"active","ping":100},{"user_id":740,"name":"Copy","steam_id":76561198025031590,"connected_time":553000000000,"state":"active","ping":59},{"user_id":741,"name":"The_Man","steam_id":76561199194890696,"connected_time":543000000000,"state":"active","ping":104},{"user_id":731,"name":"Sussin'","steam_id":76561198059813696,"connected_time":1325000000000,"state":"active","ping":120},{"user_id":735,"name":"LuckyTF2","steam_id":76561199108883530,"connected_time":1027000000000,"state":"active","ping":64}]},{"server_id":119,"name":"Uncletopia | Seattle | 2 | All Maps","name_short":"sea-2","host":"sea-1.us.uncletopia.com","port":27025,"enabled":true,"region":"us-west","cc":"us","latitude":47.608013,"longitude":-122.33517,"reserved":0,"last_update":"0001-01-01T00:00:00Z","name_a2s":"Uncletopia | Seattle | 2 | All Maps","protocol":17,"map":"pl_upward","folder":"tf","game":"Team Fortress","app_id":440,"player_count":21,"max_players":24,"Bots":0,"server_type":"Dedicated","server_os":"Linux","password":true,"vac":true,"version":"7961495","steam_id":85568392924469998,"keywords":["nocrits","nodmgspread","payload","uncletopia"],"game_id":440,"stv_port":27026,"stv_name":"Uncletopia | Seattle | 2 | All Maps | STV","players":[{"user_id":259,"name":"gps","steam_id":76561198067492304,"connected_time":921000000000,"state":"active","ping":110},{"user_id":262,"name":"Day Man","steam_id":76561198067154807,"connected_time":207000000000,"state":"active","ping":46},{"user_id":225,"name":"Fishmonger","steam_id":76561198372237027,"connected_time":3698000000000,"state":"active","ping":46},{"user_id":226,"name":"Mr. Baeikstab","steam_id":76561198212993755,"connected_time":3591000000000,"state":"active","ping":52},{"user_id":264,"name":"Compile","steam_id":76561198242842394,"connected_time":136000000000,"state":"active","ping":90},{"user_id":254,"name":"Dimple","steam_id":76561198980324190,"connected_time":1409000000000,"state":"active","ping":60},{"user_id":263,"name":"Dude","steam_id":76561199058616824,"connected_time":190000000000,"state":"active","ping":75},{"user_id":265,"name":"BIG DUKE","steam_id":76561198041005562,"connected_time":108000000000,"state":"active","ping":95},{"user_id":231,"name":"liangjohnson61","steam_id":76561199132297474,"connected_time":2937000000000,"state":"active","ping":58},{"user_id":232,"name":"worker","steam_id":76561198039608940,"connected_time":2913000000000,"state":"active","ping":49},{"user_id":271,"name":"Useless","steam_id":76561198116079299,"connected_time":6000000000,"state":"spawning","ping":44},{"user_id":267,"name":"C^a^L","steam_id":76561198241124222,"connected_time":95000000000,"state":"active","ping":63},{"user_id":268,"name":"Jam Jams","steam_id":76561198128811267,"connected_time":87000000000,"state":"active","ping":69},{"user_id":269,"name":"Tideflat","steam_id":76561198179850851,"connected_time":61000000000,"state":"active","ping":52},{"user_id":239,"name":"Zebulon","steam_id":76561198025719753,"connected_time":2673000000000,"state":"active","ping":35},{"user_id":243,"name":"Windows Vista Home Premium","steam_id":76561198043764863,"connected_time":2553000000000,"state":"active","ping":67},{"user_id":270,"name":"_","steam_id":76561199500558880,"connected_time":61000000000,"state":"active","ping":37},{"user_id":245,"name":"Gorp!","steam_id":76561198121671793,"connected_time":2441000000000,"state":"active","ping":47},{"user_id":247,"name":"Skoad","steam_id":76561198104650528,"connected_time":2402000000000,"state":"active","ping":59},{"user_id":248,"name":"wmjledger","steam_id":76561198443046861,"connected_time":2399000000000,"state":"active","ping":49},{"user_id":249,"name":"Cereal Killer","steam_id":76561198052368295,"connected_time":2395000000000,"state":"active","ping":43}]},{"server_id":406,"name":"Uncletopia | Seattle | 3 | Stopwatch","name_short":"sea-3","host":"sea-1.us.uncletopia.com","port":27035,"enabled":true,"region":"us-west","cc":"us","latitude":47.608013,"longitude":-122.33517,"reserved":0,"last_update":"0001-01-01T00:00:00Z","name_a2s":"Uncletopia | Seattle | 3 | Stopwatch","protocol":17,"map":"workshop/koth_clearcut_b15.ugc2107050255","folder":"tf","game":"Team Fortress","app_id":440,"player_count":0,"max_players":24,"Bots":0,"server_type":"Dedicated","server_os":"Linux","password":true,"vac":true,"version":"7961495","steam_id":85568392924515217,"keywords":["cp","nocrits","nodmgspread","uncletopia"],"game_id":440,"stv_port":27036,"stv_name":"Uncletopia | Seattle | 3 | Stopwatch | STV","players":null},{"server_id":17,"name":"Uncletopia | San Francisco | 1 | All Maps","name_short":"sfo-1","host":"sfo-1.us.uncletopia.com","port":27015,"enabled":true,"region":"us-west","cc":"us","latitude":37.77397,"longitude":-122.4313,"reserved":0,"last_update":"0001-01-01T00:00:00Z","name_a2s":"Uncletopia | San Francisco | 1 | All Maps","protocol":17,"map":"koth_cascade","folder":"tf","game":"Team Fortress","app_id":440,"player_count":0,"max_players":24,"Bots":0,"server_type":"Dedicated","server_os":"Linux","password":true,"vac":true,"version":"7961495","steam_id":85568392924469999,"keywords":["cp","nocrits","nodmgspread","uncletopia"],"game_id":440,"stv_port":27016,"stv_name":"Uncletopia | San Francisco | 1 | All Maps | STV","players":null},{"server_id":18,"name":"Uncletopia | San Francisco | 2 | All Maps","name_short":"sfo-2","host":"sfo-1.us.uncletopia.com","port":27025,"enabled":true,"region":"us-west","cc":"us","latitude":37.77397,"longitude":-122.4313,"reserved":0,"last_update":"0001-01-01T00:00:00Z","name_a2s":"Uncletopia | San Francisco | 2 | All Maps","protocol":17,"map":"koth_cascade","folder":"tf","game":"Team Fortress","app_id":440,"player_count":0,"max_players":24,"Bots":0,"server_type":"Dedicated","server_os":"Linux","password":true,"vac":true,"version":"7961495","steam_id":85568392924470000,"keywords":["cp","nocrits","nodmgspread","uncletopia"],"game_id":440,"stv_port":27026,"stv_name":"Uncletopia | San Francisco | 2 | All Maps | STV","players":null},{"server_id":19,"name":"Uncletopia | San Francisco | 3 | Stopwatch","name_short":"sfo-3","host":"sfo-1.us.uncletopia.com","port":27035,"enabled":true,"region":"us-west","cc":"us","latitude":37.77397,"longitude":-122.4313,"reserved":0,"last_update":"0001-01-01T00:00:00Z","name_a2s":"Uncletopia | San Francisco | 3 | Stopwatch","protocol":17,"map":"workshop/koth_bagel_rc6.ugc2514036946","folder":"tf","game":"Team Fortress","app_id":440,"player_count":19,"max_players":24,"Bots":0,"server_type":"Dedicated","server_os":"Linux","password":true,"vac":true,"version":"7961495","steam_id":85568392924742824,"keywords":["cp","nocrits","nodmgspread","uncletopia"],"game_id":440,"stv_port":27036,"stv_name":"Uncletopia | San Francisco | 3 | Stopwatch | STV","players":[{"user_id":44,"name":"Finn the Dafter","steam_id":76561198004267413,"connected_time":568000000000,"state":"active","ping":88},{"user_id":27,"name":"no vc no c","steam_id":76561197989503095,"connected_time":2732000000000,"state":"active","ping":148},{"user_id":15,"name":"Mom","steam_id":76561198207936000,"connected_time":6953000000000,"state":"active","ping":39},{"user_id":33,"name":"demomanfan2008","steam_id":76561198077030486,"connected_time":1922000000000,"state":"active","ping":55},{"user_id":29,"name":"Bad Demoman","steam_id":76561199004677256,"connected_time":2403000000000,"state":"active","ping":45},{"user_id":34,"name":"[girlkisser esports] transfiend","steam_id":76561198407600762,"connected_time":1883000000000,"state":"active","ping":61},{"user_id":23,"name":"[boykisser esports] cursed 7/11","steam_id":76561198282017726,"connected_time":4090000000000,"state":"active","ping":67},{"user_id":35,"name":"Water 1.","steam_id":76561199071707695,"connected_time":1821000000000,"state":"active","ping":84},{"user_id":36,"name":"Swist","steam_id":76561198110343996,"connected_time":1778000000000,"state":"active","ping":119},{"user_id":45,"name":"Chin (SFM Comms Open)","steam_id":76561198953123833,"connected_time":559000000000,"state":"active","ping":63},{"user_id":41,"name":"dAiLyGrInD","steam_id":76561198163531915,"connected_time":1040000000000,"state":"active","ping":93},{"user_id":54,"name":"Eat Grass","steam_id":76561198096884999,"connected_time":5000000000,"state":"spawning","ping":61},{"user_id":43,"name":"baseplate","steam_id":76561199031775779,"connected_time":669000000000,"state":"active","ping":80},{"user_id":46,"name":"Brody Yukin","steam_id":76561198084712019,"connected_time":495000000000,"state":"active","ping":58},{"user_id":49,"name":"voidby ♦","steam_id":76561198146697462,"connected_time":219000000000,"state":"active","ping":52},{"user_id":50,"name":"Melvin McDingle","steam_id":76561198362635423,"connected_time":148000000000,"state":"active","ping":68},{"user_id":51,"name":"Trav_YEET","steam_id":76561198960813580,"connected_time":141000000000,"state":"active","ping":89},{"user_id":52,"name":"Boyoy0","steam_id":76561199162897702,"connected_time":119000000000,"state":"active","ping":101},{"user_id":53,"name":"ketsu","steam_id":76561197966171554,"connected_time":41000000000,"state":"active","ping":163}]},{"server_id":20,"name":"Uncletopia | San Francisco | 4 | Community","name_short":"sfo-4","host":"sfo-1.us.uncletopia.com","port":27045,"enabled":true,"region":"us-west","cc":"us","latitude":37.77397,"longitude":-122.4313,"reserved":0,"last_update":"0001-01-01T00:00:00Z","name_a2s":"Uncletopia | San Francisco | 4 | Community","protocol":17,"map":"workshop/cp_bruhstbowl_b6.ugc2878604990","folder":"tf","game":"Team Fortress","app_id":440,"player_count":0,"max_players":24,"Bots":0,"server_type":"Dedicated","server_os":"Linux","password":true,"vac":true,"version":"7961495","steam_id":85568392924742826,"keywords":["cp","nocrits","nodmgspread","uncletopia"],"game_id":440,"stv_port":27046,"stv_name":"Uncletopia | San Francisco | 4 | Community | STV","players":null},{"server_id":141,"name":"Uncletopia | Sydney | 1 | All Maps","name_short":"syd-1","host":"syd-1.au.uncletopia.com","port":27015,"enabled":true,"region":"au","cc":"au","latitude":-33.865143,"longitude":151.2099,"reserved":0,"last_update":"0001-01-01T00:00:00Z","name_a2s":"Uncletopia | Sydney | 1 | All Maps","protocol":17,"map":"pl_swiftwater_final1","folder":"tf","game":"Team Fortress","app_id":440,"player_count":0,"max_players":24,"Bots":0,"server_type":"Dedicated","server_os":"Linux","password":true,"vac":true,"version":"7961495","steam_id":85568392924470001,"keywords":["nocrits","nodmgspread","payload","uncletopia"],"game_id":440,"stv_port":27016,"stv_name":"Uncletopia | Sydney | 1 | All Maps | STV","players":null},{"server_id":123,"name":"Uncletopia | Sydney | 2 | All Maps","name_short":"syd-2","host":"syd-1.au.uncletopia.com","port":27025,"enabled":true,"region":"au","cc":"au","latitude":-33.865143,"longitude":151.2099,"reserved":0,"last_update":"0001-01-01T00:00:00Z","name_a2s":"Uncletopia | Sydney | 2 | All Maps","protocol":17,"map":"koth_lakeside_final","folder":"tf","game":"Team Fortress","app_id":440,"player_count":0,"max_players":24,"Bots":0,"server_type":"Dedicated","server_os":"Linux","password":true,"vac":true,"version":"7961495","steam_id":85568392924470002,"keywords":["cp","nocrits","nodmgspread","uncletopia"],"game_id":440,"stv_port":27026,"stv_name":"Uncletopia | Sydney | 2 | All Maps | STV","players":null},{"server_id":395,"name":"Uncletopia | Sydney | 3 | All Maps","name_short":"syd-3","host":"syd-1.au.uncletopia.com","port":27035,"enabled":true,"region":"au","cc":"au","latitude":-33.865143,"longitude":151.2099,"reserved":0,"last_update":"0001-01-01T00:00:00Z","name_a2s":"Uncletopia | Sydney | 3 | All Maps","protocol":17,"map":"pl_frontier_final","folder":"tf","game":"Team Fortress","app_id":440,"player_count":0,"max_players":24,"Bots":0,"server_type":"Dedicated","server_os":"Linux","password":true,"vac":true,"version":"7961495","steam_id":85568392925194467,"keywords":["nocrits","nodmgspread","payload","uncletopia"],"game_id":440,"stv_port":27036,"stv_name":"Uncletopia | Sydney | 3 | All Maps | STV","players":null},{"server_id":396,"name":"Uncletopia | Sydney | 4 | All Maps","name_short":"syd-4","host":"syd-1.au.uncletopia.com","port":27045,"enabled":true,"region":"au","cc":"au","latitude":-33.865143,"longitude":151.2099,"reserved":0,"last_update":"0001-01-01T00:00:00Z","name_a2s":"Uncletopia | Sydney | 4 | All Maps","protocol":17,"map":"koth_cascade","folder":"tf","game":"Team Fortress","app_id":440,"player_count":0,"max_players":24,"Bots":0,"server_type":"Dedicated","server_os":"Linux","password":true,"vac":true,"version":"7961495","steam_id":85568392925397958,"keywords":["cp","nocrits","nodmgspread","uncletopia"],"game_id":440,"stv_port":27046,"stv_name":"Uncletopia | Sydney | 4 | All Maps | STV","players":null},{"server_id":58,"name":"Uncletopia | Sydney | 5 | Stopwatch","name_short":"syd-5","host":"syd-1.au.uncletopia.com","port":27055,"enabled":true,"region":"au","cc":"au","latitude":-33.865143,"longitude":151.2099,"reserved":0,"last_update":"0001-01-01T00:00:00Z","name_a2s":"Uncletopia | Sydney | 5 | Stopwatch","protocol":17,"map":"pl_frontier_final","folder":"tf","game":"Team Fortress","app_id":440,"player_count":0,"max_players":24,"Bots":0,"server_type":"Dedicated","server_os":"Linux","password":true,"vac":true,"version":"7961495","steam_id":85568392925397959,"keywords":["nocrits","nodmgspread","payload","uncletopia"],"game_id":440,"stv_port":27056,"stv_name":"Uncletopia | Sydney | 5 | Stopwatch | STV","players":null},{"server_id":59,"name":"Uncletopia | Sydney | 6 | Community","name_short":"syd-6","host":"syd-1.au.uncletopia.com","port":27065,"enabled":true,"region":"au","cc":"au","latitude":-33.865143,"longitude":151.2099,"reserved":0,"last_update":"0001-01-01T00:00:00Z","name_a2s":"Uncletopia | Sydney | 6 | Community","protocol":17,"map":"cp_sunshine","folder":"tf","game":"Team Fortress","app_id":440,"player_count":0,"max_players":24,"Bots":0,"server_type":"Dedicated","server_os":"Linux","password":true,"vac":true,"version":"7961495","steam_id":85568392925397960,"keywords":["cp","nocrits","nodmgspread","uncletopia"],"game_id":440,"stv_port":27066,"stv_name":"Uncletopia | Sydney | 6 | Community | STV","players":null},{"server_id":49,"name":"Uncletopia | Warsaw | 1 | One Thousand Uncles","name_short":"waw-1","host":"waw-1.pl.uncletopia.com","port":27015,"enabled":true,"region":"eu","cc":"pl","latitude":52.2297,"longitude":21.017532,"reserved":0,"last_update":"0001-01-01T00:00:00Z","name_a2s":"Uncletopia | Warsaw | 1 | One Thousand Uncles","protocol":17,"map":"cp_dustbowl","folder":"tf","game":"Team Fortress","app_id":440,"player_count":0,"max_players":32,"Bots":0,"server_type":"Dedicated","server_os":"Linux","password":true,"vac":true,"version":"7961495","steam_id":85568392925397850,"keywords":["alltalk","cp","danepve","increased_maxplayers","nocrits","norespawntime","uncletopia"],"game_id":440,"stv_port":0,"stv_name":"","players":null},{"server_id":50,"name":"Uncletopia | Warsaw | 2 | One Thousand Uncles","name_short":"waw-2","host":"waw-1.pl.uncletopia.com","port":27025,"enabled":true,"region":"eu","cc":"pl","latitude":52.2297,"longitude":21.017532,"reserved":0,"last_update":"0001-01-01T00:00:00Z","name_a2s":"Uncletopia | Warsaw | 2 | One Thousand Uncles","protocol":17,"map":"cp_dustbowl","folder":"tf","game":"Team Fortress","app_id":440,"player_count":0,"max_players":32,"Bots":0,"server_type":"Dedicated","server_os":"Linux","password":true,"vac":true,"version":"7961495","steam_id":85568392925397851,"keywords":["alltalk","cp","danepve","increased_maxplayers","nocrits","norespawntime","uncletopia"],"game_id":440,"stv_port":0,"stv_name":"","players":null},{"server_id":51,"name":"Uncletopia | Warsaw | 3 | All Maps","name_short":"waw-3","host":"waw-1.pl.uncletopia.com","port":27035,"enabled":true,"region":"eu","cc":"pl","latitude":52.2297,"longitude":21.017532,"reserved":0,"last_update":"0001-01-01T00:00:00Z","name_a2s":"Uncletopia | Warsaw | 3 | All Maps","protocol":17,"map":"cp_sunshine","folder":"tf","game":"Team Fortress","app_id":440,"player_count":0,"max_players":24,"Bots":0,"server_type":"Dedicated","server_os":"Linux","password":true,"vac":true,"version":"7961495","steam_id":85568392925397852,"keywords":["cp","nocrits","nodmgspread","uncletopia"],"game_id":440,"stv_port":27036,"stv_name":"Uncletopia | Warsaw | 3 | All Maps | STV","players":null},{"server_id":52,"name":"Uncletopia | Warsaw | 4 | All Maps","name_short":"waw-4","host":"waw-1.pl.uncletopia.com","port":27045,"enabled":true,"region":"eu","cc":"pl","latitude":52.2297,"longitude":21.017532,"reserved":0,"last_update":"0001-01-01T00:00:00Z","name_a2s":"Uncletopia | Warsaw | 4 | All Maps","protocol":17,"map":"pl_barnblitz","folder":"tf","game":"Team Fortress","app_id":440,"player_count":0,"max_players":24,"Bots":0,"server_type":"Dedicated","server_os":"Linux","password":true,"vac":true,"version":"7961495","steam_id":85568392925397853,"keywords":["nocrits","nodmgspread","payload","uncletopia"],"game_id":440,"stv_port":27046,"stv_name":"Uncletopia | Warsaw | 4 | All Maps | STV","players":null},{"server_id":53,"name":"Uncletopia | Warsaw | 5 | Stopwatch","name_short":"waw-5","host":"waw-1.pl.uncletopia.com","port":27055,"enabled":true,"region":"eu","cc":"pl","latitude":52.2297,"longitude":21.017532,"reserved":0,"last_update":"0001-01-01T00:00:00Z","name_a2s":"Uncletopia | Warsaw | 5 | Stopwatch","protocol":17,"map":"workshop/pl_barnblitz_pro7.ugc582280235","folder":"tf","game":"Team Fortress","app_id":440,"player_count":0,"max_players":24,"Bots":0,"server_type":"Dedicated","server_os":"Linux","password":true,"vac":true,"version":"7961495","steam_id":85568392925397854,"keywords":["nocrits","nodmgspread","payload","uncletopia"],"game_id":440,"stv_port":27056,"stv_name":"Uncletopia | Warsaw | 5 | Stopwatch | STV","players":null},{"server_id":54,"name":"Uncletopia | Warsaw | 6 | Community","name_short":"waw-6","host":"waw-1.pl.uncletopia.com","port":27065,"enabled":true,"region":"eu","cc":"pl","latitude":52.2297,"longitude":21.017532,"reserved":0,"last_update":"0001-01-01T00:00:00Z","name_a2s":"Uncletopia | Warsaw | 6 | Community","protocol":17,"map":"workshop/cp_coilblaze_rc7.ugc1272700588","folder":"tf","game":"Team Fortress","app_id":440,"player_count":0,"max_players":24,"Bots":0,"server_type":"Dedicated","server_os":"Linux","password":true,"vac":true,"version":"7961495","steam_id":85568392925397856,"keywords":["cp","nocrits","nodmgspread","uncletopia"],"game_id":440,"stv_port":27066,"stv_name":"Uncletopia | Warsaw | 6 | Community | STV","players":null}]}