{"status":true,"message":"","result":[{"server_id":9,"name":"Uncletopia | Atlanta | 1 | All Maps","name_short":"atl-1","host":"atl-1.us.uncletopia.com","port":27015,"enabled":true,"region":"us-east","cc":"us","latitude":33.753746,"longitude":-84.38633,"reserved":0,"last_update":"0001-01-01T00:00:00Z","name_a2s":"Uncletopia | Atlanta | 1 | All Maps","protocol":17,"map":"pl_swiftwater_final1","folder":"tf","game":"Team Fortress","app_id":440,"player_count":24,"max_players":24,"Bots":0,"server_type":"Dedicated","server_os":"Linux","password":true,"vac":true,"version":"7757534","steam_id":85568392924469982,"keywords":["nocrits","nodmgspread","payload","uncletopia"],"game_id":440,"stv_port":27016,"stv_name":"Uncletopia | Atlanta | 1 | All Maps | STV","players":[{"user_id":313,"name":"astrophobic","steam_id":76561198838757422,"connected_time":1605000000000,"state":"active","ping":73},{"user_id":302,"name":"ATL1 | Sunny004","steam_id":76561198105397410,"connected_time":2181000000000,"state":"active","ping":49},{"user_id":298,"name":"Jack not john","steam_id":76561198217182993,"connected_time":2311000000000,"state":"active","ping":165},{"user_id":323,"name":"kohlhagen","steam_id":76561198120440587,"connected_time":467000000000,"state":"active","ping":46},{"user_id":203,"name":"com lag","steam_id":76561198019019392,"connected_time":4790000000000,"state":"active","ping":60},{"user_id":106,"name":"8,000,000 merged Chihuahuas","steam_id":76561198130772096,"connected_time":12634000000000,"state":"active","ping":50},{"user_id":307,"name":"LunarrD","steam_id":76561198811220107,"connected_time":1777000000000,"state":"active","ping":88},{"user_id":176,"name":"‚ô•Noble‚ô•","steam_id":76561198427370124,"connected_time":7050000000000,"state":"active","ping":91},{"user_id":276,"name":"Fred","steam_id":76561198070042255,"connected_time":2849000000000,"state":"active","ping":161},{"user_id":318,"name":"crzyhomer","steam_id":76561197961358414,"connected_time":1142000000000,"state":"active","ping":67},{"user_id":271,"name":"Motreir","steam_id":76561198151717946,"connected_time":3047000000000,"state":"active","ping":78},{"user_id":286,"name":"ChebJeb","steam_id":76561198981377081,"connected_time":2572000000000,"state":"active","ping":86},{"user_id":275,"name":"Neocherry","steam_id":76561198137036962,"connected_time":2951000000000,"state":"active","ping":81},{"user_id":326,"name":"lil hog","steam_id":76561199230929836,"connected_time":92000000000,"state":"active","ping":91},{"user_id":315,"name":"Grandpa¬¥s Last Drop of Cum","steam_id":76561198079516696,"connected_time":1229000000000,"state":"active","ping":90},{"user_id":316,"name":"Dr.Zarann","steam_id":76561198163952958,"connected_time":1207000000000,"state":"active","ping":59},{"user_id":295,"name":"M@verick","steam_id":76561198006363519,"connected_time":2422000000000,"state":"active","ping":77},{"user_id":299,"name":"Khailby","steam_id":76561198811728410,"connected_time":2294000000000,"state":"active","ping":61},{"user_id":314,"name":"Intro Bonito","steam_id":76561198119478838,"connected_time":1498000000000,"state":"active","ping":50},{"user_id":320,"name":"sandvish makes me strong","steam_id":76561199475216957,"connected_time":1113000000000,"state":"active","ping":178},{"user_id":309,"name":"mcdoubble","steam_id":76561198089126832,"connected_time":1747000000000,"state":"active","ping":96},{"user_id":322,"name":"Mug","steam_id":76561199282207802,"connected_time":1070000000000,"state":"active","ping":74},{"user_id":279,"name":"Deltaco","steam_id":76561198094572694,"connected_time":2769000000000,"state":"active","ping":98},{"user_id":310,"name":"mrcatman","steam_id":76561198358434883,"connected_time":1747000000000,"state":"active","ping":98}]},{"server_id":400,"name":"Uncletopia | Atlanta | 3 | Community","name_short":"atl-3","host":"atl-1.us.uncletopia.com","port":27035,"enabled":true,"region":"us-east","cc":"us","latitude":33.753746,"longitude":-84.38633,"reserved":0,"last_update":"0001-01-01T00:00:00Z","name_a2s":"Uncletopia | Atlanta | 3 | Community","protocol":17,"map":"workshop/koth_ashville_final.ugc2130459942","folder":"tf","game":"Team Fortress","app_id":440,"player_count":24,"max_players":24,"Bots":0,"server_type":"Dedicated","server_os":"Linux","password":true,"vac":true,"version":"7757534","steam_id":85568392924515187,"keywords":["cp","nocrits","nodmgspread","uncletopia"],"game_id":440,"stv_port":27036,"stv_name":"Uncletopia | Atlanta | 3 | Community | STV","players":[{"user_id":203,"name":"Fresh0c0","steam_id":76561198271933283,"connected_time":291000000000,"state":"active","ping":94},{"user_id":201,"name":"Satori Komeiji","steam_id":76561198158211423,"connected_time":598000000000,"state":"active","ping":95},{"user_id":199,"name":"Lukey","steam_id":76561198074642724,"connected_time":895000000000,"state":"active","ping":156},{"user_id":195,"name":"ribbonborn","steam_id":76561198001195423,"connected_time":1279000000000,"state":"active","ping":70},{"user_id":204,"name":"Kohbold","steam_id":76561198996480140,"connected_time":274000000000,"state":"active","ping":114},{"user_id":174,"name":"Lost CS player","steam_id":76561198892387723,"connected_time":2673000000000,"state":"active","ping":69},{"user_id":192,"name":"„ÇØ„Ç±„Ç§","steam_id":76561198215122444,"connected_time":1565000000000,"state":"active","ping":59},{"user_id":168,"name":"mel","steam_id":76561198097124190,"connected_time":2858000000000,"state":"active","ping":81},{"user_id":209,"name":"Shuual","steam_id":76561198004395256,"connected_time":73000000000,"state":"active","ping":57},{"user_id":205,"name":"Voon","steam_id":76561198166843533,"connected_time":269000000000,"state":"active","ping":77},{"user_id":126,"name":"jzplr üé∑üêõ","steam_id":76561198091901520,"connected_time":5384000000000,"state":"active","ping":61},{"user_id":181,"name":"Mad Cow ‚Äª","steam_id":76561199470707812,"connected_time":2064000000000,"state":"active","ping":81},{"user_id":211,"name":"Foxtrot Uniform","steam_id":76561199236576844,"connected_time":19000000000,"state":"active","ping":91},{"user_id":210,"name":"Milk Curdle","steam_id":76561198305106477,"connected_time":45000000000,"state":"active","ping":75},{"user_id":206,"name":"Patch","steam_id":76561198144241582,"connected_time":264000000000,"state":"active","ping":116},{"user_id":208,"name":"Weak","steam_id":76561198857135096,"connected_time":223000000000,"state":"active","ping":89},{"user_id":207,"name":"Kaluka","steam_id":76561198036861445,"connected_time":236000000000,"state":"active","ping":60},{"user_id":193,"name":"fruitlogic","steam_id":76561198071251588,"connected_time":1552000000000,"state":"active","ping":68},{"user_id":197,"name":"Fk it we Ball","steam_id":76561198078421075,"connected_time":1066000000000,"state":"active","ping":59},{"user_id":157,"name":"Dragonofponies","steam_id":76561199016800803,"connected_time":3342000000000,"state":"active","ping":72},{"user_id":198,"name":"D(b) Hell","steam_id":76561198067869016,"connected_time":989000000000,"state":"active","ping":70},{"user_id":212,"name":"choi","steam_id":76561198053669887,"connected_time":11000000000,"state":"spawning","ping":120},{"user_id":158,"name":"CHINESE SPY BALLOON OF DEATH","steam_id":76561197975975364,"connected_time":3337000000000,"state":"active","ping":77},{"user_id":162,"name":"Scottie Drippin","steam_id":76561198089691679,"connected_time":3213000000000,"state":"active","ping":60}]},{"server_id":401,"name":"Uncletopia | Atlanta | 4 | No Payload","name_short":"atl-4","host":"atl-1.us.uncletopia.com","port":27045,"enabled":true,"region":"us-east","cc":"us","latitude":33.753746,"longitude":-84.38633,"reserved":0,"last_update":"0001-01-01T00:00:00Z","name_a2s":"","protocol":0,"map":"","folder":"","game":"","app_id":0,"player_count":0,"max_players":0,"Bots":0,"server_type":"","server_os":"","password":false,"vac":false,"version":"","steam_id":0,"keywords":null,"game_id":0,"stv_port":0,"stv_name":"","players":null},{"server_id":2,"name":"Uncletopia | Chicago | 1 | All Maps","name_short":"chi-1","host":"chi-1.us.uncletopia.com","port":27015,"enabled":true,"region":"us-central","cc":"us","latitude":41.881832,"longitude":-87.62318,"reserved":0,"last_update":"0001-01-01T00:00:00Z","name_a2s":"Uncletopia | Chicago | 1 | All Maps","protocol":17,"map":"cp_altitude","folder":"tf","game":"Team Fortress","app_id":440,"player_count":24,"max_players":24,"Bots":0,"server_type":"Dedicated","server_os":"Linux","password":true,"vac":true,"version":"7757534","steam_id":85568392924469984,"keywords":["cp","nocrits","nodmgspread","uncletopia"],"game_id":440,"stv_port":27016,"stv_name":"Uncletopia | Chicago | 1 | All Maps | STV","players":[{"user_id":325,"name":"NerdCuddles","steam_id":76561198078915242,"connected_time":89000000000,"state":"active","ping":51},{"user_id":264,"name":"Astoriae!","steam_id":76561199090168858,"connected_time":4651000000000,"state":"active","ping":67},{"user_id":308,"name":"XLMasterBlaster","steam_id":76561198106966397,"connected_time":1237000000000,"state":"active","ping":58},{"user_id":321,"name":"crayonnipple","steam_id":76561198070253331,"connected_time":498000000000,"state":"active","ping":74},{"user_id":320,"name":"Isn't Water","steam_id":76561199253511650,"connected_time":572000000000,"state":"active","ping":160},{"user_id":313,"name":"Shmebulock","steam_id":76561198046941925,"connected_time":1134000000000,"state":"active","ping":55},{"user_id":314,"name":"Seven","steam_id":76561198259947055,"connected_time":1105000000000,"state":"active","ping":63},{"user_id":306,"name":"loudpisser","steam_id":76561198078802110,"connected_time":1338000000000,"state":"active","ping":70},{"user_id":323,"name":"egyptiangodcard","steam_id":76561198855935442,"connected_time":466000000000,"state":"active","ping":71},{"user_id":315,"name":"Dr. Wario","steam_id":76561198901238861,"connected_time":1040000000000,"state":"active","ping":99},{"user_id":297,"name":"Big Phony","steam_id":76561199092395311,"connected_time":2399000000000,"state":"active","ping":61},{"user_id":299,"name":"Sebi","steam_id":76561198182090858,"connected_time":2054000000000,"state":"active","ping":58},{"user_id":318,"name":"Ascended SoS","steam_id":76561198123441203,"connected_time":708000000000,"state":"active","ping":74},{"user_id":303,"name":"CopperBox","steam_id":76561198068217248,"connected_time":1933000000000,"state":"active","ping":92},{"user_id":278,"name":"ItDoobie","steam_id":76561198094947910,"connected_time":4260000000000,"state":"active","ping":71},{"user_id":293,"name":"Goober","steam_id":76561198988863807,"connected_time":2878000000000,"state":"active","ping":79},{"user_id":279,"name":"Yoyo","steam_id":76561199122577289,"connected_time":4230000000000,"state":"active","ping":68},{"user_id":317,"name":"weeb_whacker#Jenius#Hateologist","steam_id":76561198187098041,"connected_time":911000000000,"state":"active","ping":60},{"user_id":198,"name":"Adam (Cursed Confetti Creature)","steam_id":76561198317690197,"connected_time":9878000000000,"state":"active","ping":45},{"user_id":319,"name":"Hob-Goblin Jim The IV","steam_id":76561199046650666,"connected_time":690000000000,"state":"active","ping":57},{"user_id":326,"name":"birdrose44","steam_id":76561199278203971,"connected_time":6000000000,"state":"spawning","ping":104},{"user_id":280,"name":"Inquisitribble","steam_id":76561198022402409,"connected_time":4200000000000,"state":"active","ping":51},{"user_id":221,"name":"hi","steam_id":76561198809577048,"connected_time":7985000000000,"state":"active","ping":106},{"user_id":254,"name":"Training Arc","steam_id":76561198038832034,"connected_time":5206000000000,"state":"active","ping":106}]},{"server_id":106,"name":"Uncletopia | Chicago | 2 | All Maps","name_short":"chi-2","host":"chi-1.us.uncletopia.com","port":27025,"enabled":true,"region":"us-central","cc":"us","latitude":41.881832,"longitude":-87.62318,"reserved":0,"last_update":"0001-01-01T00:00:00Z","name_a2s":"Uncletopia | Chicago | 2 | All Maps","protocol":17,"map":"pl_frontier_final","folder":"tf","game":"Team Fortress","app_id":440,"player_count":0,"max_players":24,"Bots":0,"server_type":"Dedicated","server_os":"Linux","password":true,"vac":true,"version":"7757534","steam_id":85568392924469985,"keywords":["nocrits","nodmgspread","payload","uncletopia"],"game_id":440,"stv_port":27026,"stv_name":"Uncletopia | Chicago | 2 | All Maps | STV","players":null},{"server_id":402,"name":"Uncletopia | Chicago | 3 | All Maps","name_short":"chi-3","host":"chi-1.us.uncletopia.com","port":27035,"enabled":true,"region":"us-central","cc":"us","latitude":41.881832,"longitude":-87.62318,"reserved":0,"last_update":"0001-01-01T00:00:00Z","name_a2s":"Uncletopia | Chicago | 3 | All Maps","protocol":17,"map":"cp_process_final","folder":"tf","game":"Team Fortress","app_id":440,"player_count":23,"max_players":24,"Bots":0,"server_type":"Dedicated","server_os":"Linux","password":true,"vac":true,"version":"7757534","steam_id":85568392924515191,"keywords":["cp","nocrits","nodmgspread","uncletopia"],"game_id":440,"stv_port":27036,"stv_name":"Uncletopia | Chicago | 3 | All Maps | STV","players":[{"user_id":137,"name":"Bread Baker","steam_id":76561198185335103,"connected_time":1807000000000,"state":"active","ping":45},{"user_id":108,"name":"bubblebathgod873","steam_id":76561198083463877,"connected_time":3866000000000,"state":"active","ping":59},{"user_id":13,"name":"katryna","steam_id":76561198023440304,"connected_time":9557000000000,"state":"active","ping":58},{"user_id":110,"name":"he drove a series ten cadillac","steam_id":76561198142756572,"connected_time":3559000000000,"state":"active","ping":65},{"user_id":150,"name":"Rhutebeer","steam_id":76561198018302761,"connected_time":635000000000,"state":"active","ping":99},{"user_id":145,"name":"Evolution","steam_id":76561198144767370,"connected_time":1565000000000,"state":"active","ping":45},{"user_id":151,"name":"Fredrick","steam_id":76561197981419964,"connected_time":378000000000,"state":"active","ping":68},{"user_id":148,"name":"one tricked","steam_id":76561198165230503,"connected_time":1285000000000,"state":"active","ping":72},{"user_id":149,"name":"gaming for fun","steam_id":76561198062410522,"connected_time":1219000000000,"state":"active","ping":57},{"user_id":130,"name":"banana man","steam_id":76561199385170644,"connected_time":2554000000000,"state":"active","ping":56},{"user_id":139,"name":"TeriyakiDynamite","steam_id":76561198050049346,"connected_time":1608000000000,"state":"active","ping":113},{"user_id":124,"name":"threethree","steam_id":76561198177354155,"connected_time":3076000000000,"state":"active","ping":34},{"user_id":135,"name":"LegendaryMister151","steam_id":76561198064890524,"connected_time":2211000000000,"state":"active","ping":90},{"user_id":81,"name":"tasty","steam_id":76561198083839061,"connected_time":6408000000000,"state":"active","ping":68},{"user_id":85,"name":"PaP√° Soulzune„ÉÖ","steam_id":76561198139615052,"connected_time":6327000000000,"state":"active","ping":112},{"user_id":152,"name":"PzVIIIMaus","steam_id":76561198346559365,"connected_time":150000000000,"state":"active","ping":46},{"user_id":141,"name":"They could be starlings","steam_id":76561198441020995,"connected_time":1601000000000,"state":"active","ping":103},{"user_id":126,"name":"Xtra","steam_id":76561198355594088,"connected_time":2636000000000,"state":"active","ping":64},{"user_id":136,"name":"Riis","steam_id":76561199345210632,"connected_time":2165000000000,"state":"active","ping":82},{"user_id":142,"name":"Cyberbrunk","steam_id":76561198034163103,"connected_time":1597000000000,"state":"active","ping":72},{"user_id":105,"name":"gps","steam_id":76561198067492304,"connected_time":4216000000000,"state":"active","ping":81},{"user_id":116,"name":"83 DPM medic","steam_id":76561198067994868,"connected_time":3523000000000,"state":"active","ping":58},{"user_id":144,"name":"Dispenser (aflyingmouse)","steam_id":76561198058134934,"connected_time":1593000000000,"state":"active","ping":121}]},{"server_id":403,"name":"Uncletopia | Chicago | 4 | All Maps","name_short":"chi-4","host":"chi-1.us.uncletopia.com","port":27045,"enabled":true,"region":"us-central","cc":"us","latitude":41.881832,"longitude":-87.62318,"reserved":0,"last_update":"0001-01-01T00:00:00Z","name_a2s":"Uncletopia | Chicago | 4 | All Maps","protocol":17,"map":"koth_cascade","folder":"tf","game":"Team Fortress","app_id":440,"player_count":0,"max_players":24,"Bots":0,"server_type":"Dedicated","server_os":"Linux","password":true,"vac":true,"version":"7757534","steam_id":85568392924515193,"keywords":["cp","nocrits","nodmgspread","uncletopia"],"game_id":440,"stv_port":27046,"stv_name":"Uncletopia | Chicago | 4 | All Maps | STV","players":null},{"server_id":36,"name":"Uncletopia | Chicago | 5 | All Maps","name_short":"chi-5","host":"chi-2.us.uncletopia.com","port":27015,"enabled":true,"region":"us-central","cc":"us","latitude":41.881832,"longitude":-87.62318,"reserved":0,"last_update":"0001-01-01T00:00:00Z","name_a2s":"Uncletopia | Chicago | 5 | All Maps","protocol":17,"map":"koth_lakeside_final","folder":"tf","game":"Team Fortress","app_id":440,"player_count":0,"max_players":24,"Bots":0,"server_type":"Dedicated","server_os":"Linux","password":true,"vac":true,"version":"7757534","steam_id":85568392924866362,"keywords":["cp","nocrits","nodmgspread","uncletopia"],"game_id":440,"stv_port":27016,"stv_name":"Uncletopia | Chicago | 5 | All Maps | STV","players":null},{"server_id":37,"name":"Uncletopia | Chicago | 6 | All Maps","name_short":"chi-6","host":"chi-2.us.uncletopia.com","port":27025,"enabled":true,"region":"us-central","cc":"us","latitude":41.881832,"longitude":-87.62318,"reserved":0,"last_update":"0001-01-01T00:00:00Z","name_a2s":"Uncletopia | Chicago | 6 | All Maps","protocol":17,"map":"koth_cascade","folder":"tf","game":"Team Fortress","app_id":440,"player_count":0,"max_players":24,"Bots":0,"server_type":"Dedicated","server_os":"Linux","password":true,"vac":true,"version":"7757534","steam_id":85568392924866363,"keywords":["cp","nocrits","nodmgspread","uncletopia"],"game_id":440,"stv_port":27026,"stv_name":"Uncletopia | Chicago | 6 | All Maps | STV","players":null},{"server_id":38,"name":"Uncletopia | Chicago | 7 | Stopwatch Beta","name_short":"chi-7","host":"chi-2.us.uncletopia.com","port":27035,"enabled":true,"region":"us-central","cc":"us","latitude":41.881832,"longitude":-87.62318,"reserved":0,"last_update":"0001-01-01T00:00:00Z","name_a2s":"Uncletopia | Chicago | 7 | Stopwatch Beta","protocol":17,"map":"cp_process_final","folder":"tf","game":"Team Fortress","app_id":440,"player_count":25,"max_players":24,"Bots":0,"server_type":"Dedicated","server_os":"Linux","password":true,"vac":true,"version":"7757534","steam_id":85568392924866364,"keywords":["cp","nocrits","nodmgspread","uncletopia"],"game_id":440,"stv_port":27036,"stv_name":"Uncletopia | Chicago | 7 | Stopwatch Beta | STV","players":[{"user_id":8,"name":"Bern","steam_id":76561198294032289,"connected_time":2440000000000,"state":"active","ping":49},{"user_id":12,"name":"GaleForce","steam_id":76561198196531122,"connected_time":1634000000000,"state":"active","ping":70},{"user_id":13,"name":"Thomas Goblin-man Yorke","steam_id":76561197999658755,"connected_time":1496000000000,"state":"active","ping":49},{"user_id":11,"name":"the cake","steam_id":76561198405346572,"connected_time":2064000000000,"state":"active","ping":73},{"user_id":14,"name":"Unwavering Flavor","steam_id":76561198053306065,"connected_time":1340000000000,"state":"active","ping":72},{"user_id":23,"name":"hoOmIN","steam_id":76561198334947079,"connected_time":613000000000,"state":"active","ping":90},{"user_id":16,"name":"\u003c3","steam_id":76561198355068405,"connected_time":783000000000,"state":"active","ping":76},{"user_id":17,"name":"Mr.Z","steam_id":76561199251422541,"connected_time":756000000000,"state":"active","ping":115},{"user_id":18,"name":"Byu","steam_id":76561199012880340,"connected_time":748000000000,"state":"active","ping":118},{"user_id":19,"name":"Risguy","steam_id":76561198256419746,"connected_time":724000000000,"state":"active","ping":106},{"user_id":38,"name":"Icaruss","steam_id":76561199087157705,"connected_time":438000000000,"state":"active","ping":89},{"user_id":21,"name":"psy","steam_id":76561198013195018,"connected_time":716000000000,"state":"active","ping":73},{"user_id":48,"name":"choi","steam_id":76561198053669887,"connected_time":67000000000,"state":"connecting","ping":0},{"user_id":25,"name":"Mara Roo","steam_id":76561198279341789,"connected_time":608000000000,"state":"active","ping":95},{"user_id":45,"name":"49belowzero","steam_id":76561198108177252,"connected_time":293000000000,"state":"active","ping":90},{"user_id":39,"name":"rmx^-^","steam_id":76561197961779026,"connected_time":430000000000,"state":"active","ping":95},{"user_id":40,"name":"banana97286","steam_id":76561199367847817,"connected_time":407000000000,"state":"active","ping":67},{"user_id":29,"name":"rollsroycekibby","steam_id":76561198991982630,"connected_time":575000000000,"state":"active","ping":54},{"user_id":32,"name":"Massive Conquistador","steam_id":76561197961138002,"connected_time":565000000000,"state":"active","ping":82},{"user_id":31,"name":"Ros","steam_id":76561199055963822,"connected_time":572000000000,"state":"active","ping":71},{"user_id":41,"name":"(^._.^)","steam_id":76561198971354161,"connected_time":407000000000,"state":"active","ping":60},{"user_id":34,"name":"Yeagle","steam_id":76561199086620299,"connected_time":519000000000,"state":"active","ping":79},{"user_id":47,"name":"Boxxed","steam_id":76561198255787237,"connected_time":235000000000,"state":"active","ping":77},{"user_id":42,"name":"Zhenaj","steam_id":76561199209016136,"connected_time":387000000000,"state":"active","ping":59},{"user_id":49,"name":"barbara","steam_id":76561198072417792,"connected_time":19000000000,"state":"active","ping":126}]},{"server_id":39,"name":"Uncletopia | Chicago | 8 | Community","name_short":"chi-8","host":"chi-2.us.uncletopia.com","port":27045,"enabled":true,"region":"us-central","cc":"us","latitude":41.881832,"longitude":-87.62318,"reserved":0,"last_update":"0001-01-01T00:00:00Z","name_a2s":"Uncletopia | Chicago | 8 | Community","protocol":17,"map":"koth_lakeside_final","folder":"tf","game":"Team Fortress","app_id":440,"player_count":0,"max_players":24,"Bots":0,"server_type":"Dedicated","server_os":"Linux","password":true,"vac":true,"version":"7757534","steam_id":85568392924866365,"keywords":["cp","nocrits","nodmgspread","uncletopia"],"game_id":440,"stv_port":27046,"stv_name":"Uncletopia | Chicago | 8 | Community | STV","players":null},{"server_id":8,"name":"Uncletopia | Dallas | 1 | All Maps","name_short":"dal-1","host":"dal-1.us.uncletopia.com","port":27015,"enabled":true,"region":"us-central","cc":"us","latitude":32.779167,"longitude":-96.80889,"reserved":0,"last_update":"0001-01-01T00:00:00Z","name_a2s":"Uncletopia | Dallas | 1 | All Maps","protocol":17,"map":"koth_highpass","folder":"tf","game":"Team Fortress","app_id":440,"player_count":0,"max_players":24,"Bots":0,"server_type":"Dedicated","server_os":"Linux","password":true,"vac":true,"version":"7757534","steam_id":85568392924469986,"keywords":["cp","nocrits","nodmgspread","uncletopia"],"game_id":440,"stv_port":27016,"stv_name":"Uncletopia | Dallas | 1 | All Maps | STV","players":null},{"server_id":108,"name":"Uncletopia | Dallas | 2 | All Maps","name_short":"dal-2","host":"dal-1.us.uncletopia.com","port":27025,"enabled":true,"region":"us-central","cc":"us","latitude":32.779167,"longitude":-96.80889,"reserved":0,"last_update":"0001-01-01T00:00:00Z","name_a2s":"Uncletopia | Dallas | 2 | All Maps","protocol":17,"map":"koth_cascade","folder":"tf","game":"Team Fortress","app_id":440,"player_count":24,"max_players":24,"Bots":0,"server_type":"Dedicated","server_os":"Linux","password":true,"vac":true,"version":"7757534","steam_id":85568392924469988,"keywords":["cp","nocrits","nodmgspread","uncletopia"],"game_id":440,"stv_port":27026,"stv_name":"Uncletopia | Dallas | 2 | All Maps | STV","players":[{"user_id":550,"name":"Fresh Lychee","steam_id":76561198045399559,"connected_time":2584000000000,"state":"active","ping":74},{"user_id":580,"name":"[_Dr.Scythe_]","steam_id":76561198845245858,"connected_time":221000000000,"state":"active","ping":60},{"user_id":577,"name":"sokof63357","steam_id":76561199397932924,"connected_time":304000000000,"state":"active","ping":174},{"user_id":534,"name":"Cresant Ape","steam_id":76561198127425559,"connected_time":4312000000000,"state":"active","ping":45},{"user_id":548,"name":"jturner1nm","steam_id":76561198344493652,"connected_time":2908000000000,"state":"active","ping":98},{"user_id":583,"name":"Aeris","steam_id":76561198287271028,"connected_time":193000000000,"state":"active","ping":73},{"user_id":560,"name":"pinhead larry","steam_id":76561199078518364,"connected_time":1796000000000,"state":"active","ping":76},{"user_id":570,"name":"keep life warm","steam_id":76561198044443985,"connected_time":1104000000000,"state":"active","ping":71},{"user_id":546,"name":"tekan","steam_id":76561199077174231,"connected_time":3069000000000,"state":"active","ping":94},{"user_id":568,"name":"ajplays28","steam_id":76561199023537026,"connected_time":1389000000000,"state":"active","ping":105},{"user_id":544,"name":"The World's Softest Sandwich","steam_id":76561198015577707,"connected_time":3587000000000,"state":"active","ping":74},{"user_id":575,"name":"DotA Psychologist","steam_id":76561198052171640,"connected_time":397000000000,"state":"active","ping":80},{"user_id":576,"name":"[LINUX] Purple Penguin Pybro","steam_id":76561198093538786,"connected_time":382000000000,"state":"active","ping":55},{"user_id":578,"name":"ay","steam_id":76561199406261605,"connected_time":301000000000,"state":"active","ping":62},{"user_id":532,"name":"Shaquille Oatmeal","steam_id":76561198186835074,"connected_time":4560000000000,"state":"active","ping":67},{"user_id":571,"name":"Magnus1738","steam_id":76561198330283667,"connected_time":986000000000,"state":"active","ping":89},{"user_id":549,"name":"Lolxdloldx","steam_id":76561198136887125,"connected_time":2801000000000,"state":"active","ping":78},{"user_id":579,"name":"ChottoAMinute","steam_id":76561198873157775,"connected_time":226000000000,"state":"active","ping":41},{"user_id":556,"name":"Leo","steam_id":76561198309760791,"connected_time":1835000000000,"state":"active","ping":123},{"user_id":581,"name":"kirbo","steam_id":76561198057895955,"connected_time":218000000000,"state":"active","ping":83},{"user_id":553,"name":"King Baldski","steam_id":76561198359568400,"connected_time":2535000000000,"state":"active","ping":154},{"user_id":572,"name":"0r161n4lj0k3","steam_id":76561198127328235,"connected_time":646000000000,"state":"active","ping":90},{"user_id":558,"name":"John Arbuckle","steam_id":76561199016285746,"connected_time":1830000000000,"state":"active","ping":75},{"user_id":574,"name":"DJ Tigress","steam_id":76561198065005979,"connected_time":563000000000,"state":"active","ping":91}]},{"server_id":5,"name":"Uncletopia | Frankfurt | 1 | All Maps","name_short":"frk-1","host":"frk-1.de.uncletopia.com","port":27015,"enabled":true,"region":"eu","cc":"de","latitude":50.110924,"longitude":8.682127,"reserved":0,"last_update":"0001-01-01T00:00:00Z","name_a2s":"Uncletopia | Frankfurt | 1 | All Maps","protocol":17,"map":"pl_pier","folder":"tf","game":"Team Fortress","app_id":440,"player_count":24,"max_players":24,"Bots":0,"server_type":"Dedicated","server_os":"Linux","password":true,"vac":true,"version":"7757534","steam_id":85568392924469989,"keywords":["nocrits","nodmgspread","payload","uncletopia"],"game_id":440,"stv_port":27016,"stv_name":"Uncletopia | Frankfurt | 1 | All Maps | STV","players":[{"user_id":471,"name":"ldshwt","steam_id":76561198090364357,"connected_time":1529000000000,"state":"active","ping":49},{"user_id":481,"name":"kbbq","steam_id":76561198346638308,"connected_time":677000000000,"state":"active","ping":52},{"user_id":430,"name":"jukseb√∏llesnillmaker","steam_id":76561199060683386,"connected_time":2961000000000,"state":"active","ping":72},{"user_id":482,"name":"REN","steam_id":76561198000596385,"connected_time":676000000000,"state":"active","ping":62},{"user_id":506,"name":"boofing prozac","steam_id":76561198851157897,"connected_time":13000000000,"state":"active","ping":63},{"user_id":433,"name":"HIDEOUS DISFIGUREMENTS","steam_id":76561198036730191,"connected_time":2918000000000,"state":"active","ping":52},{"user_id":500,"name":"senko","steam_id":76561198002990168,"connected_time":202000000000,"state":"active","ping":55},{"user_id":504,"name":"Trebox78","steam_id":76561198071963357,"connected_time":25000000000,"state":"active","ping":74},{"user_id":437,"name":"jonny derp","steam_id":76561198066287297,"connected_time":2799000000000,"state":"active","ping":39},{"user_id":495,"name":"–î–∂–æ–∫–µ—Ä –õ–ù–†","steam_id":76561198983721537,"connected_time":505000000000,"state":"active","ping":57},{"user_id":502,"name":"Senator Armstrong","steam_id":76561198984346408,"connected_time":127000000000,"state":"active","ping":68},{"user_id":466,"name":"jones","steam_id":76561198044434971,"connected_time":1797000000000,"state":"active","ping":54},{"user_id":485,"name":"MGE Bro","steam_id":76561198796600155,"connected_time":643000000000,"state":"active","ping":85},{"user_id":486,"name":"Badass gangnam style minion","steam_id":76561198297602677,"connected_time":634000000000,"state":"active","ping":87},{"user_id":501,"name":"Crims0n","steam_id":76561198110735434,"connected_time":165000000000,"state":"active","ping":55},{"user_id":458,"name":"Kakograf","steam_id":76561198148375639,"connected_time":2146000000000,"state":"active","ping":79},{"user_id":494,"name":"Batman DNR","steam_id":76561199004923871,"connected_time":530000000000,"state":"active","ping":78},{"user_id":503,"name":"Bocchi the Cock o_0","steam_id":76561198051862530,"connected_time":36000000000,"state":"active","ping":67},{"user_id":476,"name":"decommandpro","steam_id":76561198971647041,"connected_time":927000000000,"state":"active","ping":78},{"user_id":497,"name":"xoxoji19910501","steam_id":76561199037007405,"connected_time":296000000000,"state":"active","ping":84},{"user_id":490,"name":"rob","steam_id":76561198122211848,"connected_time":598000000000,"state":"active","ping":95},{"user_id":498,"name":"‚ô´‚òÖXriasp‚òÖ‚ô´","steam_id":76561198104721321,"connected_time":282000000000,"state":"active","ping":60},{"user_id":505,"name":"Foreskin Gamer","steam_id":76561198283106341,"connected_time":16000000000,"state":"spawning","ping":63},{"user_id":493,"name":"killer croc","steam_id":76561198261795972,"connected_time":581000000000,"state":"active","ping":72}]},{"server_id":110,"name":"Uncletopia | Frankfurt | 2 | All Maps","name_short":"frk-2","host":"frk-1.de.uncletopia.com","port":27025,"enabled":true,"region":"eu","cc":"de","latitude":50.110924,"longitude":8.682127,"reserved":0,"last_update":"0001-01-01T00:00:00Z","name_a2s":"Uncletopia | Frankfurt | 2 | All Maps","protocol":17,"map":"koth_lakeside_final","folder":"tf","game":"Team Fortress","app_id":440,"player_count":0,"max_players":24,"Bots":0,"server_type":"Dedicated","server_os":"Linux","password":true,"vac":true,"version":"7757534","steam_id":85568392924469990,"keywords":["cp","nocrits","nodmgspread","uncletopia"],"game_id":440,"stv_port":27026,"stv_name":"Uncletopia | Frankfurt | 2 | All Maps | STV","players":null},{"server_id":308,"name":"Uncletopia | Frankfurt | 3 | All Maps","name_short":"frk-3","host":"frk-1.de.uncletopia.com","port":27035,"enabled":true,"region":"eu","cc":"de","latitude":50.110924,"longitude":8.682127,"reserved":0,"last_update":"0001-01-01T00:00:00Z","name_a2s":"Uncletopia | Frankfurt | 3 | All Maps","protocol":17,"map":"koth_highpass","folder":"tf","game":"Team Fortress","app_id":440,"player_count":0,"max_players":24,"Bots":0,"server_type":"Dedicated","server_os":"Linux","password":true,"vac":true,"version":"7757534","steam_id":85568392924504274,"keywords":["cp","nocrits","nodmgspread","uncletopia"],"game_id":440,"stv_port":27036,"stv_name":"Uncletopia | Frankfurt | 3 | All Maps | STV","players":null},{"server_id":309,"name":"Uncletopia | Frankfurt | 4 | All Maps","name_short":"frk-4","host":"frk-1.de.uncletopia.com","port":27045,"enabled":true,"region":"eu","cc":"de","latitude":50.110924,"longitude":8.682127,"reserved":0,"last_update":"0001-01-01T00:00:00Z","name_a2s":"Uncletopia | Frankfurt | 4 | All Maps","protocol":17,"map":"pl_swiftwater_final1","folder":"tf","game":"Team Fortress","app_id":440,"player_count":23,"max_players":24,"Bots":0,"server_type":"Dedicated","server_os":"Linux","password":true,"vac":true,"version":"7757534","steam_id":85568392924504275,"keywords":["nocrits","nodmgspread","payload","uncletopia"],"game_id":440,"stv_port":27046,"stv_name":"Uncletopia | Frankfurt | 4 | All Maps | STV","players":[{"user_id":73,"name":"Tre3","steam_id":76561198054795379,"connected_time":678000000000,"state":"active","ping":55},{"user_id":74,"name":"VanillaWoof","steam_id":76561198158343951,"connected_time":672000000000,"state":"active","ping":49},{"user_id":43,"name":"sudo","steam_id":76561198045575797,"connected_time":1325000000000,"state":"active","ping":57},{"user_id":34,"name":"I eat plutonium cores","steam_id":76561198339480413,"connected_time":1638000000000,"state":"active","ping":71},{"user_id":35,"name":"Ostara","steam_id":76561198200054489,"connected_time":1627000000000,"state":"active","ping":66},{"user_id":44,"name":"POOTIS MAN","steam_id":76561199177886238,"connected_time":1297000000000,"state":"active","ping":68},{"user_id":75,"name":"galaxy","steam_id":76561198164819022,"connected_time":668000000000,"state":"active","ping":62},{"user_id":38,"name":"TravIS","steam_id":76561198202115036,"connected_time":1583000000000,"state":"active","ping":67},{"user_id":88,"name":"Estyle","steam_id":76561198157804700,"connected_time":245000000000,"state":"active","ping":80},{"user_id":76,"name":"justin_ (f2p) (real)","steam_id":76561198839843428,"connected_time":664000000000,"state":"active","ping":125},{"user_id":52,"name":"Dozer","steam_id":76561197998742338,"connected_time":1098000000000,"state":"active","ping":66},{"user_id":77,"name":"ran is running","steam_id":76561199443185667,"connected_time":658000000000,"state":"active","ping":145},{"user_id":87,"name":"Burger King Dante","steam_id":76561198390314734,"connected_time":332000000000,"state":"active","ping":60},{"user_id":86,"name":"Nut With Potential","steam_id":76561198293297458,"connected_time":428000000000,"state":"active","ping":54},{"user_id":78,"name":"UnknownHero","steam_id":76561198864766392,"connected_time":655000000000,"state":"active","ping":83},{"user_id":92,"name":"a Regurar Barroon","steam_id":76561198834913692,"connected_time":191000000000,"state":"active","ping":70},{"user_id":93,"name":"Deacon Dracul","steam_id":76561198046880663,"connected_time":187000000000,"state":"active","ping":98},{"user_id":90,"name":"curdate","steam_id":76561199147333761,"connected_time":212000000000,"state":"active","ping":116},{"user_id":94,"name":"subway vergil","steam_id":76561199110064166,"connected_time":171000000000,"state":"active","ping":87},{"user_id":61,"name":"k","steam_id":76561198089342103,"connected_time":993000000000,"state":"active","ping":84},{"user_id":81,"name":"Rusty Shackleford","steam_id":76561198069226593,"connected_time":633000000000,"state":"active","ping":56},{"user_id":82,"name":"Atypical‚ô±Rila","steam_id":76561198244277732,"connected_time":625000000000,"state":"active","ping":59},{"user_id":83,"name":"Warpzel65","steam_id":76561198799303596,"connected_time":590000000000,"state":"active","ping":101}]},{"server_id":310,"name":"Uncletopia | Frankfurt | 5 | All Maps","name_short":"frk-5","host":"frk-1.de.uncletopia.com","port":27055,"enabled":true,"region":"eu","cc":"de","latitude":50.110924,"longitude":8.682127,"reserved":0,"last_update":"0001-01-01T00:00:00Z","name_a2s":"Uncletopia | Frankfurt | 5 | All Maps","protocol":17,"map":"pl_snowycoast","folder":"tf","game":"Team Fortress","app_id":440,"player_count":0,"max_players":24,"Bots":0,"server_type":"Dedicated","server_os":"Linux","password":true,"vac":true,"version":"7757534","steam_id":85568392924504277,"keywords":["nocrits","nodmgspread","payload","uncletopia"],"game_id":440,"stv_port":27056,"stv_name":"Uncletopia | Frankfurt | 5 | All Maps | STV","players":null},{"server_id":311,"name":"Uncletopia | Frankfurt | 6 | All Maps","name_short":"frk-6","host":"frk-1.de.uncletopia.com","port":27065,"enabled":true,"region":"eu","cc":"de","latitude":50.110924,"longitude":8.682127,"reserved":0,"last_update":"0001-01-01T00:00:00Z","name_a2s":"Uncletopia | Frankfurt | 6 | All Maps","protocol":17,"map":"ctf_2fort","folder":"tf","game":"Team Fortress","app_id":440,"player_count":5,"max_players":24,"Bots":0,"server_type":"Dedicated","server_os":"Linux","password":true,"vac":true,"version":"7757534","steam_id":85568392924504278,"keywords":["ctf","nocrits","nodmgspread","uncletopia"],"game_id":440,"stv_port":27066,"stv_name":"Uncletopia | Frankfurt | 6 | All Maps | STV","players":[{"user_id":21,"name":"MysticKoko","steam_id":76561198305652904,"connected_time":433000000000,"state":"active","ping":843},{"user_id":23,"name":"Ehunter666","steam_id":76561198110677556,"connected_time":293000000000,"state":"active","ping":61},{"user_id":25,"name":"antlionguard","steam_id":76561198072747143,"connected_time":119000000000,"state":"active","ping":97},{"user_id":26,"name":"lord-carlos","steam_id":76561198025150761,"connected_time":78000000000,"state":"active","ping":47},{"user_id":27,"name":"gamerbot106","steam_id":76561198832917810,"connected_time":56000000000,"state":"active","ping":153}]},{"server_id":23,"name":"Uncletopia | Frankfurt | 7 | Stopwatch Beta","name_short":"frk-7","host":"frk-1.de.uncletopia.com","port":27075,"enabled":true,"region":"eu","cc":"de","latitude":50.110924,"longitude":8.682127,"reserved":0,"last_update":"0001-01-01T00:00:00Z","name_a2s":"Uncletopia | Frankfurt | 7 | Stopwatch Beta","protocol":17,"map":"pl_borneo","folder":"tf","game":"Team Fortress","app_id":440,"player_count":1,"max_players":24,"Bots":0,"server_type":"Dedicated","server_os":"Linux","password":true,"vac":true,"version":"7757534","steam_id":85568392924742827,"keywords":["nocrits","nodmgspread","payload","uncletopia"],"game_id":440,"stv_port":27076,"stv_name":"Uncletopia | Frankfurt | 7 | Stopwatch Beta | STV","players":[{"user_id":7,"name":"Vallian","steam_id":76561198429250263,"connected_time":121000000000,"state":"active","ping":70}]},{"server_id":24,"name":"Uncletopia | Frankfurt | 8 | Community","name_short":"frk-8","host":"frk-1.de.uncletopia.com","port":27085,"enabled":true,"region":"eu","cc":"de","latitude":50.110924,"longitude":8.682127,"reserved":0,"last_update":"0001-01-01T00:00:00Z","name_a2s":"Uncletopia | Frankfurt | 8 | Community","protocol":17,"map":"workshop/koth_product_final.ugc454272353","folder":"tf","game":"Team Fortress","app_id":440,"player_count":2,"max_players":24,"Bots":0,"server_type":"Dedicated","server_os":"Linux","password":true,"vac":true,"version":"7757534","steam_id":85568392924742828,"keywords":["cp","nocrits","nodmgspread","uncletopia"],"game_id":440,"stv_port":27086,"stv_name":"Uncletopia | Frankfurt | 8 | Community | STV","players":[{"user_id":464,"name":"several cats in a trenchcoat","steam_id":76561198995567418,"connected_time":910000000000,"state":"active","ping":81},{"user_id":465,"name":"Diamond Was Here","steam_id":76561199090837768,"connected_time":889000000000,"state":"active","ping":68}]},{"server_id":202,"name":"Uncletopia | Hong Kong | 1 | All Maps","name_short":"hgk-1","host":"hgk-1.hk.uncletopia.com","port":27015,"enabled":true,"region":"asia","cc":"hk","latitude":22.302711,"longitude":114.177216,"reserved":0,"last_update":"0001-01-01T00:00:00Z","name_a2s":"Uncletopia | Hong Kong | 1 | All Maps","protocol":17,"map":"cp_process_final","folder":"tf","game":"Team Fortress","app_id":440,"player_count":0,"max_players":24,"Bots":0,"server_type":"Dedicated","server_os":"Linux","password":true,"vac":true,"version":"7757534","steam_id":85568392924494504,"keywords":["cp","nocrits","nodmgspread","uncletopia"],"game_id":440,"stv_port":27016,"stv_name":"Uncletopia | Hong Kong | 1 | All Maps | STV","players":null},{"server_id":1,"name":"Uncletopia | Los Angeles | 1 | All Maps","name_short":"lax-1","host":"lax-1.us.uncletopia.com","port":27015,"enabled":true,"region":"us-west","cc":"us","latitude":33.94279,"longitude":-118.41004,"reserved":0,"last_update":"0001-01-01T00:00:00Z","name_a2s":"Uncletopia | Los Angeles | 1 | All Maps","protocol":17,"map":"koth_cascade","folder":"tf","game":"Team Fortress","app_id":440,"player_count":1,"max_players":24,"Bots":0,"server_type":"Dedicated","server_os":"Linux","password":true,"vac":true,"version":"7757534","steam_id":85568392924469991,"keywords":["cp","nocrits","nodmgspread","uncletopia"],"game_id":440,"stv_port":27016,"stv_name":"Uncletopia | Los Angeles | 1 | All Maps | STV","players":[{"user_id":6,"name":"Nibotshooter","steam_id":76561199284825579,"connected_time":1134000000000,"state":"active","ping":66}]},{"server_id":112,"name":"Uncletopia | Los Angeles | 2 | All Maps","name_short":"lax-2","host":"lax-1.us.uncletopia.com","port":27025,"enabled":true,"region":"us-west","cc":"us","latitude":33.94279,"longitude":-118.41004,"reserved":0,"last_update":"0001-01-01T00:00:00Z","name_a2s":"Uncletopia | Los Angeles | 2 | All Maps","protocol":17,"map":"koth_viaduct","folder":"tf","game":"Team Fortress","app_id":440,"player_count":0,"max_players":24,"Bots":0,"server_type":"Dedicated","server_os":"Linux","password":true,"vac":true,"version":"7757534","steam_id":85568392924469992,"keywords":["cp","nocrits","nodmgspread","uncletopia"],"game_id":440,"stv_port":27026,"stv_name":"Uncletopia | Los Angeles | 2 | All Maps | STV","players":null},{"server_id":324,"name":"Uncletopia | Los Angeles | 3 | All Maps","name_short":"lax-3","host":"lax-1.us.uncletopia.com","port":27035,"enabled":true,"region":"us-west","cc":"us","latitude":33.94279,"longitude":-118.41004,"reserved":0,"last_update":"0001-01-01T00:00:00Z","name_a2s":"Uncletopia | Los Angeles | 3 | All Maps","protocol":17,"map":"cp_altitude","folder":"tf","game":"Team Fortress","app_id":440,"player_count":0,"max_players":24,"Bots":0,"server_type":"Dedicated","server_os":"Linux","password":true,"vac":true,"version":"7757534","steam_id":85568392924510198,"keywords":["cp","nocrits","nodmgspread","uncletopia"],"game_id":440,"stv_port":27036,"stv_name":"Uncletopia | Los Angeles | 3 | All Maps | STV","players":null},{"server_id":25,"name":"Uncletopia | Los Angeles | 4 | Stopwatch Beta","name_short":"lax-4","host":"lax-1.us.uncletopia.com","port":27045,"enabled":true,"region":"us-west","cc":"us","latitude":33.94279,"longitude":-118.41004,"reserved":0,"last_update":"0001-01-01T00:00:00Z","name_a2s":"Uncletopia | Los Angeles | 4 | Stopwatch Beta","protocol":17,"map":"cp_dustbowl","folder":"tf","game":"Team Fortress","app_id":440,"player_count":0,"max_players":24,"Bots":0,"server_type":"Dedicated","server_os":"Linux","password":true,"vac":true,"version":"7757534","steam_id":85568392924510199,"keywords":["cp","nocrits","nodmgspread","uncletopia"],"game_id":440,"stv_port":27046,"stv_name":"Uncletopia | Los Angeles | 4 | Stopwatch Beta | STV","players":null},{"server_id":11,"name":"Uncletopia | London | 1 | All Maps","name_short":"lon-1","host":"lon-1.uk.uncletopia.com","port":27015,"enabled":true,"region":"eu","cc":"gb","latitude":51.509865,"longitude":-0.118092,"reserved":0,"last_update":"0001-01-01T00:00:00Z","name_a2s":"Uncletopia | London | 1 | All Maps","protocol":17,"map":"pl_swiftwater_final1","folder":"tf","game":"Team Fortress","app_id":440,"player_count":24,"max_players":24,"Bots":0,"server_type":"Dedicated","server_os":"Linux","password":true,"vac":true,"version":"7757534","steam_id":85568392924367362,"keywords":["nocrits","nodmgspread","payload","uncletopia"],"game_id":440,"stv_port":27016,"stv_name":"Uncletopia | London | 1 | All Maps | STV","players":[{"user_id":441,"name":"Vitamin Weee","steam_id":76561199183937747,"connected_time":2113000000000,"state":"active","ping":96},{"user_id":442,"name":"walking sentry","steam_id":76561199225363633,"connected_time":2054000000000,"state":"active","ping":112},{"user_id":468,"name":"Big Knoxy","steam_id":76561198291107227,"connected_time":1748000000000,"state":"active","ping":66},{"user_id":443,"name":"Frutskopuk","steam_id":76561199066821121,"connected_time":2023000000000,"state":"active","ping":88},{"user_id":470,"name":"SKFBoge","steam_id":76561198269038278,"connected_time":1722000000000,"state":"active","ping":76},{"user_id":474,"name":"Solymr ibn Wali Barad","steam_id":76561198044008976,"connected_time":1454000000000,"state":"active","ping":67},{"user_id":416,"name":"dane uncle","steam_id":76561199374351531,"connected_time":4308000000000,"state":"active","ping":58},{"user_id":488,"name":"jovi_","steam_id":76561198449280552,"connected_time":15000000000,"state":"active","ping":50},{"user_id":439,"name":"Raymus","steam_id":76561198021330407,"connected_time":2388000000000,"state":"active","ping":55},{"user_id":472,"name":"Digio","steam_id":76561199065101964,"connected_time":1551000000000,"state":"active","ping":96},{"user_id":451,"name":"panziemniak466","steam_id":76561199140876865,"connected_time":1896000000000,"state":"active","ping":107},{"user_id":486,"name":"IJN Amagi","steam_id":76561198090874324,"connected_time":573000000000,"state":"active","ping":91},{"user_id":476,"name":"M4R1O","steam_id":76561198050528464,"connected_time":981000000000,"state":"active","ping":62},{"user_id":453,"name":"Kurage","steam_id":76561198021221288,"connected_time":1891000000000,"state":"active","ping":69},{"user_id":454,"name":"medicinal man","steam_id":76561198202668788,"connected_time":1890000000000,"state":"active","ping":62},{"user_id":487,"name":"regimiro","steam_id":76561198120457008,"connected_time":346000000000,"state":"active","ping":48},{"user_id":482,"name":"Over here saw bones","steam_id":76561198320506848,"connected_time":716000000000,"state":"active","ping":43},{"user_id":464,"name":"Big Benn","steam_id":76561199024168373,"connected_time":1792000000000,"state":"active","ping":112},{"user_id":477,"name":"Gustavo Fring","steam_id":76561198080764989,"connected_time":926000000000,"state":"active","ping":62},{"user_id":460,"name":"dkosciotrupa2","steam_id":76561199474923376,"connected_time":1829000000000,"state":"active","ping":85},{"user_id":473,"name":"Caerot","steam_id":76561198839000676,"connected_time":1544000000000,"state":"active","ping":74},{"user_id":475,"name":"Tasukeru","steam_id":76561198011909704,"connected_time":1093000000000,"state":"active","ping":66},{"user_id":484,"name":"Croix","steam_id":76561198059642945,"connected_time":650000000000,"state":"active","ping":63},{"user_id":485,"name":"BLACK MAN FROM JOJO","steam_id":76561198272948471,"connected_time":649000000000,"state":"active","ping":130}]},{"server_id":114,"name":"Uncletopia | London | 2 | All Maps","name_short":"lon-2","host":"lon-1.uk.uncletopia.com","port":27025,"enabled":true,"region":"eu","cc":"gb","latitude":51.509865,"longitude":-0.118092,"reserved":0,"last_update":"0001-01-01T00:00:00Z","name_a2s":"Uncletopia | London | 2 | All Maps","protocol":17,"map":"pl_borneo","folder":"tf","game":"Team Fortress","app_id":440,"player_count":24,"max_players":24,"Bots":0,"server_type":"Dedicated","server_os":"Linux","password":true,"vac":true,"version":"7757534","steam_id":85568392924470941,"keywords":["nocrits","nodmgspread","payload","uncletopia"],"game_id":440,"stv_port":27026,"stv_name":"Uncletopia | London | 2 | All Maps | STV","players":[{"user_id":676,"name":"Nifi","steam_id":76561198102682566,"connected_time":3673000000000,"state":"active","ping":75},{"user_id":701,"name":"ghost","steam_id":76561198189940229,"connected_time":2356000000000,"state":"active","ping":61},{"user_id":717,"name":"SnowShot","steam_id":76561198004766638,"connected_time":861000000000,"state":"active","ping":68},{"user_id":724,"name":"stinkyshitass","steam_id":76561198816594501,"connected_time":787000000000,"state":"active","ping":80},{"user_id":718,"name":"Caliban","steam_id":76561197999696839,"connected_time":845000000000,"state":"active","ping":117},{"user_id":732,"name":"That One Friend","steam_id":76561198071607336,"connected_time":146000000000,"state":"active","ping":80},{"user_id":733,"name":"day","steam_id":76561198260265302,"connected_time":94000000000,"state":"active","ping":42},{"user_id":700,"name":"jt7","steam_id":76561198073655162,"connected_time":2772000000000,"state":"active","ping":80},{"user_id":727,"name":"Sarah Obama Michella","steam_id":76561198078996559,"connected_time":480000000000,"state":"active","ping":86},{"user_id":668,"name":"CumbustiblePunda","steam_id":76561197974274677,"connected_time":4029000000000,"state":"active","ping":61},{"user_id":704,"name":"Flying bottleman","steam_id":76561198241772340,"connected_time":2087000000000,"state":"active","ping":114},{"user_id":729,"name":"The Penguin \u003c3","steam_id":76561198072511599,"connected_time":320000000000,"state":"active","ping":65},{"user_id":680,"name":"quickfast","steam_id":76561199438900919,"connected_time":3613000000000,"state":"active","ping":47},{"user_id":735,"name":"[O\u0026O]YaboiDucki","steam_id":76561198195976589,"connected_time":58000000000,"state":"active","ping":75},{"user_id":695,"name":"TheBeardedM1G","steam_id":76561198040208946,"connected_time":3167000000000,"state":"active","ping":51},{"user_id":639,"name":"Serton‚ôù","steam_id":76561198011061126,"connected_time":6129000000000,"state":"active","ping":75},{"user_id":722,"name":"Felix","steam_id":76561198172029653,"connected_time":815000000000,"state":"active","ping":85},{"user_id":580,"name":"EdSuedi","steam_id":76561199387956486,"connected_time":9009000000000,"state":"active","ping":60},{"user_id":709,"name":"Scout Sex","steam_id":76561199074844829,"connected_time":1893000000000,"state":"active","ping":68},{"user_id":723,"name":"MR.CRAB","steam_id":76561198329833659,"connected_time":808000000000,"state":"active","ping":81},{"user_id":710,"name":"Sloneczku","steam_id":76561198032886890,"connected_time":1383000000000,"state":"active","ping":90},{"user_id":674,"name":"‚ú™ qua ‚ú™","steam_id":76561198066408333,"connected_time":3767000000000,"state":"active","ping":87},{"user_id":730,"name":"gwa≈Çt wƒÖtroby 0,7 i 5 piw","steam_id":76561199038973360,"connected_time":319000000000,"state":"active","ping":113},{"user_id":716,"name":"Topia","steam_id":76561198163571788,"connected_time":880000000000,"state":"active","ping":106}]},{"server_id":320,"name":"Uncletopia | London | 3 | All Maps","name_short":"lon-3","host":"lon-1.uk.uncletopia.com","port":27035,"enabled":true,"region":"eu","cc":"gb","latitude":51.509865,"longitude":-0.118092,"reserved":0,"last_update":"0001-01-01T00:00:00Z","name_a2s":"Uncletopia | London | 3 | All Maps","protocol":17,"map":"cp_steel","folder":"tf","game":"Team Fortress","app_id":440,"player_count":24,"max_players":24,"Bots":0,"server_type":"Dedicated","server_os":"Linux","password":true,"vac":true,"version":"7757534","steam_id":85568392924510192,"keywords":["cp","nocrits","nodmgspread","uncletopia"],"game_id":440,"stv_port":27036,"stv_name":"Uncletopia | London | 3 | All Maps | STV","players":[{"user_id":353,"name":"Ross from F.R.I.E.N.D.S.","steam_id":76561198008511665,"connected_time":3295000000000,"state":"active","ping":58},{"user_id":376,"name":"Fridge","steam_id":76561198071665589,"connected_time":1740000000000,"state":"active","ping":103},{"user_id":393,"name":"British Disapproval","steam_id":76561198001375260,"connected_time":390000000000,"state":"active","ping":79},{"user_id":399,"name":"raz","steam_id":76561198086124865,"connected_time":271000000000,"state":"active","ping":60},{"user_id":373,"name":"KFC Enjoyer","steam_id":76561198840259819,"connected_time":2129000000000,"state":"active","ping":55},{"user_id":375,"name":"kallerannar","steam_id":76561199095701143,"connected_time":1879000000000,"state":"active","ping":91},{"user_id":395,"name":"ghoul","steam_id":76561199434718013,"connected_time":328000000000,"state":"active","ping":63},{"user_id":396,"name":"Industrial Revolution","steam_id":76561198230811124,"connected_time":292000000000,"state":"active","ping":95},{"user_id":378,"name":"Deixx_LV","steam_id":76561198044488884,"connected_time":926000000000,"state":"active","ping":94},{"user_id":401,"name":"Dorich","steam_id":76561198287126217,"connected_time":76000000000,"state":"active","ping":72},{"user_id":386,"name":"usernamesrhard","steam_id":76561198182956827,"connected_time":716000000000,"state":"active","ping":68},{"user_id":392,"name":"medium rare chicken enjoyer","steam_id":76561198050214002,"connected_time":409000000000,"state":"active","ping":71},{"user_id":387,"name":"Kris","steam_id":76561198240638652,"connected_time":705000000000,"state":"active","ping":44},{"user_id":397,"name":"sacha","steam_id":76561198098065932,"connected_time":276000000000,"state":"active","ping":46},{"user_id":327,"name":"Lyra","steam_id":76561198043601838,"connected_time":4565000000000,"state":"active","ping":72},{"user_id":338,"name":"boot kla","steam_id":76561198106049954,"connected_time":4219000000000,"state":"active","ping":78},{"user_id":364,"name":"Smiffsmiffwild3","steam_id":76561199097073780,"connected_time":2720000000000,"state":"active","ping":78},{"user_id":391,"name":"Na'vi Misato (by popular demand","steam_id":76561198130860698,"connected_time":451000000000,"state":"active","ping":60},{"user_id":329,"name":"i make you my b*tch","steam_id":76561198190583242,"connected_time":4559000000000,"state":"active","ping":85},{"user_id":400,"name":"Naginacz","steam_id":76561199099232534,"connected_time":195000000000,"state":"active","ping":75},{"user_id":330,"name":"Waltcha","steam_id":76561198007691468,"connected_time":4554000000000,"state":"active","ping":69},{"user_id":379,"name":"a dollop of bird","steam_id":76561198089003514,"connected_time":883000000000,"state":"active","ping":53},{"user_id":339,"name":"d00bie","steam_id":76561198025295218,"connected_time":4132000000000,"state":"active","ping":77},{"user_id":389,"name":"V","steam_id":76561199006462039,"connected_time":513000000000,"state":"active","ping":75}]},{"server_id":321,"name":"Uncletopia | London | 4 | All Maps","name_short":"lon-4","host":"lon-1.uk.uncletopia.com","port":27045,"enabled":true,"region":"eu","cc":"gb","latitude":51.509865,"longitude":-0.118092,"reserved":0,"last_update":"0001-01-01T00:00:00Z","name_a2s":"Uncletopia | London | 4 | All Maps","protocol":17,"map":"pl_borneo","folder":"tf","game":"Team Fortress","app_id":440,"player_count":23,"max_players":24,"Bots":0,"server_type":"Dedicated","server_os":"Linux","password":true,"vac":true,"version":"7757534","steam_id":85568392924510193,"keywords":["nocrits","nodmgspread","payload","uncletopia"],"game_id":440,"stv_port":27046,"stv_name":"Uncletopia | London | 4 | All Maps | STV","players":[{"user_id":549,"name":"CosminSL","steam_id":76561198055827684,"connected_time":2373000000000,"state":"active","ping":80},{"user_id":597,"name":"relic_","steam_id":76561199053114167,"connected_time":47000000000,"state":"active","ping":76},{"user_id":598,"name":"AwterSix","steam_id":76561198042561678,"connected_time":44000000000,"state":"active","ping":66},{"user_id":576,"name":"Pinkchup","steam_id":76561198106802803,"connected_time":728000000000,"state":"active","ping":75},{"user_id":595,"name":"jefe","steam_id":76561199380849468,"connected_time":132000000000,"state":"active","ping":70},{"user_id":541,"name":"Big Trader","steam_id":76561197992364667,"connected_time":3074000000000,"state":"active","ping":80},{"user_id":592,"name":"LOBZIK","steam_id":76561198114830120,"connected_time":237000000000,"state":"active","ping":76},{"user_id":553,"name":"R0mulone","steam_id":76561198352513792,"connected_time":2203000000000,"state":"active","ping":65},{"user_id":492,"name":"Piteras","steam_id":76561198858532207,"connected_time":6701000000000,"state":"active","ping":81},{"user_id":563,"name":"Ray","steam_id":76561199476086311,"connected_time":1330000000000,"state":"active","ping":69},{"user_id":575,"name":"Frog","steam_id":76561198131977071,"connected_time":736000000000,"state":"active","ping":89},{"user_id":577,"name":"Dandelion","steam_id":76561198190302694,"connected_time":723000000000,"state":"active","ping":50},{"user_id":567,"name":"Kraiti","steam_id":76561198847296908,"connected_time":1132000000000,"state":"active","ping":84},{"user_id":578,"name":"After8","steam_id":76561198090750865,"connected_time":716000000000,"state":"active","ping":77},{"user_id":588,"name":"Dr. Cox","steam_id":76561198246629218,"connected_time":330000000000,"state":"active","ping":115},{"user_id":599,"name":"Mr. Panny","steam_id":76561198412524704,"connected_time":41000000000,"state":"active","ping":62},{"user_id":565,"name":"Minimi","steam_id":76561198873850443,"connected_time":1244000000000,"state":"active","ping":40},{"user_id":486,"name":"Eggcracker","steam_id":76561199274850641,"connected_time":6887000000000,"state":"active","ping":80},{"user_id":580,"name":"Kiofu","steam_id":76561198364947142,"connected_time":704000000000,"state":"active","ping":81},{"user_id":581,"name":"Almaynax","steam_id":76561198039757994,"connected_time":700000000000,"state":"active","ping":108},{"user_id":531,"name":"√ÉNVS DR√ÉNVS","steam_id":76561198138733015,"connected_time":4025000000000,"state":"active","ping":118},{"user_id":582,"name":"T K","steam_id":76561198134256917,"connected_time":694000000000,"state":"active","ping":72},{"user_id":514,"name":"Anonymous47007","steam_id":76561199005211417,"connected_time":5193000000000,"state":"active","ping":84}]},{"server_id":21,"name":"Uncletopia | London | 5 | All Maps","name_short":"lon-5","host":"lon-1.uk.uncletopia.com","port":27055,"enabled":true,"region":"eu","cc":"gb","latitude":51.509865,"longitude":-0.118092,"reserved":0,"last_update":"0001-01-01T00:00:00Z","name_a2s":"Uncletopia | London | 5 | All Maps","protocol":17,"map":"pl_snowycoast","folder":"tf","game":"Team Fortress","app_id":440,"player_count":24,"max_players":24,"Bots":0,"server_type":"Dedicated","server_os":"Linux","password":true,"vac":true,"version":"7757534","steam_id":85568392924742829,"keywords":["nocrits","nodmgspread","payload","uncletopia"],"game_id":440,"stv_port":27056,"stv_name":"Uncletopia | London | 5 | All Maps | STV","players":[{"user_id":236,"name":"pfear","steam_id":76561197999207328,"connected_time":508000000000,"state":"active","ping":90},{"user_id":235,"name":"Hegyi tah√≥ F2P","steam_id":76561199219150356,"connected_time":705000000000,"state":"active","ping":76},{"user_id":223,"name":"WAPtrick star","steam_id":76561198133532980,"connected_time":2187000000000,"state":"active","ping":46},{"user_id":218,"name":"Pingutaro","steam_id":76561198112803718,"connected_time":2396000000000,"state":"active","ping":47},{"user_id":237,"name":"leonardini.w","steam_id":76561199097963071,"connected_time":505000000000,"state":"active","ping":94},{"user_id":234,"name":"cuboidbird741","steam_id":76561198174823322,"connected_time":1026000000000,"state":"active","ping":73},{"user_id":117,"name":"PizzaPete123","steam_id":76561198089478290,"connected_time":10923000000000,"state":"active","ping":43},{"user_id":238,"name":"Datenegassie","steam_id":76561198089417032,"connected_time":495000000000,"state":"active","ping":69},{"user_id":226,"name":"Lyell","steam_id":76561198350329389,"connected_time":1969000000000,"state":"active","ping":71},{"user_id":224,"name":"Fat Pigeon","steam_id":76561198817940142,"connected_time":2178000000000,"state":"active","ping":46},{"user_id":239,"name":"Sch","steam_id":76561198071341689,"connected_time":483000000000,"state":"active","ping":61},{"user_id":230,"name":"Milca_11 [Wrench Aficionado]","steam_id":76561198848650365,"connected_time":1550000000000,"state":"active","ping":98},{"user_id":207,"name":"wouris","steam_id":76561198876188003,"connected_time":3726000000000,"state":"active","ping":74},{"user_id":219,"name":"Explosive_kink","steam_id":76561198998702838,"connected_time":2390000000000,"state":"active","ping":56},{"user_id":187,"name":"hora","steam_id":76561198404470526,"connected_time":4741000000000,"state":"active","ping":97},{"user_id":204,"name":"Udinese Dion","steam_id":76561198067931573,"connected_time":3736000000000,"state":"active","ping":54},{"user_id":180,"name":"lettuce at 58p","steam_id":76561199401283123,"connected_time":5515000000000,"state":"active","ping":54},{"user_id":220,"name":"fl1p","steam_id":76561198148565659,"connected_time":2388000000000,"state":"active","ping":75},{"user_id":233,"name":"Kremete","steam_id":76561198047984096,"connected_time":1155000000000,"state":"active","ping":74},{"user_id":157,"name":"player","steam_id":76561198054474684,"connected_time":6930000000000,"state":"active","ping":86},{"user_id":240,"name":"dairy","steam_id":76561198117033273,"connected_time":481000000000,"state":"active","ping":51},{"user_id":195,"name":"mark the shot misser","steam_id":76561198309246388,"connected_time":4114000000000,"state":"active","ping":59},{"user_id":244,"name":"Whore","steam_id":76561198382749493,"connected_time":272000000000,"state":"active","ping":95},{"user_id":193,"name":"TheShooter","steam_id":76561198274105878,"connected_time":4371000000000,"state":"active","ping":86}]},{"server_id":22,"name":"Uncletopia | London | 6 | All Maps","name_short":"lon-6","host":"lon-1.uk.uncletopia.com","port":27065,"enabled":true,"region":"eu","cc":"gb","latitude":51.509865,"longitude":-0.118092,"reserved":0,"last_update":"0001-01-01T00:00:00Z","name_a2s":"Uncletopia | London | 6 | All Maps","protocol":17,"map":"pl_upward","folder":"tf","game":"Team Fortress","app_id":440,"player_count":24,"max_players":24,"Bots":0,"server_type":"Dedicated","server_os":"Linux","password":true,"vac":true,"version":"7757534","steam_id":85568392924742830,"keywords":["nocrits","nodmgspread","payload","uncletopia"],"game_id":440,"stv_port":27066,"stv_name":"Uncletopia | London | 6 | All Maps | STV","players":[{"user_id":458,"name":"buko","steam_id":76561198349648942,"connected_time":6070000000000,"state":"active","ping":87},{"user_id":378,"name":"Hexagon","steam_id":76561198151205758,"connected_time":8337000000000,"state":"active","ping":61},{"user_id":500,"name":"Wardruna96","steam_id":76561199057083828,"connected_time":1855000000000,"state":"active","ping":84},{"user_id":295,"name":"Spajro","steam_id":76561198257383813,"connected_time":14471000000000,"state":"active","ping":55},{"user_id":514,"name":"reik","steam_id":76561198075239099,"connected_time":452000000000,"state":"active","ping":74},{"user_id":445,"name":"Hookiest Owler","steam_id":76561198872013525,"connected_time":6282000000000,"state":"active","ping":154},{"user_id":511,"name":"WHUSSKEY","steam_id":76561198137827441,"connected_time":880000000000,"state":"active","ping":76},{"user_id":488,"name":"cheriberry","steam_id":76561198093577036,"connected_time":2882000000000,"state":"active","ping":70},{"user_id":361,"name":"Ablativus","steam_id":76561198025698470,"connected_time":9427000000000,"state":"active","ping":76},{"user_id":515,"name":"the boil","steam_id":76561199236080782,"connected_time":301000000000,"state":"active","ping":128},{"user_id":323,"name":"hokey","steam_id":76561198046921199,"connected_time":12557000000000,"state":"active","ping":65},{"user_id":512,"name":"‚ô¨ ·¥õ·¥á·¥ã…™·¥õ ‚ô¨","steam_id":76561198111704722,"connected_time":854000000000,"state":"active","ping":101},{"user_id":508,"name":"Swedish Vegan","steam_id":76561198042775020,"connected_time":1038000000000,"state":"active","ping":73},{"user_id":328,"name":"issues","steam_id":76561197994492154,"connected_time":12128000000000,"state":"active","ping":75},{"user_id":486,"name":"nedilya","steam_id":76561198039692077,"connected_time":3439000000000,"state":"active","ping":68},{"user_id":487,"name":"Carl","steam_id":76561198045638738,"connected_time":2937000000000,"state":"active","ping":79},{"user_id":513,"name":"Fluffy Tuffy","steam_id":76561198106495563,"connected_time":583000000000,"state":"active","ping":121},{"user_id":494,"name":"konkubino","steam_id":76561198028756615,"connected_time":2734000000000,"state":"active","ping":87},{"user_id":499,"name":"---","steam_id":76561198027463207,"connected_time":2291000000000,"state":"active","ping":73},{"user_id":503,"name":"charlie","steam_id":76561198086924689,"connected_time":1571000000000,"state":"active","ping":62},{"user_id":510,"name":"DrExplosive","steam_id":76561198063678579,"connected_time":1013000000000,"state":"active","ping":55},{"user_id":476,"name":"gibb (official)","steam_id":76561198074097655,"connected_time":4713000000000,"state":"active","ping":36},{"user_id":466,"name":"Largo","steam_id":76561198844368927,"connected_time":5338000000000,"state":"active","ping":77},{"user_id":485,"name":"gŒ±–≤—î Œ∑œÉ√´‚Ñì","steam_id":76561198067342352,"connected_time":3562000000000,"state":"active","ping":60}]},{"server_id":40,"name":"Uncletopia | London | 7 | No Payload","name_short":"lon-7","host":"lon-1.uk.uncletopia.com","port":27075,"enabled":true,"region":"eu","cc":"gb","latitude":51.509865,"longitude":-0.118092,"reserved":0,"last_update":"0001-01-01T00:00:00Z","name_a2s":"Uncletopia | London | 7 | No Payload","protocol":17,"map":"plr_pipeline","folder":"tf","game":"Team Fortress","app_id":440,"player_count":0,"max_players":24,"Bots":0,"server_type":"Dedicated","server_os":"Linux","password":true,"vac":true,"version":"7757534","steam_id":85568392924964314,"keywords":["nocrits","nodmgspread","payload","uncletopia"],"game_id":440,"stv_port":27076,"stv_name":"Uncletopia | London | 7 | No Payload | STV","players":null},{"server_id":41,"name":"Uncletopia | London | 8 | Community","name_short":"lon-8","host":"lon-1.uk.uncletopia.com","port":27085,"enabled":true,"region":"eu","cc":"gb","latitude":51.509865,"longitude":-0.118092,"reserved":0,"last_update":"0001-01-01T00:00:00Z","name_a2s":"Uncletopia | London | 8 | Community","protocol":17,"map":"workshop/cp_croissant_final.ugc458840209","folder":"tf","game":"Team Fortress","app_id":440,"player_count":24,"max_players":24,"Bots":0,"server_type":"Dedicated","server_os":"Linux","password":true,"vac":true,"version":"7757534","steam_id":85568392924964315,"keywords":["cp","nocrits","nodmgspread","uncletopia"],"game_id":440,"stv_port":27086,"stv_name":"Uncletopia | London | 8 | Community | STV","players":[{"user_id":121,"name":"midlpsyzl47","steam_id":76561199475972637,"connected_time":210000000000,"state":"active","ping":67},{"user_id":124,"name":"Mr.Fosty","steam_id":76561198045212783,"connected_time":1000000000,"state":"spawning","ping":58},{"user_id":104,"name":"BROOMSTER","steam_id":76561198344833818,"connected_time":1063000000000,"state":"active","ping":66},{"user_id":90,"name":"NOTWALTER","steam_id":76561198125464744,"connected_time":1587000000000,"state":"active","ping":130},{"user_id":44,"name":"TSx* Osa__PL","steam_id":76561198027016799,"connected_time":4566000000000,"state":"active","ping":76},{"user_id":119,"name":"Maukator","steam_id":76561198095460953,"connected_time":585000000000,"state":"active","ping":54},{"user_id":46,"name":"TSx* Dante","steam_id":76561198139309331,"connected_time":4559000000000,"state":"active","ping":74},{"user_id":47,"name":"TSx* Naxer","steam_id":76561198011986779,"connected_time":4529000000000,"state":"active","ping":81},{"user_id":105,"name":"Evil weed wizard","steam_id":76561198076137526,"connected_time":1028000000000,"state":"active","ping":54},{"user_id":115,"name":"Clitorina","steam_id":76561198077570815,"connected_time":681000000000,"state":"active","ping":44},{"user_id":122,"name":"HilldogGaming","steam_id":76561198082209322,"connected_time":23000000000,"state":"spawning","ping":425},{"user_id":92,"name":"Dor_atar","steam_id":76561198973980542,"connected_time":1426000000000,"state":"active","ping":81},{"user_id":106,"name":"No Oesophagus Boi","steam_id":76561198121310718,"connected_time":1023000000000,"state":"active","ping":58},{"user_id":70,"name":"akakez","steam_id":76561198095432821,"connected_time":3640000000000,"state":"active","ping":116},{"user_id":116,"name":"Leo","steam_id":76561197984135910,"connected_time":655000000000,"state":"active","ping":71},{"user_id":101,"name":"DooWooD","steam_id":76561198335810106,"connected_time":1133000000000,"state":"active","ping":73},{"user_id":80,"name":"B0r–µ–∞l","steam_id":76561198268369013,"connected_time":2572000000000,"state":"active","ping":71},{"user_id":120,"name":"Sweetcheesus","steam_id":76561198022299033,"connected_time":366000000000,"state":"active","ping":59},{"user_id":123,"name":"MajorKlebstoff","steam_id":76561198035489363,"connected_time":15000000000,"state":"spawning","ping":101},{"user_id":107,"name":"Pills","steam_id":76561198163561677,"connected_time":982000000000,"state":"active","ping":56},{"user_id":109,"name":"nyanezt","steam_id":76561198253734265,"connected_time":949000000000,"state":"active","ping":94},{"user_id":110,"name":"Vershal Smershal","steam_id":76561198116223995,"connected_time":940000000000,"state":"active","ping":58},{"user_id":63,"name":"nemelex","steam_id":76561198958005865,"connected_time":3963000000000,"state":"active","ping":55},{"user_id":118,"name":"Spyoru","steam_id":76561199422949621,"connected_time":640000000000,"state":"active","ping":76}]},{"server_id":300,"name":"Uncletopia | Montr√©al | 1 | All Maps","name_short":"mtl-1","host":"mtl-1.ca.uncletopia.com","port":27015,"enabled":true,"region":"us-east","cc":"ca","latitude":45.50889,"longitude":-73.56167,"reserved":0,"last_update":"0001-01-01T00:00:00Z","name_a2s":"Uncletopia | Montr√©al | 1 | All Maps","protocol":17,"map":"cp_mountainlab","folder":"tf","game":"Team Fortress","app_id":440,"player_count":0,"max_players":24,"Bots":0,"server_type":"Dedicated","server_os":"Linux","password":true,"vac":true,"version":"7757534","steam_id":85568392924500087,"keywords":["cp","nocrits","nodmgspread","uncletopia"],"game_id":440,"stv_port":27016,"stv_name":"Uncletopia | Montr√©al | 1 | All Maps | STV","players":null},{"server_id":301,"name":"Uncletopia | Montr√©al | 2 | All Maps","name_short":"mtl-2","host":"mtl-1.ca.uncletopia.com","port":27025,"enabled":true,"region":"us-east","cc":"ca","latitude":45.50889,"longitude":-73.56167,"reserved":0,"last_update":"0001-01-01T00:00:00Z","name_a2s":"Uncletopia | Montr√©al | 2 | All Maps","protocol":17,"map":"cp_sunshine","folder":"tf","game":"Team Fortress","app_id":440,"player_count":0,"max_players":24,"Bots":0,"server_type":"Dedicated","server_os":"Linux","password":true,"vac":true,"version":"7757534","steam_id":85568392924500088,"keywords":["cp","nocrits","nodmgspread","uncletopia"],"game_id":440,"stv_port":27026,"stv_name":"Uncletopia | Montr√©al | 2 | All Maps | STV","players":null},{"server_id":302,"name":"Uncletopia | Montr√©al | 3 | All Maps","name_short":"mtl-3","host":"mtl-1.ca.uncletopia.com","port":27035,"enabled":true,"region":"us-east","cc":"ca","latitude":45.50889,"longitude":-73.56167,"reserved":0,"last_update":"0001-01-01T00:00:00Z","name_a2s":"Uncletopia | Montr√©al | 3 | All Maps","protocol":17,"map":"pl_frontier_final","folder":"tf","game":"Team Fortress","app_id":440,"player_count":0,"max_players":24,"Bots":0,"server_type":"Dedicated","server_os":"Linux","password":true,"vac":true,"version":"7757534","steam_id":85568392924500089,"keywords":["nocrits","nodmgspread","payload","uncletopia"],"game_id":440,"stv_port":27036,"stv_name":"Uncletopia | Montr√©al | 3 | All Maps | STV","players":null},{"server_id":303,"name":"Uncletopia | Montr√©al | 4 | No Payload","name_short":"mtl-4","host":"mtl-1.ca.uncletopia.com","port":27045,"enabled":true,"region":"us-east","cc":"ca","latitude":45.50889,"longitude":-73.56167,"reserved":0,"last_update":"0001-01-01T00:00:00Z","name_a2s":"Uncletopia | Montr√©al | 4 | No Payload","protocol":17,"map":"cp_well","folder":"tf","game":"Team Fortress","app_id":440,"player_count":0,"max_players":24,"Bots":0,"server_type":"Dedicated","server_os":"Linux","password":true,"vac":true,"version":"7757534","steam_id":85568392924500090,"keywords":["cp","nocrits","nodmgspread","uncletopia"],"game_id":440,"stv_port":27046,"stv_name":"Uncletopia | Montr√©al | 4 | No Payload | STV","players":null},{"server_id":13,"name":"Uncletopia | New York City | 1 | All Maps","name_short":"nyc-1","host":"nyc-1.us.uncletopia.com","port":27015,"enabled":true,"region":"us-east","cc":"us","latitude":40.73061,"longitude":-73.93524,"reserved":0,"last_update":"0001-01-01T00:00:00Z","name_a2s":"Uncletopia | New York City | 1 | All Maps","protocol":17,"map":"pl_rumford_event","folder":"tf","game":"Team Fortress","app_id":440,"player_count":21,"max_players":24,"Bots":0,"server_type":"Dedicated","server_os":"Linux","password":true,"vac":true,"version":"7757534","steam_id":85568392924469993,"keywords":["nocrits","nodmgspread","payload","uncletopia"],"game_id":440,"stv_port":27016,"stv_name":"Uncletopia | New York City | 1 | All Maps | STV","players":[{"user_id":151,"name":"wayker","steam_id":76561198796473953,"connected_time":1643000000000,"state":"active","ping":92},{"user_id":115,"name":"Hank","steam_id":76561198094830509,"connected_time":4600000000000,"state":"active","ping":60},{"user_id":136,"name":"Gopofas","steam_id":76561199227999157,"connected_time":2191000000000,"state":"active","ping":154},{"user_id":166,"name":"I can't heal","steam_id":76561198039763676,"connected_time":1044000000000,"state":"active","ping":74},{"user_id":171,"name":"Pencil.","steam_id":76561199033438543,"connected_time":944000000000,"state":"active","ping":118},{"user_id":152,"name":"[BBW] Justario","steam_id":76561198016095410,"connected_time":1474000000000,"state":"active","ping":45},{"user_id":180,"name":"TheDieeg","steam_id":76561199443116996,"connected_time":750000000000,"state":"active","ping":104},{"user_id":168,"name":"Kally‚Ñ¢","steam_id":76561198112369159,"connected_time":1014000000000,"state":"active","ping":75},{"user_id":169,"name":"gorilla","steam_id":76561199103766971,"connected_time":1001000000000,"state":"active","ping":72},{"user_id":159,"name":"Code","steam_id":76561198121528534,"connected_time":1105000000000,"state":"active","ping":56},{"user_id":172,"name":"Nermal Fan 2000","steam_id":76561198255823904,"connected_time":942000000000,"state":"active","ping":105},{"user_id":176,"name":"Lanky Kong","steam_id":76561198142455488,"connected_time":850000000000,"state":"active","ping":40},{"user_id":141,"name":"SuperFresh","steam_id":76561198200723198,"connected_time":2120000000000,"state":"active","ping":61},{"user_id":100,"name":"Adventurematt","steam_id":76561199302420877,"connected_time":5810000000000,"state":"active","ping":60},{"user_id":150,"name":"Charlie","steam_id":76561199098209171,"connected_time":1693000000000,"state":"active","ping":71},{"user_id":173,"name":"Rose","steam_id":76561198955581861,"connected_time":932000000000,"state":"active","ping":130},{"user_id":177,"name":"Master Of Whales","steam_id":76561198349104889,"connected_time":847000000000,"state":"active","ping":111},{"user_id":158,"name":"whoopsydoodle","steam_id":76561198045145360,"connected_time":1136000000000,"state":"active","ping":45},{"user_id":181,"name":"MILF Gaming","steam_id":76561198155378170,"connected_time":556000000000,"state":"active","ping":41},{"user_id":124,"name":"exsre`m","steam_id":76561199249121659,"connected_time":3683000000000,"state":"active","ping":95},{"user_id":184,"name":"Slazzer","steam_id":76561198404351844,"connected_time":207000000000,"state":"active","ping":59}]},{"server_id":14,"name":"Uncletopia | New York City | 2 | All Maps","name_short":"nyc-2","host":"nyc-1.us.uncletopia.com","port":27025,"enabled":true,"region":"us-east","cc":"us","latitude":40.73061,"longitude":-73.93524,"reserved":0,"last_update":"0001-01-01T00:00:00Z","name_a2s":"Uncletopia | New York City | 2 | All Maps","protocol":17,"map":"pl_snowycoast","folder":"tf","game":"Team Fortress","app_id":440,"player_count":24,"max_players":24,"Bots":0,"server_type":"Dedicated","server_os":"Linux","password":true,"vac":true,"version":"7757534","steam_id":85568392924469994,"keywords":["nocrits","nodmgspread","payload","uncletopia"],"game_id":440,"stv_port":27026,"stv_name":"Uncletopia | New York City | 2 | All Maps | STV","players":[{"user_id":76,"name":"noisetank","steam_id":76561199086731683,"connected_time":1804000000000,"state":"active","ping":55},{"user_id":82,"name":"magotago","steam_id":76561198013650292,"connected_time":1518000000000,"state":"active","ping":107},{"user_id":103,"name":"Skullypoo","steam_id":76561198067912022,"connected_time":123000000000,"state":"active","ping":63},{"user_id":98,"name":"Big ol' Willy Gaming","steam_id":76561198048545731,"connected_time":575000000000,"state":"active","ping":111},{"user_id":94,"name":"rivera","steam_id":76561198051058706,"connected_time":797000000000,"state":"active","ping":36},{"user_id":18,"name":"‚úøFemboy Goblin‚úø","steam_id":76561199200969139,"connected_time":5436000000000,"state":"active","ping":125},{"user_id":19,"name":"Chechens Spotted","steam_id":76561199028910893,"connected_time":5281000000000,"state":"active","ping":71},{"user_id":101,"name":"gghfgfgfg","steam_id":76561198064823861,"connected_time":163000000000,"state":"active","ping":46},{"user_id":102,"name":"Fantastibad","steam_id":76561199087329262,"connected_time":151000000000,"state":"active","ping":73},{"user_id":96,"name":"abed","steam_id":76561198072856511,"connected_time":765000000000,"state":"active","ping":72},{"user_id":92,"name":"Connick The Hedgehog","steam_id":76561198388471011,"connected_time":868000000000,"state":"active","ping":94},{"user_id":31,"name":"Dr. Nobotnik","steam_id":76561198357339092,"connected_time":4370000000000,"state":"active","ping":98},{"user_id":78,"name":"Normalux","steam_id":76561198293891426,"connected_time":1766000000000,"state":"active","ping":88},{"user_id":55,"name":"B","steam_id":76561198015740144,"connected_time":3518000000000,"state":"active","ping":68},{"user_id":109,"name":"kivee","steam_id":76561198838223023,"connected_time":12000000000,"state":"spawning","ping":70},{"user_id":85,"name":"tinkercrab11","steam_id":76561198881792140,"connected_time":1188000000000,"state":"active","ping":65},{"user_id":104,"name":"trobin120","steam_id":76561199122420273,"connected_time":116000000000,"state":"active","ping":50},{"user_id":90,"name":"Slondermin","steam_id":76561198320301349,"connected_time":1022000000000,"state":"active","ping":65},{"user_id":38,"name":"radiohead enjoyer","steam_id":76561198397662124,"connected_time":4184000000000,"state":"active","ping":97},{"user_id":100,"name":"dr sex, md (sexologist)","steam_id":76561198115874625,"connected_time":224000000000,"state":"active","ping":56},{"user_id":80,"name":"SalTev","steam_id":76561198350069373,"connected_time":1742000000000,"state":"active","ping":93},{"user_id":47,"name":"/Floes/","steam_id":76561198022270876,"connected_time":3882000000000,"state":"active","ping":157},{"user_id":106,"name":"Sam","steam_id":76561198079393512,"connected_time":77000000000,"state":"active","ping":65},{"user_id":108,"name":"Yankee_Pirate","steam_id":76561198260667117,"connected_time":37000000000,"state":"spawning","ping":70}]},{"server_id":15,"name":"Uncletopia | New York City | 3 | Stopwatch Beta","name_short":"nyc-3","host":"nyc-1.us.uncletopia.com","port":27035,"enabled":true,"region":"us-east","cc":"us","latitude":40.73061,"longitude":-73.93524,"reserved":0,"last_update":"0001-01-01T00:00:00Z","name_a2s":"Uncletopia | New York City | 3 | Stopwatch Beta","protocol":17,"map":"workshop/koth_ashville_final.ugc2130459942","folder":"tf","game":"Team Fortress","app_id":440,"player_count":4,"max_players":24,"Bots":0,"server_type":"Dedicated","server_os":"Linux","password":true,"vac":true,"version":"7757534","steam_id":85568392924742820,"keywords":["cp","nocrits","nodmgspread","uncletopia"],"game_id":440,"stv_port":27036,"stv_name":"Uncletopia | New York City | 3 | Stopwatch Beta | STV","players":[{"user_id":11,"name":"ShaqtusHD (She/Her)","steam_id":76561199138286233,"connected_time":714000000000,"state":"active","ping":58},{"user_id":7,"name":"Sailor Sodium","steam_id":76561198808205021,"connected_time":2111000000000,"state":"active","ping":114},{"user_id":9,"name":"Tyrannical Birate","steam_id":76561198109746316,"connected_time":1608000000000,"state":"active","ping":93},{"user_id":10,"name":"Engineer is Engihere","steam_id":76561199315167502,"connected_time":1321000000000,"state":"active","ping":59}]},{"server_id":16,"name":"Uncletopia | New York City | 4 | Community","name_short":"nyc-4","host":"nyc-1.us.uncletopia.com","port":27045,"enabled":true,"region":"us-east","cc":"us","latitude":40.73061,"longitude":-73.93524,"reserved":0,"last_update":"0001-01-01T00:00:00Z","name_a2s":"Uncletopia | New York City | 4 | Community","protocol":17,"map":"workshop/cp_snowbase_b18.ugc2081770490","folder":"tf","game":"Team Fortress","app_id":440,"player_count":1,"max_players":24,"Bots":0,"server_type":"Dedicated","server_os":"Linux","password":true,"vac":true,"version":"7757534","steam_id":85568392924742821,"keywords":["cp","nocrits","nodmgspread","uncletopia"],"game_id":440,"stv_port":27046,"stv_name":"Uncletopia | New York City | 4 | Community | STV","players":[{"user_id":5,"name":"quadapalozle","steam_id":76561198327686110,"connected_time":527000000000,"state":"active","ping":138}]},{"server_id":142,"name":"Uncletopia | S√£o Paulo | 1 | All Maps","name_short":"sao-1","host":"sao-1.br.uncletopia.com","port":27015,"enabled":true,"region":"sa","cc":"br","latitude":-23.533773,"longitude":-46.62529,"reserved":0,"last_update":"0001-01-01T00:00:00Z","name_a2s":"Uncletopia | S√£o Paulo | 1 | All Maps","protocol":17,"map":"koth_cascade","folder":"tf","game":"Team Fortress","app_id":440,"player_count":0,"max_players":24,"Bots":0,"server_type":"Dedicated","server_os":"Linux","password":true,"vac":true,"version":"7757534","steam_id":85568392924469996,"keywords":["cp","nocrits","nodmgspread","uncletopia"],"game_id":440,"stv_port":27016,"stv_name":"Uncletopia | S√£o Paulo | 1 | All Maps | STV","players":null},{"server_id":143,"name":"Uncletopia | S√£o Paulo | 2 | All Maps","name_short":"sao-2","host":"sao-2.br.uncletopia.com","port":27015,"enabled":true,"region":"sa","cc":"br","latitude":-23.533773,"longitude":-46.62529,"reserved":0,"last_update":"0001-01-01T00:00:00Z","name_a2s":"Uncletopia | S√£o Paulo | 2 | All Maps","protocol":17,"map":"koth_viaduct","folder":"tf","game":"Team Fortress","app_id":440,"player_count":0,"max_players":24,"Bots":0,"server_type":"Dedicated","server_os":"Linux","password":true,"vac":true,"version":"7757534","steam_id":85568392924485349,"keywords":["cp","nocrits","nodmgspread","uncletopia"],"game_id":440,"stv_port":27016,"stv_name":"Uncletopia | S√£o Paulo | 2 | All Maps | STV","players":null},{"server_id":7,"name":"Uncletopia | Seattle | 1 | All Maps","name_short":"sea-1","host":"sea-1.us.uncletopia.com","port":27015,"enabled":true,"region":"us-west","cc":"us","latitude":47.608013,"longitude":-122.33517,"reserved":0,"last_update":"0001-01-01T00:00:00Z","name_a2s":"Uncletopia | Seattle | 1 | All Maps","protocol":17,"map":"pl_frontier_final","folder":"tf","game":"Team Fortress","app_id":440,"player_count":24,"max_players":24,"Bots":0,"server_type":"Dedicated","server_os":"Linux","password":true,"vac":true,"version":"7757534","steam_id":85568392924469997,"keywords":["nocrits","nodmgspread","payload","uncletopia"],"game_id":440,"stv_port":27016,"stv_name":"Uncletopia | Seattle | 1 | All Maps | STV","players":[{"user_id":188,"name":"oo","steam_id":76561198119626492,"connected_time":3327000000000,"state":"active","ping":66},{"user_id":210,"name":"EEBIGAA","steam_id":76561198056535988,"connected_time":1281000000000,"state":"active","ping":74},{"user_id":209,"name":"ArchmageF","steam_id":76561197992246851,"connected_time":1457000000000,"state":"active","ping":48},{"user_id":212,"name":"Doivan Ivan","steam_id":76561199096260479,"connected_time":1177000000000,"state":"active","ping":150},{"user_id":7,"name":"Little Linguine","steam_id":76561198816986370,"connected_time":17499000000000,"state":"active","ping":58},{"user_id":202,"name":"Flat Eric","steam_id":76561198114922735,"connected_time":2000000000000,"state":"active","ping":111},{"user_id":161,"name":"Dill","steam_id":76561197995325198,"connected_time":4948000000000,"state":"active","ping":93},{"user_id":216,"name":"Florida Man","steam_id":76561198418116040,"connected_time":427000000000,"state":"active","ping":156},{"user_id":204,"name":"APOTATO","steam_id":76561198118199858,"connected_time":1871000000000,"state":"active","ping":91},{"user_id":201,"name":"MeteoSerpent","steam_id":76561198174387141,"connected_time":2032000000000,"state":"active","ping":48},{"user_id":196,"name":"DoctorHa","steam_id":76561198044026008,"connected_time":2474000000000,"state":"active","ping":105},{"user_id":213,"name":"Local","steam_id":76561198170915102,"connected_time":813000000000,"state":"active","ping":53},{"user_id":175,"name":"blizz","steam_id":76561199139715539,"connected_time":4109000000000,"state":"active","ping":68},{"user_id":199,"name":"suns","steam_id":76561198079583278,"connected_time":2224000000000,"state":"active","ping":98},{"user_id":211,"name":"Bergmann MP18","steam_id":76561198218417512,"connected_time":1200000000000,"state":"active","ping":88},{"user_id":214,"name":"Dargoos","steam_id":76561198366212046,"connected_time":750000000000,"state":"active","ping":75},{"user_id":206,"name":"Agent86","steam_id":76561198046794593,"connected_time":1739000000000,"state":"active","ping":106},{"user_id":195,"name":"Is this the guy?","steam_id":76561198051910084,"connected_time":2515000000000,"state":"active","ping":60},{"user_id":208,"name":"Mignyanne :3","steam_id":76561198048754056,"connected_time":1606000000000,"state":"active","ping":65},{"user_id":186,"name":"iamsohardrn","steam_id":76561199147510427,"connected_time":3435000000000,"state":"active","ping":87},{"user_id":174,"name":"dust | she/it","steam_id":76561198045218909,"connected_time":4222000000000,"state":"active","ping":42},{"user_id":187,"name":"WaterWorks","steam_id":76561198801899310,"connected_time":3403000000000,"state":"active","ping":87},{"user_id":200,"name":"ttv_shingo_is_live","steam_id":76561198998571073,"connected_time":2217000000000,"state":"active","ping":74},{"user_id":167,"name":"AmiableNebula","steam_id":76561198094306627,"connected_time":4852000000000,"state":"active","ping":77}]},{"server_id":119,"name":"Uncletopia | Seattle | 2 | All Maps","name_short":"sea-2","host":"sea-1.us.uncletopia.com","port":27025,"enabled":true,"region":"us-west","cc":"us","latitude":47.608013,"longitude":-122.33517,"reserved":0,"last_update":"0001-01-01T00:00:00Z","name_a2s":"Uncletopia | Seattle | 2 | All Maps","protocol":17,"map":"cp_mercenarypark","folder":"tf","game":"Team Fortress","app_id":440,"player_count":23,"max_players":24,"Bots":0,"server_type":"Dedicated","server_os":"Linux","password":true,"vac":true,"version":"7757534","steam_id":85568392924469998,"keywords":["cp","nocrits","nodmgspread","uncletopia"],"game_id":440,"stv_port":27026,"stv_name":"Uncletopia | Seattle | 2 | All Maps | STV","players":[{"user_id":146,"name":"‚ô• fey ‚ô•","steam_id":76561198119191002,"connected_time":380000000000,"state":"active","ping":94},{"user_id":87,"name":"Uso","steam_id":76561198012093238,"connected_time":4805000000000,"state":"active","ping":105},{"user_id":105,"name":"TheCowledWiz","steam_id":76561198016735868,"connected_time":4283000000000,"state":"active","ping":43},{"user_id":150,"name":"MeatShield 2000","steam_id":76561199375192850,"connected_time":11000000000,"state":"spawning","ping":89},{"user_id":140,"name":"hectillious","steam_id":76561199034215138,"connected_time":1253000000000,"state":"active","ping":79},{"user_id":91,"name":"FREE IPAD (Click to Download)","steam_id":76561199012771039,"connected_time":4750000000000,"state":"active","ping":108},{"user_id":130,"name":"weegeebad","steam_id":76561198280841437,"connected_time":2269000000000,"state":"active","ping":112},{"user_id":61,"name":"2023 Chinese Balloon Incident","steam_id":76561197995927883,"connected_time":6640000000000,"state":"active","ping":50},{"user_id":138,"name":"dearender","steam_id":76561199427644498,"connected_time":1329000000000,"state":"active","ping":63},{"user_id":131,"name":"toad ass bitch","steam_id":76561198042941628,"connected_time":2000000000000,"state":"active","ping":74},{"user_id":119,"name":"Bunny_Box1","steam_id":76561199056904550,"connected_time":3323000000000,"state":"active","ping":129},{"user_id":151,"name":"Missterious Lesbian","steam_id":76561198382295070,"connected_time":8000000000,"state":"spawning","ping":103},{"user_id":128,"name":"I THINK COOLSVILLE SUCKS","steam_id":76561198066855998,"connected_time":2364000000000,"state":"active","ping":44},{"user_id":124,"name":"ejschild745","steam_id":76561199013388867,"connected_time":2755000000000,"state":"active","ping":71},{"user_id":152,"name":"kodynotcody","steam_id":76561198340685758,"connected_time":5000000000,"state":"spawning","ping":47},{"user_id":153,"name":"Pickle","steam_id":76561198302567840,"connected_time":5000000000,"state":"spawning","ping":113},{"user_id":102,"name":"theOGjunit","steam_id":76561198368940954,"connected_time":4384000000000,"state":"active","ping":62},{"user_id":135,"name":"Buswolley","steam_id":76561197995205571,"connected_time":1799000000000,"state":"active","ping":65},{"user_id":145,"name":"soda","steam_id":76561198105924953,"connected_time":399000000000,"state":"active","ping":70},{"user_id":69,"name":"QueenPinharam","steam_id":76561199015626409,"connected_time":6073000000000,"state":"active","ping":100},{"user_id":148,"name":"jojobinks613","steam_id":76561198841293111,"connected_time":141000000000,"state":"active","ping":109},{"user_id":118,"name":"Optimore","steam_id":76561198047662990,"connected_time":3767000000000,"state":"active","ping":74},{"user_id":149,"name":"boulder","steam_id":76561198347225801,"connected_time":31000000000,"state":"active","ping":48}]},{"server_id":406,"name":"Uncletopia | Seattle | 3 | Stopwatch Beta","name_short":"sea-3","host":"sea-1.us.uncletopia.com","port":27035,"enabled":true,"region":"us-west","cc":"us","latitude":47.608013,"longitude":-122.33517,"reserved":0,"last_update":"0001-01-01T00:00:00Z","name_a2s":"Uncletopia | Seattle | 3 | Stopwatch Beta","protocol":17,"map":"workshop/pl_barnblitz_pro7.ugc582280235","folder":"tf","game":"Team Fortress","app_id":440,"player_count":0,"max_players":24,"Bots":0,"server_type":"Dedicated","server_os":"Linux","password":true,"vac":true,"version":"7757534","steam_id":85568392924515217,"keywords":["nocrits","nodmgspread","payload","uncletopia"],"game_id":440,"stv_port":27036,"stv_name":"Uncletopia | Seattle | 3 | Stopwatch Beta | STV","players":null},{"server_id":17,"name":"Uncletopia | San Francisco | 1 | All Maps","name_short":"sfo-1","host":"sfo-1.us.uncletopia.com","port":27015,"enabled":true,"region":"us-west","cc":"us","latitude":37.77397,"longitude":-122.4313,"reserved":0,"last_update":"0001-01-01T00:00:00Z","name_a2s":"Uncletopia | San Francisco | 1 | All Maps","protocol":17,"map":"pl_upward","folder":"tf","game":"Team Fortress","app_id":440,"player_count":24,"max_players":24,"Bots":0,"server_type":"Dedicated","server_os":"Linux","password":true,"vac":true,"version":"7757534","steam_id":85568392924469999,"keywords":["nocrits","nodmgspread","payload","uncletopia"],"game_id":440,"stv_port":27016,"stv_name":"Uncletopia | San Francisco | 1 | All Maps | STV","players":[{"user_id":88,"name":"chaos","steam_id":76561198055462404,"connected_time":1434000000000,"state":"active","ping":47},{"user_id":104,"name":"LProduct","steam_id":76561199442139670,"connected_time":298000000000,"state":"active","ping":98},{"user_id":91,"name":"Bony","steam_id":76561199001748822,"connected_time":1328000000000,"state":"active","ping":59},{"user_id":105,"name":"Master Shake","steam_id":76561199427729136,"connected_time":280000000000,"state":"active","ping":132},{"user_id":75,"name":"HuntBunt","steam_id":76561199055381357,"connected_time":1682000000000,"state":"active","ping":95},{"user_id":100,"name":"Quansen","steam_id":76561198151594550,"connected_time":777000000000,"state":"active","ping":109},{"user_id":106,"name":"FenrirBanner(She/Her){SoF}","steam_id":76561198179585865,"connected_time":237000000000,"state":"active","ping":62},{"user_id":107,"name":"bballbhuddababyboy","steam_id":76561198079516052,"connected_time":233000000000,"state":"active","ping":138},{"user_id":96,"name":"Watatsuki no Yorihime","steam_id":76561198063315650,"connected_time":1109000000000,"state":"active","ping":79},{"user_id":108,"name":"Retesaurus","steam_id":76561198045189319,"connected_time":224000000000,"state":"active","ping":72},{"user_id":36,"name":"Sal In Haiti","steam_id":76561198055452939,"connected_time":4435000000000,"state":"active","ping":70},{"user_id":72,"name":"chanoc","steam_id":76561198026734746,"connected_time":1723000000000,"state":"active","ping":51},{"user_id":113,"name":"rustyorion","steam_id":76561198439186347,"connected_time":105000000000,"state":"active","ping":70},{"user_id":102,"name":"Rylee Zondo'Man","steam_id":76561199044382703,"connected_time":409000000000,"state":"active","ping":104},{"user_id":110,"name":"cuppo","steam_id":76561198022008901,"connected_time":211000000000,"state":"active","ping":85},{"user_id":77,"name":"Mr.Kevin120","steam_id":76561199186919096,"connected_time":1666000000000,"state":"active","ping":138},{"user_id":78,"name":"A Lost CAWs","steam_id":76561198127120212,"connected_time":1656000000000,"state":"active","ping":129},{"user_id":101,"name":"zone 6","steam_id":76561198068672882,"connected_time":417000000000,"state":"active","ping":54},{"user_id":98,"name":"jessicamustdie \u003c3","steam_id":76561198045230921,"connected_time":1062000000000,"state":"active","ping":92},{"user_id":111,"name":"Tax","steam_id":76561198335683534,"connected_time":197000000000,"state":"active","ping":118},{"user_id":103,"name":"FiddyFoMike","steam_id":76561198057072581,"connected_time":361000000000,"state":"active","ping":45},{"user_id":112,"name":"raf","steam_id":76561197999439695,"connected_time":145000000000,"state":"active","ping":64},{"user_id":83,"name":"CherriKat (She/Her)","steam_id":76561198821297512,"connected_time":1520000000000,"state":"active","ping":50},{"user_id":114,"name":"Belmore","steam_id":76561198009355231,"connected_time":80000000000,"state":"active","ping":70}]},{"server_id":18,"name":"Uncletopia | San Francisco | 2 | All Maps","name_short":"sfo-2","host":"sfo-1.us.uncletopia.com","port":27025,"enabled":true,"region":"us-west","cc":"us","latitude":37.77397,"longitude":-122.4313,"reserved":0,"last_update":"0001-01-01T00:00:00Z","name_a2s":"Uncletopia | San Francisco | 2 | All Maps","protocol":17,"map":"koth_viaduct","folder":"tf","game":"Team Fortress","app_id":440,"player_count":0,"max_players":24,"Bots":0,"server_type":"Dedicated","server_os":"Linux","password":true,"vac":true,"version":"7757534","steam_id":85568392924470000,"keywords":["cp","nocrits","nodmgspread","uncletopia"],"game_id":440,"stv_port":27026,"stv_name":"Uncletopia | San Francisco | 2 | All Maps | STV","players":null},{"server_id":19,"name":"Uncletopia | San Francisco | 3 | Stopwatch Beta","name_short":"sfo-3","host":"sfo-1.us.uncletopia.com","port":27035,"enabled":true,"region":"us-west","cc":"us","latitude":37.77397,"longitude":-122.4313,"reserved":0,"last_update":"0001-01-01T00:00:00Z","name_a2s":"Uncletopia | San Francisco | 3 | Stopwatch Beta","protocol":17,"map":"cp_snakewater_final1","folder":"tf","game":"Team Fortress","app_id":440,"player_count":0,"max_players":24,"Bots":0,"server_type":"Dedicated","server_os":"Linux","password":true,"vac":true,"version":"7757534","steam_id":85568392924742824,"keywords":["cp","nocrits","nodmgspread","uncletopia"],"game_id":440,"stv_port":27036,"stv_name":"Uncletopia | San Francisco | 3 | Stopwatch Beta | STV","players":null},{"server_id":20,"name":"Uncletopia | San Francisco | 4 | Community","name_short":"sfo-4","host":"sfo-1.us.uncletopia.com","port":27045,"enabled":true,"region":"us-west","cc":"us","latitude":37.77397,"longitude":-122.4313,"reserved":0,"last_update":"0001-01-01T00:00:00Z","name_a2s":"Uncletopia | San Francisco | 4 | Community","protocol":17,"map":"workshop/pl_divulgence_b4b.ugc2884808746","folder":"tf","game":"Team Fortress","app_id":440,"player_count":0,"max_players":24,"Bots":0,"server_type":"Dedicated","server_os":"Linux","password":true,"vac":true,"version":"7757534","steam_id":85568392924742826,"keywords":["nocrits","nodmgspread","payload","uncletopia"],"game_id":440,"stv_port":27046,"stv_name":"Uncletopia | San Francisco | 4 | Community | STV","players":null},{"server_id":141,"name":"Uncletopia | Sydney | 1 | All Maps","name_short":"syd-1","host":"syd-1.au.uncletopia.com","port":27015,"enabled":true,"region":"au","cc":"au","latitude":-33.865143,"longitude":151.2099,"reserved":0,"last_update":"0001-01-01T00:00:00Z","name_a2s":"Uncletopia | Sydney | 1 | All Maps","protocol":17,"map":"pl_swiftwater_final1","folder":"tf","game":"Team Fortress","app_id":440,"player_count":0,"max_players":24,"Bots":0,"server_type":"Dedicated","server_os":"Linux","password":true,"vac":true,"version":"7757534","steam_id":85568392924470001,"keywords":["nocrits","nodmgspread","payload","uncletopia"],"game_id":440,"stv_port":27016,"stv_name":"Uncletopia | Sydney | 1 | All Maps | STV","players":null},{"server_id":123,"name":"Uncletopia | Sydney | 2 | All Maps","name_short":"syd-2","host":"syd-1.au.uncletopia.com","port":27025,"enabled":true,"region":"au","cc":"au","latitude":-33.865143,"longitude":151.2099,"reserved":0,"last_update":"0001-01-01T00:00:00Z","name_a2s":"Uncletopia | Sydney | 2 | All Maps","protocol":17,"map":"pl_badwater","folder":"tf","game":"Team Fortress","app_id":440,"player_count":0,"max_players":24,"Bots":0,"server_type":"Dedicated","server_os":"Linux","password":true,"vac":true,"version":"7757534","steam_id":85568392924470002,"keywords":["nocrits","nodmgspread","payload","uncletopia"],"game_id":440,"stv_port":27026,"stv_name":"Uncletopia | Sydney | 2 | All Maps | STV","players":null},{"server_id":395,"name":"Uncletopia | Sydney | 3 | All Maps","name_short":"syd-3","host":"syd-1.au.uncletopia.com","port":27035,"enabled":true,"region":"au","cc":"au","latitude":-33.865143,"longitude":151.2099,"reserved":0,"last_update":"0001-01-01T00:00:00Z","name_a2s":"Uncletopia | Sydney | 3 | All Maps","protocol":17,"map":"cp_mountainlab","folder":"tf","game":"Team Fortress","app_id":440,"player_count":0,"max_players":24,"Bots":0,"server_type":"Dedicated","server_os":"Linux","password":true,"vac":true,"version":"7757534","steam_id":85568392925194467,"keywords":["cp","nocrits","nodmgspread","uncletopia"],"game_id":440,"stv_port":27036,"stv_name":"Uncletopia | Sydney | 3 | All Maps | STV","players":null},{"server_id":396,"name":"Uncletopia | Sydney | 4 | All Maps","name_short":"syd-4","host":"syd-1.au.uncletopia.com","port":27045,"enabled":true,"region":"au","cc":"au","latitude":-33.865143,"longitude":151.2099,"reserved":0,"last_update":"0001-01-01T00:00:00Z","name_a2s":"Uncletopia | Sydney | 4 | All Maps","protocol":17,"map":"pl_swiftwater_final1","folder":"tf","game":"Team Fortress","app_id":440,"player_count":0,"max_players":24,"Bots":0,"server_type":"Dedicated","server_os":"Linux","password":true,"vac":true,"version":"7757534","steam_id":85568392925397958,"keywords":["nocrits","nodmgspread","payload","uncletopia"],"game_id":440,"stv_port":27046,"stv_name":"Uncletopia | Sydney | 4 | All Maps | STV","players":null},{"server_id":58,"name":"Uncletopia | Sydney | 5 | Stopwatch Beta","name_short":"syd-5","host":"syd-1.au.uncletopia.com","port":27055,"enabled":true,"region":"au","cc":"au","latitude":-33.865143,"longitude":151.2099,"reserved":0,"last_update":"0001-01-01T00:00:00Z","name_a2s":"Uncletopia | Sydney | 5 | Stopwatch Beta","protocol":17,"map":"workshop/koth_bagel_rc6.ugc2514036946","folder":"tf","game":"Team Fortress","app_id":440,"player_count":0,"max_players":24,"Bots":0,"server_type":"Dedicated","server_os":"Linux","password":true,"vac":true,"version":"7757534","steam_id":85568392925397959,"keywords":["cp","nocrits","nodmgspread","uncletopia"],"game_id":440,"stv_port":27056,"stv_name":"Uncletopia | Sydney | 5 | Stopwatch Beta | STV","players":null},{"server_id":59,"name":"Uncletopia | Sydney | 6 | Community","name_short":"syd-6","host":"syd-1.au.uncletopia.com","port":27065,"enabled":true,"region":"au","cc":"au","latitude":-33.865143,"longitude":151.2099,"reserved":0,"last_update":"0001-01-01T00:00:00Z","name_a2s":"Uncletopia | Sydney | 6 | Community","protocol":17,"map":"workshop/pl_divulgence_b4b.ugc2884808746","folder":"tf","game":"Team Fortress","app_id":440,"player_count":0,"max_players":24,"Bots":0,"server_type":"Dedicated","server_os":"Linux","password":true,"vac":true,"version":"7757534","steam_id":85568392925397960,"keywords":["nocrits","nodmgspread","payload","uncletopia"],"game_id":440,"stv_port":27066,"stv_name":"Uncletopia | Sydney | 6 | Community | STV","players":null},{"server_id":49,"name":"Uncletopia | Warsaw | 1 | All Maps","name_short":"waw-1","host":"waw-1.pl.uncletopia.com","port":27015,"enabled":true,"region":"eu","cc":"pl","latitude":52.2297,"longitude":21.017532,"reserved":0,"last_update":"0001-01-01T00:00:00Z","name_a2s":"","protocol":0,"map":"","folder":"","game":"","app_id":0,"player_count":0,"max_players":0,"Bots":0,"server_type":"","server_os":"","password":false,"vac":false,"version":"","steam_id":0,"keywords":null,"game_id":0,"stv_port":0,"stv_name":"","players":null},{"server_id":50,"name":"Uncletopia | Warsaw | 2 | All Maps","name_short":"waw-2","host":"waw-1.pl.uncletopia.com","port":27025,"enabled":true,"region":"eu","cc":"pl","latitude":52.2297,"longitude":21.017532,"reserved":0,"last_update":"0001-01-01T00:00:00Z","name_a2s":"Uncletopia | Warsaw | 2 | All Maps","protocol":17,"map":"cp_dustbowl","folder":"tf","game":"Team Fortress","app_id":440,"player_count":0,"max_players":24,"Bots":0,"server_type":"Dedicated","server_os":"Linux","password":true,"vac":true,"version":"7757534","steam_id":85568392925397851,"keywords":["cp","nocrits","nodmgspread","uncletopia"],"game_id":440,"stv_port":27026,"stv_name":"Uncletopia | Warsaw | 2 | All Maps | STV","players":null},{"server_id":51,"name":"Uncletopia | Warsaw | 3 | All Maps","name_short":"waw-3","host":"waw-1.pl.uncletopia.com","port":27035,"enabled":true,"region":"eu","cc":"pl","latitude":52.2297,"longitude":21.017532,"reserved":0,"last_update":"0001-01-01T00:00:00Z","name_a2s":"Uncletopia | Warsaw | 3 | All Maps","protocol":17,"map":"cp_mountainlab","folder":"tf","game":"Team Fortress","app_id":440,"player_count":0,"max_players":24,"Bots":0,"server_type":"Dedicated","server_os":"Linux","password":true,"vac":true,"version":"7757534","steam_id":85568392925397852,"keywords":["cp","nocrits","nodmgspread","uncletopia"],"game_id":440,"stv_port":27036,"stv_name":"Uncletopia | Warsaw | 3 | All Maps | STV","players":null},{"server_id":52,"name":"Uncletopia | Warsaw | 4 | All Maps","name_short":"waw-4","host":"waw-1.pl.uncletopia.com","port":27045,"enabled":true,"region":"eu","cc":"pl","latitude":52.2297,"longitude":21.017532,"reserved":0,"last_update":"0001-01-01T00:00:00Z","name_a2s":"Uncletopia | Warsaw | 4 | All Maps","protocol":17,"map":"pl_borneo","folder":"tf","game":"Team Fortress","app_id":440,"player_count":0,"max_players":24,"Bots":0,"server_type":"Dedicated","server_os":"Linux","password":true,"vac":true,"version":"7757534","steam_id":85568392925397853,"keywords":["nocrits","nodmgspread","payload","uncletopia"],"game_id":440,"stv_port":27046,"stv_name":"Uncletopia | Warsaw | 4 | All Maps | STV","players":null},{"server_id":53,"name":"Uncletopia | Warsaw | 5 | Stopwatch Beta","name_short":"waw-5","host":"waw-1.pl.uncletopia.com","port":27055,"enabled":true,"region":"eu","cc":"pl","latitude":52.2297,"longitude":21.017532,"reserved":0,"last_update":"0001-01-01T00:00:00Z","name_a2s":"Uncletopia | Warsaw | 5 | Stopwatch Beta","protocol":17,"map":"pl_pier","folder":"tf","game":"Team Fortress","app_id":440,"player_count":0,"max_players":24,"Bots":0,"server_type":"Dedicated","server_os":"Linux","password":true,"vac":true,"version":"7757534","steam_id":85568392925397854,"keywords":["nocrits","nodmgspread","payload","uncletopia"],"game_id":440,"stv_port":27056,"stv_name":"Uncletopia | Warsaw | 5 | Stopwatch Beta | STV","players":null},{"server_id":54,"name":"Uncletopia | Warsaw | 6 | Community","name_short":"waw-6","host":"waw-1.pl.uncletopia.com","port":27065,"enabled":true,"region":"eu","cc":"pl","latitude":52.2297,"longitude":21.017532,"reserved":0,"last_update":"0001-01-01T00:00:00Z","name_a2s":"Uncletopia | Warsaw | 6 | Community","protocol":17,"map":"koth_highpass","folder":"tf","game":"Team Fortress","app_id":440,"player_count":0,"max_players":24,"Bots":0,"server_type":"Dedicated","server_os":"Linux","password":true,"vac":true,"version":"7757534","steam_id":85568392925397856,"keywords":["cp","nocrits","nodmgspread","uncletopia"],"game_id":440,"stv_port":27066,"stv_name":"Uncletopia | Warsaw | 6 | Community | STV","players":null}]}