{"status":true,"message":"","result":[{"server_id":9,"name":"Uncletopia | Atlanta | 1 | All Maps","name_short":"atl-1","host":"atl-1.us.uncletopia.com","port":27015,"enabled":true,"region":"us-east","cc":"us","latitude":33.753746,"longitude":-84.38633,"reserved":0,"last_update":"0001-01-01T00:00:00Z","name_a2s":"Uncletopia | Atlanta | 1 | All Maps","protocol":17,"map":"koth_viaduct","folder":"tf","game":"Team Fortress","app_id":440,"player_count":1,"max_players":24,"Bots":0,"server_type":"Dedicated","server_os":"Linux","password":true,"vac":true,"version":"7742253","steam_id":85568392924469982,"keywords":["cp","nocrits","nodmgspread","uncletopia"],"game_id":440,"stv_port":27016,"stv_name":"Uncletopia | Atlanta | 1 | All Maps | STV","players":[{"user_id":4,"name":"ATL1 | Mayhem","steam_id":76561199246637881,"connected_time":127000000000,"state":"active","ping":59}]},{"server_id":400,"name":"Uncletopia | Atlanta | 3 | Stopwatch Beta","name_short":"atl-3","host":"atl-1.us.uncletopia.com","port":27035,"enabled":true,"region":"us-east","cc":"us","latitude":33.753746,"longitude":-84.38633,"reserved":0,"last_update":"0001-01-01T00:00:00Z","name_a2s":"Uncletopia | Atlanta | 3 | Stopwatch Beta","protocol":17,"map":"pl_pier","folder":"tf","game":"Team Fortress","app_id":440,"player_count":0,"max_players":24,"Bots":0,"server_type":"Dedicated","server_os":"Linux","password":true,"vac":true,"version":"7742253","steam_id":85568392924515187,"keywords":["nocrits","nodmgspread","payload","uncletopia"],"game_id":440,"stv_port":27036,"stv_name":"Uncletopia | Atlanta | 3 | Stopwatch Beta | STV","players":null},{"server_id":401,"name":"Uncletopia | Atlanta | 4 | No Payload","name_short":"atl-4","host":"atl-1.us.uncletopia.com","port":27045,"enabled":true,"region":"us-east","cc":"us","latitude":33.753746,"longitude":-84.38633,"reserved":0,"last_update":"0001-01-01T00:00:00Z","name_a2s":"Uncletopia | Atlanta | 4 | No Payload","protocol":17,"map":"pl_pier","folder":"tf","game":"Team Fortress","app_id":440,"player_count":0,"max_players":24,"Bots":0,"server_type":"Dedicated","server_os":"Linux","password":true,"vac":true,"version":"7723704","steam_id":85568392924515188,"keywords":["nocrits","nodmgspread","payload","uncletopia"],"game_id":440,"stv_port":27046,"stv_name":"Uncletopia | Atlanta | 4 | No Payload | STV","players":null},{"server_id":2,"name":"Uncletopia | Chicago | 1 | All Maps","name_short":"chi-1","host":"chi-1.us.uncletopia.com","port":27015,"enabled":true,"region":"us-central","cc":"us","latitude":41.881832,"longitude":-87.62318,"reserved":0,"last_update":"0001-01-01T00:00:00Z","name_a2s":"Uncletopia | Chicago | 1 | All Maps","protocol":17,"map":"pl_swiftwater_final1","folder":"tf","game":"Team Fortress","app_id":440,"player_count":24,"max_players":24,"Bots":0,"server_type":"Dedicated","server_os":"Linux","password":true,"vac":true,"version":"7742253","steam_id":85568392924469984,"keywords":["nocrits","nodmgspread","payload","uncletopia"],"game_id":440,"stv_port":27016,"stv_name":"Uncletopia | Chicago | 1 | All Maps | STV","players":[{"user_id":84,"name":"Smig","steam_id":76561198408846602,"connected_time":3994000000000,"state":"active","ping":51},{"user_id":107,"name":"Onyx","steam_id":76561198275349640,"connected_time":157000000000,"state":"active","ping":122},{"user_id":5,"name":"Milk","steam_id":76561198004362373,"connected_time":8868000000000,"state":"active","ping":61},{"user_id":6,"name":"Eden","steam_id":76561198075587475,"connected_time":8862000000000,"state":"active","ping":36},{"user_id":89,"name":"dan","steam_id":76561197984998426,"connected_time":3504000000000,"state":"active","ping":96},{"user_id":111,"name":"Admiral Angry","steam_id":76561198058199206,"connected_time":98000000000,"state":"active","ping":56},{"user_id":90,"name":"dingus","steam_id":76561198190077399,"connected_time":3392000000000,"state":"active","ping":59},{"user_id":87,"name":"RelatableiLLness","steam_id":76561198441669772,"connected_time":3720000000000,"state":"active","ping":83},{"user_id":105,"name":"a grade 9 fixer","steam_id":76561198116908911,"connected_time":170000000000,"state":"active","ping":75},{"user_id":98,"name":"nnobi","steam_id":76561198878729277,"connected_time":2384000000000,"state":"active","ping":74},{"user_id":54,"name":"catface","steam_id":76561198096347625,"connected_time":6033000000000,"state":"active","ping":76},{"user_id":58,"name":"Sad Sapling","steam_id":76561198075612150,"connected_time":5822000000000,"state":"active","ping":107},{"user_id":112,"name":"James Bondage","steam_id":76561198077647318,"connected_time":57000000000,"state":"active","ping":53},{"user_id":25,"name":"Elena Manetta","steam_id":76561197998344054,"connected_time":8227000000000,"state":"active","ping":48},{"user_id":113,"name":"Ping","steam_id":76561199206514106,"connected_time":57000000000,"state":"active","ping":51},{"user_id":88,"name":"srv","steam_id":76561198026589960,"connected_time":3720000000000,"state":"active","ping":46},{"user_id":101,"name":"Yayifications","steam_id":76561198066227208,"connected_time":1370000000000,"state":"active","ping":60},{"user_id":102,"name":"Sigiferd","steam_id":76561198148788110,"connected_time":1246000000000,"state":"active","ping":115},{"user_id":66,"name":"catface brother","steam_id":76561198068265379,"connected_time":5336000000000,"state":"active","ping":101},{"user_id":100,"name":"u/unhinged_person","steam_id":76561198085839920,"connected_time":2380000000000,"state":"active","ping":88},{"user_id":104,"name":"❆ Spearmint ❆","steam_id":76561198040974097,"connected_time":1221000000000,"state":"active","ping":81},{"user_id":64,"name":"Seele","steam_id":76561198067833803,"connected_time":5500000000000,"state":"active","ping":68},{"user_id":110,"name":"Karrot","steam_id":76561198058970903,"connected_time":128000000000,"state":"active","ping":63},{"user_id":97,"name":"mechiimi ★","steam_id":76561198321627268,"connected_time":2538000000000,"state":"active","ping":131}]},{"server_id":106,"name":"Uncletopia | Chicago | 2 | All Maps","name_short":"chi-2","host":"chi-1.us.uncletopia.com","port":27025,"enabled":true,"region":"us-central","cc":"us","latitude":41.881832,"longitude":-87.62318,"reserved":0,"last_update":"0001-01-01T00:00:00Z","name_a2s":"Uncletopia | Chicago | 2 | All Maps","protocol":17,"map":"pl_badwater","folder":"tf","game":"Team Fortress","app_id":440,"player_count":0,"max_players":24,"Bots":0,"server_type":"Dedicated","server_os":"Linux","password":true,"vac":true,"version":"7742253","steam_id":85568392924469985,"keywords":["nocrits","nodmgspread","payload","uncletopia"],"game_id":440,"stv_port":27026,"stv_name":"Uncletopia | Chicago | 2 | All Maps | STV","players":null},{"server_id":402,"name":"Uncletopia | Chicago | 3 | All Maps","name_short":"chi-3","host":"chi-1.us.uncletopia.com","port":27035,"enabled":true,"region":"us-central","cc":"us","latitude":41.881832,"longitude":-87.62318,"reserved":0,"last_update":"0001-01-01T00:00:00Z","name_a2s":"Uncletopia | Chicago | 3 | All Maps","protocol":17,"map":"koth_viaduct","folder":"tf","game":"Team Fortress","app_id":440,"player_count":0,"max_players":24,"Bots":0,"server_type":"Dedicated","server_os":"Linux","password":true,"vac":true,"version":"7742253","steam_id":85568392924515191,"keywords":["cp","nocrits","nodmgspread","uncletopia"],"game_id":440,"stv_port":27036,"stv_name":"Uncletopia | Chicago | 3 | All Maps | STV","players":null},{"server_id":403,"name":"Uncletopia | Chicago | 4 | All Maps","name_short":"chi-4","host":"chi-1.us.uncletopia.com","port":27045,"enabled":true,"region":"us-central","cc":"us","latitude":41.881832,"longitude":-87.62318,"reserved":0,"last_update":"0001-01-01T00:00:00Z","name_a2s":"Uncletopia | Chicago | 4 | All Maps","protocol":17,"map":"koth_lakeside_final","folder":"tf","game":"Team Fortress","app_id":440,"player_count":0,"max_players":24,"Bots":0,"server_type":"Dedicated","server_os":"Linux","password":true,"vac":true,"version":"7742253","steam_id":85568392924515193,"keywords":["cp","nocrits","nodmgspread","uncletopia"],"game_id":440,"stv_port":27046,"stv_name":"Uncletopia | Chicago | 4 | All Maps | STV","players":null},{"server_id":36,"name":"Uncletopia | Chicago | 5 | All Maps","name_short":"chi-5","host":"chi-2.us.uncletopia.com","port":27015,"enabled":true,"region":"us-central","cc":"us","latitude":41.881832,"longitude":-87.62318,"reserved":0,"last_update":"0001-01-01T00:00:00Z","name_a2s":"Uncletopia | Chicago | 5 | All Maps","protocol":17,"map":"koth_highpass","folder":"tf","game":"Team Fortress","app_id":440,"player_count":0,"max_players":24,"Bots":0,"server_type":"Dedicated","server_os":"Linux","password":true,"vac":true,"version":"7742253","steam_id":85568392924866362,"keywords":["cp","nocrits","nodmgspread","uncletopia"],"game_id":440,"stv_port":27016,"stv_name":"Uncletopia | Chicago | 5 | All Maps | STV","players":null},{"server_id":37,"name":"Uncletopia | Chicago | 6 | All Maps","name_short":"chi-6","host":"chi-2.us.uncletopia.com","port":27025,"enabled":true,"region":"us-central","cc":"us","latitude":41.881832,"longitude":-87.62318,"reserved":0,"last_update":"0001-01-01T00:00:00Z","name_a2s":"Uncletopia | Chicago | 6 | All Maps","protocol":17,"map":"pl_badwater","folder":"tf","game":"Team Fortress","app_id":440,"player_count":0,"max_players":24,"Bots":0,"server_type":"Dedicated","server_os":"Linux","password":true,"vac":true,"version":"7742253","steam_id":85568392924866363,"keywords":["nocrits","nodmgspread","payload","uncletopia"],"game_id":440,"stv_port":27026,"stv_name":"Uncletopia | Chicago | 6 | All Maps | STV","players":null},{"server_id":38,"name":"Uncletopia | Chicago | 7 | Stopwatch Beta","name_short":"chi-7","host":"chi-2.us.uncletopia.com","port":27035,"enabled":true,"region":"us-central","cc":"us","latitude":41.881832,"longitude":-87.62318,"reserved":0,"last_update":"0001-01-01T00:00:00Z","name_a2s":"Uncletopia | Chicago | 7 | Stopwatch Beta","protocol":17,"map":"workshop/koth_ashville_final.ugc2130459942","folder":"tf","game":"Team Fortress","app_id":440,"player_count":0,"max_players":24,"Bots":0,"server_type":"Dedicated","server_os":"Linux","password":true,"vac":true,"version":"7742253","steam_id":85568392924866364,"keywords":["cp","nocrits","nodmgspread","uncletopia"],"game_id":440,"stv_port":27036,"stv_name":"Uncletopia | Chicago | 7 | Stopwatch Beta | STV","players":null},{"server_id":39,"name":"Uncletopia | Chicago | 8 | Community","name_short":"chi-8","host":"chi-2.us.uncletopia.com","port":27045,"enabled":true,"region":"us-central","cc":"us","latitude":41.881832,"longitude":-87.62318,"reserved":0,"last_update":"0001-01-01T00:00:00Z","name_a2s":"Uncletopia | Chicago | 8 | Community","protocol":17,"map":"koth_lakeside_final","folder":"tf","game":"Team Fortress","app_id":440,"player_count":0,"max_players":24,"Bots":0,"server_type":"Dedicated","server_os":"Linux","password":true,"vac":true,"version":"7742253","steam_id":85568392924866365,"keywords":["cp","nocrits","nodmgspread","uncletopia"],"game_id":440,"stv_port":27046,"stv_name":"Uncletopia | Chicago | 8 | Community | STV","players":null},{"server_id":8,"name":"Uncletopia | Dallas | 1 | All Maps","name_short":"dal-1","host":"dal-1.us.uncletopia.com","port":27015,"enabled":true,"region":"us-central","cc":"us","latitude":32.779167,"longitude":-96.80889,"reserved":0,"last_update":"0001-01-01T00:00:00Z","name_a2s":"Uncletopia | Dallas | 1 | All Maps","protocol":17,"map":"cp_mountainlab","folder":"tf","game":"Team Fortress","app_id":440,"player_count":0,"max_players":24,"Bots":0,"server_type":"Dedicated","server_os":"Linux","password":true,"vac":true,"version":"7742253","steam_id":85568392924469986,"keywords":["cp","nocrits","nodmgspread","uncletopia"],"game_id":440,"stv_port":27016,"stv_name":"Uncletopia | Dallas | 1 | All Maps | STV","players":null},{"server_id":108,"name":"Uncletopia | Dallas | 2 | All Maps","name_short":"dal-2","host":"dal-1.us.uncletopia.com","port":27025,"enabled":true,"region":"us-central","cc":"us","latitude":32.779167,"longitude":-96.80889,"reserved":0,"last_update":"0001-01-01T00:00:00Z","name_a2s":"Uncletopia | Dallas | 2 | All Maps","protocol":17,"map":"cp_process_final","folder":"tf","game":"Team Fortress","app_id":440,"player_count":0,"max_players":24,"Bots":0,"server_type":"Dedicated","server_os":"Linux","password":true,"vac":true,"version":"7742253","steam_id":85568392924469988,"keywords":["cp","nocrits","nodmgspread","uncletopia"],"game_id":440,"stv_port":27026,"stv_name":"Uncletopia | Dallas | 2 | All Maps | STV","players":null},{"server_id":5,"name":"Uncletopia | Frankfurt | 1 | All Maps","name_short":"frk-1","host":"frk-1.de.uncletopia.com","port":27015,"enabled":true,"region":"eu","cc":"de","latitude":50.110924,"longitude":8.682127,"reserved":0,"last_update":"0001-01-01T00:00:00Z","name_a2s":"Uncletopia | Frankfurt | 1 | All Maps","protocol":17,"map":"pl_upward","folder":"tf","game":"Team Fortress","app_id":440,"player_count":24,"max_players":24,"Bots":0,"server_type":"Dedicated","server_os":"Linux","password":true,"vac":true,"version":"7742253","steam_id":85568392924469989,"keywords":["nocrits","nodmgspread","payload","uncletopia"],"game_id":440,"stv_port":27016,"stv_name":"Uncletopia | Frankfurt | 1 | All Maps | STV","players":[{"user_id":294,"name":"where is my egg?","steam_id":76561198172542535,"connected_time":184000000000,"state":"active","ping":153},{"user_id":276,"name":"lowcostfish.co.uk","steam_id":76561198126022039,"connected_time":918000000000,"state":"active","ping":76},{"user_id":281,"name":"Cippo95","steam_id":76561198255311582,"connected_time":696000000000,"state":"active","ping":63},{"user_id":280,"name":"Carrotcracker","steam_id":76561198034862396,"connected_time":750000000000,"state":"active","ping":50},{"user_id":234,"name":"JP3","steam_id":76561197970963576,"connected_time":2135000000000,"state":"active","ping":54},{"user_id":252,"name":"Fat Pigeon","steam_id":76561198817940142,"connected_time":1425000000000,"state":"active","ping":50},{"user_id":283,"name":"fr3fou","steam_id":76561198070932683,"connected_time":663000000000,"state":"active","ping":62},{"user_id":247,"name":"ILoveMyMom420Blaze","steam_id":76561198981016492,"connected_time":1537000000000,"state":"active","ping":61},{"user_id":284,"name":"Kaiser","steam_id":76561198145421612,"connected_time":645000000000,"state":"active","ping":83},{"user_id":288,"name":"Murphy","steam_id":76561198271394131,"connected_time":380000000000,"state":"active","ping":46},{"user_id":293,"name":"Phil3k.","steam_id":76561198283072297,"connected_time":208000000000,"state":"active","ping":66},{"user_id":243,"name":"Tam","steam_id":76561199039394252,"connected_time":1716000000000,"state":"active","ping":141},{"user_id":236,"name":"Can my wife use your toilet?","steam_id":76561198132926700,"connected_time":2107000000000,"state":"active","ping":74},{"user_id":253,"name":"jorogumo","steam_id":76561198838277022,"connected_time":1398000000000,"state":"active","ping":61},{"user_id":272,"name":"Lord Odment","steam_id":76561198044354976,"connected_time":1172000000000,"state":"active","ping":80},{"user_id":289,"name":"MARADONA SNIPEr","steam_id":76561199232442508,"connected_time":380000000000,"state":"active","ping":73},{"user_id":274,"name":"Magiccomplex","steam_id":76561199203555188,"connected_time":998000000000,"state":"active","ping":47},{"user_id":291,"name":"Soulman25 (FIN)","steam_id":76561198103611974,"connected_time":225000000000,"state":"active","ping":97},{"user_id":277,"name":"eeeeee","steam_id":76561198017786875,"connected_time":846000000000,"state":"active","ping":47},{"user_id":262,"name":"stoppen","steam_id":76561197960281482,"connected_time":1359000000000,"state":"active","ping":69},{"user_id":268,"name":"Preyzen","steam_id":76561199043448824,"connected_time":1288000000000,"state":"active","ping":61},{"user_id":214,"name":"I-I","steam_id":76561198267969436,"connected_time":3237000000000,"state":"active","ping":61},{"user_id":287,"name":"turbogamer2","steam_id":76561198054980761,"connected_time":416000000000,"state":"active","ping":65},{"user_id":269,"name":"Animatic","steam_id":76561198186421601,"connected_time":1209000000000,"state":"active","ping":169}]},{"server_id":110,"name":"Uncletopia | Frankfurt | 2 | All Maps","name_short":"frk-2","host":"frk-1.de.uncletopia.com","port":27025,"enabled":true,"region":"eu","cc":"de","latitude":50.110924,"longitude":8.682127,"reserved":0,"last_update":"0001-01-01T00:00:00Z","name_a2s":"Uncletopia | Frankfurt | 2 | All Maps","protocol":17,"map":"pl_badwater","folder":"tf","game":"Team Fortress","app_id":440,"player_count":24,"max_players":24,"Bots":0,"server_type":"Dedicated","server_os":"Linux","password":true,"vac":true,"version":"7742253","steam_id":85568392924469990,"keywords":["nocrits","nodmgspread","payload","uncletopia"],"game_id":440,"stv_port":27026,"stv_name":"Uncletopia | Frankfurt | 2 | All Maps | STV","players":[{"user_id":210,"name":"playgrey","steam_id":76561198190465970,"connected_time":1609000000000,"state":"active","ping":45},{"user_id":112,"name":"[Insert Oneshot refrence here]","steam_id":76561198951206047,"connected_time":7607000000000,"state":"active","ping":78},{"user_id":211,"name":"https:))","steam_id":76561198023641916,"connected_time":1593000000000,"state":"active","ping":65},{"user_id":199,"name":"Joe","steam_id":76561198368758532,"connected_time":2430000000000,"state":"active","ping":96},{"user_id":204,"name":"aph","steam_id":76561198057722639,"connected_time":1936000000000,"state":"active","ping":60},{"user_id":240,"name":"Despair","steam_id":76561198259487481,"connected_time":495000000000,"state":"active","ping":66},{"user_id":228,"name":"Patrick Bateman","steam_id":76561198408829424,"connected_time":932000000000,"state":"active","ping":66},{"user_id":203,"name":"goktwoxd","steam_id":76561198065114415,"connected_time":1970000000000,"state":"active","ping":75},{"user_id":233,"name":"obi","steam_id":76561198040154461,"connected_time":686000000000,"state":"active","ping":75},{"user_id":234,"name":"Guy with squares as username","steam_id":76561198269524918,"connected_time":672000000000,"state":"active","ping":54},{"user_id":232,"name":"pumpkin spice go.ggez.ro","steam_id":76561198449957490,"connected_time":739000000000,"state":"active","ping":78},{"user_id":213,"name":"Dzieciol","steam_id":76561198160237556,"connected_time":1570000000000,"state":"active","ping":61},{"user_id":237,"name":"Tomb","steam_id":76561198110349761,"connected_time":631000000000,"state":"active","ping":61},{"user_id":191,"name":"scantron","steam_id":76561199103959197,"connected_time":3083000000000,"state":"active","ping":98},{"user_id":220,"name":"Bumblebee","steam_id":76561198033551105,"connected_time":1165000000000,"state":"active","ping":71},{"user_id":230,"name":"travis","steam_id":76561198138119811,"connected_time":920000000000,"state":"active","ping":58},{"user_id":242,"name":"simn","steam_id":76561198159182269,"connected_time":73000000000,"state":"active","ping":42},{"user_id":201,"name":"night.s","steam_id":76561198326287823,"connected_time":2226000000000,"state":"active","ping":75},{"user_id":235,"name":"Seppo Supermies","steam_id":76561199275012023,"connected_time":648000000000,"state":"active","ping":140},{"user_id":239,"name":"chorizo pamplonica","steam_id":76561199012641732,"connected_time":609000000000,"state":"active","ping":84},{"user_id":217,"name":"Fatass Cat In A Tuxedo","steam_id":76561198363366212,"connected_time":1424000000000,"state":"active","ping":75},{"user_id":224,"name":"mountain highlander","steam_id":76561199016050401,"connected_time":1084000000000,"state":"active","ping":130},{"user_id":190,"name":"Menty","steam_id":76561198036748212,"connected_time":3204000000000,"state":"active","ping":44},{"user_id":193,"name":"PabloGamerPro5000","steam_id":76561198358173553,"connected_time":2995000000000,"state":"active","ping":75}]},{"server_id":308,"name":"Uncletopia | Frankfurt | 3 | All Maps","name_short":"frk-3","host":"frk-1.de.uncletopia.com","port":27035,"enabled":true,"region":"eu","cc":"de","latitude":50.110924,"longitude":8.682127,"reserved":0,"last_update":"0001-01-01T00:00:00Z","name_a2s":"Uncletopia | Frankfurt | 3 | All Maps","protocol":17,"map":"pl_badwater","folder":"tf","game":"Team Fortress","app_id":440,"player_count":0,"max_players":24,"Bots":0,"server_type":"Dedicated","server_os":"Linux","password":true,"vac":true,"version":"7742253","steam_id":85568392924504274,"keywords":["nocrits","nodmgspread","payload","uncletopia"],"game_id":440,"stv_port":27036,"stv_name":"Uncletopia | Frankfurt | 3 | All Maps | STV","players":null},{"server_id":309,"name":"Uncletopia | Frankfurt | 4 | All Maps","name_short":"frk-4","host":"frk-1.de.uncletopia.com","port":27045,"enabled":true,"region":"eu","cc":"de","latitude":50.110924,"longitude":8.682127,"reserved":0,"last_update":"0001-01-01T00:00:00Z","name_a2s":"Uncletopia | Frankfurt | 4 | All Maps","protocol":17,"map":"pl_upward","folder":"tf","game":"Team Fortress","app_id":440,"player_count":24,"max_players":24,"Bots":0,"server_type":"Dedicated","server_os":"Linux","password":true,"vac":true,"version":"7742253","steam_id":85568392924504275,"keywords":["nocrits","nodmgspread","payload","uncletopia"],"game_id":440,"stv_port":27046,"stv_name":"Uncletopia | Frankfurt | 4 | All Maps | STV","players":[{"user_id":43,"name":"Speedwagon","steam_id":76561198387667243,"connected_time":1010000000000,"state":"active","ping":130},{"user_id":5,"name":"MSPaintbrush","steam_id":76561198119987705,"connected_time":2739000000000,"state":"active","ping":50},{"user_id":40,"name":"Инспектор Атас","steam_id":76561199175688390,"connected_time":1467000000000,"state":"active","ping":76},{"user_id":63,"name":"benifis163","steam_id":76561198420973492,"connected_time":139000000000,"state":"active","ping":100},{"user_id":45,"name":"hhheeeyyy42","steam_id":76561199349151112,"connected_time":864000000000,"state":"active","ping":63},{"user_id":50,"name":"Meladoom2","steam_id":76561198086845387,"connected_time":560000000000,"state":"active","ping":78},{"user_id":46,"name":"Дядя Геймер","steam_id":76561198053440057,"connected_time":852000000000,"state":"active","ping":74},{"user_id":13,"name":"Eeshie","steam_id":76561198054816169,"connected_time":2614000000000,"state":"active","ping":79},{"user_id":64,"name":"Corrupted","steam_id":76561198066165991,"connected_time":90000000000,"state":"active","ping":57},{"user_id":48,"name":"Dakkafex","steam_id":76561198020254869,"connected_time":832000000000,"state":"active","ping":46},{"user_id":36,"name":"Good Ol' Frank","steam_id":76561198118490202,"connected_time":1629000000000,"state":"active","ping":61},{"user_id":18,"name":"tekt","steam_id":76561198044554387,"connected_time":2203000000000,"state":"active","ping":93},{"user_id":49,"name":"contracts are pain","steam_id":76561198864028310,"connected_time":616000000000,"state":"active","ping":61},{"user_id":53,"name":"Duarte™","steam_id":76561198131456324,"connected_time":555000000000,"state":"active","ping":89},{"user_id":32,"name":"Ooze","steam_id":76561198039642637,"connected_time":1728000000000,"state":"active","ping":81},{"user_id":27,"name":"TJ1212","steam_id":76561199013575313,"connected_time":1799000000000,"state":"active","ping":71},{"user_id":54,"name":"Blo","steam_id":76561198161651469,"connected_time":480000000000,"state":"active","ping":56},{"user_id":65,"name":"Scarlett (She/Her)","steam_id":76561197999367029,"connected_time":86000000000,"state":"active","ping":163},{"user_id":37,"name":"mesoni","steam_id":76561199141290973,"connected_time":1601000000000,"state":"active","ping":83},{"user_id":55,"name":"Moloko welcome","steam_id":76561198390666516,"connected_time":461000000000,"state":"active","ping":87},{"user_id":33,"name":"Marcus Aurelius Gaming","steam_id":76561198082646492,"connected_time":1727000000000,"state":"active","ping":55},{"user_id":38,"name":"manKe","steam_id":76561198008564860,"connected_time":1584000000000,"state":"active","ping":58},{"user_id":42,"name":"Jamba Sparabo","steam_id":76561198131647600,"connected_time":1232000000000,"state":"active","ping":45},{"user_id":44,"name":"ash","steam_id":76561198004728744,"connected_time":987000000000,"state":"active","ping":45}]},{"server_id":310,"name":"Uncletopia | Frankfurt | 5 | All Maps","name_short":"frk-5","host":"frk-1.de.uncletopia.com","port":27055,"enabled":true,"region":"eu","cc":"de","latitude":50.110924,"longitude":8.682127,"reserved":0,"last_update":"0001-01-01T00:00:00Z","name_a2s":"Uncletopia | Frankfurt | 5 | All Maps","protocol":17,"map":"pl_borneo","folder":"tf","game":"Team Fortress","app_id":440,"player_count":24,"max_players":24,"Bots":0,"server_type":"Dedicated","server_os":"Linux","password":true,"vac":true,"version":"7742253","steam_id":85568392924504277,"keywords":["nocrits","nodmgspread","payload","uncletopia"],"game_id":440,"stv_port":27056,"stv_name":"Uncletopia | Frankfurt | 5 | All Maps | STV","players":[{"user_id":142,"name":"deez","steam_id":76561198831476915,"connected_time":995000000000,"state":"active","ping":64},{"user_id":137,"name":"suna militisto","steam_id":76561198352926998,"connected_time":2029000000000,"state":"active","ping":104},{"user_id":149,"name":"Sniffz_2","steam_id":76561199433459491,"connected_time":791000000000,"state":"active","ping":67},{"user_id":111,"name":"тукку ирма","steam_id":76561197998715016,"connected_time":4605000000000,"state":"active","ping":60},{"user_id":154,"name":"Infrathill","steam_id":76561198011665486,"connected_time":639000000000,"state":"active","ping":57},{"user_id":156,"name":"Yassine","steam_id":76561198140565712,"connected_time":125000000000,"state":"active","ping":59},{"user_id":122,"name":"LOBZIK","steam_id":76561198114830120,"connected_time":3707000000000,"state":"active","ping":75},{"user_id":152,"name":"Batunga","steam_id":76561198174496709,"connected_time":702000000000,"state":"active","ping":59},{"user_id":131,"name":"Wololo","steam_id":76561197972235375,"connected_time":2685000000000,"state":"active","ping":62},{"user_id":127,"name":"Joe Byron","steam_id":76561198044465070,"connected_time":2771000000000,"state":"active","ping":89},{"user_id":101,"name":"Miton","steam_id":76561197970323209,"connected_time":5068000000000,"state":"active","ping":84},{"user_id":124,"name":"htraB","steam_id":76561198043122677,"connected_time":3338000000000,"state":"active","ping":61},{"user_id":98,"name":"Techm32","steam_id":76561198317134994,"connected_time":5185000000000,"state":"active","ping":56},{"user_id":72,"name":"makarov","steam_id":76561198363892870,"connected_time":6522000000000,"state":"active","ping":64},{"user_id":132,"name":"sape","steam_id":76561198089322416,"connected_time":2676000000000,"state":"active","ping":96},{"user_id":155,"name":"Ouch","steam_id":76561198193054327,"connected_time":585000000000,"state":"active","ping":62},{"user_id":114,"name":"hungry little man","steam_id":76561199229110612,"connected_time":4197000000000,"state":"active","ping":67},{"user_id":112,"name":"Pabs :D","steam_id":76561198000016962,"connected_time":4602000000000,"state":"active","ping":59},{"user_id":141,"name":"typicalcrimson","steam_id":76561198295439747,"connected_time":1000000000000,"state":"active","ping":74},{"user_id":107,"name":"the joy of recycling","steam_id":76561198138509827,"connected_time":4822000000000,"state":"active","ping":85},{"user_id":139,"name":"KGiorgios_Bully","steam_id":76561198825392728,"connected_time":1530000000000,"state":"active","ping":118},{"user_id":157,"name":"void_star","steam_id":76561198035696014,"connected_time":120000000000,"state":"active","ping":148},{"user_id":147,"name":"Chad IV","steam_id":76561198107767058,"connected_time":864000000000,"state":"active","ping":90},{"user_id":151,"name":"Shynii","steam_id":76561198194682105,"connected_time":765000000000,"state":"active","ping":70}]},{"server_id":311,"name":"Uncletopia | Frankfurt | 6 | All Maps","name_short":"frk-6","host":"frk-1.de.uncletopia.com","port":27065,"enabled":true,"region":"eu","cc":"de","latitude":50.110924,"longitude":8.682127,"reserved":0,"last_update":"0001-01-01T00:00:00Z","name_a2s":"Uncletopia | Frankfurt | 6 | All Maps","protocol":17,"map":"koth_viaduct","folder":"tf","game":"Team Fortress","app_id":440,"player_count":5,"max_players":24,"Bots":0,"server_type":"Dedicated","server_os":"Linux","password":true,"vac":true,"version":"7742253","steam_id":85568392924504278,"keywords":["cp","nocrits","nodmgspread","uncletopia"],"game_id":440,"stv_port":27066,"stv_name":"Uncletopia | Frankfurt | 6 | All Maps | STV","players":[{"user_id":15,"name":"lepelle","steam_id":76561198191121042,"connected_time":376000000000,"state":"active","ping":52},{"user_id":16,"name":"Mata","steam_id":76561198308191713,"connected_time":353000000000,"state":"active","ping":78},{"user_id":19,"name":"Mr.MemeMaker |HM|","steam_id":76561198909088766,"connected_time":305000000000,"state":"active","ping":52},{"user_id":18,"name":"Grinch Gun","steam_id":76561198097789669,"connected_time":322000000000,"state":"active","ping":56},{"user_id":20,"name":"Goliath","steam_id":76561198088583638,"connected_time":6000000000,"state":"spawning","ping":58}]},{"server_id":23,"name":"Uncletopia | Frankfurt | 7 | Stopwatch Beta","name_short":"frk-7","host":"frk-1.de.uncletopia.com","port":27075,"enabled":true,"region":"eu","cc":"de","latitude":50.110924,"longitude":8.682127,"reserved":0,"last_update":"0001-01-01T00:00:00Z","name_a2s":"Uncletopia | Frankfurt | 7 | Stopwatch Beta","protocol":17,"map":"pl_badwater","folder":"tf","game":"Team Fortress","app_id":440,"player_count":0,"max_players":24,"Bots":0,"server_type":"Dedicated","server_os":"Linux","password":true,"vac":true,"version":"7742253","steam_id":85568392924742827,"keywords":["nocrits","nodmgspread","payload","uncletopia"],"game_id":440,"stv_port":27076,"stv_name":"Uncletopia | Frankfurt | 7 | Stopwatch Beta | STV","players":null},{"server_id":24,"name":"Uncletopia | Frankfurt | 8 | Community","name_short":"frk-8","host":"frk-1.de.uncletopia.com","port":27085,"enabled":true,"region":"eu","cc":"de","latitude":50.110924,"longitude":8.682127,"reserved":0,"last_update":"0001-01-01T00:00:00Z","name_a2s":"Uncletopia | Frankfurt | 8 | Community","protocol":17,"map":"koth_cascade","folder":"tf","game":"Team Fortress","app_id":440,"player_count":0,"max_players":24,"Bots":0,"server_type":"Dedicated","server_os":"Linux","password":true,"vac":true,"version":"7742253","steam_id":85568392924742828,"keywords":["cp","nocrits","nodmgspread","uncletopia"],"game_id":440,"stv_port":27086,"stv_name":"Uncletopia | Frankfurt | 8 | Community | STV","players":null},{"server_id":202,"name":"Uncletopia | Hong Kong | 1 | All Maps","name_short":"hgk-1","host":"hgk-1.hk.uncletopia.com","port":27015,"enabled":true,"region":"asia","cc":"hk","latitude":22.302711,"longitude":114.177216,"reserved":0,"last_update":"0001-01-01T00:00:00Z","name_a2s":"Uncletopia | Hong Kong | 1 | All Maps","protocol":17,"map":"koth_viaduct","folder":"tf","game":"Team Fortress","app_id":440,"player_count":24,"max_players":24,"Bots":0,"server_type":"Dedicated","server_os":"Linux","password":true,"vac":true,"version":"7742253","steam_id":85568392924494504,"keywords":["cp","nocrits","nodmgspread","uncletopia"],"game_id":440,"stv_port":27016,"stv_name":"Uncletopia | Hong Kong | 1 | All Maps | STV","players":[{"user_id":565,"name":"bocchi the oppai","steam_id":76561198008307645,"connected_time":2342000000000,"state":"active","ping":119},{"user_id":610,"name":"hasty","steam_id":76561198439382132,"connected_time":126000000000,"state":"active","ping":106},{"user_id":469,"name":"aisha","steam_id":76561198132172320,"connected_time":5760000000000,"state":"active","ping":77},{"user_id":602,"name":"Owmyn","steam_id":76561199239651098,"connected_time":1174000000000,"state":"active","ping":106},{"user_id":604,"name":"IFUDGISTICX","steam_id":76561199105415893,"connected_time":777000000000,"state":"active","ping":95},{"user_id":598,"name":"Newbie.(cant chat)","steam_id":76561199131526926,"connected_time":1391000000000,"state":"active","ping":82},{"user_id":488,"name":"wait of the world","steam_id":76561198819895048,"connected_time":4772000000000,"state":"active","ping":41},{"user_id":529,"name":"MigBac","steam_id":76561199063505872,"connected_time":3142000000000,"state":"active","ping":101},{"user_id":517,"name":"Kham","steam_id":76561198952916232,"connected_time":3727000000000,"state":"active","ping":92},{"user_id":603,"name":"BOK","steam_id":76561198095872644,"connected_time":1067000000000,"state":"active","ping":82},{"user_id":588,"name":"pl_fogsogger","steam_id":76561199159894607,"connected_time":1725000000000,"state":"active","ping":94},{"user_id":608,"name":"Talkk More","steam_id":76561198305424433,"connected_time":187000000000,"state":"active","ping":103},{"user_id":526,"name":"bugart","steam_id":76561198194907566,"connected_time":3311000000000,"state":"active","ping":55},{"user_id":527,"name":"fantajee","steam_id":76561199135173894,"connected_time":3283000000000,"state":"active","ping":85},{"user_id":606,"name":"mayo","steam_id":76561198857766306,"connected_time":213000000000,"state":"active","ping":64},{"user_id":596,"name":"Marika","steam_id":76561198212649929,"connected_time":1393000000000,"state":"active","ping":149},{"user_id":590,"name":"Puddin","steam_id":76561198140052918,"connected_time":1699000000000,"state":"active","ping":89},{"user_id":533,"name":"mister beast","steam_id":76561198346128694,"connected_time":3112000000000,"state":"active","ping":59},{"user_id":609,"name":"U SUX","steam_id":76561199171910074,"connected_time":186000000000,"state":"active","ping":78},{"user_id":593,"name":"jiyaoo","steam_id":76561198192388718,"connected_time":1534000000000,"state":"active","ping":46},{"user_id":555,"name":";-;","steam_id":76561199237432540,"connected_time":2586000000000,"state":"active","ping":80},{"user_id":574,"name":"DerpApple","steam_id":76561199190641852,"connected_time":1952000000000,"state":"active","ping":57},{"user_id":550,"name":"母の肉団子","steam_id":76561198069561896,"connected_time":2626000000000,"state":"active","ping":30},{"user_id":607,"name":"brizzard","steam_id":76561198048438653,"connected_time":212000000000,"state":"active","ping":49}]},{"server_id":1,"name":"Uncletopia | Los Angeles | 1 | All Maps","name_short":"lax-1","host":"lax-1.us.uncletopia.com","port":27015,"enabled":true,"region":"us-west","cc":"us","latitude":33.94279,"longitude":-118.41004,"reserved":0,"last_update":"0001-01-01T00:00:00Z","name_a2s":"Uncletopia | Los Angeles | 1 | All Maps","protocol":17,"map":"cp_dustbowl","folder":"tf","game":"Team Fortress","app_id":440,"player_count":0,"max_players":24,"Bots":0,"server_type":"Dedicated","server_os":"Linux","password":true,"vac":true,"version":"7742253","steam_id":85568392924469991,"keywords":["cp","nocrits","nodmgspread","uncletopia"],"game_id":440,"stv_port":27016,"stv_name":"Uncletopia | Los Angeles | 1 | All Maps | STV","players":null},{"server_id":112,"name":"Uncletopia | Los Angeles | 2 | All Maps","name_short":"lax-2","host":"lax-1.us.uncletopia.com","port":27025,"enabled":true,"region":"us-west","cc":"us","latitude":33.94279,"longitude":-118.41004,"reserved":0,"last_update":"0001-01-01T00:00:00Z","name_a2s":"Uncletopia | Los Angeles | 2 | All Maps","protocol":17,"map":"pl_frontier_final","folder":"tf","game":"Team Fortress","app_id":440,"player_count":0,"max_players":24,"Bots":0,"server_type":"Dedicated","server_os":"Linux","password":true,"vac":true,"version":"7742253","steam_id":85568392924469992,"keywords":["nocrits","nodmgspread","payload","uncletopia"],"game_id":440,"stv_port":27026,"stv_name":"Uncletopia | Los Angeles | 2 | All Maps | STV","players":null},{"server_id":324,"name":"Uncletopia | Los Angeles | 3 | All Maps","name_short":"lax-3","host":"lax-1.us.uncletopia.com","port":27035,"enabled":true,"region":"us-west","cc":"us","latitude":33.94279,"longitude":-118.41004,"reserved":0,"last_update":"0001-01-01T00:00:00Z","name_a2s":"Uncletopia | Los Angeles | 3 | All Maps","protocol":17,"map":"cp_snakewater_final1","folder":"tf","game":"Team Fortress","app_id":440,"player_count":0,"max_players":24,"Bots":0,"server_type":"Dedicated","server_os":"Linux","password":true,"vac":true,"version":"7742253","steam_id":85568392924510198,"keywords":["cp","nocrits","nodmgspread","uncletopia"],"game_id":440,"stv_port":27036,"stv_name":"Uncletopia | Los Angeles | 3 | All Maps | STV","players":null},{"server_id":25,"name":"Uncletopia | Los Angeles | 4 | Stopwatch Beta","name_short":"lax-4","host":"lax-1.us.uncletopia.com","port":27045,"enabled":true,"region":"us-west","cc":"us","latitude":33.94279,"longitude":-118.41004,"reserved":0,"last_update":"0001-01-01T00:00:00Z","name_a2s":"Uncletopia | Los Angeles | 4 | Stopwatch Beta","protocol":17,"map":"cp_snakewater_final1","folder":"tf","game":"Team Fortress","app_id":440,"player_count":0,"max_players":24,"Bots":0,"server_type":"Dedicated","server_os":"Linux","password":true,"vac":true,"version":"7742253","steam_id":85568392924510199,"keywords":["cp","nocrits","nodmgspread","uncletopia"],"game_id":440,"stv_port":27046,"stv_name":"Uncletopia | Los Angeles | 4 | Stopwatch Beta | STV","players":null},{"server_id":11,"name":"Uncletopia | London | 1 | All Maps","name_short":"lon-1","host":"lon-1.uk.uncletopia.com","port":27015,"enabled":true,"region":"eu","cc":"gb","latitude":51.509865,"longitude":-0.118092,"reserved":0,"last_update":"0001-01-01T00:00:00Z","name_a2s":"Uncletopia | London | 1 | All Maps","protocol":17,"map":"pl_upward","folder":"tf","game":"Team Fortress","app_id":440,"player_count":24,"max_players":24,"Bots":0,"server_type":"Dedicated","server_os":"Linux","password":true,"vac":true,"version":"7742253","steam_id":85568392924367362,"keywords":["nocrits","nodmgspread","payload","uncletopia"],"game_id":440,"stv_port":27016,"stv_name":"Uncletopia | London | 1 | All Maps | STV","players":[{"user_id":349,"name":"♣Бредовый Месяц","steam_id":76561198796404149,"connected_time":2132000000000,"state":"active","ping":103},{"user_id":347,"name":"G6 sherlock","steam_id":76561198802967796,"connected_time":2593000000000,"state":"active","ping":118},{"user_id":332,"name":"Thisisforyou!","steam_id":76561198052113055,"connected_time":3960000000000,"state":"active","ping":114},{"user_id":339,"name":"Spring","steam_id":76561198156521360,"connected_time":2855000000000,"state":"active","ping":61},{"user_id":350,"name":"easer_punk","steam_id":76561199225555393,"connected_time":1932000000000,"state":"active","ping":62},{"user_id":296,"name":"breadlikeme.","steam_id":76561198133532980,"connected_time":7312000000000,"state":"active","ping":45},{"user_id":341,"name":"sniff","steam_id":76561198259668029,"connected_time":2849000000000,"state":"active","ping":44},{"user_id":327,"name":"wolfgang","steam_id":76561199111818670,"connected_time":4904000000000,"state":"active","ping":97},{"user_id":234,"name":"uzbek self detonation expert","steam_id":76561198010662796,"connected_time":11309000000000,"state":"active","ping":43},{"user_id":357,"name":"hans_chr10™","steam_id":76561198082552666,"connected_time":1415000000000,"state":"active","ping":92},{"user_id":354,"name":"Frazzles","steam_id":76561199228009586,"connected_time":1858000000000,"state":"active","ping":52},{"user_id":290,"name":"immigration control","steam_id":76561198015876799,"connected_time":7491000000000,"state":"active","ping":61},{"user_id":348,"name":"axl","steam_id":76561198991661832,"connected_time":2542000000000,"state":"active","ping":87},{"user_id":358,"name":"Dominus.","steam_id":76561199065917088,"connected_time":1396000000000,"state":"active","ping":59},{"user_id":359,"name":"walking plane","steam_id":76561198146779559,"connected_time":1395000000000,"state":"active","ping":80},{"user_id":356,"name":"D-boi","steam_id":76561199001837576,"connected_time":1618000000000,"state":"active","ping":57},{"user_id":362,"name":"Samwise","steam_id":76561198160115838,"connected_time":1068000000000,"state":"active","ping":45},{"user_id":355,"name":"ShoobyDooby","steam_id":76561198118473910,"connected_time":1834000000000,"state":"active","ping":46},{"user_id":363,"name":"Kelo","steam_id":76561199104785209,"connected_time":861000000000,"state":"active","ping":71},{"user_id":365,"name":"chugger beef","steam_id":76561198372130358,"connected_time":295000000000,"state":"active","ping":49},{"user_id":353,"name":"Hound Jackal","steam_id":76561198378357559,"connected_time":1890000000000,"state":"active","ping":45},{"user_id":335,"name":"MEDiUM","steam_id":76561198112328561,"connected_time":3918000000000,"state":"active","ping":79},{"user_id":361,"name":"heavy sings (real)","steam_id":76561199023804405,"connected_time":1142000000000,"state":"active","ping":74},{"user_id":366,"name":"ciliorkun18","steam_id":76561198228942500,"connected_time":294000000000,"state":"active","ping":91}]},{"server_id":114,"name":"Uncletopia | London | 2 | All Maps","name_short":"lon-2","host":"lon-1.uk.uncletopia.com","port":27025,"enabled":true,"region":"eu","cc":"gb","latitude":51.509865,"longitude":-0.118092,"reserved":0,"last_update":"0001-01-01T00:00:00Z","name_a2s":"Uncletopia | London | 2 | All Maps","protocol":17,"map":"cp_snakewater_final1","folder":"tf","game":"Team Fortress","app_id":440,"player_count":24,"max_players":24,"Bots":0,"server_type":"Dedicated","server_os":"Linux","password":true,"vac":true,"version":"7742253","steam_id":85568392924470941,"keywords":["cp","nocrits","nodmgspread","uncletopia"],"game_id":440,"stv_port":27026,"stv_name":"Uncletopia | London | 2 | All Maps | STV","players":[{"user_id":130,"name":"Thorley","steam_id":76561199053031344,"connected_time":156000000000,"state":"active","ping":30},{"user_id":117,"name":"bubblojoe","steam_id":76561198044534119,"connected_time":1020000000000,"state":"active","ping":47},{"user_id":121,"name":"Exi","steam_id":76561198042764700,"connected_time":983000000000,"state":"active","ping":62},{"user_id":52,"name":"Flare","steam_id":76561198039098320,"connected_time":4807000000000,"state":"active","ping":50},{"user_id":111,"name":"British Disapproval","steam_id":76561198001375260,"connected_time":1525000000000,"state":"active","ping":51},{"user_id":124,"name":"gojoel","steam_id":76561198251181946,"connected_time":644000000000,"state":"active","ping":45},{"user_id":128,"name":"Spotmonkey","steam_id":76561198003994092,"connected_time":419000000000,"state":"active","ping":51},{"user_id":127,"name":"Left Boob","steam_id":76561199359780574,"connected_time":542000000000,"state":"active","ping":167},{"user_id":129,"name":"Mr. Mundy","steam_id":76561198132008918,"connected_time":397000000000,"state":"active","ping":85},{"user_id":104,"name":"rat performance","steam_id":76561198065854668,"connected_time":2620000000000,"state":"active","ping":45},{"user_id":132,"name":"IKARUS","steam_id":76561198850898422,"connected_time":52000000000,"state":"active","ping":76},{"user_id":110,"name":"Emivescent","steam_id":76561198178094250,"connected_time":1746000000000,"state":"active","ping":59},{"user_id":125,"name":"Marty Byrde IRL","steam_id":76561199427269098,"connected_time":644000000000,"state":"active","ping":146},{"user_id":115,"name":"Lewee","steam_id":76561198058828018,"connected_time":1270000000000,"state":"active","ping":49},{"user_id":59,"name":"Jonathan","steam_id":76561198087988880,"connected_time":4404000000000,"state":"active","ping":59},{"user_id":61,"name":"Где море?","steam_id":76561197979625544,"connected_time":4352000000000,"state":"active","ping":90},{"user_id":119,"name":"Joe","steam_id":76561198061717026,"connected_time":1004000000000,"state":"active","ping":44},{"user_id":131,"name":"Hexagon","steam_id":76561198151205758,"connected_time":77000000000,"state":"active","ping":121},{"user_id":126,"name":"ӋԼן.maS","steam_id":76561198114953928,"connected_time":640000000000,"state":"active","ping":72},{"user_id":99,"name":"Haiva","steam_id":76561198139999282,"connected_time":3095000000000,"state":"active","ping":75},{"user_id":41,"name":"tom","steam_id":76561198202442602,"connected_time":5459000000000,"state":"active","ping":89},{"user_id":122,"name":"buAHAHHAHAHAHA","steam_id":76561198864329072,"connected_time":951000000000,"state":"active","ping":82},{"user_id":123,"name":"the gender pirate #transrights","steam_id":76561198200191653,"connected_time":945000000000,"state":"active","ping":41},{"user_id":95,"name":"Rosehip","steam_id":76561198860690846,"connected_time":3540000000000,"state":"active","ping":107}]},{"server_id":320,"name":"Uncletopia | London | 3 | All Maps","name_short":"lon-3","host":"lon-1.uk.uncletopia.com","port":27035,"enabled":true,"region":"eu","cc":"gb","latitude":51.509865,"longitude":-0.118092,"reserved":0,"last_update":"0001-01-01T00:00:00Z","name_a2s":"Uncletopia | London | 3 | All Maps","protocol":17,"map":"pl_snowycoast","folder":"tf","game":"Team Fortress","app_id":440,"player_count":24,"max_players":24,"Bots":0,"server_type":"Dedicated","server_os":"Linux","password":true,"vac":true,"version":"7742253","steam_id":85568392924510192,"keywords":["nocrits","nodmgspread","payload","uncletopia"],"game_id":440,"stv_port":27036,"stv_name":"Uncletopia | London | 3 | All Maps | STV","players":[{"user_id":259,"name":"yeldad","steam_id":76561198447264153,"connected_time":1200000000000,"state":"active","ping":121},{"user_id":280,"name":"Mr Prince","steam_id":76561199006591691,"connected_time":29000000000,"state":"active","ping":51},{"user_id":211,"name":"KingVoker","steam_id":76561198039602539,"connected_time":3482000000000,"state":"active","ping":79},{"user_id":260,"name":"Coac","steam_id":76561198085265740,"connected_time":1187000000000,"state":"active","ping":66},{"user_id":270,"name":"GMsU | Rebikas","steam_id":76561198077053764,"connected_time":889000000000,"state":"active","ping":54},{"user_id":237,"name":"Yessirskiii","steam_id":76561198179324075,"connected_time":2840000000000,"state":"active","ping":61},{"user_id":273,"name":"Pi","steam_id":76561198009561851,"connected_time":509000000000,"state":"active","ping":59},{"user_id":279,"name":"テイルス","steam_id":76561198022403271,"connected_time":152000000000,"state":"active","ping":46},{"user_id":216,"name":"grig_83","steam_id":76561198963325441,"connected_time":3394000000000,"state":"active","ping":111},{"user_id":272,"name":"domingamin","steam_id":76561198846466054,"connected_time":789000000000,"state":"active","ping":93},{"user_id":265,"name":"Hoho","steam_id":76561198819835663,"connected_time":1101000000000,"state":"active","ping":49},{"user_id":274,"name":"johnny","steam_id":76561198877103158,"connected_time":495000000000,"state":"active","ping":85},{"user_id":277,"name":"The Bonk Man™","steam_id":76561199044260792,"connected_time":431000000000,"state":"active","ping":78},{"user_id":275,"name":"ඞbominasus 2137  #SaveTF2","steam_id":76561198030062981,"connected_time":480000000000,"state":"active","ping":70},{"user_id":227,"name":"Maya #transrights","steam_id":76561198290614621,"connected_time":3280000000000,"state":"active","ping":52},{"user_id":223,"name":"Yaire","steam_id":76561198017343510,"connected_time":3357000000000,"state":"active","ping":59},{"user_id":266,"name":"Wattseyy","steam_id":76561198248567360,"connected_time":1100000000000,"state":"active","ping":52},{"user_id":231,"name":"squo -pivzavod-","steam_id":76561198324357479,"connected_time":3213000000000,"state":"active","ping":77},{"user_id":250,"name":"Zorin","steam_id":76561197998333414,"connected_time":1856000000000,"state":"active","ping":47},{"user_id":247,"name":"InsectKing","steam_id":76561199013519071,"connected_time":2333000000000,"state":"active","ping":43},{"user_id":276,"name":"Mongoose","steam_id":76561199125198593,"connected_time":480000000000,"state":"active","ping":49},{"user_id":278,"name":"-:)","steam_id":76561198301481739,"connected_time":189000000000,"state":"active","ping":60},{"user_id":257,"name":"gEyfrogsE","steam_id":76561199385772902,"connected_time":1345000000000,"state":"active","ping":57},{"user_id":251,"name":"Cooldude95","steam_id":76561198881847928,"connected_time":1731000000000,"state":"active","ping":131}]},{"server_id":321,"name":"Uncletopia | London | 4 | All Maps","name_short":"lon-4","host":"lon-1.uk.uncletopia.com","port":27045,"enabled":true,"region":"eu","cc":"gb","latitude":51.509865,"longitude":-0.118092,"reserved":0,"last_update":"0001-01-01T00:00:00Z","name_a2s":"Uncletopia | London | 4 | All Maps","protocol":17,"map":"pl_badwater","folder":"tf","game":"Team Fortress","app_id":440,"player_count":24,"max_players":24,"Bots":0,"server_type":"Dedicated","server_os":"Linux","password":true,"vac":true,"version":"7742253","steam_id":85568392924510193,"keywords":["nocrits","nodmgspread","payload","uncletopia"],"game_id":440,"stv_port":27046,"stv_name":"Uncletopia | London | 4 | All Maps | STV","players":[{"user_id":53,"name":"Landsknecht","steam_id":76561199293036742,"connected_time":2343000000000,"state":"active","ping":60},{"user_id":91,"name":"Koli","steam_id":76561197992428783,"connected_time":150000000000,"state":"active","ping":60},{"user_id":69,"name":"Nex","steam_id":76561199223747483,"connected_time":1252000000000,"state":"active","ping":51},{"user_id":54,"name":"muppi","steam_id":76561198067765324,"connected_time":2324000000000,"state":"active","ping":63},{"user_id":11,"name":"robbob","steam_id":76561198137375391,"connected_time":4103000000000,"state":"active","ping":81},{"user_id":81,"name":"Mondi","steam_id":76561198061005766,"connected_time":280000000000,"state":"active","ping":60},{"user_id":82,"name":"Biscuitbox","steam_id":76561198448396620,"connected_time":277000000000,"state":"active","ping":55},{"user_id":80,"name":"Sweetcheesus","steam_id":76561198022299033,"connected_time":287000000000,"state":"active","ping":61},{"user_id":92,"name":"OutOfDucks","steam_id":76561198166376227,"connected_time":66000000000,"state":"active","ping":53},{"user_id":84,"name":"Literally a Trans Woman","steam_id":76561198054639925,"connected_time":276000000000,"state":"active","ping":114},{"user_id":71,"name":"Rat head","steam_id":76561198184360615,"connected_time":1185000000000,"state":"active","ping":95},{"user_id":77,"name":"Vinhal Keller","steam_id":76561198145589528,"connected_time":547000000000,"state":"active","ping":57},{"user_id":51,"name":"Bruschetta","steam_id":76561198251927162,"connected_time":2569000000000,"state":"active","ping":58},{"user_id":74,"name":"Dolcelatte","steam_id":76561198038501770,"connected_time":958000000000,"state":"active","ping":60},{"user_id":46,"name":"loonies in the hall","steam_id":76561198216544293,"connected_time":2907000000000,"state":"active","ping":74},{"user_id":75,"name":"Whizzo the Clown","steam_id":76561197995910627,"connected_time":951000000000,"state":"active","ping":139},{"user_id":90,"name":"Destinys","steam_id":76561198056132894,"connected_time":216000000000,"state":"active","ping":67},{"user_id":86,"name":"Existingbeing","steam_id":76561198850001019,"connected_time":254000000000,"state":"active","ping":68},{"user_id":43,"name":"Crimea a bridge","steam_id":76561198030898371,"connected_time":3107000000000,"state":"active","ping":79},{"user_id":79,"name":"Blyatwork","steam_id":76561198825379598,"connected_time":298000000000,"state":"active","ping":52},{"user_id":64,"name":"TrustworthyStranger","steam_id":76561198154105678,"connected_time":1341000000000,"state":"active","ping":153},{"user_id":34,"name":"Dakeyras","steam_id":76561198057069564,"connected_time":3510000000000,"state":"active","ping":101},{"user_id":87,"name":"DoctorTopLeL","steam_id":76561198088533595,"connected_time":254000000000,"state":"active","ping":110},{"user_id":88,"name":"Videogamer","steam_id":76561198106012909,"connected_time":251000000000,"state":"active","ping":68}]},{"server_id":21,"name":"Uncletopia | London | 5 | All Maps","name_short":"lon-5","host":"lon-1.uk.uncletopia.com","port":27055,"enabled":true,"region":"eu","cc":"gb","latitude":51.509865,"longitude":-0.118092,"reserved":0,"last_update":"0001-01-01T00:00:00Z","name_a2s":"Uncletopia | London | 5 | All Maps","protocol":17,"map":"pl_frontier_final","folder":"tf","game":"Team Fortress","app_id":440,"player_count":0,"max_players":24,"Bots":0,"server_type":"Dedicated","server_os":"Linux","password":true,"vac":true,"version":"7742253","steam_id":85568392924742829,"keywords":["nocrits","nodmgspread","payload","uncletopia"],"game_id":440,"stv_port":27056,"stv_name":"Uncletopia | London | 5 | All Maps | STV","players":null},{"server_id":22,"name":"Uncletopia | London | 6 | All Maps","name_short":"lon-6","host":"lon-1.uk.uncletopia.com","port":27065,"enabled":true,"region":"eu","cc":"gb","latitude":51.509865,"longitude":-0.118092,"reserved":0,"last_update":"0001-01-01T00:00:00Z","name_a2s":"Uncletopia | London | 6 | All Maps","protocol":17,"map":"cp_process_final","folder":"tf","game":"Team Fortress","app_id":440,"player_count":0,"max_players":24,"Bots":0,"server_type":"Dedicated","server_os":"Linux","password":true,"vac":true,"version":"7742253","steam_id":85568392924742830,"keywords":["cp","nocrits","nodmgspread","uncletopia"],"game_id":440,"stv_port":27066,"stv_name":"Uncletopia | London | 6 | All Maps | STV","players":null},{"server_id":40,"name":"Uncletopia | London | 7 | No Payload","name_short":"lon-7","host":"lon-1.uk.uncletopia.com","port":27075,"enabled":true,"region":"eu","cc":"gb","latitude":51.509865,"longitude":-0.118092,"reserved":0,"last_update":"0001-01-01T00:00:00Z","name_a2s":"Uncletopia | London | 7 | No Payload","protocol":17,"map":"koth_viaduct","folder":"tf","game":"Team Fortress","app_id":440,"player_count":0,"max_players":24,"Bots":0,"server_type":"Dedicated","server_os":"Linux","password":true,"vac":true,"version":"7742253","steam_id":85568392924964314,"keywords":["cp","nocrits","nodmgspread","uncletopia"],"game_id":440,"stv_port":27076,"stv_name":"Uncletopia | London | 7 | No Payload | STV","players":null},{"server_id":41,"name":"Uncletopia | London | 8 | Community","name_short":"lon-8","host":"lon-1.uk.uncletopia.com","port":27085,"enabled":true,"region":"eu","cc":"gb","latitude":51.509865,"longitude":-0.118092,"reserved":0,"last_update":"0001-01-01T00:00:00Z","name_a2s":"Uncletopia | London | 8 | Community","protocol":17,"map":"workshop/pl_vigil_rc9.ugc1266210012","folder":"tf","game":"Team Fortress","app_id":440,"player_count":0,"max_players":24,"Bots":0,"server_type":"Dedicated","server_os":"Linux","password":true,"vac":true,"version":"7742253","steam_id":85568392924964315,"keywords":["nocrits","nodmgspread","payload","uncletopia"],"game_id":440,"stv_port":27086,"stv_name":"Uncletopia | London | 8 | Community | STV","players":null},{"server_id":300,"name":"Uncletopia | Montréal | 1 | All Maps","name_short":"mtl-1","host":"mtl-1.ca.uncletopia.com","port":27015,"enabled":true,"region":"us-east","cc":"ca","latitude":45.50889,"longitude":-73.56167,"reserved":0,"last_update":"0001-01-01T00:00:00Z","name_a2s":"Uncletopia | Montréal | 1 | All Maps","protocol":17,"map":"cp_snakewater_final1","folder":"tf","game":"Team Fortress","app_id":440,"player_count":0,"max_players":24,"Bots":0,"server_type":"Dedicated","server_os":"Linux","password":true,"vac":true,"version":"7742253","steam_id":85568392924500087,"keywords":["cp","nocrits","nodmgspread","uncletopia"],"game_id":440,"stv_port":27016,"stv_name":"Uncletopia | Montréal | 1 | All Maps | STV","players":null},{"server_id":301,"name":"Uncletopia | Montréal | 2 | All Maps","name_short":"mtl-2","host":"mtl-1.ca.uncletopia.com","port":27025,"enabled":true,"region":"us-east","cc":"ca","latitude":45.50889,"longitude":-73.56167,"reserved":0,"last_update":"0001-01-01T00:00:00Z","name_a2s":"Uncletopia | Montréal | 2 | All Maps","protocol":17,"map":"koth_highpass","folder":"tf","game":"Team Fortress","app_id":440,"player_count":0,"max_players":24,"Bots":0,"server_type":"Dedicated","server_os":"Linux","password":true,"vac":true,"version":"7742253","steam_id":85568392924500088,"keywords":["cp","nocrits","nodmgspread","uncletopia"],"game_id":440,"stv_port":27026,"stv_name":"Uncletopia | Montréal | 2 | All Maps | STV","players":null},{"server_id":302,"name":"Uncletopia | Montréal | 3 | All Maps","name_short":"mtl-3","host":"mtl-1.ca.uncletopia.com","port":27035,"enabled":true,"region":"us-east","cc":"ca","latitude":45.50889,"longitude":-73.56167,"reserved":0,"last_update":"0001-01-01T00:00:00Z","name_a2s":"Uncletopia | Montréal | 3 | All Maps","protocol":17,"map":"cp_mountainlab","folder":"tf","game":"Team Fortress","app_id":440,"player_count":0,"max_players":24,"Bots":0,"server_type":"Dedicated","server_os":"Linux","password":true,"vac":true,"version":"7742253","steam_id":85568392924500089,"keywords":["cp","nocrits","nodmgspread","uncletopia"],"game_id":440,"stv_port":27036,"stv_name":"Uncletopia | Montréal | 3 | All Maps | STV","players":null},{"server_id":303,"name":"Uncletopia | Montréal | 4 | No Payload","name_short":"mtl-4","host":"mtl-1.ca.uncletopia.com","port":27045,"enabled":true,"region":"us-east","cc":"ca","latitude":45.50889,"longitude":-73.56167,"reserved":0,"last_update":"0001-01-01T00:00:00Z","name_a2s":"Uncletopia | Montréal | 4 | No Payload","protocol":17,"map":"cp_snakewater_final1","folder":"tf","game":"Team Fortress","app_id":440,"player_count":0,"max_players":24,"Bots":0,"server_type":"Dedicated","server_os":"Linux","password":true,"vac":true,"version":"7742253","steam_id":85568392924500090,"keywords":["cp","nocrits","nodmgspread","uncletopia"],"game_id":440,"stv_port":27046,"stv_name":"Uncletopia | Montréal | 4 | No Payload | STV","players":null},{"server_id":13,"name":"Uncletopia | New York City | 1 | All Maps","name_short":"nyc-1","host":"nyc-1.us.uncletopia.com","port":27015,"enabled":true,"region":"us-east","cc":"us","latitude":40.73061,"longitude":-73.93524,"reserved":0,"last_update":"0001-01-01T00:00:00Z","name_a2s":"Uncletopia | New York City | 1 | All Maps","protocol":17,"map":"pl_frontier_final","folder":"tf","game":"Team Fortress","app_id":440,"player_count":0,"max_players":24,"Bots":0,"server_type":"Dedicated","server_os":"Linux","password":true,"vac":true,"version":"7742253","steam_id":85568392924469993,"keywords":["nocrits","nodmgspread","payload","uncletopia"],"game_id":440,"stv_port":27016,"stv_name":"Uncletopia | New York City | 1 | All Maps | STV","players":null},{"server_id":14,"name":"Uncletopia | New York City | 2 | All Maps","name_short":"nyc-2","host":"nyc-1.us.uncletopia.com","port":27025,"enabled":true,"region":"us-east","cc":"us","latitude":40.73061,"longitude":-73.93524,"reserved":0,"last_update":"0001-01-01T00:00:00Z","name_a2s":"Uncletopia | New York City | 2 | All Maps","protocol":17,"map":"cp_altitude","folder":"tf","game":"Team Fortress","app_id":440,"player_count":0,"max_players":24,"Bots":0,"server_type":"Dedicated","server_os":"Linux","password":true,"vac":true,"version":"7742253","steam_id":85568392924469994,"keywords":["cp","nocrits","nodmgspread","uncletopia"],"game_id":440,"stv_port":27026,"stv_name":"Uncletopia | New York City | 2 | All Maps | STV","players":null},{"server_id":15,"name":"Uncletopia | New York City | 3 | Stopwatch Beta","name_short":"nyc-3","host":"nyc-1.us.uncletopia.com","port":27035,"enabled":true,"region":"us-east","cc":"us","latitude":40.73061,"longitude":-73.93524,"reserved":0,"last_update":"0001-01-01T00:00:00Z","name_a2s":"Uncletopia | New York City | 3 | Stopwatch Beta","protocol":17,"map":"pl_pier","folder":"tf","game":"Team Fortress","app_id":440,"player_count":0,"max_players":24,"Bots":0,"server_type":"Dedicated","server_os":"Linux","password":true,"vac":true,"version":"7742253","steam_id":85568392924742820,"keywords":["nocrits","nodmgspread","payload","uncletopia"],"game_id":440,"stv_port":27036,"stv_name":"Uncletopia | New York City | 3 | Stopwatch Beta | STV","players":null},{"server_id":16,"name":"Uncletopia | New York City | 4 | Community","name_short":"nyc-4","host":"nyc-1.us.uncletopia.com","port":27045,"enabled":true,"region":"us-east","cc":"us","latitude":40.73061,"longitude":-73.93524,"reserved":0,"last_update":"0001-01-01T00:00:00Z","name_a2s":"Uncletopia | New York City | 4 | Community","protocol":17,"map":"koth_viaduct","folder":"tf","game":"Team Fortress","app_id":440,"player_count":0,"max_players":24,"Bots":0,"server_type":"Dedicated","server_os":"Linux","password":true,"vac":true,"version":"7742253","steam_id":85568392924742821,"keywords":["cp","nocrits","nodmgspread","uncletopia"],"game_id":440,"stv_port":27046,"stv_name":"Uncletopia | New York City | 4 | Community | STV","players":null},{"server_id":142,"name":"Uncletopia | São Paulo | 1 | All Maps","name_short":"sao-1","host":"sao-1.br.uncletopia.com","port":27015,"enabled":true,"region":"sa","cc":"br","latitude":-23.533773,"longitude":-46.62529,"reserved":0,"last_update":"0001-01-01T00:00:00Z","name_a2s":"Uncletopia | São Paulo | 1 | All Maps","protocol":17,"map":"koth_viaduct","folder":"tf","game":"Team Fortress","app_id":440,"player_count":0,"max_players":24,"Bots":0,"server_type":"Dedicated","server_os":"Linux","password":true,"vac":true,"version":"7742253","steam_id":85568392924469996,"keywords":["cp","nocrits","nodmgspread","uncletopia"],"game_id":440,"stv_port":27016,"stv_name":"Uncletopia | São Paulo | 1 | All Maps | STV","players":null},{"server_id":143,"name":"Uncletopia | São Paulo | 2 | All Maps","name_short":"sao-2","host":"sao-2.br.uncletopia.com","port":27015,"enabled":true,"region":"sa","cc":"br","latitude":-23.533773,"longitude":-46.62529,"reserved":0,"last_update":"0001-01-01T00:00:00Z","name_a2s":"Uncletopia | São Paulo | 2 | All Maps","protocol":17,"map":"koth_viaduct","folder":"tf","game":"Team Fortress","app_id":440,"player_count":2,"max_players":24,"Bots":0,"server_type":"Dedicated","server_os":"Linux","password":true,"vac":true,"version":"7742253","steam_id":85568392924485349,"keywords":["cp","nocrits","nodmgspread","uncletopia"],"game_id":440,"stv_port":27016,"stv_name":"Uncletopia | São Paulo | 2 | All Maps | STV","players":[{"user_id":6,"name":"Archimedes???","steam_id":76561199390879401,"connected_time":1520000000000,"state":"active","ping":54},{"user_id":7,"name":"zehuelaracer","steam_id":76561199455364456,"connected_time":1516000000000,"state":"active","ping":91}]},{"server_id":7,"name":"Uncletopia | Seattle | 1 | All Maps","name_short":"sea-1","host":"sea-1.us.uncletopia.com","port":27015,"enabled":true,"region":"us-west","cc":"us","latitude":47.608013,"longitude":-122.33517,"reserved":0,"last_update":"0001-01-01T00:00:00Z","name_a2s":"Uncletopia | Seattle | 1 | All Maps","protocol":17,"map":"pl_frontier_final","folder":"tf","game":"Team Fortress","app_id":440,"player_count":0,"max_players":24,"Bots":0,"server_type":"Dedicated","server_os":"Linux","password":true,"vac":true,"version":"7742253","steam_id":85568392924469997,"keywords":["nocrits","nodmgspread","payload","uncletopia"],"game_id":440,"stv_port":27016,"stv_name":"Uncletopia | Seattle | 1 | All Maps | STV","players":null},{"server_id":119,"name":"Uncletopia | Seattle | 2 | All Maps","name_short":"sea-2","host":"sea-1.us.uncletopia.com","port":27025,"enabled":true,"region":"us-west","cc":"us","latitude":47.608013,"longitude":-122.33517,"reserved":0,"last_update":"0001-01-01T00:00:00Z","name_a2s":"Uncletopia | Seattle | 2 | All Maps","protocol":17,"map":"cp_sunshine","folder":"tf","game":"Team Fortress","app_id":440,"player_count":0,"max_players":24,"Bots":0,"server_type":"Dedicated","server_os":"Linux","password":true,"vac":true,"version":"7742253","steam_id":85568392924469998,"keywords":["cp","nocrits","nodmgspread","uncletopia"],"game_id":440,"stv_port":27026,"stv_name":"Uncletopia | Seattle | 2 | All Maps | STV","players":null},{"server_id":406,"name":"Uncletopia | Seattle | 3 | Stopwatch Beta","name_short":"sea-3","host":"sea-1.us.uncletopia.com","port":27035,"enabled":true,"region":"us-west","cc":"us","latitude":47.608013,"longitude":-122.33517,"reserved":0,"last_update":"0001-01-01T00:00:00Z","name_a2s":"Uncletopia | Seattle | 3 | Stopwatch Beta","protocol":17,"map":"cp_altitude","folder":"tf","game":"Team Fortress","app_id":440,"player_count":0,"max_players":24,"Bots":0,"server_type":"Dedicated","server_os":"Linux","password":true,"vac":true,"version":"7742253","steam_id":85568392924515217,"keywords":["cp","nocrits","nodmgspread","uncletopia"],"game_id":440,"stv_port":27036,"stv_name":"Uncletopia | Seattle | 3 | Stopwatch Beta | STV","players":null},{"server_id":17,"name":"Uncletopia | San Francisco | 1 | All Maps","name_short":"sfo-1","host":"sfo-1.us.uncletopia.com","port":27015,"enabled":true,"region":"us-west","cc":"us","latitude":37.77397,"longitude":-122.4313,"reserved":0,"last_update":"0001-01-01T00:00:00Z","name_a2s":"Uncletopia | San Francisco | 1 | All Maps","protocol":17,"map":"pl_snowycoast","folder":"tf","game":"Team Fortress","app_id":440,"player_count":0,"max_players":24,"Bots":0,"server_type":"Dedicated","server_os":"Linux","password":true,"vac":true,"version":"7742253","steam_id":85568392924469999,"keywords":["nocrits","nodmgspread","payload","uncletopia"],"game_id":440,"stv_port":27016,"stv_name":"Uncletopia | San Francisco | 1 | All Maps | STV","players":null},{"server_id":18,"name":"Uncletopia | San Francisco | 2 | All Maps","name_short":"sfo-2","host":"sfo-1.us.uncletopia.com","port":27025,"enabled":true,"region":"us-west","cc":"us","latitude":37.77397,"longitude":-122.4313,"reserved":0,"last_update":"0001-01-01T00:00:00Z","name_a2s":"Uncletopia | San Francisco | 2 | All Maps","protocol":17,"map":"pl_borneo","folder":"tf","game":"Team Fortress","app_id":440,"player_count":1,"max_players":24,"Bots":0,"server_type":"Dedicated","server_os":"Linux","password":true,"vac":true,"version":"7742253","steam_id":85568392924470000,"keywords":["nocrits","nodmgspread","payload","uncletopia"],"game_id":440,"stv_port":27026,"stv_name":"Uncletopia | San Francisco | 2 | All Maps | STV","players":[{"user_id":9,"name":"Mr. Cock Sucker","steam_id":76561199403229056,"connected_time":129000000000,"state":"active","ping":289}]},{"server_id":19,"name":"Uncletopia | San Francisco | 3 | Stopwatch Beta","name_short":"sfo-3","host":"sfo-1.us.uncletopia.com","port":27035,"enabled":true,"region":"us-west","cc":"us","latitude":37.77397,"longitude":-122.4313,"reserved":0,"last_update":"0001-01-01T00:00:00Z","name_a2s":"Uncletopia | San Francisco | 3 | Stopwatch Beta","protocol":17,"map":"cp_snakewater_final1","folder":"tf","game":"Team Fortress","app_id":440,"player_count":0,"max_players":24,"Bots":0,"server_type":"Dedicated","server_os":"Linux","password":true,"vac":true,"version":"7742253","steam_id":85568392924742824,"keywords":["cp","nocrits","nodmgspread","uncletopia"],"game_id":440,"stv_port":27036,"stv_name":"Uncletopia | San Francisco | 3 | Stopwatch Beta | STV","players":null},{"server_id":20,"name":"Uncletopia | San Francisco | 4 | Community","name_short":"sfo-4","host":"sfo-1.us.uncletopia.com","port":27045,"enabled":true,"region":"us-west","cc":"us","latitude":37.77397,"longitude":-122.4313,"reserved":0,"last_update":"0001-01-01T00:00:00Z","name_a2s":"Uncletopia | San Francisco | 4 | Community","protocol":17,"map":"cp_dustbowl","folder":"tf","game":"Team Fortress","app_id":440,"player_count":0,"max_players":24,"Bots":0,"server_type":"Dedicated","server_os":"Linux","password":true,"vac":true,"version":"7742253","steam_id":85568392924742826,"keywords":["cp","nocrits","nodmgspread","uncletopia"],"game_id":440,"stv_port":27046,"stv_name":"Uncletopia | San Francisco | 4 | Community | STV","players":null},{"server_id":141,"name":"Uncletopia | Sydney | 1 | All Maps","name_short":"syd-1","host":"syd-1.au.uncletopia.com","port":27015,"enabled":true,"region":"au","cc":"au","latitude":-33.865143,"longitude":151.2099,"reserved":0,"last_update":"0001-01-01T00:00:00Z","name_a2s":"Uncletopia | Sydney | 1 | All Maps","protocol":17,"map":"koth_cascade","folder":"tf","game":"Team Fortress","app_id":440,"player_count":13,"max_players":24,"Bots":0,"server_type":"Dedicated","server_os":"Linux","password":true,"vac":true,"version":"7742253","steam_id":85568392924470001,"keywords":["cp","nocrits","nodmgspread","uncletopia"],"game_id":440,"stv_port":27016,"stv_name":"Uncletopia | Sydney | 1 | All Maps | STV","players":[{"user_id":706,"name":"Herb1e","steam_id":76561198108542006,"connected_time":1866000000000,"state":"active","ping":53},{"user_id":709,"name":"SlushieTheSlayer","steam_id":76561198267689649,"connected_time":1658000000000,"state":"active","ping":119},{"user_id":725,"name":"Hamosac","steam_id":76561198159917051,"connected_time":153000000000,"state":"active","ping":278},{"user_id":711,"name":"Certified Virgin","steam_id":76561198295183353,"connected_time":1333000000000,"state":"active","ping":64},{"user_id":721,"name":"shrot boy","steam_id":76561198131913069,"connected_time":467000000000,"state":"active","ping":31},{"user_id":712,"name":"ketchup_maestro","steam_id":76561199211404074,"connected_time":1287000000000,"state":"active","ping":139},{"user_id":726,"name":"Paradon YT","steam_id":76561198060176705,"connected_time":139000000000,"state":"active","ping":105},{"user_id":727,"name":"Bing Soy","steam_id":76561198057093383,"connected_time":107000000000,"state":"active","ping":49},{"user_id":716,"name":"Flamezenberg","steam_id":76561199297362870,"connected_time":528000000000,"state":"active","ping":323},{"user_id":717,"name":"The Goon","steam_id":76561198434696450,"connected_time":526000000000,"state":"active","ping":162},{"user_id":718,"name":"Good Australian Doctor","steam_id":76561198175470231,"connected_time":522000000000,"state":"active","ping":95},{"user_id":720,"name":"NoodlesFade","steam_id":76561198207940839,"connected_time":515000000000,"state":"active","ping":45},{"user_id":724,"name":"Heavy The Booty Slayer","steam_id":76561199433247359,"connected_time":366000000000,"state":"active","ping":350}]},{"server_id":123,"name":"Uncletopia | Sydney | 2 | All Maps","name_short":"syd-2","host":"syd-1.au.uncletopia.com","port":27025,"enabled":true,"region":"au","cc":"au","latitude":-33.865143,"longitude":151.2099,"reserved":0,"last_update":"0001-01-01T00:00:00Z","name_a2s":"Uncletopia | Sydney | 2 | All Maps","protocol":17,"map":"koth_viaduct","folder":"tf","game":"Team Fortress","app_id":440,"player_count":0,"max_players":24,"Bots":0,"server_type":"Dedicated","server_os":"Linux","password":true,"vac":true,"version":"7742253","steam_id":85568392924470002,"keywords":["cp","nocrits","nodmgspread","uncletopia"],"game_id":440,"stv_port":27026,"stv_name":"Uncletopia | Sydney | 2 | All Maps | STV","players":null},{"server_id":395,"name":"Uncletopia | Sydney | 3 | All Maps","name_short":"syd-3","host":"syd-1.au.uncletopia.com","port":27035,"enabled":true,"region":"au","cc":"au","latitude":-33.865143,"longitude":151.2099,"reserved":0,"last_update":"0001-01-01T00:00:00Z","name_a2s":"Uncletopia | Sydney | 3 | All Maps","protocol":17,"map":"koth_cascade","folder":"tf","game":"Team Fortress","app_id":440,"player_count":0,"max_players":24,"Bots":0,"server_type":"Dedicated","server_os":"Linux","password":true,"vac":true,"version":"7742253","steam_id":85568392925194467,"keywords":["cp","nocrits","nodmgspread","uncletopia"],"game_id":440,"stv_port":27036,"stv_name":"Uncletopia | Sydney | 3 | All Maps | STV","players":null},{"server_id":396,"name":"Uncletopia | Sydney | 4 | All Maps","name_short":"syd-4","host":"syd-1.au.uncletopia.com","port":27045,"enabled":true,"region":"au","cc":"au","latitude":-33.865143,"longitude":151.2099,"reserved":0,"last_update":"0001-01-01T00:00:00Z","name_a2s":"Uncletopia | Sydney | 4 | All Maps","protocol":17,"map":"koth_viaduct","folder":"tf","game":"Team Fortress","app_id":440,"player_count":0,"max_players":24,"Bots":0,"server_type":"Dedicated","server_os":"Linux","password":true,"vac":true,"version":"7742253","steam_id":85568392925397958,"keywords":["cp","nocrits","nodmgspread","uncletopia"],"game_id":440,"stv_port":27046,"stv_name":"Uncletopia | Sydney | 4 | All Maps | STV","players":null},{"server_id":58,"name":"Uncletopia | Sydney | 5 | Stopwatch Beta","name_short":"syd-5","host":"syd-1.au.uncletopia.com","port":27055,"enabled":true,"region":"au","cc":"au","latitude":-33.865143,"longitude":151.2099,"reserved":0,"last_update":"0001-01-01T00:00:00Z","name_a2s":"Uncletopia | Sydney | 5 | Stopwatch Beta","protocol":17,"map":"koth_highpass","folder":"tf","game":"Team Fortress","app_id":440,"player_count":0,"max_players":24,"Bots":0,"server_type":"Dedicated","server_os":"Linux","password":true,"vac":true,"version":"7742253","steam_id":85568392925397959,"keywords":["cp","nocrits","nodmgspread","uncletopia"],"game_id":440,"stv_port":27056,"stv_name":"Uncletopia | Sydney | 5 | Stopwatch Beta | STV","players":null},{"server_id":59,"name":"Uncletopia | Sydney | 6 | Community","name_short":"syd-6","host":"syd-1.au.uncletopia.com","port":27065,"enabled":true,"region":"au","cc":"au","latitude":-33.865143,"longitude":151.2099,"reserved":0,"last_update":"0001-01-01T00:00:00Z","name_a2s":"Uncletopia | Sydney | 6 | Community","protocol":17,"map":"workshop/koth_slaughter_rc1.ugc1712845210","folder":"tf","game":"Team Fortress","app_id":440,"player_count":0,"max_players":24,"Bots":0,"server_type":"Dedicated","server_os":"Linux","password":true,"vac":true,"version":"7742253","steam_id":85568392925397960,"keywords":["cp","nocrits","nodmgspread","uncletopia"],"game_id":440,"stv_port":27066,"stv_name":"Uncletopia | Sydney | 6 | Community | STV","players":null},{"server_id":49,"name":"Uncletopia | Warsaw | 1 | All Maps","name_short":"waw-1","host":"waw-1.pl.uncletopia.com","port":27015,"enabled":true,"region":"eu","cc":"pl","latitude":52.2297,"longitude":21.017532,"reserved":0,"last_update":"0001-01-01T00:00:00Z","name_a2s":"","protocol":0,"map":"","folder":"","game":"","app_id":0,"player_count":0,"max_players":0,"Bots":0,"server_type":"","server_os":"","password":false,"vac":false,"version":"","steam_id":0,"keywords":null,"game_id":0,"stv_port":0,"stv_name":"","players":null},{"server_id":50,"name":"Uncletopia | Warsaw | 2 | All Maps","name_short":"waw-2","host":"waw-1.pl.uncletopia.com","port":27025,"enabled":true,"region":"eu","cc":"pl","latitude":52.2297,"longitude":21.017532,"reserved":0,"last_update":"0001-01-01T00:00:00Z","name_a2s":"Uncletopia | Warsaw | 2 | All Maps","protocol":17,"map":"koth_lakeside_final","folder":"tf","game":"Team Fortress","app_id":440,"player_count":0,"max_players":24,"Bots":0,"server_type":"Dedicated","server_os":"Linux","password":true,"vac":true,"version":"7742253","steam_id":85568392925397851,"keywords":["cp","nocrits","nodmgspread","uncletopia"],"game_id":440,"stv_port":27026,"stv_name":"Uncletopia | Warsaw | 2 | All Maps | STV","players":null},{"server_id":51,"name":"Uncletopia | Warsaw | 3 | All Maps","name_short":"waw-3","host":"waw-1.pl.uncletopia.com","port":27035,"enabled":true,"region":"eu","cc":"pl","latitude":52.2297,"longitude":21.017532,"reserved":0,"last_update":"0001-01-01T00:00:00Z","name_a2s":"Uncletopia | Warsaw | 3 | All Maps","protocol":17,"map":"koth_lakeside_final","folder":"tf","game":"Team Fortress","app_id":440,"player_count":0,"max_players":24,"Bots":0,"server_type":"Dedicated","server_os":"Linux","password":true,"vac":true,"version":"7742253","steam_id":85568392925397852,"keywords":["cp","nocrits","nodmgspread","uncletopia"],"game_id":440,"stv_port":27036,"stv_name":"Uncletopia | Warsaw | 3 | All Maps | STV","players":null},{"server_id":52,"name":"Uncletopia | Warsaw | 4 | All Maps","name_short":"waw-4","host":"waw-1.pl.uncletopia.com","port":27045,"enabled":true,"region":"eu","cc":"pl","latitude":52.2297,"longitude":21.017532,"reserved":0,"last_update":"0001-01-01T00:00:00Z","name_a2s":"Uncletopia | Warsaw | 4 | All Maps","protocol":17,"map":"cp_snakewater_final1","folder":"tf","game":"Team Fortress","app_id":440,"player_count":0,"max_players":24,"Bots":0,"server_type":"Dedicated","server_os":"Linux","password":true,"vac":true,"version":"7742253","steam_id":85568392925397853,"keywords":["cp","nocrits","nodmgspread","uncletopia"],"game_id":440,"stv_port":27046,"stv_name":"Uncletopia | Warsaw | 4 | All Maps | STV","players":null},{"server_id":53,"name":"Uncletopia | Warsaw | 5 | Stopwatch Beta","name_short":"waw-5","host":"waw-1.pl.uncletopia.com","port":27055,"enabled":true,"region":"eu","cc":"pl","latitude":52.2297,"longitude":21.017532,"reserved":0,"last_update":"0001-01-01T00:00:00Z","name_a2s":"Uncletopia | Warsaw | 5 | Stopwatch Beta","protocol":17,"map":"pl_swiftwater_final1","folder":"tf","game":"Team Fortress","app_id":440,"player_count":0,"max_players":24,"Bots":0,"server_type":"Dedicated","server_os":"Linux","password":true,"vac":true,"version":"7742253","steam_id":85568392925397854,"keywords":["nocrits","nodmgspread","payload","uncletopia"],"game_id":440,"stv_port":27056,"stv_name":"Uncletopia | Warsaw | 5 | Stopwatch Beta | STV","players":null},{"server_id":54,"name":"Uncletopia | Warsaw | 6 | Community","name_short":"waw-6","host":"waw-1.pl.uncletopia.com","port":27065,"enabled":true,"region":"eu","cc":"pl","latitude":52.2297,"longitude":21.017532,"reserved":0,"last_update":"0001-01-01T00:00:00Z","name_a2s":"Uncletopia | Warsaw | 6 | Community","protocol":17,"map":"koth_highpass","folder":"tf","game":"Team Fortress","app_id":440,"player_count":0,"max_players":24,"Bots":0,"server_type":"Dedicated","server_os":"Linux","password":true,"vac":true,"version":"7742253","steam_id":85568392925397856,"keywords":["cp","nocrits","nodmgspread","uncletopia"],"game_id":440,"stv_port":27066,"stv_name":"Uncletopia | Warsaw | 6 | Community | STV","players":null}]}