{"status":true,"message":"","result":[{"server_id":9,"name":"Uncletopia | Atlanta | 1 | All Maps","name_short":"atl-1","host":"atl-1.us.uncletopia.com","port":27015,"enabled":true,"region":"us-east","cc":"us","latitude":33.753746,"longitude":-84.38633,"reserved":0,"last_update":"0001-01-01T00:00:00Z","name_a2s":"Uncletopia | Atlanta | 1 | All Maps","protocol":17,"map":"cp_dustbowl","folder":"tf","game":"Team Fortress","app_id":440,"player_count":0,"max_players":24,"Bots":0,"server_type":"Dedicated","server_os":"Linux","password":true,"vac":true,"version":"7961495","steam_id":85568392924469982,"keywords":["cp","nocrits","nodmgspread","uncletopia"],"game_id":440,"stv_port":27016,"stv_name":"Uncletopia | Atlanta | 1 | All Maps | STV","players":null},{"server_id":104,"name":"Uncletopia | Atlanta | 2 | All Maps","name_short":"atl-2","host":"atl-1.us.uncletopia.com","port":27025,"enabled":true,"region":"us-east","cc":"us","latitude":33.753746,"longitude":-84.38633,"reserved":0,"last_update":"0001-01-01T00:00:00Z","name_a2s":"Uncletopia | Atlanta | 2 | All Maps","protocol":17,"map":"koth_cascade","folder":"tf","game":"Team Fortress","app_id":440,"player_count":0,"max_players":24,"Bots":0,"server_type":"Dedicated","server_os":"Linux","password":true,"vac":true,"version":"7961495","steam_id":85568392924469983,"keywords":["cp","nocrits","nodmgspread","uncletopia"],"game_id":440,"stv_port":27026,"stv_name":"Uncletopia | Atlanta | 2 | All Maps | STV","players":null},{"server_id":400,"name":"Uncletopia | Atlanta | 3 | Stopwatch","name_short":"atl-3","host":"atl-1.us.uncletopia.com","port":27035,"enabled":true,"region":"us-east","cc":"us","latitude":33.753746,"longitude":-84.38633,"reserved":0,"last_update":"0001-01-01T00:00:00Z","name_a2s":"Uncletopia | Atlanta | 3 | Stopwatch","protocol":17,"map":"pl_badwater","folder":"tf","game":"Team Fortress","app_id":440,"player_count":0,"max_players":24,"Bots":0,"server_type":"Dedicated","server_os":"Linux","password":true,"vac":true,"version":"7961495","steam_id":85568392924515187,"keywords":["nocrits","nodmgspread","payload","uncletopia"],"game_id":440,"stv_port":27036,"stv_name":"Uncletopia | Atlanta | 3 | Stopwatch | STV","players":null},{"server_id":401,"name":"Uncletopia | Atlanta | 4 | Community","name_short":"atl-4","host":"atl-1.us.uncletopia.com","port":27045,"enabled":true,"region":"us-east","cc":"us","latitude":33.753746,"longitude":-84.38633,"reserved":0,"last_update":"0001-01-01T00:00:00Z","name_a2s":"Uncletopia | Atlanta | 4 | Community","protocol":17,"map":"cp_sunshine","folder":"tf","game":"Team Fortress","app_id":440,"player_count":0,"max_players":24,"Bots":0,"server_type":"Dedicated","server_os":"Linux","password":true,"vac":true,"version":"7961495","steam_id":85568392924515188,"keywords":["cp","nocrits","nodmgspread","uncletopia"],"game_id":440,"stv_port":27046,"stv_name":"Uncletopia | Atlanta | 4 | Community | STV","players":null},{"server_id":2,"name":"Uncletopia | Chicago | 1 | All Maps","name_short":"chi-1","host":"chi-1.us.uncletopia.com","port":27015,"enabled":true,"region":"us-central","cc":"us","latitude":41.881832,"longitude":-87.62318,"reserved":0,"last_update":"0001-01-01T00:00:00Z","name_a2s":"Uncletopia | Chicago | 1 | All Maps","protocol":17,"map":"pl_frontier_final","folder":"tf","game":"Team Fortress","app_id":440,"player_count":24,"max_players":24,"Bots":0,"server_type":"Dedicated","server_os":"Linux","password":true,"vac":true,"version":"7961495","steam_id":85568392924469984,"keywords":["nocrits","nodmgspread","payload","uncletopia"],"game_id":440,"stv_port":27016,"stv_name":"Uncletopia | Chicago | 1 | All Maps | STV","players":[{"user_id":568,"name":"greenman","steam_id":76561198146803927,"connected_time":2919000000000,"state":"active","ping":60},{"user_id":587,"name":"mac_cheese","steam_id":76561198071334162,"connected_time":1747000000000,"state":"active","ping":90},{"user_id":539,"name":"slep.py","steam_id":76561197988287144,"connected_time":5122000000000,"state":"active","ping":58},{"user_id":601,"name":"lag","steam_id":76561198117898839,"connected_time":901000000000,"state":"active","ping":117},{"user_id":608,"name":"Your Local Queer Librarian","steam_id":76561198013077080,"connected_time":396000000000,"state":"active","ping":57},{"user_id":560,"name":"Dingus Khan","steam_id":76561198037460639,"connected_time":3730000000000,"state":"active","ping":70},{"user_id":592,"name":"Gluteus","steam_id":76561198039122699,"connected_time":1587000000000,"state":"active","ping":60},{"user_id":602,"name":"Pineapple Wax","steam_id":76561198064358218,"connected_time":879000000000,"state":"active","ping":53},{"user_id":593,"name":"craven","steam_id":76561198088191503,"connected_time":1579000000000,"state":"active","ping":76},{"user_id":567,"name":"jim bob","steam_id":76561197992464368,"connected_time":3173000000000,"state":"active","ping":93},{"user_id":589,"name":"Just Chuck","steam_id":76561198121697504,"connected_time":1702000000000,"state":"active","ping":60},{"user_id":603,"name":"Puph 17","steam_id":76561198068928332,"connected_time":861000000000,"state":"active","ping":105},{"user_id":599,"name":"C Papi","steam_id":76561198027779564,"connected_time":1323000000000,"state":"active","ping":56},{"user_id":582,"name":"eish","steam_id":76561198089463603,"connected_time":2292000000000,"state":"active","ping":133},{"user_id":606,"name":"None of that $9.99 bullshit","steam_id":76561198116169903,"connected_time":681000000000,"state":"active","ping":49},{"user_id":600,"name":"Hot Milk + Big Slappies","steam_id":76561197988989149,"connected_time":1160000000000,"state":"active","ping":84},{"user_id":591,"name":"Some Sinner","steam_id":76561198063331396,"connected_time":1648000000000,"state":"active","ping":52},{"user_id":594,"name":"Nicolas Cage Kisses Mace Windu","steam_id":76561198046127710,"connected_time":1548000000000,"state":"active","ping":52},{"user_id":607,"name":"kite","steam_id":76561198346516392,"connected_time":590000000000,"state":"active","ping":68},{"user_id":585,"name":"Homo Ejectus","steam_id":76561197968701952,"connected_time":2022000000000,"state":"active","ping":93},{"user_id":580,"name":"vPig","steam_id":76561198143971937,"connected_time":2438000000000,"state":"active","ping":66},{"user_id":596,"name":"Intro Bonito","steam_id":76561198119478838,"connected_time":1497000000000,"state":"active","ping":74},{"user_id":551,"name":"Shmoopy","steam_id":76561198030459152,"connected_time":4267000000000,"state":"active","ping":85},{"user_id":597,"name":"poopybutt420","steam_id":76561199000805315,"connected_time":1443000000000,"state":"active","ping":80}]},{"server_id":106,"name":"Uncletopia | Chicago | 2 | All Maps","name_short":"chi-2","host":"chi-1.us.uncletopia.com","port":27025,"enabled":true,"region":"us-central","cc":"us","latitude":41.881832,"longitude":-87.62318,"reserved":0,"last_update":"0001-01-01T00:00:00Z","name_a2s":"Uncletopia | Chicago | 2 | All Maps","protocol":17,"map":"pl_snowycoast","folder":"tf","game":"Team Fortress","app_id":440,"player_count":24,"max_players":24,"Bots":0,"server_type":"Dedicated","server_os":"Linux","password":true,"vac":true,"version":"7961495","steam_id":85568392924469985,"keywords":["nocrits","nodmgspread","payload","uncletopia"],"game_id":440,"stv_port":27026,"stv_name":"Uncletopia | Chicago | 2 | All Maps | STV","players":[{"user_id":467,"name":"Vroooooooooooooooom","steam_id":76561198139913628,"connected_time":1889000000000,"state":"active","ping":71},{"user_id":489,"name":"Bentus","steam_id":76561198056887235,"connected_time":886000000000,"state":"active","ping":61},{"user_id":445,"name":"...","steam_id":76561198974327741,"connected_time":4259000000000,"state":"active","ping":111},{"user_id":462,"name":"Bob The Breaker","steam_id":76561198314946179,"connected_time":2420000000000,"state":"active","ping":60},{"user_id":495,"name":"JohnnyGitGud","steam_id":76561198401455467,"connected_time":174000000000,"state":"active","ping":110},{"user_id":492,"name":"Knows.avi","steam_id":76561198188535337,"connected_time":326000000000,"state":"active","ping":53},{"user_id":461,"name":"HenryHJ","steam_id":76561198206291528,"connected_time":2574000000000,"state":"active","ping":102},{"user_id":426,"name":"Elias","steam_id":76561198106431732,"connected_time":5879000000000,"state":"active","ping":62},{"user_id":469,"name":"Mullz","steam_id":76561199124721324,"connected_time":1871000000000,"state":"active","ping":76},{"user_id":494,"name":"dunky donut","steam_id":76561198070574618,"connected_time":194000000000,"state":"active","ping":58},{"user_id":491,"name":"Professor Chromosomes","steam_id":76561198042020662,"connected_time":481000000000,"state":"active","ping":180},{"user_id":446,"name":"Marco Pierre white","steam_id":76561198115714484,"connected_time":4253000000000,"state":"active","ping":132},{"user_id":496,"name":"brian eno","steam_id":76561198109901138,"connected_time":146000000000,"state":"active","ping":76},{"user_id":470,"name":"SeeS","steam_id":76561199011708421,"connected_time":1759000000000,"state":"active","ping":73},{"user_id":479,"name":"PIPPIN","steam_id":76561199013202758,"connected_time":1359000000000,"state":"active","ping":120},{"user_id":497,"name":"loser","steam_id":76561198259380127,"connected_time":134000000000,"state":"active","ping":59},{"user_id":435,"name":"Samrizo el Chorizo","steam_id":76561198009838162,"connected_time":4902000000000,"state":"active","ping":65},{"user_id":490,"name":"HurRhombus","steam_id":76561198080839440,"connected_time":628000000000,"state":"active","ping":62},{"user_id":474,"name":"sheep","steam_id":76561198994761483,"connected_time":1604000000000,"state":"active","ping":90},{"user_id":488,"name":"Censure","steam_id":76561198850891374,"connected_time":1050000000000,"state":"active","ping":62},{"user_id":486,"name":"WARMAIDEN","steam_id":76561198071296526,"connected_time":1149000000000,"state":"active","ping":70},{"user_id":456,"name":"mp4 ?","steam_id":76561198826820952,"connected_time":3414000000000,"state":"active","ping":65},{"user_id":460,"name":"Blargh","steam_id":76561198044095816,"connected_time":2586000000000,"state":"active","ping":61},{"user_id":487,"name":"magus","steam_id":76561197961228140,"connected_time":1148000000000,"state":"active","ping":101}]},{"server_id":402,"name":"Uncletopia | Chicago | 3 | All Maps","name_short":"chi-3","host":"chi-1.us.uncletopia.com","port":27035,"enabled":true,"region":"us-central","cc":"us","latitude":41.881832,"longitude":-87.62318,"reserved":0,"last_update":"0001-01-01T00:00:00Z","name_a2s":"Uncletopia | Chicago | 3 | All Maps","protocol":17,"map":"pl_barnblitz","folder":"tf","game":"Team Fortress","app_id":440,"player_count":24,"max_players":24,"Bots":0,"server_type":"Dedicated","server_os":"Linux","password":true,"vac":true,"version":"7961495","steam_id":85568392924515191,"keywords":["nocrits","nodmgspread","payload","uncletopia"],"game_id":440,"stv_port":27036,"stv_name":"Uncletopia | Chicago | 3 | All Maps | STV","players":[{"user_id":408,"name":"1st place love live fan","steam_id":76561198037951506,"connected_time":2353000000000,"state":"active","ping":61},{"user_id":428,"name":"Genderneutron","steam_id":76561199022773775,"connected_time":1334000000000,"state":"active","ping":104},{"user_id":395,"name":"Dullahan","steam_id":76561198119668908,"connected_time":3017000000000,"state":"active","ping":99},{"user_id":396,"name":"GreenApples","steam_id":76561198120559543,"connected_time":2999000000000,"state":"active","ping":102},{"user_id":413,"name":"Rat Cycle","steam_id":76561198113364714,"connected_time":1743000000000,"state":"active","ping":55},{"user_id":432,"name":"clavin","steam_id":76561198069380992,"connected_time":1289000000000,"state":"active","ping":77},{"user_id":430,"name":"ZBaldTop","steam_id":76561199396318132,"connected_time":1299000000000,"state":"active","ping":45},{"user_id":332,"name":"Uwu Micster","steam_id":76561198843890616,"connected_time":8715000000000,"state":"active","ping":76},{"user_id":424,"name":"backflip370","steam_id":76561198140073482,"connected_time":1394000000000,"state":"active","ping":58},{"user_id":405,"name":"TheREAL$wizz1eTTV","steam_id":76561198051666604,"connected_time":2841000000000,"state":"active","ping":60},{"user_id":341,"name":"guy","steam_id":76561198079925551,"connected_time":7952000000000,"state":"active","ping":74},{"user_id":401,"name":"Hipster_Giraffe","steam_id":76561198069701092,"connected_time":2932000000000,"state":"active","ping":89},{"user_id":335,"name":"The strongest ‚ë® ball","steam_id":76561198126760743,"connected_time":8691000000000,"state":"active","ping":78},{"user_id":442,"name":"Yiggs_","steam_id":76561198058742814,"connected_time":108000000000,"state":"active","ping":47},{"user_id":443,"name":"pest","steam_id":76561198052571208,"connected_time":53000000000,"state":"active","ping":84},{"user_id":402,"name":"werecat","steam_id":76561198005091213,"connected_time":2913000000000,"state":"active","ping":65},{"user_id":444,"name":"Terror-Billy #SaveTF2","steam_id":76561198328141870,"connected_time":41000000000,"state":"spawning","ping":110},{"user_id":439,"name":"krebex","steam_id":76561198004660630,"connected_time":294000000000,"state":"active","ping":84},{"user_id":431,"name":"Female Gamer","steam_id":76561199366482682,"connected_time":1297000000000,"state":"active","ping":105},{"user_id":369,"name":"Grandad","steam_id":76561198931285831,"connected_time":5016000000000,"state":"active","ping":104},{"user_id":433,"name":"stupid ape","steam_id":76561198350027075,"connected_time":1272000000000,"state":"active","ping":52},{"user_id":421,"name":"SiNNa","steam_id":76561198213435803,"connected_time":1452000000000,"state":"active","ping":114},{"user_id":434,"name":"slopplovebomb","steam_id":76561198273535584,"connected_time":1229000000000,"state":"active","ping":89},{"user_id":436,"name":"Reisen","steam_id":76561197968832019,"connected_time":1127000000000,"state":"active","ping":60}]},{"server_id":403,"name":"Uncletopia | Chicago | 4 | All Maps","name_short":"chi-4","host":"chi-1.us.uncletopia.com","port":27045,"enabled":true,"region":"us-central","cc":"us","latitude":41.881832,"longitude":-87.62318,"reserved":0,"last_update":"0001-01-01T00:00:00Z","name_a2s":"Uncletopia | Chicago | 4 | All Maps","protocol":17,"map":"plr_hightower","folder":"tf","game":"Team Fortress","app_id":440,"player_count":22,"max_players":24,"Bots":0,"server_type":"Dedicated","server_os":"Linux","password":true,"vac":true,"version":"7961495","steam_id":85568392924515193,"keywords":["nocrits","nodmgspread","payload","uncletopia"],"game_id":440,"stv_port":27046,"stv_name":"Uncletopia | Chicago | 4 | All Maps | STV","players":[{"user_id":504,"name":"Frunkle","steam_id":76561198051362617,"connected_time":490000000000,"state":"active","ping":69},{"user_id":493,"name":"milk then cereal","steam_id":76561198047168548,"connected_time":1071000000000,"state":"active","ping":102},{"user_id":491,"name":"paimon","steam_id":76561197962607364,"connected_time":1153000000000,"state":"active","ping":73},{"user_id":492,"name":"KarmineCorp #1 fan","steam_id":76561198017539604,"connected_time":1128000000000,"state":"active","ping":62},{"user_id":494,"name":"Mr0_0Knight","steam_id":76561199471338064,"connected_time":1035000000000,"state":"active","ping":61},{"user_id":459,"name":"StudioMania (#SAVETF2)","steam_id":76561198211315795,"connected_time":4149000000000,"state":"active","ping":63},{"user_id":499,"name":"Fermenting Kiwi","steam_id":76561198253303497,"connected_time":715000000000,"state":"active","ping":69},{"user_id":508,"name":"Artemis‚Ñ¢","steam_id":76561198044113152,"connected_time":437000000000,"state":"active","ping":98},{"user_id":489,"name":"PuMpInG","steam_id":76561199472091614,"connected_time":1460000000000,"state":"active","ping":74},{"user_id":505,"name":"wooby","steam_id":76561198004610133,"connected_time":489000000000,"state":"active","ping":73},{"user_id":374,"name":"The Khronicles of Keith","steam_id":76561198056622157,"connected_time":7622000000000,"state":"active","ping":60},{"user_id":487,"name":"Firecrotch Fredo","steam_id":76561198099658220,"connected_time":1566000000000,"state":"active","ping":79},{"user_id":498,"name":"Reese","steam_id":76561198044035968,"connected_time":742000000000,"state":"active","ping":63},{"user_id":500,"name":"HFMurasama","steam_id":76561198272021214,"connected_time":674000000000,"state":"active","ping":104},{"user_id":502,"name":"Beef","steam_id":76561198082238388,"connected_time":639000000000,"state":"active","ping":113},{"user_id":488,"name":"coda","steam_id":76561198092052685,"connected_time":1502000000000,"state":"active","ping":61},{"user_id":503,"name":"Rein","steam_id":76561198300340427,"connected_time":598000000000,"state":"active","ping":57},{"user_id":509,"name":"Hopdon The Magic Bunny","steam_id":76561198051616613,"connected_time":167000000000,"state":"active","ping":77},{"user_id":510,"name":"–ê—Ö–∏–ª–ª–µ—Å","steam_id":76561198310070512,"connected_time":158000000000,"state":"active","ping":175},{"user_id":387,"name":"pootisfan585","steam_id":76561198041938330,"connected_time":7539000000000,"state":"active","ping":75},{"user_id":507,"name":"TungstenDiioxide","steam_id":76561198023733129,"connected_time":457000000000,"state":"active","ping":73},{"user_id":490,"name":"jorjor wells","steam_id":76561199073429082,"connected_time":1441000000000,"state":"active","ping":60}]},{"server_id":36,"name":"Uncletopia | Chicago | 5 | All Maps","name_short":"chi-5","host":"chi-2.us.uncletopia.com","port":27015,"enabled":true,"region":"us-central","cc":"us","latitude":41.881832,"longitude":-87.62318,"reserved":0,"last_update":"0001-01-01T00:00:00Z","name_a2s":"Uncletopia | Chicago | 5 | All Maps","protocol":17,"map":"pl_borneo","folder":"tf","game":"Team Fortress","app_id":440,"player_count":24,"max_players":24,"Bots":0,"server_type":"Dedicated","server_os":"Linux","password":true,"vac":true,"version":"7961495","steam_id":85568392924866362,"keywords":["nocrits","nodmgspread","payload","uncletopia"],"game_id":440,"stv_port":27016,"stv_name":"Uncletopia | Chicago | 5 | All Maps | STV","players":[{"user_id":258,"name":"mr beijing","steam_id":76561198044668836,"connected_time":701000000000,"state":"active","ping":49},{"user_id":180,"name":"General Sherman","steam_id":76561198044769376,"connected_time":6403000000000,"state":"active","ping":76},{"user_id":242,"name":"Gene Takovic","steam_id":76561198881039861,"connected_time":2006000000000,"state":"active","ping":49},{"user_id":243,"name":"Jesse Bear","steam_id":76561198217075305,"connected_time":2005000000000,"state":"active","ping":82},{"user_id":250,"name":"slowdance","steam_id":76561198097427947,"connected_time":1217000000000,"state":"active","ping":143},{"user_id":228,"name":"Acuzik","steam_id":76561198045453400,"connected_time":2523000000000,"state":"active","ping":37},{"user_id":256,"name":"f1bg","steam_id":76561199107952644,"connected_time":878000000000,"state":"active","ping":60},{"user_id":224,"name":"A Mysterious Gift","steam_id":76561198077838946,"connected_time":2598000000000,"state":"active","ping":70},{"user_id":225,"name":"LilAttacker","steam_id":76561198032575798,"connected_time":2569000000000,"state":"active","ping":107},{"user_id":226,"name":"itsTensu","steam_id":76561198159956345,"connected_time":2552000000000,"state":"active","ping":113},{"user_id":267,"name":"Amari","steam_id":76561198272446730,"connected_time":34000000000,"state":"active","ping":53},{"user_id":261,"name":"playguy carter","steam_id":76561198080679337,"connected_time":389000000000,"state":"active","ping":63},{"user_id":230,"name":"Braingoo Hex","steam_id":76561198083094783,"connected_time":2516000000000,"state":"active","ping":103},{"user_id":262,"name":"beans","steam_id":76561198061673313,"connected_time":265000000000,"state":"active","ping":86},{"user_id":263,"name":"TeriyakiDynamite","steam_id":76561198050049346,"connected_time":194000000000,"state":"active","ping":117},{"user_id":186,"name":"Prisoner Gerard","steam_id":76561197994452082,"connected_time":6263000000000,"state":"active","ping":78},{"user_id":264,"name":"shane938","steam_id":76561198117541261,"connected_time":177000000000,"state":"active","ping":87},{"user_id":251,"name":"Cairna ‚ô•","steam_id":76561198035418464,"connected_time":1064000000000,"state":"active","ping":73},{"user_id":189,"name":"Power Lich","steam_id":76561198024334801,"connected_time":6166000000000,"state":"active","ping":105},{"user_id":236,"name":"chaffy","steam_id":76561198021754567,"connected_time":2411000000000,"state":"active","ping":60},{"user_id":265,"name":"Scrux","steam_id":76561198129763115,"connected_time":176000000000,"state":"active","ping":111},{"user_id":193,"name":"V A R M I N T","steam_id":76561198417042268,"connected_time":6113000000000,"state":"active","ping":115},{"user_id":266,"name":"ÂèñÂêçÂè´ÂÅöÂøç","steam_id":76561198278282836,"connected_time":136000000000,"state":"active","ping":56},{"user_id":268,"name":"HanakoToast","steam_id":76561198045233131,"connected_time":15000000000,"state":"active","ping":96}]},{"server_id":37,"name":"Uncletopia | Chicago | 6 | All Maps","name_short":"chi-6","host":"chi-2.us.uncletopia.com","port":27025,"enabled":true,"region":"us-central","cc":"us","latitude":41.881832,"longitude":-87.62318,"reserved":0,"last_update":"0001-01-01T00:00:00Z","name_a2s":"Uncletopia | Chicago | 6 | All Maps","protocol":17,"map":"pl_pier","folder":"tf","game":"Team Fortress","app_id":440,"player_count":19,"max_players":24,"Bots":0,"server_type":"Dedicated","server_os":"Linux","password":true,"vac":true,"version":"7961495","steam_id":85568392924866363,"keywords":["nocrits","nodmgspread","payload","uncletopia"],"game_id":440,"stv_port":27026,"stv_name":"Uncletopia | Chicago | 6 | All Maps | STV","players":[{"user_id":428,"name":"Artic_Ryuu","steam_id":76561198182194918,"connected_time":5000000000,"state":"spawning","ping":88},{"user_id":423,"name":"basketball","steam_id":76561199074875663,"connected_time":696000000000,"state":"active","ping":73},{"user_id":412,"name":"Saligator","steam_id":76561198026287386,"connected_time":1068000000000,"state":"active","ping":114},{"user_id":331,"name":"‚òÖSmolGreyBirb‚òÖ","steam_id":76561198010201046,"connected_time":6622000000000,"state":"active","ping":85},{"user_id":407,"name":"the Champagnski corks","steam_id":76561198007822150,"connected_time":1287000000000,"state":"active","ping":57},{"user_id":409,"name":"tek lintowe fan","steam_id":76561198206177593,"connected_time":1273000000000,"state":"active","ping":99},{"user_id":323,"name":"Bunni","steam_id":76561198065169997,"connected_time":7306000000000,"state":"active","ping":87},{"user_id":348,"name":"Mythical Lag","steam_id":76561198347031281,"connected_time":6105000000000,"state":"active","ping":75},{"user_id":413,"name":"CrocoKyle","steam_id":76561198095736587,"connected_time":1064000000000,"state":"active","ping":114},{"user_id":421,"name":"ChocolatteMousse","steam_id":76561198136313455,"connected_time":826000000000,"state":"active","ping":75},{"user_id":383,"name":"Nibelsnarf (She/They)","steam_id":76561198137642054,"connected_time":3709000000000,"state":"active","ping":58},{"user_id":414,"name":"Aggressive Menace","steam_id":76561198249138216,"connected_time":1057000000000,"state":"active","ping":78},{"user_id":418,"name":"PeanutWaxer","steam_id":76561199200247204,"connected_time":1006000000000,"state":"active","ping":101},{"user_id":288,"name":"Kantamoe","steam_id":76561198046661611,"connected_time":10703000000000,"state":"active","ping":84},{"user_id":419,"name":"Google Boobs","steam_id":76561198822505204,"connected_time":995000000000,"state":"active","ping":113},{"user_id":420,"name":"coin","steam_id":76561198128374956,"connected_time":971000000000,"state":"active","ping":86},{"user_id":397,"name":"Pheonix Fel Dragon","steam_id":76561198164974227,"connected_time":2797000000000,"state":"active","ping":75},{"user_id":427,"name":"Anstorner","steam_id":76561198274026015,"connected_time":203000000000,"state":"active","ping":99},{"user_id":422,"name":"Nestor","steam_id":76561198070782619,"connected_time":779000000000,"state":"active","ping":59}]},{"server_id":38,"name":"Uncletopia | Chicago | 7 | Stopwatch","name_short":"chi-7","host":"chi-2.us.uncletopia.com","port":27035,"enabled":true,"region":"us-central","cc":"us","latitude":41.881832,"longitude":-87.62318,"reserved":0,"last_update":"0001-01-01T00:00:00Z","name_a2s":"Uncletopia | Chicago | 7 | Stopwatch","protocol":17,"map":"workshop/koth_clearcut_b15.ugc2107050255","folder":"tf","game":"Team Fortress","app_id":440,"player_count":5,"max_players":24,"Bots":0,"server_type":"Dedicated","server_os":"Linux","password":true,"vac":true,"version":"7961495","steam_id":85568392924866364,"keywords":["cp","nocrits","nodmgspread","uncletopia"],"game_id":440,"stv_port":27036,"stv_name":"Uncletopia | Chicago | 7 | Stopwatch | STV","players":[{"user_id":129,"name":"mafia is mafia","steam_id":76561198042574722,"connected_time":711000000000,"state":"active","ping":92},{"user_id":118,"name":"The Overmind","steam_id":76561199065260787,"connected_time":7111000000000,"state":"active","ping":68},{"user_id":122,"name":"Thequirka","steam_id":76561198968058652,"connected_time":2448000000000,"state":"active","ping":94},{"user_id":124,"name":"markiplier","steam_id":76561198285140503,"connected_time":2194000000000,"state":"active","ping":35},{"user_id":115,"name":"Drunk Heroism","steam_id":76561198053788253,"connected_time":7859000000000,"state":"active","ping":135}]},{"server_id":39,"name":"Uncletopia | Chicago | 8 | Community","name_short":"chi-8","host":"chi-2.us.uncletopia.com","port":27045,"enabled":true,"region":"us-central","cc":"us","latitude":41.881832,"longitude":-87.62318,"reserved":0,"last_update":"0001-01-01T00:00:00Z","name_a2s":"Uncletopia | Chicago | 8 | Community","protocol":17,"map":"workshop/rd_asteroid_redux_b1.ugc2154902912","folder":"tf","game":"Team Fortress","app_id":440,"player_count":0,"max_players":24,"Bots":0,"server_type":"Dedicated","server_os":"Linux","password":true,"vac":true,"version":"7961495","steam_id":85568392924866365,"keywords":["beta","nocrits","nodmgspread","rd","uncletopia"],"game_id":440,"stv_port":27046,"stv_name":"Uncletopia | Chicago | 8 | Community | STV","players":null},{"server_id":8,"name":"Uncletopia | Dallas | 1 | All Maps","name_short":"dal-1","host":"dal-1.us.uncletopia.com","port":27015,"enabled":true,"region":"us-central","cc":"us","latitude":32.779167,"longitude":-96.80889,"reserved":0,"last_update":"0001-01-01T00:00:00Z","name_a2s":"Uncletopia | Dallas | 1 | All Maps","protocol":17,"map":"cp_dustbowl","folder":"tf","game":"Team Fortress","app_id":440,"player_count":24,"max_players":24,"Bots":0,"server_type":"Dedicated","server_os":"Linux","password":true,"vac":true,"version":"7961495","steam_id":85568392924469986,"keywords":["cp","nocrits","nodmgspread","uncletopia"],"game_id":440,"stv_port":27016,"stv_name":"Uncletopia | Dallas | 1 | All Maps | STV","players":[{"user_id":867,"name":"DeckofDragons","steam_id":76561198057398213,"connected_time":4590000000000,"state":"active","ping":70},{"user_id":903,"name":"APOTATO","steam_id":76561198118199858,"connected_time":1418000000000,"state":"active","ping":62},{"user_id":881,"name":"Imrgrim","steam_id":76561198135866481,"connected_time":2985000000000,"state":"active","ping":69},{"user_id":905,"name":"Grimm_Reaper164","steam_id":76561198848333297,"connected_time":766000000000,"state":"active","ping":84},{"user_id":865,"name":"Kerpal45","steam_id":76561198153340350,"connected_time":4635000000000,"state":"active","ping":87},{"user_id":897,"name":"Flavortown Thanos","steam_id":76561198004853966,"connected_time":1861000000000,"state":"active","ping":102},{"user_id":906,"name":"fexxor","steam_id":76561198030051719,"connected_time":658000000000,"state":"active","ping":178},{"user_id":860,"name":"Ghetto Smosh Fan","steam_id":76561198097272509,"connected_time":4862000000000,"state":"active","ping":51},{"user_id":900,"name":"Pixelated Pussy","steam_id":76561198002511088,"connected_time":1565000000000,"state":"active","ping":86},{"user_id":876,"name":"story","steam_id":76561199088496817,"connected_time":3465000000000,"state":"active","ping":63},{"user_id":844,"name":"Colonel Salt","steam_id":76561198207009563,"connected_time":6398000000000,"state":"active","ping":56},{"user_id":908,"name":"god i love cat girls god uuumf","steam_id":76561198032820354,"connected_time":543000000000,"state":"active","ping":97},{"user_id":898,"name":"HumbDoe","steam_id":76561198065556553,"connected_time":1842000000000,"state":"active","ping":86},{"user_id":893,"name":"Still Alive","steam_id":76561198042523000,"connected_time":2064000000000,"state":"active","ping":86},{"user_id":877,"name":"Deadline","steam_id":76561199079078845,"connected_time":3415000000000,"state":"active","ping":87},{"user_id":875,"name":"MrSourLemmon","steam_id":76561199367994914,"connected_time":3535000000000,"state":"active","ping":59},{"user_id":902,"name":"Cat in a fedora","steam_id":76561198187502875,"connected_time":1422000000000,"state":"active","ping":61},{"user_id":894,"name":"[TRR/IO] Tangerine Baker","steam_id":76561199004774964,"connected_time":1978000000000,"state":"active","ping":103},{"user_id":880,"name":"Crescent","steam_id":76561198095124633,"connected_time":3000000000000,"state":"active","ping":70},{"user_id":911,"name":"9/11 Airlines","steam_id":76561198096306325,"connected_time":155000000000,"state":"active","ping":93},{"user_id":842,"name":"daD","steam_id":76561198188498762,"connected_time":6544000000000,"state":"active","ping":61},{"user_id":909,"name":"snak","steam_id":76561199131462397,"connected_time":526000000000,"state":"active","ping":103},{"user_id":802,"name":"FreshlyBrewed","steam_id":76561198181099881,"connected_time":11125000000000,"state":"active","ping":88},{"user_id":910,"name":"L-","steam_id":76561198046074220,"connected_time":461000000000,"state":"active","ping":74}]},{"server_id":108,"name":"Uncletopia | Dallas | 2 | All Maps","name_short":"dal-2","host":"dal-1.us.uncletopia.com","port":27025,"enabled":true,"region":"us-central","cc":"us","latitude":32.779167,"longitude":-96.80889,"reserved":0,"last_update":"0001-01-01T00:00:00Z","name_a2s":"Uncletopia | Dallas | 2 | All Maps","protocol":17,"map":"cp_sunshine","folder":"tf","game":"Team Fortress","app_id":440,"player_count":1,"max_players":24,"Bots":0,"server_type":"Dedicated","server_os":"Linux","password":true,"vac":true,"version":"7961495","steam_id":85568392924469988,"keywords":["cp","nocrits","nodmgspread","uncletopia"],"game_id":440,"stv_port":27026,"stv_name":"Uncletopia | Dallas | 2 | All Maps | STV","players":[{"user_id":794,"name":"cumgoblin","steam_id":76561198113270138,"connected_time":0,"state":"spawning","ping":11}]},{"server_id":404,"name":"Uncletopia | Dallas | 3 | All Maps","name_short":"dal-3","host":"dal-1.us.uncletopia.com","port":27035,"enabled":true,"region":"us-central","cc":"us","latitude":32.779167,"longitude":-96.80889,"reserved":0,"last_update":"0001-01-01T00:00:00Z","name_a2s":"Uncletopia | Dallas | 3 | All Maps","protocol":17,"map":"cp_process_final","folder":"tf","game":"Team Fortress","app_id":440,"player_count":24,"max_players":24,"Bots":0,"server_type":"Dedicated","server_os":"Linux","password":true,"vac":true,"version":"7961495","steam_id":85568392924515219,"keywords":["cp","nocrits","nodmgspread","uncletopia"],"game_id":440,"stv_port":27036,"stv_name":"Uncletopia | Dallas | 3 | All Maps | STV","players":[{"user_id":541,"name":"porcelain_grin","steam_id":76561197998103691,"connected_time":2720000000000,"state":"active","ping":110},{"user_id":572,"name":"BL√òRG","steam_id":76561198036126673,"connected_time":401000000000,"state":"active","ping":72},{"user_id":581,"name":"Satori Komeiji","steam_id":76561198158211423,"connected_time":143000000000,"state":"active","ping":78},{"user_id":518,"name":"Juri Han","steam_id":76561198041678517,"connected_time":4199000000000,"state":"active","ping":89},{"user_id":583,"name":"Halo","steam_id":76561198144909435,"connected_time":77000000000,"state":"active","ping":88},{"user_id":547,"name":"chikin.sauce","steam_id":76561198042464635,"connected_time":2438000000000,"state":"active","ping":59},{"user_id":548,"name":"Antzen","steam_id":76561198041343470,"connected_time":2397000000000,"state":"active","ping":93},{"user_id":567,"name":"hoOmIN","steam_id":76561198334947079,"connected_time":958000000000,"state":"active","ping":65},{"user_id":522,"name":"Kuyumiester","steam_id":76561198126835302,"connected_time":4055000000000,"state":"active","ping":64},{"user_id":563,"name":"Olitude","steam_id":76561199238964574,"connected_time":1283000000000,"state":"active","ping":84},{"user_id":559,"name":"ShinyOrion (She/Her)","steam_id":76561198408378321,"connected_time":1554000000000,"state":"active","ping":95},{"user_id":525,"name":"Bob","steam_id":76561199100437824,"connected_time":3741000000000,"state":"active","ping":98},{"user_id":555,"name":"Killerfish360","steam_id":76561198115029584,"connected_time":1604000000000,"state":"active","ping":75},{"user_id":502,"name":"tsz","steam_id":76561199246231090,"connected_time":5079000000000,"state":"active","ping":78},{"user_id":556,"name":"NyanHorses","steam_id":76561198161584966,"connected_time":1581000000000,"state":"active","ping":45},{"user_id":557,"name":"+","steam_id":76561198262422184,"connected_time":1580000000000,"state":"active","ping":82},{"user_id":573,"name":"Frank Accardi","steam_id":76561198017275707,"connected_time":374000000000,"state":"active","ping":85},{"user_id":552,"name":"EvilPi99let","steam_id":76561197987243470,"connected_time":1887000000000,"state":"active","ping":82},{"user_id":558,"name":"VICTOR","steam_id":76561198074722858,"connected_time":1575000000000,"state":"active","ping":61},{"user_id":560,"name":"Klip","steam_id":76561198316254429,"connected_time":1543000000000,"state":"active","ping":58},{"user_id":536,"name":"Bones0010","steam_id":76561198096186958,"connected_time":2995000000000,"state":"active","ping":70},{"user_id":584,"name":"Just Luck","steam_id":76561198294350105,"connected_time":43000000000,"state":"active","ping":62},{"user_id":535,"name":"Melonfrog","steam_id":76561198389885427,"connected_time":3009000000000,"state":"active","ping":79},{"user_id":564,"name":"(1)ƒê√Ø…ê»ê…π…¶…Üa","steam_id":76561198981411945,"connected_time":1124000000000,"state":"active","ping":75}]},{"server_id":405,"name":"Uncletopia | Dallas | 4 | Community","name_short":"dal-4","host":"dal-1.us.uncletopia.com","port":27045,"enabled":true,"region":"us-central","cc":"us","latitude":32.779167,"longitude":-96.80889,"reserved":0,"last_update":"0001-01-01T00:00:00Z","name_a2s":"Uncletopia | Dallas | 4 | Community","protocol":17,"map":"workshop/cp_croissant_final.ugc458840209","folder":"tf","game":"Team Fortress","app_id":440,"player_count":0,"max_players":24,"Bots":0,"server_type":"Dedicated","server_os":"Linux","password":true,"vac":true,"version":"7961495","steam_id":85568392924515220,"keywords":["cp","nocrits","nodmgspread","uncletopia"],"game_id":440,"stv_port":27046,"stv_name":"Uncletopia | Dallas | 4 | Community | STV","players":null},{"server_id":5,"name":"Uncletopia | Frankfurt | 1 | All Maps","name_short":"frk-1","host":"frk-1.de.uncletopia.com","port":27015,"enabled":true,"region":"eu","cc":"de","latitude":50.110924,"longitude":8.682127,"reserved":0,"last_update":"0001-01-01T00:00:00Z","name_a2s":"Uncletopia | Frankfurt | 1 | All Maps","protocol":17,"map":"koth_highpass","folder":"tf","game":"Team Fortress","app_id":440,"player_count":0,"max_players":24,"Bots":0,"server_type":"Dedicated","server_os":"Linux","password":true,"vac":true,"version":"7961495","steam_id":85568392924469989,"keywords":["cp","nocrits","nodmgspread","uncletopia"],"game_id":440,"stv_port":27016,"stv_name":"Uncletopia | Frankfurt | 1 | All Maps | STV","players":null},{"server_id":110,"name":"Uncletopia | Frankfurt | 2 | All Maps","name_short":"frk-2","host":"frk-1.de.uncletopia.com","port":27025,"enabled":true,"region":"eu","cc":"de","latitude":50.110924,"longitude":8.682127,"reserved":0,"last_update":"0001-01-01T00:00:00Z","name_a2s":"Uncletopia | Frankfurt | 2 | All Maps","protocol":17,"map":"cp_dustbowl","folder":"tf","game":"Team Fortress","app_id":440,"player_count":0,"max_players":24,"Bots":0,"server_type":"Dedicated","server_os":"Linux","password":true,"vac":true,"version":"7961495","steam_id":85568392924469990,"keywords":["cp","nocrits","nodmgspread","uncletopia"],"game_id":440,"stv_port":27026,"stv_name":"Uncletopia | Frankfurt | 2 | All Maps | STV","players":null},{"server_id":308,"name":"Uncletopia | Frankfurt | 3 | All Maps","name_short":"frk-3","host":"frk-1.de.uncletopia.com","port":27035,"enabled":true,"region":"eu","cc":"de","latitude":50.110924,"longitude":8.682127,"reserved":0,"last_update":"0001-01-01T00:00:00Z","name_a2s":"Uncletopia | Frankfurt | 3 | All Maps","protocol":17,"map":"pl_barnblitz","folder":"tf","game":"Team Fortress","app_id":440,"player_count":0,"max_players":24,"Bots":0,"server_type":"Dedicated","server_os":"Linux","password":true,"vac":true,"version":"7961495","steam_id":85568392924504274,"keywords":["nocrits","nodmgspread","payload","uncletopia"],"game_id":440,"stv_port":27036,"stv_name":"Uncletopia | Frankfurt | 3 | All Maps | STV","players":null},{"server_id":309,"name":"Uncletopia | Frankfurt | 4 | All Maps","name_short":"frk-4","host":"frk-1.de.uncletopia.com","port":27045,"enabled":true,"region":"eu","cc":"de","latitude":50.110924,"longitude":8.682127,"reserved":0,"last_update":"0001-01-01T00:00:00Z","name_a2s":"Uncletopia | Frankfurt | 4 | All Maps","protocol":17,"map":"koth_highpass","folder":"tf","game":"Team Fortress","app_id":440,"player_count":0,"max_players":24,"Bots":0,"server_type":"Dedicated","server_os":"Linux","password":true,"vac":true,"version":"7961495","steam_id":85568392924504275,"keywords":["cp","nocrits","nodmgspread","uncletopia"],"game_id":440,"stv_port":27046,"stv_name":"Uncletopia | Frankfurt | 4 | All Maps | STV","players":null},{"server_id":310,"name":"Uncletopia | Frankfurt | 5 | All Maps","name_short":"frk-5","host":"frk-1.de.uncletopia.com","port":27055,"enabled":true,"region":"eu","cc":"de","latitude":50.110924,"longitude":8.682127,"reserved":0,"last_update":"0001-01-01T00:00:00Z","name_a2s":"Uncletopia | Frankfurt | 5 | All Maps","protocol":17,"map":"pl_snowycoast","folder":"tf","game":"Team Fortress","app_id":440,"player_count":0,"max_players":24,"Bots":0,"server_type":"Dedicated","server_os":"Linux","password":true,"vac":true,"version":"7961495","steam_id":85568392924504277,"keywords":["nocrits","nodmgspread","payload","uncletopia"],"game_id":440,"stv_port":27056,"stv_name":"Uncletopia | Frankfurt | 5 | All Maps | STV","players":null},{"server_id":311,"name":"Uncletopia | Frankfurt | 6 | All Maps","name_short":"frk-6","host":"frk-1.de.uncletopia.com","port":27065,"enabled":true,"region":"eu","cc":"de","latitude":50.110924,"longitude":8.682127,"reserved":0,"last_update":"0001-01-01T00:00:00Z","name_a2s":"Uncletopia | Frankfurt | 6 | All Maps","protocol":17,"map":"cp_altitude","folder":"tf","game":"Team Fortress","app_id":440,"player_count":0,"max_players":24,"Bots":0,"server_type":"Dedicated","server_os":"Linux","password":true,"vac":true,"version":"7961495","steam_id":85568392924504278,"keywords":["cp","nocrits","nodmgspread","uncletopia"],"game_id":440,"stv_port":27066,"stv_name":"Uncletopia | Frankfurt | 6 | All Maps | STV","players":null},{"server_id":23,"name":"Uncletopia | Frankfurt | 7 | Stopwatch","name_short":"frk-7","host":"frk-1.de.uncletopia.com","port":27075,"enabled":true,"region":"eu","cc":"de","latitude":50.110924,"longitude":8.682127,"reserved":0,"last_update":"0001-01-01T00:00:00Z","name_a2s":"Uncletopia | Frankfurt | 7 | Stopwatch","protocol":17,"map":"pl_frontier_final","folder":"tf","game":"Team Fortress","app_id":440,"player_count":0,"max_players":24,"Bots":0,"server_type":"Dedicated","server_os":"Linux","password":true,"vac":true,"version":"7961495","steam_id":85568392924742827,"keywords":["nocrits","nodmgspread","payload","uncletopia"],"game_id":440,"stv_port":27076,"stv_name":"Uncletopia | Frankfurt | 7 | Stopwatch | STV","players":null},{"server_id":24,"name":"Uncletopia | Frankfurt | 8 | Community","name_short":"frk-8","host":"frk-1.de.uncletopia.com","port":27085,"enabled":true,"region":"eu","cc":"de","latitude":50.110924,"longitude":8.682127,"reserved":0,"last_update":"0001-01-01T00:00:00Z","name_a2s":"Uncletopia | Frankfurt | 8 | Community","protocol":17,"map":"cp_mountainlab","folder":"tf","game":"Team Fortress","app_id":440,"player_count":0,"max_players":24,"Bots":0,"server_type":"Dedicated","server_os":"Linux","password":true,"vac":true,"version":"7961495","steam_id":85568392924742828,"keywords":["cp","nocrits","nodmgspread","uncletopia"],"game_id":440,"stv_port":27086,"stv_name":"Uncletopia | Frankfurt | 8 | Community | STV","players":null},{"server_id":202,"name":"Uncletopia | Hong Kong | 1 | All Maps","name_short":"hgk-1","host":"hgk-1.hk.uncletopia.com","port":27015,"enabled":true,"region":"asia","cc":"hk","latitude":22.302711,"longitude":114.177216,"reserved":0,"last_update":"0001-01-01T00:00:00Z","name_a2s":"Uncletopia | Hong Kong | 1 | All Maps","protocol":17,"map":"plr_nightfall_final","folder":"tf","game":"Team Fortress","app_id":440,"player_count":4,"max_players":24,"Bots":0,"server_type":"Dedicated","server_os":"Linux","password":true,"vac":true,"version":"7961495","steam_id":85568392924494504,"keywords":["nocrits","nodmgspread","payload","uncletopia"],"game_id":440,"stv_port":27016,"stv_name":"Uncletopia | Hong Kong | 1 | All Maps | STV","players":[{"user_id":7,"name":"Lord Swagatron","steam_id":76561198833527091,"connected_time":1038000000000,"state":"active","ping":89},{"user_id":8,"name":"Unan_baho","steam_id":76561199214357948,"connected_time":968000000000,"state":"active","ping":62},{"user_id":9,"name":"Kek","steam_id":76561199004616229,"connected_time":888000000000,"state":"active","ping":91},{"user_id":11,"name":"FatFat-234","steam_id":76561198195807926,"connected_time":180000000000,"state":"active","ping":82}]},{"server_id":1,"name":"Uncletopia | Los Angeles | 1 | All Maps","name_short":"lax-1","host":"lax-1.us.uncletopia.com","port":27015,"enabled":true,"region":"us-west","cc":"us","latitude":33.94279,"longitude":-118.41004,"reserved":0,"last_update":"0001-01-01T00:00:00Z","name_a2s":"Uncletopia | Los Angeles | 1 | All Maps","protocol":17,"map":"cp_snakewater_final1","folder":"tf","game":"Team Fortress","app_id":440,"player_count":0,"max_players":24,"Bots":0,"server_type":"Dedicated","server_os":"Linux","password":true,"vac":true,"version":"7961495","steam_id":85568392924469991,"keywords":["cp","nocrits","nodmgspread","uncletopia"],"game_id":440,"stv_port":27016,"stv_name":"Uncletopia | Los Angeles | 1 | All Maps | STV","players":null},{"server_id":112,"name":"Uncletopia | Los Angeles | 2 | All Maps","name_short":"lax-2","host":"lax-1.us.uncletopia.com","port":27025,"enabled":true,"region":"us-west","cc":"us","latitude":33.94279,"longitude":-118.41004,"reserved":0,"last_update":"0001-01-01T00:00:00Z","name_a2s":"Uncletopia | Los Angeles | 2 | All Maps","protocol":17,"map":"pl_pier","folder":"tf","game":"Team Fortress","app_id":440,"player_count":24,"max_players":24,"Bots":0,"server_type":"Dedicated","server_os":"Linux","password":true,"vac":true,"version":"7961495","steam_id":85568392924469992,"keywords":["nocrits","nodmgspread","payload","uncletopia"],"game_id":440,"stv_port":27026,"stv_name":"Uncletopia | Los Angeles | 2 | All Maps | STV","players":[{"user_id":193,"name":"N√º√æ","steam_id":76561198043956703,"connected_time":2804000000000,"state":"active","ping":47},{"user_id":161,"name":"37 septillion tapeworms","steam_id":76561198186128723,"connected_time":4304000000000,"state":"active","ping":78},{"user_id":218,"name":"Dongus","steam_id":76561197979056451,"connected_time":1050000000000,"state":"active","ping":76},{"user_id":166,"name":"Zom_Named_Zam","steam_id":76561198328066203,"connected_time":4268000000000,"state":"active","ping":60},{"user_id":207,"name":"Lambchop","steam_id":76561198043900363,"connected_time":2178000000000,"state":"active","ping":73},{"user_id":132,"name":"SolarusD","steam_id":76561198029279861,"connected_time":6472000000000,"state":"active","ping":54},{"user_id":225,"name":"Syrup","steam_id":76561198055850531,"connected_time":320000000000,"state":"active","ping":49},{"user_id":221,"name":"Gut125","steam_id":76561198101787225,"connected_time":1008000000000,"state":"active","ping":37},{"user_id":203,"name":"Just a Good Friend","steam_id":76561198140052403,"connected_time":2179000000000,"state":"active","ping":48},{"user_id":183,"name":"Randle of John","steam_id":76561198328210524,"connected_time":3307000000000,"state":"active","ping":52},{"user_id":227,"name":"Skumpfsklub","steam_id":76561198045782334,"connected_time":191000000000,"state":"active","ping":63},{"user_id":222,"name":"Mr. Noodle","steam_id":76561198025280658,"connected_time":1001000000000,"state":"active","ping":63},{"user_id":214,"name":"Cat","steam_id":76561198132362099,"connected_time":1941000000000,"state":"active","ping":79},{"user_id":215,"name":"ognuker","steam_id":76561198044114346,"connected_time":1912000000000,"state":"active","ping":64},{"user_id":128,"name":"Gobb","steam_id":76561198028907283,"connected_time":7201000000000,"state":"active","ping":44},{"user_id":202,"name":"bad spy player","steam_id":76561198873699671,"connected_time":2650000000000,"state":"active","ping":84},{"user_id":210,"name":"MegaMudkipz","steam_id":76561198354776000,"connected_time":2102000000000,"state":"active","ping":110},{"user_id":172,"name":"mrthugpug1732","steam_id":76561198881200768,"connected_time":4089000000000,"state":"active","ping":65},{"user_id":220,"name":"filtered by cp_steel","steam_id":76561198031409921,"connected_time":1028000000000,"state":"active","ping":58},{"user_id":226,"name":"Starry Platinum","steam_id":76561198041226814,"connected_time":309000000000,"state":"active","ping":59},{"user_id":216,"name":"Meloncholy","steam_id":76561198077424488,"connected_time":1280000000000,"state":"active","ping":49},{"user_id":212,"name":"rat ü•≤üò∂üå´","steam_id":76561198130412963,"connected_time":2084000000000,"state":"active","ping":83},{"user_id":197,"name":"Nut Bustray","steam_id":76561198092403883,"connected_time":2778000000000,"state":"active","ping":70},{"user_id":224,"name":"oxi-moe","steam_id":76561198835590034,"connected_time":834000000000,"state":"active","ping":106}]},{"server_id":324,"name":"Uncletopia | Los Angeles | 3 | All Maps","name_short":"lax-3","host":"lax-1.us.uncletopia.com","port":27035,"enabled":true,"region":"us-west","cc":"us","latitude":33.94279,"longitude":-118.41004,"reserved":0,"last_update":"0001-01-01T00:00:00Z","name_a2s":"Uncletopia | Los Angeles | 3 | All Maps","protocol":17,"map":"cp_process_final","folder":"tf","game":"Team Fortress","app_id":440,"player_count":19,"max_players":24,"Bots":0,"server_type":"Dedicated","server_os":"Linux","password":true,"vac":true,"version":"7961495","steam_id":85568392924510198,"keywords":["cp","nocrits","nodmgspread","uncletopia"],"game_id":440,"stv_port":27036,"stv_name":"Uncletopia | Los Angeles | 3 | All Maps | STV","players":[{"user_id":346,"name":"TABAKU MALUKU","steam_id":76561198289562649,"connected_time":458000000000,"state":"spawning","ping":137},{"user_id":327,"name":"sergeant major cone tits","steam_id":76561198333985626,"connected_time":1762000000000,"state":"active","ping":124},{"user_id":350,"name":"Ricochet Pro","steam_id":76561198005328215,"connected_time":30000000000,"state":"connecting","ping":55},{"user_id":285,"name":"Builder","steam_id":76561198042004822,"connected_time":4325000000000,"state":"active","ping":48},{"user_id":351,"name":"Andreshatesmondays","steam_id":76561198889349797,"connected_time":29000000000,"state":"active","ping":48},{"user_id":334,"name":"lordstinkdemon666","steam_id":76561198073914311,"connected_time":1250000000000,"state":"active","ping":41},{"user_id":312,"name":"blehz","steam_id":76561198048429098,"connected_time":2300000000000,"state":"active","ping":61},{"user_id":352,"name":"Khrono691","steam_id":76561198246227600,"connected_time":2000000000,"state":"spawning","ping":34},{"user_id":229,"name":"‚ô•CharaÂñúÁîüÂ≠ê‚ô•","steam_id":76561198080500920,"connected_time":8641000000000,"state":"active","ping":113},{"user_id":308,"name":"fried rice","steam_id":76561198928939100,"connected_time":2388000000000,"state":"active","ping":109},{"user_id":336,"name":"Sakio","steam_id":76561198327087049,"connected_time":1145000000000,"state":"active","ping":77},{"user_id":338,"name":"TheBrocklobster","steam_id":76561198039682984,"connected_time":1122000000000,"state":"active","ping":56},{"user_id":316,"name":"triph","steam_id":76561198067196509,"connected_time":2253000000000,"state":"active","ping":31},{"user_id":326,"name":"UnReLinked","steam_id":76561199366044663,"connected_time":1799000000000,"state":"active","ping":76},{"user_id":349,"name":"life","steam_id":76561198227112556,"connected_time":171000000000,"state":"active","ping":54},{"user_id":329,"name":"Mud Goblin","steam_id":76561198839118505,"connected_time":1677000000000,"state":"active","ping":64},{"user_id":347,"name":"Boxcars","steam_id":76561198120978767,"connected_time":383000000000,"state":"active","ping":47},{"user_id":340,"name":"Matches_                       ","steam_id":76561198048925904,"connected_time":1084000000000,"state":"active","ping":61},{"user_id":345,"name":"giddy","steam_id":76561198271951969,"connected_time":605000000000,"state":"active","ping":59}]},{"server_id":25,"name":"Uncletopia | Los Angeles | 4 | Stopwatch","name_short":"lax-4","host":"lax-1.us.uncletopia.com","port":27045,"enabled":true,"region":"us-west","cc":"us","latitude":33.94279,"longitude":-118.41004,"reserved":0,"last_update":"0001-01-01T00:00:00Z","name_a2s":"Uncletopia | Los Angeles | 4 | Stopwatch","protocol":17,"map":"workshop/koth_bagel_rc6.ugc2514036946","folder":"tf","game":"Team Fortress","app_id":440,"player_count":0,"max_players":24,"Bots":0,"server_type":"Dedicated","server_os":"Linux","password":true,"vac":true,"version":"7961495","steam_id":85568392924510199,"keywords":["cp","nocrits","nodmgspread","uncletopia"],"game_id":440,"stv_port":27046,"stv_name":"Uncletopia | Los Angeles | 4 | Stopwatch | STV","players":null},{"server_id":11,"name":"Uncletopia | London | 1 | All Maps","name_short":"lon-1","host":"lon-1.uk.uncletopia.com","port":27015,"enabled":true,"region":"eu","cc":"gb","latitude":51.509865,"longitude":-0.118092,"reserved":0,"last_update":"0001-01-01T00:00:00Z","name_a2s":"Uncletopia | London | 1 | All Maps","protocol":17,"map":"koth_highpass","folder":"tf","game":"Team Fortress","app_id":440,"player_count":15,"max_players":24,"Bots":0,"server_type":"Dedicated","server_os":"Linux","password":true,"vac":true,"version":"7961495","steam_id":85568392924367362,"keywords":["cp","nocrits","nodmgspread","uncletopia"],"game_id":440,"stv_port":27016,"stv_name":"Uncletopia | London | 1 | All Maps | STV","players":[{"user_id":26,"name":"kenzi","steam_id":76561199057501266,"connected_time":42000000000,"state":"active","ping":51},{"user_id":16,"name":"katana on the trains","steam_id":76561198202464032,"connected_time":694000000000,"state":"active","ping":62},{"user_id":5,"name":"SaydGover","steam_id":76561199062433944,"connected_time":808000000000,"state":"active","ping":120},{"user_id":6,"name":"SirDirtbag","steam_id":76561198091890855,"connected_time":804000000000,"state":"active","ping":75},{"user_id":9,"name":"Labracababrador","steam_id":76561198255280285,"connected_time":789000000000,"state":"active","ping":67},{"user_id":10,"name":"George W Bush","steam_id":76561198846784757,"connected_time":787000000000,"state":"active","ping":55},{"user_id":23,"name":"Ashley","steam_id":76561198056152479,"connected_time":456000000000,"state":"active","ping":44},{"user_id":12,"name":"PeskyPlumber","steam_id":76561198241999094,"connected_time":779000000000,"state":"active","ping":44},{"user_id":13,"name":"Nyhde","steam_id":76561198012771416,"connected_time":774000000000,"state":"active","ping":99},{"user_id":14,"name":"jjkun786","steam_id":76561199438517484,"connected_time":770000000000,"state":"active","ping":80},{"user_id":15,"name":"skelebin","steam_id":76561199480942903,"connected_time":752000000000,"state":"active","ping":75},{"user_id":18,"name":"Û†Ä°Û†Ä°","steam_id":76561198199523126,"connected_time":605000000000,"state":"active","ping":65},{"user_id":21,"name":"TeaFlavouredCoffee","steam_id":76561198925306032,"connected_time":492000000000,"state":"active","ping":67},{"user_id":22,"name":"Papa Cheese","steam_id":76561198276351496,"connected_time":485000000000,"state":"active","ping":70},{"user_id":25,"name":"Lio2077","steam_id":76561199075235973,"connected_time":364000000000,"state":"active","ping":91}]},{"server_id":114,"name":"Uncletopia | London | 2 | All Maps","name_short":"lon-2","host":"lon-1.uk.uncletopia.com","port":27025,"enabled":true,"region":"eu","cc":"gb","latitude":51.509865,"longitude":-0.118092,"reserved":0,"last_update":"0001-01-01T00:00:00Z","name_a2s":"Uncletopia | London | 2 | All Maps","protocol":17,"map":"koth_lakeside_final","folder":"tf","game":"Team Fortress","app_id":440,"player_count":0,"max_players":24,"Bots":0,"server_type":"Dedicated","server_os":"Linux","password":true,"vac":true,"version":"7961495","steam_id":85568392924470941,"keywords":["cp","nocrits","nodmgspread","uncletopia"],"game_id":440,"stv_port":27026,"stv_name":"Uncletopia | London | 2 | All Maps | STV","players":null},{"server_id":320,"name":"Uncletopia | London | 3 | All Maps","name_short":"lon-3","host":"lon-1.uk.uncletopia.com","port":27035,"enabled":true,"region":"eu","cc":"gb","latitude":51.509865,"longitude":-0.118092,"reserved":0,"last_update":"0001-01-01T00:00:00Z","name_a2s":"Uncletopia | London | 3 | All Maps","protocol":17,"map":"cp_process_final","folder":"tf","game":"Team Fortress","app_id":440,"player_count":0,"max_players":24,"Bots":0,"server_type":"Dedicated","server_os":"Linux","password":true,"vac":true,"version":"7961495","steam_id":85568392924510192,"keywords":["cp","nocrits","nodmgspread","uncletopia"],"game_id":440,"stv_port":27036,"stv_name":"Uncletopia | London | 3 | All Maps | STV","players":null},{"server_id":321,"name":"Uncletopia | London | 4 | All Maps","name_short":"lon-4","host":"lon-1.uk.uncletopia.com","port":27045,"enabled":true,"region":"eu","cc":"gb","latitude":51.509865,"longitude":-0.118092,"reserved":0,"last_update":"0001-01-01T00:00:00Z","name_a2s":"Uncletopia | London | 4 | All Maps","protocol":17,"map":"koth_cascade","folder":"tf","game":"Team Fortress","app_id":440,"player_count":0,"max_players":24,"Bots":0,"server_type":"Dedicated","server_os":"Linux","password":true,"vac":true,"version":"7961495","steam_id":85568392924510193,"keywords":["cp","nocrits","nodmgspread","uncletopia"],"game_id":440,"stv_port":27046,"stv_name":"Uncletopia | London | 4 | All Maps | STV","players":null},{"server_id":21,"name":"Uncletopia | London | 5 | All Maps","name_short":"lon-5","host":"lon-1.uk.uncletopia.com","port":27055,"enabled":true,"region":"eu","cc":"gb","latitude":51.509865,"longitude":-0.118092,"reserved":0,"last_update":"0001-01-01T00:00:00Z","name_a2s":"Uncletopia | London | 5 | All Maps","protocol":17,"map":"koth_lakeside_final","folder":"tf","game":"Team Fortress","app_id":440,"player_count":0,"max_players":24,"Bots":0,"server_type":"Dedicated","server_os":"Linux","password":true,"vac":true,"version":"7961495","steam_id":85568392924742829,"keywords":["cp","nocrits","nodmgspread","uncletopia"],"game_id":440,"stv_port":27056,"stv_name":"Uncletopia | London | 5 | All Maps | STV","players":null},{"server_id":22,"name":"Uncletopia | London | 6 | All Maps","name_short":"lon-6","host":"lon-1.uk.uncletopia.com","port":27065,"enabled":true,"region":"eu","cc":"gb","latitude":51.509865,"longitude":-0.118092,"reserved":0,"last_update":"0001-01-01T00:00:00Z","name_a2s":"Uncletopia | London | 6 | All Maps","protocol":17,"map":"cp_dustbowl","folder":"tf","game":"Team Fortress","app_id":440,"player_count":0,"max_players":24,"Bots":0,"server_type":"Dedicated","server_os":"Linux","password":true,"vac":true,"version":"7961495","steam_id":85568392924742830,"keywords":["cp","nocrits","nodmgspread","uncletopia"],"game_id":440,"stv_port":27066,"stv_name":"Uncletopia | London | 6 | All Maps | STV","players":null},{"server_id":40,"name":"Uncletopia | London | 7 | Stopwatch","name_short":"lon-7","host":"lon-1.uk.uncletopia.com","port":27075,"enabled":true,"region":"eu","cc":"gb","latitude":51.509865,"longitude":-0.118092,"reserved":0,"last_update":"0001-01-01T00:00:00Z","name_a2s":"Uncletopia | London | 7 | Stopwatch","protocol":17,"map":"koth_lakeside_final","folder":"tf","game":"Team Fortress","app_id":440,"player_count":0,"max_players":24,"Bots":0,"server_type":"Dedicated","server_os":"Linux","password":true,"vac":true,"version":"7961495","steam_id":85568392924964314,"keywords":["cp","nocrits","nodmgspread","uncletopia"],"game_id":440,"stv_port":27076,"stv_name":"Uncletopia | London | 7 | Stopwatch | STV","players":null},{"server_id":41,"name":"Uncletopia | London | 8 | Community","name_short":"lon-8","host":"lon-1.uk.uncletopia.com","port":27085,"enabled":true,"region":"eu","cc":"gb","latitude":51.509865,"longitude":-0.118092,"reserved":0,"last_update":"0001-01-01T00:00:00Z","name_a2s":"Uncletopia | London | 8 | Community","protocol":17,"map":"cp_snakewater_final1","folder":"tf","game":"Team Fortress","app_id":440,"player_count":0,"max_players":24,"Bots":0,"server_type":"Dedicated","server_os":"Linux","password":true,"vac":true,"version":"7961495","steam_id":85568392924964315,"keywords":["cp","nocrits","nodmgspread","uncletopia"],"game_id":440,"stv_port":27086,"stv_name":"Uncletopia | London | 8 | Community | STV","players":null},{"server_id":300,"name":"Uncletopia | Montr√©al | 1 | One Thousand Uncles","name_short":"mtl-1","host":"mtl-1.ca.uncletopia.com","port":27015,"enabled":true,"region":"us-east","cc":"ca","latitude":45.50889,"longitude":-73.56167,"reserved":0,"last_update":"0001-01-01T00:00:00Z","name_a2s":"","protocol":0,"map":"","folder":"","game":"","app_id":0,"player_count":0,"max_players":0,"Bots":0,"server_type":"","server_os":"","password":false,"vac":false,"version":"","steam_id":0,"keywords":null,"game_id":0,"stv_port":0,"stv_name":"","players":null},{"server_id":301,"name":"Uncletopia | Montr√©al | 2 | One Thousand Uncles","name_short":"mtl-2","host":"mtl-1.ca.uncletopia.com","port":27025,"enabled":true,"region":"us-east","cc":"ca","latitude":45.50889,"longitude":-73.56167,"reserved":0,"last_update":"0001-01-01T00:00:00Z","name_a2s":"","protocol":0,"map":"","folder":"","game":"","app_id":0,"player_count":0,"max_players":0,"Bots":0,"server_type":"","server_os":"","password":false,"vac":false,"version":"","steam_id":0,"keywords":null,"game_id":0,"stv_port":0,"stv_name":"","players":null},{"server_id":302,"name":"Uncletopia | Montr√©al | 3 | One Thousand Uncles","name_short":"mtl-3","host":"mtl-1.ca.uncletopia.com","port":27035,"enabled":true,"region":"us-east","cc":"ca","latitude":45.50889,"longitude":-73.56167,"reserved":0,"last_update":"0001-01-01T00:00:00Z","name_a2s":"","protocol":0,"map":"","folder":"","game":"","app_id":0,"player_count":0,"max_players":0,"Bots":0,"server_type":"","server_os":"","password":false,"vac":false,"version":"","steam_id":0,"keywords":null,"game_id":0,"stv_port":0,"stv_name":"","players":null},{"server_id":13,"name":"Uncletopia | New York City | 1 | All Maps","name_short":"nyc-1","host":"nyc-1.us.uncletopia.com","port":27015,"enabled":true,"region":"us-east","cc":"us","latitude":40.73061,"longitude":-73.93524,"reserved":0,"last_update":"0001-01-01T00:00:00Z","name_a2s":"Uncletopia | New York City | 1 | All Maps","protocol":17,"map":"cp_dustbowl","folder":"tf","game":"Team Fortress","app_id":440,"player_count":2,"max_players":24,"Bots":0,"server_type":"Dedicated","server_os":"Linux","password":true,"vac":true,"version":"7961495","steam_id":85568392924469993,"keywords":["cp","nocrits","nodmgspread","uncletopia"],"game_id":440,"stv_port":27016,"stv_name":"Uncletopia | New York City | 1 | All Maps | STV","players":[{"user_id":544,"name":"Albert Salavan","steam_id":76561199152398906,"connected_time":1389000000000,"state":"active","ping":150},{"user_id":531,"name":"Elvis Dwarvley","steam_id":76561198117231611,"connected_time":5177000000000,"state":"active","ping":141}]},{"server_id":14,"name":"Uncletopia | New York City | 2 | All Maps","name_short":"nyc-2","host":"nyc-1.us.uncletopia.com","port":27025,"enabled":true,"region":"us-east","cc":"us","latitude":40.73061,"longitude":-73.93524,"reserved":0,"last_update":"0001-01-01T00:00:00Z","name_a2s":"Uncletopia | New York City | 2 | All Maps","protocol":17,"map":"cp_mountainlab","folder":"tf","game":"Team Fortress","app_id":440,"player_count":24,"max_players":24,"Bots":0,"server_type":"Dedicated","server_os":"Linux","password":true,"vac":true,"version":"7961495","steam_id":85568392924469994,"keywords":["cp","nocrits","nodmgspread","uncletopia"],"game_id":440,"stv_port":27026,"stv_name":"Uncletopia | New York City | 2 | All Maps | STV","players":[{"user_id":354,"name":"Mahiru Koizumi","steam_id":76561198164782653,"connected_time":374000000000,"state":"active","ping":52},{"user_id":279,"name":"Jango","steam_id":76561198084589742,"connected_time":5556000000000,"state":"active","ping":75},{"user_id":327,"name":"Two-Teste Tommy","steam_id":76561198064308936,"connected_time":3644000000000,"state":"active","ping":59},{"user_id":328,"name":"Tokyo_Timeshift_","steam_id":76561198048677523,"connected_time":3623000000000,"state":"active","ping":65},{"user_id":340,"name":"SHADY SWEATER SALESMAN","steam_id":76561198014616865,"connected_time":2008000000000,"state":"active","ping":48},{"user_id":344,"name":"shnowshner","steam_id":76561198066450438,"connected_time":1371000000000,"state":"active","ping":67},{"user_id":351,"name":"HeadshotSpy","steam_id":76561198051191953,"connected_time":451000000000,"state":"active","ping":117},{"user_id":318,"name":"Baron von Whoopsie","steam_id":76561197996691013,"connected_time":3921000000000,"state":"active","ping":63},{"user_id":345,"name":"borus","steam_id":76561198148059714,"connected_time":1362000000000,"state":"active","ping":47},{"user_id":349,"name":"‚ÜëSlimbro","steam_id":76561198088926489,"connected_time":1018000000000,"state":"active","ping":54},{"user_id":342,"name":"Clorox Chugger 69","steam_id":76561198049508548,"connected_time":1622000000000,"state":"active","ping":130},{"user_id":352,"name":"Qu√°y","steam_id":76561198068924418,"connected_time":444000000000,"state":"active","ping":91},{"user_id":350,"name":"Firedust19","steam_id":76561198153238631,"connected_time":465000000000,"state":"active","ping":118},{"user_id":300,"name":"Reeder Rabbit","steam_id":76561198042675927,"connected_time":4658000000000,"state":"active","ping":49},{"user_id":330,"name":"Kibbleis","steam_id":76561197995265195,"connected_time":3614000000000,"state":"active","ping":55},{"user_id":355,"name":"gerg","steam_id":76561197997127387,"connected_time":371000000000,"state":"active","ping":115},{"user_id":356,"name":"social distance warrior","steam_id":76561198128992994,"connected_time":364000000000,"state":"active","ping":104},{"user_id":337,"name":"Da Walrus","steam_id":76561198045190191,"connected_time":2994000000000,"state":"active","ping":61},{"user_id":357,"name":"Brawns","steam_id":76561198045190199,"connected_time":319000000000,"state":"active","ping":60},{"user_id":362,"name":"tack","steam_id":76561198408477421,"connected_time":194000000000,"state":"active","ping":96},{"user_id":363,"name":"NiŒªiwiŒªi, ‚ñºiscount of ‚ñºio","steam_id":76561198009193777,"connected_time":113000000000,"state":"active","ping":58},{"user_id":359,"name":"Jeff","steam_id":76561197997564762,"connected_time":310000000000,"state":"active","ping":83},{"user_id":339,"name":"Werm","steam_id":76561198149601897,"connected_time":2599000000000,"state":"active","ping":60},{"user_id":361,"name":"0","steam_id":76561199468748840,"connected_time":214000000000,"state":"active","ping":79}]},{"server_id":15,"name":"Uncletopia | New York City | 3 | Stopwatch","name_short":"nyc-3","host":"nyc-1.us.uncletopia.com","port":27035,"enabled":true,"region":"us-east","cc":"us","latitude":40.73061,"longitude":-73.93524,"reserved":0,"last_update":"0001-01-01T00:00:00Z","name_a2s":"Uncletopia | New York City | 3 | Stopwatch","protocol":17,"map":"workshop/cp_process_f12.ugc2302948105","folder":"tf","game":"Team Fortress","app_id":440,"player_count":0,"max_players":24,"Bots":0,"server_type":"Dedicated","server_os":"Linux","password":true,"vac":true,"version":"7961495","steam_id":85568392924742820,"keywords":["cp","nocrits","nodmgspread","uncletopia"],"game_id":440,"stv_port":27036,"stv_name":"Uncletopia | New York City | 3 | Stopwatch | STV","players":null},{"server_id":16,"name":"Uncletopia | New York City | 4 | Community","name_short":"nyc-4","host":"nyc-1.us.uncletopia.com","port":27045,"enabled":true,"region":"us-east","cc":"us","latitude":40.73061,"longitude":-73.93524,"reserved":0,"last_update":"0001-01-01T00:00:00Z","name_a2s":"Uncletopia | New York City | 4 | Community","protocol":17,"map":"workshop/koth_slaughter_rc1.ugc1712845210","folder":"tf","game":"Team Fortress","app_id":440,"player_count":0,"max_players":24,"Bots":0,"server_type":"Dedicated","server_os":"Linux","password":true,"vac":true,"version":"7961495","steam_id":85568392924742821,"keywords":["cp","nocrits","nodmgspread","uncletopia"],"game_id":440,"stv_port":27046,"stv_name":"Uncletopia | New York City | 4 | Community | STV","players":null},{"server_id":142,"name":"Uncletopia | S√£o Paulo | 1 | All Maps","name_short":"sao-1","host":"sao-1.br.uncletopia.com","port":27015,"enabled":true,"region":"sa","cc":"br","latitude":-23.533773,"longitude":-46.62529,"reserved":0,"last_update":"0001-01-01T00:00:00Z","name_a2s":"Uncletopia | S√£o Paulo | 1 | All Maps","protocol":17,"map":"koth_lakeside_final","folder":"tf","game":"Team Fortress","app_id":440,"player_count":0,"max_players":24,"Bots":0,"server_type":"Dedicated","server_os":"Linux","password":true,"vac":true,"version":"7961495","steam_id":85568392924469996,"keywords":["cp","nocrits","nodmgspread","uncletopia"],"game_id":440,"stv_port":27016,"stv_name":"Uncletopia | S√£o Paulo | 1 | All Maps | STV","players":null},{"server_id":143,"name":"Uncletopia | S√£o Paulo | 2 | Community","name_short":"sao-2","host":"sao-2.br.uncletopia.com","port":27015,"enabled":true,"region":"sa","cc":"br","latitude":-23.533773,"longitude":-46.62529,"reserved":0,"last_update":"0001-01-01T00:00:00Z","name_a2s":"Uncletopia | S√£o Paulo | 2 | Community","protocol":17,"map":"workshop/koth_slaughter_rc1.ugc1712845210","folder":"tf","game":"Team Fortress","app_id":440,"player_count":0,"max_players":24,"Bots":0,"server_type":"Dedicated","server_os":"Linux","password":true,"vac":true,"version":"7961495","steam_id":85568392924485349,"keywords":["cp","nocrits","nodmgspread","uncletopia"],"game_id":440,"stv_port":27016,"stv_name":"Uncletopia | S√£o Paulo | 2 | Community | STV","players":null},{"server_id":7,"name":"Uncletopia | Seattle | 1 | All Maps","name_short":"sea-1","host":"sea-1.us.uncletopia.com","port":27015,"enabled":true,"region":"us-west","cc":"us","latitude":47.608013,"longitude":-122.33517,"reserved":0,"last_update":"0001-01-01T00:00:00Z","name_a2s":"Uncletopia | Seattle | 1 | All Maps","protocol":17,"map":"pl_upward","folder":"tf","game":"Team Fortress","app_id":440,"player_count":24,"max_players":24,"Bots":0,"server_type":"Dedicated","server_os":"Linux","password":true,"vac":true,"version":"7961495","steam_id":85568392924469997,"keywords":["nocrits","nodmgspread","payload","uncletopia"],"game_id":440,"stv_port":27016,"stv_name":"Uncletopia | Seattle | 1 | All Maps | STV","players":[{"user_id":1141,"name":"rat gets the cheese","steam_id":76561198031234032,"connected_time":4189000000000,"state":"active","ping":101},{"user_id":1161,"name":"Sniff","steam_id":76561198010270922,"connected_time":2180000000000,"state":"active","ping":45},{"user_id":1164,"name":"PopcornBucketGames","steam_id":76561199089562026,"connected_time":2165000000000,"state":"active","ping":37},{"user_id":1180,"name":"Hazel Nutts \u003c3","steam_id":76561199247095754,"connected_time":57000000000,"state":"active","ping":52},{"user_id":1130,"name":"Sasha The Foxgirl","steam_id":76561198018403555,"connected_time":4484000000000,"state":"active","ping":59},{"user_id":1181,"name":"ZeroEmpires","steam_id":76561198044112464,"connected_time":53000000000,"state":"active","ping":42},{"user_id":1154,"name":"Attrition","steam_id":76561197969881916,"connected_time":2663000000000,"state":"active","ping":45},{"user_id":1160,"name":"worker","steam_id":76561198039608940,"connected_time":2181000000000,"state":"active","ping":56},{"user_id":1084,"name":"TROY","steam_id":76561197983852176,"connected_time":8024000000000,"state":"active","ping":76},{"user_id":1144,"name":"Mak","steam_id":76561198089197922,"connected_time":4166000000000,"state":"active","ping":59},{"user_id":1156,"name":"bbbbb","steam_id":76561198095480838,"connected_time":2525000000000,"state":"active","ping":45},{"user_id":1072,"name":"Nom Skirrett","steam_id":76561198014600788,"connected_time":8881000000000,"state":"active","ping":67},{"user_id":1142,"name":"Dog","steam_id":76561198041841128,"connected_time":4186000000000,"state":"active","ping":76},{"user_id":1128,"name":"[TrC] Dackstrus","steam_id":76561197973518509,"connected_time":4540000000000,"state":"active","ping":58},{"user_id":1172,"name":"lavender","steam_id":76561199069518286,"connected_time":1685000000000,"state":"active","ping":75},{"user_id":1168,"name":"Sweets","steam_id":76561198998446307,"connected_time":1953000000000,"state":"active","ping":68},{"user_id":1080,"name":"Cheezbeargur","steam_id":76561198164702899,"connected_time":8141000000000,"state":"active","ping":69},{"user_id":1162,"name":"Warlock","steam_id":76561199033164093,"connected_time":2180000000000,"state":"active","ping":38},{"user_id":1173,"name":"Jumkin","steam_id":76561198136887468,"connected_time":1684000000000,"state":"active","ping":68},{"user_id":1163,"name":"lasky","steam_id":76561198017030029,"connected_time":2176000000000,"state":"active","ping":65},{"user_id":1149,"name":"hazel","steam_id":76561198037292232,"connected_time":3216000000000,"state":"active","ping":120},{"user_id":1140,"name":"Daz","steam_id":76561198041431938,"connected_time":4219000000000,"state":"active","ping":52},{"user_id":1126,"name":"[TrC] Nosy","steam_id":76561197978859310,"connected_time":4766000000000,"state":"active","ping":60},{"user_id":1165,"name":"top 10 sidewalks","steam_id":76561198844273999,"connected_time":2165000000000,"state":"active","ping":45}]},{"server_id":119,"name":"Uncletopia | Seattle | 2 | All Maps","name_short":"sea-2","host":"sea-1.us.uncletopia.com","port":27025,"enabled":true,"region":"us-west","cc":"us","latitude":47.608013,"longitude":-122.33517,"reserved":0,"last_update":"0001-01-01T00:00:00Z","name_a2s":"Uncletopia | Seattle | 2 | All Maps","protocol":17,"map":"cp_mountainlab","folder":"tf","game":"Team Fortress","app_id":440,"player_count":0,"max_players":24,"Bots":0,"server_type":"Dedicated","server_os":"Linux","password":true,"vac":true,"version":"7961495","steam_id":85568392924469998,"keywords":["cp","nocrits","nodmgspread","uncletopia"],"game_id":440,"stv_port":27026,"stv_name":"Uncletopia | Seattle | 2 | All Maps | STV","players":null},{"server_id":406,"name":"Uncletopia | Seattle | 3 | Stopwatch","name_short":"sea-3","host":"sea-1.us.uncletopia.com","port":27035,"enabled":true,"region":"us-west","cc":"us","latitude":47.608013,"longitude":-122.33517,"reserved":0,"last_update":"0001-01-01T00:00:00Z","name_a2s":"Uncletopia | Seattle | 3 | Stopwatch","protocol":17,"map":"workshop/koth_ramjam_rc1.ugc459778887","folder":"tf","game":"Team Fortress","app_id":440,"player_count":0,"max_players":24,"Bots":0,"server_type":"Dedicated","server_os":"Linux","password":true,"vac":true,"version":"7961495","steam_id":85568392924515217,"keywords":["cp","nocrits","nodmgspread","uncletopia"],"game_id":440,"stv_port":27036,"stv_name":"Uncletopia | Seattle | 3 | Stopwatch | STV","players":null},{"server_id":17,"name":"Uncletopia | San Francisco | 1 | All Maps","name_short":"sfo-1","host":"sfo-1.us.uncletopia.com","port":27015,"enabled":true,"region":"us-west","cc":"us","latitude":37.77397,"longitude":-122.4313,"reserved":0,"last_update":"0001-01-01T00:00:00Z","name_a2s":"Uncletopia | San Francisco | 1 | All Maps","protocol":17,"map":"cp_dustbowl","folder":"tf","game":"Team Fortress","app_id":440,"player_count":0,"max_players":24,"Bots":0,"server_type":"Dedicated","server_os":"Linux","password":true,"vac":true,"version":"7961495","steam_id":85568392924469999,"keywords":["cp","nocrits","nodmgspread","uncletopia"],"game_id":440,"stv_port":27016,"stv_name":"Uncletopia | San Francisco | 1 | All Maps | STV","players":null},{"server_id":18,"name":"Uncletopia | San Francisco | 2 | All Maps","name_short":"sfo-2","host":"sfo-1.us.uncletopia.com","port":27025,"enabled":true,"region":"us-west","cc":"us","latitude":37.77397,"longitude":-122.4313,"reserved":0,"last_update":"0001-01-01T00:00:00Z","name_a2s":"Uncletopia | San Francisco | 2 | All Maps","protocol":17,"map":"koth_lakeside_final","folder":"tf","game":"Team Fortress","app_id":440,"player_count":17,"max_players":24,"Bots":0,"server_type":"Dedicated","server_os":"Linux","password":true,"vac":true,"version":"7961495","steam_id":85568392924470000,"keywords":["cp","nocrits","nodmgspread","uncletopia"],"game_id":440,"stv_port":27026,"stv_name":"Uncletopia | San Francisco | 2 | All Maps | STV","players":[{"user_id":168,"name":"JIGRON","steam_id":76561197998694076,"connected_time":3172000000000,"state":"active","ping":68},{"user_id":126,"name":"mini boss","steam_id":76561198062763756,"connected_time":6389000000000,"state":"active","ping":99},{"user_id":197,"name":"Quigi","steam_id":76561198144645874,"connected_time":978000000000,"state":"active","ping":60},{"user_id":198,"name":"Mr. Luggy","steam_id":76561198072723392,"connected_time":971000000000,"state":"active","ping":64},{"user_id":183,"name":"ronald_stackerusa55","steam_id":76561198150406851,"connected_time":2020000000000,"state":"active","ping":44},{"user_id":184,"name":"SanitysEdge","steam_id":76561198130732813,"connected_time":2016000000000,"state":"active","ping":50},{"user_id":206,"name":"Lax","steam_id":76561198113883954,"connected_time":47000000000,"state":"active","ping":79},{"user_id":156,"name":"Throws Before BrosÛ†Ä°","steam_id":76561197992905530,"connected_time":3864000000000,"state":"active","ping":42},{"user_id":191,"name":"spoc13","steam_id":76561198091808119,"connected_time":1823000000000,"state":"active","ping":46},{"user_id":187,"name":"Bingus","steam_id":76561199225054690,"connected_time":1983000000000,"state":"active","ping":48},{"user_id":204,"name":"j33t","steam_id":76561198039769734,"connected_time":470000000000,"state":"active","ping":72},{"user_id":188,"name":"The Gremlin","steam_id":76561198419066993,"connected_time":1954000000000,"state":"active","ping":73},{"user_id":200,"name":"netoc6","steam_id":76561199065312168,"connected_time":730000000000,"state":"active","ping":106},{"user_id":203,"name":"hart","steam_id":76561198046073848,"connected_time":578000000000,"state":"active","ping":60},{"user_id":170,"name":"Mocha Josie","steam_id":76561198066452726,"connected_time":3117000000000,"state":"active","ping":52},{"user_id":174,"name":"Cherno Beta","steam_id":76561198047918122,"connected_time":2610000000000,"state":"active","ping":74},{"user_id":202,"name":"Petrivus","steam_id":76561198202152453,"connected_time":604000000000,"state":"active","ping":60}]},{"server_id":19,"name":"Uncletopia | San Francisco | 3 | Stopwatch","name_short":"sfo-3","host":"sfo-1.us.uncletopia.com","port":27035,"enabled":true,"region":"us-west","cc":"us","latitude":37.77397,"longitude":-122.4313,"reserved":0,"last_update":"0001-01-01T00:00:00Z","name_a2s":"Uncletopia | San Francisco | 3 | Stopwatch","protocol":17,"map":"workshop/koth_bagel_rc6.ugc2514036946","folder":"tf","game":"Team Fortress","app_id":440,"player_count":0,"max_players":24,"Bots":0,"server_type":"Dedicated","server_os":"Linux","password":true,"vac":true,"version":"7961495","steam_id":85568392924742824,"keywords":["cp","nocrits","nodmgspread","uncletopia"],"game_id":440,"stv_port":27036,"stv_name":"Uncletopia | San Francisco | 3 | Stopwatch | STV","players":null},{"server_id":20,"name":"Uncletopia | San Francisco | 4 | Community","name_short":"sfo-4","host":"sfo-1.us.uncletopia.com","port":27045,"enabled":true,"region":"us-west","cc":"us","latitude":37.77397,"longitude":-122.4313,"reserved":0,"last_update":"0001-01-01T00:00:00Z","name_a2s":"Uncletopia | San Francisco | 4 | Community","protocol":17,"map":"workshop/koth_trenchfoot_ab1.ugc731436616","folder":"tf","game":"Team Fortress","app_id":440,"player_count":0,"max_players":24,"Bots":0,"server_type":"Dedicated","server_os":"Linux","password":true,"vac":true,"version":"7961495","steam_id":85568392924742826,"keywords":["cp","nocrits","nodmgspread","uncletopia"],"game_id":440,"stv_port":27046,"stv_name":"Uncletopia | San Francisco | 4 | Community | STV","players":null},{"server_id":141,"name":"Uncletopia | Sydney | 1 | All Maps","name_short":"syd-1","host":"syd-1.au.uncletopia.com","port":27015,"enabled":true,"region":"au","cc":"au","latitude":-33.865143,"longitude":151.2099,"reserved":0,"last_update":"0001-01-01T00:00:00Z","name_a2s":"Uncletopia | Sydney | 1 | All Maps","protocol":17,"map":"koth_viaduct","folder":"tf","game":"Team Fortress","app_id":440,"player_count":4,"max_players":24,"Bots":0,"server_type":"Dedicated","server_os":"Linux","password":true,"vac":true,"version":"7961495","steam_id":85568392924470001,"keywords":["cp","nocrits","nodmgspread","uncletopia"],"game_id":440,"stv_port":27016,"stv_name":"Uncletopia | Sydney | 1 | All Maps | STV","players":[{"user_id":11,"name":"Sergeant Doorknob","steam_id":76561199441566079,"connected_time":904000000000,"state":"active","ping":67},{"user_id":12,"name":"Nyda","steam_id":76561198152311904,"connected_time":726000000000,"state":"active","ping":66},{"user_id":13,"name":"Titan","steam_id":76561198343953317,"connected_time":718000000000,"state":"active","ping":64},{"user_id":15,"name":"Alright","steam_id":76561198075411902,"connected_time":356000000000,"state":"active","ping":59}]},{"server_id":123,"name":"Uncletopia | Sydney | 2 | All Maps","name_short":"syd-2","host":"syd-1.au.uncletopia.com","port":27025,"enabled":true,"region":"au","cc":"au","latitude":-33.865143,"longitude":151.2099,"reserved":0,"last_update":"0001-01-01T00:00:00Z","name_a2s":"Uncletopia | Sydney | 2 | All Maps","protocol":17,"map":"koth_lakeside_final","folder":"tf","game":"Team Fortress","app_id":440,"player_count":0,"max_players":24,"Bots":0,"server_type":"Dedicated","server_os":"Linux","password":true,"vac":true,"version":"7961495","steam_id":85568392924470002,"keywords":["cp","nocrits","nodmgspread","uncletopia"],"game_id":440,"stv_port":27026,"stv_name":"Uncletopia | Sydney | 2 | All Maps | STV","players":null},{"server_id":395,"name":"Uncletopia | Sydney | 3 | All Maps","name_short":"syd-3","host":"syd-1.au.uncletopia.com","port":27035,"enabled":true,"region":"au","cc":"au","latitude":-33.865143,"longitude":151.2099,"reserved":0,"last_update":"0001-01-01T00:00:00Z","name_a2s":"Uncletopia | Sydney | 3 | All Maps","protocol":17,"map":"pl_frontier_final","folder":"tf","game":"Team Fortress","app_id":440,"player_count":0,"max_players":24,"Bots":0,"server_type":"Dedicated","server_os":"Linux","password":true,"vac":true,"version":"7961495","steam_id":85568392925194467,"keywords":["nocrits","nodmgspread","payload","uncletopia"],"game_id":440,"stv_port":27036,"stv_name":"Uncletopia | Sydney | 3 | All Maps | STV","players":null},{"server_id":396,"name":"Uncletopia | Sydney | 4 | All Maps","name_short":"syd-4","host":"syd-1.au.uncletopia.com","port":27045,"enabled":true,"region":"au","cc":"au","latitude":-33.865143,"longitude":151.2099,"reserved":0,"last_update":"0001-01-01T00:00:00Z","name_a2s":"Uncletopia | Sydney | 4 | All Maps","protocol":17,"map":"cp_process_final","folder":"tf","game":"Team Fortress","app_id":440,"player_count":0,"max_players":24,"Bots":0,"server_type":"Dedicated","server_os":"Linux","password":true,"vac":true,"version":"7961495","steam_id":85568392925397958,"keywords":["cp","nocrits","nodmgspread","uncletopia"],"game_id":440,"stv_port":27046,"stv_name":"Uncletopia | Sydney | 4 | All Maps | STV","players":null},{"server_id":58,"name":"Uncletopia | Sydney | 5 | Stopwatch","name_short":"syd-5","host":"syd-1.au.uncletopia.com","port":27055,"enabled":true,"region":"au","cc":"au","latitude":-33.865143,"longitude":151.2099,"reserved":0,"last_update":"0001-01-01T00:00:00Z","name_a2s":"Uncletopia | Sydney | 5 | Stopwatch","protocol":17,"map":"pl_frontier_final","folder":"tf","game":"Team Fortress","app_id":440,"player_count":0,"max_players":24,"Bots":0,"server_type":"Dedicated","server_os":"Linux","password":true,"vac":true,"version":"7961495","steam_id":85568392925397959,"keywords":["nocrits","nodmgspread","payload","uncletopia"],"game_id":440,"stv_port":27056,"stv_name":"Uncletopia | Sydney | 5 | Stopwatch | STV","players":null},{"server_id":59,"name":"Uncletopia | Sydney | 6 | Community","name_short":"syd-6","host":"syd-1.au.uncletopia.com","port":27065,"enabled":true,"region":"au","cc":"au","latitude":-33.865143,"longitude":151.2099,"reserved":0,"last_update":"0001-01-01T00:00:00Z","name_a2s":"Uncletopia | Sydney | 6 | Community","protocol":17,"map":"cp_sunshine","folder":"tf","game":"Team Fortress","app_id":440,"player_count":1,"max_players":24,"Bots":0,"server_type":"Dedicated","server_os":"Linux","password":true,"vac":true,"version":"7961495","steam_id":85568392925397960,"keywords":["cp","nocrits","nodmgspread","uncletopia"],"game_id":440,"stv_port":27066,"stv_name":"Uncletopia | Sydney | 6 | Community | STV","players":[{"user_id":3,"name":"Matt VII (7) (seven)","steam_id":76561198065340795,"connected_time":66000000000,"state":"active","ping":50}]},{"server_id":49,"name":"Uncletopia | Warsaw | 1 | One Thousand Uncles","name_short":"waw-1","host":"waw-1.pl.uncletopia.com","port":27015,"enabled":true,"region":"eu","cc":"pl","latitude":52.2297,"longitude":21.017532,"reserved":0,"last_update":"0001-01-01T00:00:00Z","name_a2s":"Uncletopia | Warsaw | 1 | One Thousand Uncles","protocol":17,"map":"koth_highpass","folder":"tf","game":"Team Fortress","app_id":440,"player_count":0,"max_players":32,"Bots":0,"server_type":"Dedicated","server_os":"Linux","password":true,"vac":true,"version":"7961495","steam_id":85568392925397850,"keywords":["alltalk","cp","danepve","increased_maxplayers","nocrits","norespawntime","uncletopia"],"game_id":440,"stv_port":0,"stv_name":"","players":null},{"server_id":50,"name":"Uncletopia | Warsaw | 2 | One Thousand Uncles","name_short":"waw-2","host":"waw-1.pl.uncletopia.com","port":27025,"enabled":true,"region":"eu","cc":"pl","latitude":52.2297,"longitude":21.017532,"reserved":0,"last_update":"0001-01-01T00:00:00Z","name_a2s":"Uncletopia | Warsaw | 2 | One Thousand Uncles","protocol":17,"map":"pl_goldrush","folder":"tf","game":"Team Fortress","app_id":440,"player_count":0,"max_players":32,"Bots":0,"server_type":"Dedicated","server_os":"Linux","password":true,"vac":true,"version":"7961495","steam_id":85568392925397851,"keywords":["alltalk","danepve","increased_maxplayers","nocrits","norespawntime","payload","uncletopia"],"game_id":440,"stv_port":0,"stv_name":"","players":null},{"server_id":51,"name":"Uncletopia | Warsaw | 3 | All Maps","name_short":"waw-3","host":"waw-1.pl.uncletopia.com","port":27035,"enabled":true,"region":"eu","cc":"pl","latitude":52.2297,"longitude":21.017532,"reserved":0,"last_update":"0001-01-01T00:00:00Z","name_a2s":"Uncletopia | Warsaw | 3 | All Maps","protocol":17,"map":"plr_pipeline","folder":"tf","game":"Team Fortress","app_id":440,"player_count":0,"max_players":24,"Bots":0,"server_type":"Dedicated","server_os":"Linux","password":true,"vac":true,"version":"7961495","steam_id":85568392925397852,"keywords":["nocrits","nodmgspread","payload","uncletopia"],"game_id":440,"stv_port":27036,"stv_name":"Uncletopia | Warsaw | 3 | All Maps | STV","players":null},{"server_id":52,"name":"Uncletopia | Warsaw | 4 | All Maps","name_short":"waw-4","host":"waw-1.pl.uncletopia.com","port":27045,"enabled":true,"region":"eu","cc":"pl","latitude":52.2297,"longitude":21.017532,"reserved":0,"last_update":"0001-01-01T00:00:00Z","name_a2s":"Uncletopia | Warsaw | 4 | All Maps","protocol":17,"map":"cp_coldfront","folder":"tf","game":"Team Fortress","app_id":440,"player_count":0,"max_players":24,"Bots":0,"server_type":"Dedicated","server_os":"Linux","password":true,"vac":true,"version":"7961495","steam_id":85568392925397853,"keywords":["cp","nocrits","nodmgspread","uncletopia"],"game_id":440,"stv_port":27046,"stv_name":"Uncletopia | Warsaw | 4 | All Maps | STV","players":null},{"server_id":53,"name":"Uncletopia | Warsaw | 5 | Stopwatch","name_short":"waw-5","host":"waw-1.pl.uncletopia.com","port":27055,"enabled":true,"region":"eu","cc":"pl","latitude":52.2297,"longitude":21.017532,"reserved":0,"last_update":"0001-01-01T00:00:00Z","name_a2s":"Uncletopia | Warsaw | 5 | Stopwatch","protocol":17,"map":"workshop/koth_bagel_rc6.ugc2514036946","folder":"tf","game":"Team Fortress","app_id":440,"player_count":0,"max_players":24,"Bots":0,"server_type":"Dedicated","server_os":"Linux","password":true,"vac":true,"version":"7961495","steam_id":85568392925397854,"keywords":["cp","nocrits","nodmgspread","uncletopia"],"game_id":440,"stv_port":27056,"stv_name":"Uncletopia | Warsaw | 5 | Stopwatch | STV","players":null},{"server_id":54,"name":"Uncletopia | Warsaw | 6 | Community","name_short":"waw-6","host":"waw-1.pl.uncletopia.com","port":27065,"enabled":true,"region":"eu","cc":"pl","latitude":52.2297,"longitude":21.017532,"reserved":0,"last_update":"0001-01-01T00:00:00Z","name_a2s":"Uncletopia | Warsaw | 6 | Community","protocol":17,"map":"workshop/pl_badwater_pro_v12.ugc2142942074","folder":"tf","game":"Team Fortress","app_id":440,"player_count":0,"max_players":24,"Bots":0,"server_type":"Dedicated","server_os":"Linux","password":true,"vac":true,"version":"7961495","steam_id":85568392925397856,"keywords":["nocrits","nodmgspread","payload","uncletopia"],"game_id":440,"stv_port":27066,"stv_name":"Uncletopia | Warsaw | 6 | Community | STV","players":null}]}