{"status":true,"message":"","result":[{"server_id":9,"name":"Uncletopia | Atlanta | 1 | All Maps","name_short":"atl-1","host":"atl-1.us.uncletopia.com","port":27015,"enabled":true,"region":"us-east","cc":"us","latitude":33.753746,"longitude":-84.38633,"reserved":0,"last_update":"0001-01-01T00:00:00Z","name_a2s":"Uncletopia | Atlanta | 1 | All Maps","protocol":17,"map":"pl_snowycoast","folder":"tf","game":"Team Fortress","app_id":440,"player_count":0,"max_players":24,"Bots":0,"server_type":"Dedicated","server_os":"Linux","password":true,"vac":true,"version":"7742253","steam_id":85568392924469982,"keywords":["nocrits","nodmgspread","payload","uncletopia"],"game_id":440,"stv_port":27016,"stv_name":"Uncletopia | Atlanta | 1 | All Maps | STV","players":null},{"server_id":400,"name":"Uncletopia | Atlanta | 3 | Stopwatch Beta","name_short":"atl-3","host":"atl-1.us.uncletopia.com","port":27035,"enabled":true,"region":"us-east","cc":"us","latitude":33.753746,"longitude":-84.38633,"reserved":0,"last_update":"0001-01-01T00:00:00Z","name_a2s":"Uncletopia | Atlanta | 3 | Stopwatch Beta","protocol":17,"map":"pl_pier","folder":"tf","game":"Team Fortress","app_id":440,"player_count":0,"max_players":24,"Bots":0,"server_type":"Dedicated","server_os":"Linux","password":true,"vac":true,"version":"7742253","steam_id":85568392924515187,"keywords":["nocrits","nodmgspread","payload","uncletopia"],"game_id":440,"stv_port":27036,"stv_name":"Uncletopia | Atlanta | 3 | Stopwatch Beta | STV","players":null},{"server_id":401,"name":"Uncletopia | Atlanta | 4 | No Payload","name_short":"atl-4","host":"atl-1.us.uncletopia.com","port":27045,"enabled":true,"region":"us-east","cc":"us","latitude":33.753746,"longitude":-84.38633,"reserved":0,"last_update":"0001-01-01T00:00:00Z","name_a2s":"Uncletopia | Atlanta | 4 | No Payload","protocol":17,"map":"pl_pier","folder":"tf","game":"Team Fortress","app_id":440,"player_count":0,"max_players":24,"Bots":0,"server_type":"Dedicated","server_os":"Linux","password":true,"vac":true,"version":"7723704","steam_id":85568392924515188,"keywords":["nocrits","nodmgspread","payload","uncletopia"],"game_id":440,"stv_port":27046,"stv_name":"Uncletopia | Atlanta | 4 | No Payload | STV","players":null},{"server_id":2,"name":"Uncletopia | Chicago | 1 | All Maps","name_short":"chi-1","host":"chi-1.us.uncletopia.com","port":27015,"enabled":true,"region":"us-central","cc":"us","latitude":41.881832,"longitude":-87.62318,"reserved":0,"last_update":"0001-01-01T00:00:00Z","name_a2s":"Uncletopia | Chicago | 1 | All Maps","protocol":17,"map":"pl_barnblitz","folder":"tf","game":"Team Fortress","app_id":440,"player_count":0,"max_players":24,"Bots":0,"server_type":"Dedicated","server_os":"Linux","password":true,"vac":true,"version":"7742253","steam_id":85568392924469984,"keywords":["nocrits","nodmgspread","payload","uncletopia"],"game_id":440,"stv_port":27016,"stv_name":"Uncletopia | Chicago | 1 | All Maps | STV","players":null},{"server_id":106,"name":"Uncletopia | Chicago | 2 | All Maps","name_short":"chi-2","host":"chi-1.us.uncletopia.com","port":27025,"enabled":true,"region":"us-central","cc":"us","latitude":41.881832,"longitude":-87.62318,"reserved":0,"last_update":"0001-01-01T00:00:00Z","name_a2s":"Uncletopia | Chicago | 2 | All Maps","protocol":17,"map":"pl_snowycoast","folder":"tf","game":"Team Fortress","app_id":440,"player_count":0,"max_players":24,"Bots":0,"server_type":"Dedicated","server_os":"Linux","password":true,"vac":true,"version":"7742253","steam_id":85568392924469985,"keywords":["nocrits","nodmgspread","payload","uncletopia"],"game_id":440,"stv_port":27026,"stv_name":"Uncletopia | Chicago | 2 | All Maps | STV","players":null},{"server_id":402,"name":"Uncletopia | Chicago | 3 | All Maps","name_short":"chi-3","host":"chi-1.us.uncletopia.com","port":27035,"enabled":true,"region":"us-central","cc":"us","latitude":41.881832,"longitude":-87.62318,"reserved":0,"last_update":"0001-01-01T00:00:00Z","name_a2s":"Uncletopia | Chicago | 3 | All Maps","protocol":17,"map":"koth_viaduct","folder":"tf","game":"Team Fortress","app_id":440,"player_count":0,"max_players":24,"Bots":0,"server_type":"Dedicated","server_os":"Linux","password":true,"vac":true,"version":"7742253","steam_id":85568392924515191,"keywords":["cp","nocrits","nodmgspread","uncletopia"],"game_id":440,"stv_port":27036,"stv_name":"Uncletopia | Chicago | 3 | All Maps | STV","players":null},{"server_id":403,"name":"Uncletopia | Chicago | 4 | All Maps","name_short":"chi-4","host":"chi-1.us.uncletopia.com","port":27045,"enabled":true,"region":"us-central","cc":"us","latitude":41.881832,"longitude":-87.62318,"reserved":0,"last_update":"0001-01-01T00:00:00Z","name_a2s":"Uncletopia | Chicago | 4 | All Maps","protocol":17,"map":"koth_lakeside_final","folder":"tf","game":"Team Fortress","app_id":440,"player_count":0,"max_players":24,"Bots":0,"server_type":"Dedicated","server_os":"Linux","password":true,"vac":true,"version":"7742253","steam_id":85568392924515193,"keywords":["cp","nocrits","nodmgspread","uncletopia"],"game_id":440,"stv_port":27046,"stv_name":"Uncletopia | Chicago | 4 | All Maps | STV","players":null},{"server_id":36,"name":"Uncletopia | Chicago | 5 | All Maps","name_short":"chi-5","host":"chi-2.us.uncletopia.com","port":27015,"enabled":true,"region":"us-central","cc":"us","latitude":41.881832,"longitude":-87.62318,"reserved":0,"last_update":"0001-01-01T00:00:00Z","name_a2s":"Uncletopia | Chicago | 5 | All Maps","protocol":17,"map":"pl_upward","folder":"tf","game":"Team Fortress","app_id":440,"player_count":0,"max_players":24,"Bots":0,"server_type":"Dedicated","server_os":"Linux","password":true,"vac":true,"version":"7742253","steam_id":85568392924866362,"keywords":["nocrits","nodmgspread","payload","uncletopia"],"game_id":440,"stv_port":27016,"stv_name":"Uncletopia | Chicago | 5 | All Maps | STV","players":null},{"server_id":37,"name":"Uncletopia | Chicago | 6 | All Maps","name_short":"chi-6","host":"chi-2.us.uncletopia.com","port":27025,"enabled":true,"region":"us-central","cc":"us","latitude":41.881832,"longitude":-87.62318,"reserved":0,"last_update":"0001-01-01T00:00:00Z","name_a2s":"Uncletopia | Chicago | 6 | All Maps","protocol":17,"map":"pl_thundermountain","folder":"tf","game":"Team Fortress","app_id":440,"player_count":24,"max_players":24,"Bots":0,"server_type":"Dedicated","server_os":"Linux","password":true,"vac":true,"version":"7742253","steam_id":85568392924866363,"keywords":["nocrits","nodmgspread","payload","uncletopia"],"game_id":440,"stv_port":27026,"stv_name":"Uncletopia | Chicago | 6 | All Maps | STV","players":[{"user_id":38,"name":"hammy","steam_id":76561197997356746,"connected_time":2208000000000,"state":"active","ping":56},{"user_id":36,"name":"InKryption","steam_id":76561198125975094,"connected_time":2284000000000,"state":"active","ping":167},{"user_id":5,"name":"Ralsei","steam_id":76561198023352750,"connected_time":3497000000000,"state":"active","ping":89},{"user_id":6,"name":"Admiral Angry","steam_id":76561198058199206,"connected_time":3488000000000,"state":"active","ping":56},{"user_id":7,"name":"google \"men's balls\" LOL!!","steam_id":76561198081220016,"connected_time":3483000000000,"state":"active","ping":58},{"user_id":53,"name":"Aeterna Victrix","steam_id":76561198067701236,"connected_time":1101000000000,"state":"active","ping":56},{"user_id":41,"name":"mucho mejor","steam_id":76561198122854617,"connected_time":2137000000000,"state":"active","ping":45},{"user_id":10,"name":"Amogous Supreme","steam_id":76561198025476774,"connected_time":3478000000000,"state":"active","ping":112},{"user_id":11,"name":"⛧⸸⛧⸸⛧⸸","steam_id":76561198007051179,"connected_time":3475000000000,"state":"active","ping":107},{"user_id":56,"name":"Canscrat","steam_id":76561198859696216,"connected_time":673000000000,"state":"active","ping":136},{"user_id":13,"name":"Batman Grant Williams","steam_id":76561198115458307,"connected_time":3452000000000,"state":"active","ping":104},{"user_id":35,"name":"Atlas","steam_id":76561198127975050,"connected_time":2318000000000,"state":"active","ping":60},{"user_id":54,"name":"viedoamegs","steam_id":76561198025295263,"connected_time":782000000000,"state":"active","ping":80},{"user_id":16,"name":"Jimothy","steam_id":76561198982248872,"connected_time":3437000000000,"state":"active","ping":75},{"user_id":47,"name":"frid","steam_id":76561198005806915,"connected_time":1658000000000,"state":"active","ping":63},{"user_id":19,"name":"Pan Dulce","steam_id":76561198044444716,"connected_time":3413000000000,"state":"active","ping":113},{"user_id":60,"name":"Barracuda","steam_id":76561198013022083,"connected_time":32000000000,"state":"active","ping":60},{"user_id":61,"name":"FloatingOnAar","steam_id":76561198201931515,"connected_time":30000000000,"state":"active","ping":93},{"user_id":22,"name":"Brown_Dream","steam_id":76561198975766145,"connected_time":3356000000000,"state":"active","ping":85},{"user_id":62,"name":"Malkraz","steam_id":76561197995200829,"connected_time":30000000000,"state":"active","ping":98},{"user_id":24,"name":"Soap Man","steam_id":76561198000490235,"connected_time":3252000000000,"state":"active","ping":113},{"user_id":33,"name":"Jauri","steam_id":76561197994448995,"connected_time":2472000000000,"state":"active","ping":83},{"user_id":58,"name":"SuperJagops","steam_id":76561198034689716,"connected_time":617000000000,"state":"active","ping":66},{"user_id":50,"name":"Daz","steam_id":76561198041431938,"connected_time":1133000000000,"state":"active","ping":75}]},{"server_id":38,"name":"Uncletopia | Chicago | 7 | Stopwatch Beta","name_short":"chi-7","host":"chi-2.us.uncletopia.com","port":27035,"enabled":true,"region":"us-central","cc":"us","latitude":41.881832,"longitude":-87.62318,"reserved":0,"last_update":"0001-01-01T00:00:00Z","name_a2s":"Uncletopia | Chicago | 7 | Stopwatch Beta","protocol":17,"map":"koth_lakeside_final","folder":"tf","game":"Team Fortress","app_id":440,"player_count":0,"max_players":24,"Bots":0,"server_type":"Dedicated","server_os":"Linux","password":true,"vac":true,"version":"7742253","steam_id":85568392924866364,"keywords":["cp","nocrits","nodmgspread","uncletopia"],"game_id":440,"stv_port":27036,"stv_name":"Uncletopia | Chicago | 7 | Stopwatch Beta | STV","players":null},{"server_id":39,"name":"Uncletopia | Chicago | 8 | Community","name_short":"chi-8","host":"chi-2.us.uncletopia.com","port":27045,"enabled":true,"region":"us-central","cc":"us","latitude":41.881832,"longitude":-87.62318,"reserved":0,"last_update":"0001-01-01T00:00:00Z","name_a2s":"Uncletopia | Chicago | 8 | Community","protocol":17,"map":"koth_lakeside_final","folder":"tf","game":"Team Fortress","app_id":440,"player_count":0,"max_players":24,"Bots":0,"server_type":"Dedicated","server_os":"Linux","password":true,"vac":true,"version":"7742253","steam_id":85568392924866365,"keywords":["cp","nocrits","nodmgspread","uncletopia"],"game_id":440,"stv_port":27046,"stv_name":"Uncletopia | Chicago | 8 | Community | STV","players":null},{"server_id":8,"name":"Uncletopia | Dallas | 1 | All Maps","name_short":"dal-1","host":"dal-1.us.uncletopia.com","port":27015,"enabled":true,"region":"us-central","cc":"us","latitude":32.779167,"longitude":-96.80889,"reserved":0,"last_update":"0001-01-01T00:00:00Z","name_a2s":"Uncletopia | Dallas | 1 | All Maps","protocol":17,"map":"cp_mountainlab","folder":"tf","game":"Team Fortress","app_id":440,"player_count":0,"max_players":24,"Bots":0,"server_type":"Dedicated","server_os":"Linux","password":true,"vac":true,"version":"7742253","steam_id":85568392924469986,"keywords":["cp","nocrits","nodmgspread","uncletopia"],"game_id":440,"stv_port":27016,"stv_name":"Uncletopia | Dallas | 1 | All Maps | STV","players":null},{"server_id":108,"name":"Uncletopia | Dallas | 2 | All Maps","name_short":"dal-2","host":"dal-1.us.uncletopia.com","port":27025,"enabled":true,"region":"us-central","cc":"us","latitude":32.779167,"longitude":-96.80889,"reserved":0,"last_update":"0001-01-01T00:00:00Z","name_a2s":"Uncletopia | Dallas | 2 | All Maps","protocol":17,"map":"cp_process_final","folder":"tf","game":"Team Fortress","app_id":440,"player_count":0,"max_players":24,"Bots":0,"server_type":"Dedicated","server_os":"Linux","password":true,"vac":true,"version":"7742253","steam_id":85568392924469988,"keywords":["cp","nocrits","nodmgspread","uncletopia"],"game_id":440,"stv_port":27026,"stv_name":"Uncletopia | Dallas | 2 | All Maps | STV","players":null},{"server_id":5,"name":"Uncletopia | Frankfurt | 1 | All Maps","name_short":"frk-1","host":"frk-1.de.uncletopia.com","port":27015,"enabled":true,"region":"eu","cc":"de","latitude":50.110924,"longitude":8.682127,"reserved":0,"last_update":"0001-01-01T00:00:00Z","name_a2s":"Uncletopia | Frankfurt | 1 | All Maps","protocol":17,"map":"pl_pier","folder":"tf","game":"Team Fortress","app_id":440,"player_count":24,"max_players":24,"Bots":0,"server_type":"Dedicated","server_os":"Linux","password":true,"vac":true,"version":"7742253","steam_id":85568392924469989,"keywords":["nocrits","nodmgspread","payload","uncletopia"],"game_id":440,"stv_port":27016,"stv_name":"Uncletopia | Frankfurt | 1 | All Maps | STV","players":[{"user_id":246,"name":"noamshor","steam_id":76561198974556515,"connected_time":67000000000,"state":"active","ping":137},{"user_id":188,"name":"Bob.","steam_id":76561198330093822,"connected_time":3762000000000,"state":"active","ping":67},{"user_id":227,"name":"Wife left me for a Romanian","steam_id":76561198992352692,"connected_time":1186000000000,"state":"active","ping":70},{"user_id":223,"name":"Vezage","steam_id":76561198064916164,"connected_time":1575000000000,"state":"active","ping":72},{"user_id":196,"name":"Bundle of Sticks","steam_id":76561198133782205,"connected_time":3132000000000,"state":"active","ping":124},{"user_id":226,"name":"jovi_","steam_id":76561198449280552,"connected_time":1357000000000,"state":"active","ping":62},{"user_id":232,"name":"God´s Cock","steam_id":76561198058947923,"connected_time":1119000000000,"state":"active","ping":57},{"user_id":192,"name":"TKN_Paps997","steam_id":76561198419868465,"connected_time":3321000000000,"state":"active","ping":78},{"user_id":241,"name":"MrBanana","steam_id":76561198116021623,"connected_time":365000000000,"state":"active","ping":45},{"user_id":198,"name":"Autonomous movement","steam_id":76561198087800030,"connected_time":3061000000000,"state":"active","ping":75},{"user_id":211,"name":"Ｒ Ｏ Ｂ Ｂ Ｅ Ｒ Ｔ","steam_id":76561198134404830,"connected_time":2107000000000,"state":"active","ping":125},{"user_id":118,"name":"shinji","steam_id":76561198099696876,"connected_time":6007000000000,"state":"active","ping":60},{"user_id":210,"name":"Dolcelatte","steam_id":76561198038501770,"connected_time":2388000000000,"state":"active","ping":58},{"user_id":235,"name":"DoctorTopLeL","steam_id":76561198088533595,"connected_time":498000000000,"state":"active","ping":109},{"user_id":218,"name":"contracts are pain","steam_id":76561198864028310,"connected_time":1676000000000,"state":"active","ping":57},{"user_id":245,"name":"Moistmaker","steam_id":76561198005279634,"connected_time":166000000000,"state":"active","ping":78},{"user_id":200,"name":"banrab","steam_id":76561198083615367,"connected_time":3060000000000,"state":"active","ping":50},{"user_id":234,"name":"Alberto","steam_id":76561199062056421,"connected_time":658000000000,"state":"active","ping":54},{"user_id":239,"name":"Mr. Hunts","steam_id":76561197981910397,"connected_time":387000000000,"state":"active","ping":75},{"user_id":244,"name":"Medo Loves u","steam_id":76561199386201391,"connected_time":243000000000,"state":"active","ping":179},{"user_id":236,"name":"Fallen Dog","steam_id":76561198851387188,"connected_time":481000000000,"state":"active","ping":70},{"user_id":242,"name":"W.","steam_id":76561198097420050,"connected_time":362000000000,"state":"active","ping":59},{"user_id":243,"name":"Miedzan","steam_id":76561198405250516,"connected_time":353000000000,"state":"active","ping":69},{"user_id":221,"name":"the joy of recycling","steam_id":76561198415564349,"connected_time":1620000000000,"state":"active","ping":70}]},{"server_id":110,"name":"Uncletopia | Frankfurt | 2 | All Maps","name_short":"frk-2","host":"frk-1.de.uncletopia.com","port":27025,"enabled":true,"region":"eu","cc":"de","latitude":50.110924,"longitude":8.682127,"reserved":0,"last_update":"0001-01-01T00:00:00Z","name_a2s":"Uncletopia | Frankfurt | 2 | All Maps","protocol":17,"map":"pl_pier","folder":"tf","game":"Team Fortress","app_id":440,"player_count":21,"max_players":24,"Bots":0,"server_type":"Dedicated","server_os":"Linux","password":true,"vac":true,"version":"7742253","steam_id":85568392924469990,"keywords":["nocrits","nodmgspread","payload","uncletopia"],"game_id":440,"stv_port":27026,"stv_name":"Uncletopia | Frankfurt | 2 | All Maps | STV","players":[{"user_id":131,"name":"imrealylazy","steam_id":76561198878574518,"connected_time":302000000000,"state":"spawning","ping":75},{"user_id":113,"name":".::[SerafeTTiN]::.","steam_id":76561198009471724,"connected_time":1446000000000,"state":"spawning","ping":92},{"user_id":135,"name":"Jedi Knight","steam_id":76561198039030709,"connected_time":39000000000,"state":"spawning","ping":52},{"user_id":109,"name":"kamekame","steam_id":76561198047108054,"connected_time":1703000000000,"state":"spawning","ping":94},{"user_id":129,"name":"tree__dude","steam_id":76561198975762241,"connected_time":506000000000,"state":"spawning","ping":88},{"user_id":136,"name":"blurst of times","steam_id":76561197972325640,"connected_time":26000000000,"state":"spawning","ping":70},{"user_id":103,"name":"Scent Tree","steam_id":76561198444371121,"connected_time":1809000000000,"state":"spawning","ping":157},{"user_id":123,"name":"sgt_peper","steam_id":76561198029751443,"connected_time":854000000000,"state":"spawning","ping":89},{"user_id":137,"name":"\u003e:3","steam_id":76561198368312026,"connected_time":4000000000,"state":"spawning","ping":59},{"user_id":92,"name":"Rose-Marie","steam_id":76561198055611092,"connected_time":2887000000000,"state":"spawning","ping":69},{"user_id":84,"name":"Carrot","steam_id":76561198119340863,"connected_time":3566000000000,"state":"spawning","ping":59},{"user_id":64,"name":"Solid","steam_id":76561198357049292,"connected_time":4259000000000,"state":"spawning","ping":97},{"user_id":104,"name":"aaron","steam_id":76561198090143282,"connected_time":1803000000000,"state":"spawning","ping":66},{"user_id":128,"name":"steinar","steam_id":76561198441857153,"connected_time":648000000000,"state":"spawning","ping":64},{"user_id":82,"name":"player","steam_id":76561198054474684,"connected_time":3713000000000,"state":"spawning","ping":91},{"user_id":105,"name":"where is my egg?","steam_id":76561198172542535,"connected_time":1796000000000,"state":"spawning","ping":100},{"user_id":121,"name":"dr.cumfart","steam_id":76561198045330758,"connected_time":883000000000,"state":"spawning","ping":129},{"user_id":130,"name":"Akirus","steam_id":76561198369831090,"connected_time":457000000000,"state":"spawning","ping":101},{"user_id":127,"name":"Gordon Birdman","steam_id":76561198013382324,"connected_time":660000000000,"state":"spawning","ping":84},{"user_id":133,"name":"Sigmar's Weakest Soldier","steam_id":76561198320506848,"connected_time":226000000000,"state":"spawning","ping":53},{"user_id":116,"name":"2 Bugatti Richh","steam_id":76561198122416996,"connected_time":1368000000000,"state":"spawning","ping":61}]},{"server_id":308,"name":"Uncletopia | Frankfurt | 3 | All Maps","name_short":"frk-3","host":"frk-1.de.uncletopia.com","port":27035,"enabled":true,"region":"eu","cc":"de","latitude":50.110924,"longitude":8.682127,"reserved":0,"last_update":"0001-01-01T00:00:00Z","name_a2s":"Uncletopia | Frankfurt | 3 | All Maps","protocol":17,"map":"cp_altitude","folder":"tf","game":"Team Fortress","app_id":440,"player_count":0,"max_players":24,"Bots":0,"server_type":"Dedicated","server_os":"Linux","password":true,"vac":true,"version":"7742253","steam_id":85568392924504274,"keywords":["cp","nocrits","nodmgspread","uncletopia"],"game_id":440,"stv_port":27036,"stv_name":"Uncletopia | Frankfurt | 3 | All Maps | STV","players":null},{"server_id":309,"name":"Uncletopia | Frankfurt | 4 | All Maps","name_short":"frk-4","host":"frk-1.de.uncletopia.com","port":27045,"enabled":true,"region":"eu","cc":"de","latitude":50.110924,"longitude":8.682127,"reserved":0,"last_update":"0001-01-01T00:00:00Z","name_a2s":"Uncletopia | Frankfurt | 4 | All Maps","protocol":17,"map":"cp_steel","folder":"tf","game":"Team Fortress","app_id":440,"player_count":24,"max_players":24,"Bots":0,"server_type":"Dedicated","server_os":"Linux","password":true,"vac":true,"version":"7742253","steam_id":85568392924504275,"keywords":["cp","nocrits","nodmgspread","uncletopia"],"game_id":440,"stv_port":27046,"stv_name":"Uncletopia | Frankfurt | 4 | All Maps | STV","players":[{"user_id":49,"name":"Zoran Snajper","steam_id":76561198312564061,"connected_time":1147000000000,"state":"active","ping":79},{"user_id":20,"name":"your_local_penguin","steam_id":76561199224954346,"connected_time":2302000000000,"state":"active","ping":82},{"user_id":64,"name":"cl","steam_id":76561199436640904,"connected_time":322000000000,"state":"active","ping":67},{"user_id":51,"name":"Sentry","steam_id":76561198158934992,"connected_time":1108000000000,"state":"active","ping":75},{"user_id":65,"name":"alleopold","steam_id":76561199055478676,"connected_time":315000000000,"state":"active","ping":138},{"user_id":24,"name":"Enigmus","steam_id":76561197994063627,"connected_time":2122000000000,"state":"active","ping":76},{"user_id":44,"name":"The Main Man","steam_id":76561198275646478,"connected_time":1464000000000,"state":"active","ping":51},{"user_id":66,"name":"ghe ghe ghe","steam_id":76561198868286775,"connected_time":312000000000,"state":"active","ping":92},{"user_id":67,"name":"Cranjis McBasketball","steam_id":76561198051290193,"connected_time":311000000000,"state":"active","ping":60},{"user_id":68,"name":"markus #Hindiboys","steam_id":76561198186791643,"connected_time":305000000000,"state":"active","ping":75},{"user_id":29,"name":"coffee","steam_id":76561198382387303,"connected_time":1954000000000,"state":"active","ping":74},{"user_id":75,"name":"Mottinen","steam_id":76561198223868928,"connected_time":116000000000,"state":"active","ping":78},{"user_id":69,"name":"Luke SpyWalker","steam_id":76561198008643276,"connected_time":296000000000,"state":"active","ping":61},{"user_id":70,"name":"Gorlami","steam_id":76561198139623088,"connected_time":294000000000,"state":"active","ping":73},{"user_id":34,"name":"Jonas Destark","steam_id":76561198030327441,"connected_time":1899000000000,"state":"active","ping":62},{"user_id":71,"name":"Dr Doe Gaming","steam_id":76561199104748293,"connected_time":293000000000,"state":"active","ping":84},{"user_id":72,"name":"Rez","steam_id":76561198410598772,"connected_time":288000000000,"state":"active","ping":45},{"user_id":37,"name":"Landsknecht","steam_id":76561199293036742,"connected_time":1875000000000,"state":"active","ping":56},{"user_id":76,"name":"LasagnaLarry22","steam_id":76561198089478290,"connected_time":25000000000,"state":"active","ping":53},{"user_id":52,"name":"(1)Sentry","steam_id":76561198261820803,"connected_time":1094000000000,"state":"active","ping":72},{"user_id":62,"name":"not a nihilist","steam_id":76561198004340466,"connected_time":489000000000,"state":"active","ping":52},{"user_id":73,"name":"citronous","steam_id":76561198093290934,"connected_time":276000000000,"state":"active","ping":51},{"user_id":55,"name":"LoneyWolf","steam_id":76561198215921023,"connected_time":944000000000,"state":"active","ping":128},{"user_id":74,"name":"Gordon Freeman (Gman)","steam_id":76561198288798814,"connected_time":254000000000,"state":"active","ping":78}]},{"server_id":310,"name":"Uncletopia | Frankfurt | 5 | All Maps","name_short":"frk-5","host":"frk-1.de.uncletopia.com","port":27055,"enabled":true,"region":"eu","cc":"de","latitude":50.110924,"longitude":8.682127,"reserved":0,"last_update":"0001-01-01T00:00:00Z","name_a2s":"Uncletopia | Frankfurt | 5 | All Maps","protocol":17,"map":"cp_mossrock","folder":"tf","game":"Team Fortress","app_id":440,"player_count":24,"max_players":24,"Bots":0,"server_type":"Dedicated","server_os":"Linux","password":true,"vac":true,"version":"7742253","steam_id":85568392924504277,"keywords":["cp","nocrits","nodmgspread","uncletopia"],"game_id":440,"stv_port":27056,"stv_name":"Uncletopia | Frankfurt | 5 | All Maps | STV","players":[{"user_id":72,"name":"GZimmer","steam_id":76561198088794767,"connected_time":1338000000000,"state":"active","ping":50},{"user_id":92,"name":"Lintch","steam_id":76561198075974871,"connected_time":245000000000,"state":"active","ping":87},{"user_id":74,"name":"Myrk_ BimPuS","steam_id":76561198366831792,"connected_time":1238000000000,"state":"active","ping":87},{"user_id":70,"name":"Spootnak","steam_id":76561198049052518,"connected_time":1452000000000,"state":"active","ping":68},{"user_id":95,"name":"jvwvw117","steam_id":76561198870059612,"connected_time":72000000000,"state":"active","ping":53},{"user_id":73,"name":"goodguy","steam_id":76561199048167724,"connected_time":1271000000000,"state":"active","ping":99},{"user_id":96,"name":"Senator Armstrong","steam_id":76561198984346408,"connected_time":55000000000,"state":"active","ping":64},{"user_id":97,"name":"Rockfire","steam_id":76561198014117679,"connected_time":46000000000,"state":"active","ping":50},{"user_id":98,"name":"AquaFang","steam_id":76561198294711359,"connected_time":17000000000,"state":"active","ping":75},{"user_id":94,"name":"SIGMA BALLS","steam_id":76561198302623594,"connected_time":179000000000,"state":"active","ping":91},{"user_id":25,"name":"Speedwagon","steam_id":76561198387667243,"connected_time":3484000000000,"state":"active","ping":133},{"user_id":48,"name":"Val","steam_id":76561198039196844,"connected_time":2676000000000,"state":"active","ping":112},{"user_id":99,"name":"lit","steam_id":76561198164806677,"connected_time":6000000000,"state":"spawning","ping":144},{"user_id":93,"name":"Dammjan","steam_id":76561198058778591,"connected_time":209000000000,"state":"active","ping":45},{"user_id":89,"name":"DayRocketZero","steam_id":76561198331999006,"connected_time":618000000000,"state":"active","ping":69},{"user_id":32,"name":"Yony","steam_id":76561199070569941,"connected_time":3232000000000,"state":"active","ping":61},{"user_id":47,"name":"CarBombEnthusiast","steam_id":76561199448185434,"connected_time":2790000000000,"state":"active","ping":62},{"user_id":78,"name":"Tonne","steam_id":76561197970856766,"connected_time":1113000000000,"state":"active","ping":53},{"user_id":90,"name":"tealoverr.190","steam_id":76561199028497703,"connected_time":576000000000,"state":"active","ping":102},{"user_id":79,"name":"Vertebrate","steam_id":76561198147205843,"connected_time":1111000000000,"state":"active","ping":90},{"user_id":41,"name":"Welder","steam_id":76561198355300561,"connected_time":2986000000000,"state":"active","ping":64},{"user_id":80,"name":"Beetle","steam_id":76561198325505238,"connected_time":1066000000000,"state":"active","ping":80},{"user_id":88,"name":"Brinier","steam_id":76561199012604288,"connected_time":736000000000,"state":"active","ping":55},{"user_id":57,"name":"OevLex","steam_id":76561198367557357,"connected_time":2306000000000,"state":"active","ping":90}]},{"server_id":311,"name":"Uncletopia | Frankfurt | 6 | All Maps","name_short":"frk-6","host":"frk-1.de.uncletopia.com","port":27065,"enabled":true,"region":"eu","cc":"de","latitude":50.110924,"longitude":8.682127,"reserved":0,"last_update":"0001-01-01T00:00:00Z","name_a2s":"Uncletopia | Frankfurt | 6 | All Maps","protocol":17,"map":"koth_lakeside_final","folder":"tf","game":"Team Fortress","app_id":440,"player_count":0,"max_players":24,"Bots":0,"server_type":"Dedicated","server_os":"Linux","password":true,"vac":true,"version":"7742253","steam_id":85568392924504278,"keywords":["cp","nocrits","nodmgspread","uncletopia"],"game_id":440,"stv_port":27066,"stv_name":"Uncletopia | Frankfurt | 6 | All Maps | STV","players":null},{"server_id":23,"name":"Uncletopia | Frankfurt | 7 | Stopwatch Beta","name_short":"frk-7","host":"frk-1.de.uncletopia.com","port":27075,"enabled":true,"region":"eu","cc":"de","latitude":50.110924,"longitude":8.682127,"reserved":0,"last_update":"0001-01-01T00:00:00Z","name_a2s":"Uncletopia | Frankfurt | 7 | Stopwatch Beta","protocol":17,"map":"pl_badwater","folder":"tf","game":"Team Fortress","app_id":440,"player_count":0,"max_players":24,"Bots":0,"server_type":"Dedicated","server_os":"Linux","password":true,"vac":true,"version":"7742253","steam_id":85568392924742827,"keywords":["nocrits","nodmgspread","payload","uncletopia"],"game_id":440,"stv_port":27076,"stv_name":"Uncletopia | Frankfurt | 7 | Stopwatch Beta | STV","players":null},{"server_id":24,"name":"Uncletopia | Frankfurt | 8 | Community","name_short":"frk-8","host":"frk-1.de.uncletopia.com","port":27085,"enabled":true,"region":"eu","cc":"de","latitude":50.110924,"longitude":8.682127,"reserved":0,"last_update":"0001-01-01T00:00:00Z","name_a2s":"Uncletopia | Frankfurt | 8 | Community","protocol":17,"map":"koth_cascade","folder":"tf","game":"Team Fortress","app_id":440,"player_count":0,"max_players":24,"Bots":0,"server_type":"Dedicated","server_os":"Linux","password":true,"vac":true,"version":"7742253","steam_id":85568392924742828,"keywords":["cp","nocrits","nodmgspread","uncletopia"],"game_id":440,"stv_port":27086,"stv_name":"Uncletopia | Frankfurt | 8 | Community | STV","players":null},{"server_id":202,"name":"Uncletopia | Hong Kong | 1 | All Maps","name_short":"hgk-1","host":"hgk-1.hk.uncletopia.com","port":27015,"enabled":true,"region":"asia","cc":"hk","latitude":22.302711,"longitude":114.177216,"reserved":0,"last_update":"0001-01-01T00:00:00Z","name_a2s":"Uncletopia | Hong Kong | 1 | All Maps","protocol":17,"map":"pl_swiftwater_final1","folder":"tf","game":"Team Fortress","app_id":440,"player_count":24,"max_players":24,"Bots":0,"server_type":"Dedicated","server_os":"Linux","password":true,"vac":true,"version":"7742253","steam_id":85568392924494504,"keywords":["nocrits","nodmgspread","payload","uncletopia"],"game_id":440,"stv_port":27016,"stv_name":"Uncletopia | Hong Kong | 1 | All Maps | STV","players":[{"user_id":541,"name":"Talkk More","steam_id":76561198305424433,"connected_time":937000000000,"state":"active","ping":96},{"user_id":547,"name":"indistinguishable from magic","steam_id":76561198442507642,"connected_time":482000000000,"state":"active","ping":87},{"user_id":560,"name":"Buttman","steam_id":76561198044693388,"connected_time":115000000000,"state":"active","ping":47},{"user_id":550,"name":"쿠키","steam_id":76561197997220367,"connected_time":463000000000,"state":"active","ping":46},{"user_id":552,"name":"lettuce at 58p","steam_id":76561199401283123,"connected_time":451000000000,"state":"active","ping":90},{"user_id":546,"name":"Wattson22542","steam_id":76561198011172886,"connected_time":482000000000,"state":"active","ping":45},{"user_id":468,"name":"UltraFat","steam_id":76561198253918132,"connected_time":6535000000000,"state":"active","ping":77},{"user_id":521,"name":"ratfucker47","steam_id":76561198413116920,"connected_time":2870000000000,"state":"active","ping":76},{"user_id":538,"name":"Banana Milk","steam_id":76561198005156257,"connected_time":1468000000000,"state":"active","ping":121},{"user_id":493,"name":"Windmill","steam_id":76561199230997986,"connected_time":4862000000000,"state":"active","ping":83},{"user_id":491,"name":"r/leroy","steam_id":76561199137927625,"connected_time":4974000000000,"state":"active","ping":150},{"user_id":537,"name":"screaming sniper","steam_id":76561199085568674,"connected_time":1635000000000,"state":"active","ping":68},{"user_id":523,"name":"Guns","steam_id":76561198109372394,"connected_time":2452000000000,"state":"active","ping":66},{"user_id":551,"name":"Simoframe","steam_id":76561199111778304,"connected_time":463000000000,"state":"active","ping":147},{"user_id":492,"name":"Kirov airship","steam_id":76561199024960087,"connected_time":4952000000000,"state":"active","ping":69},{"user_id":525,"name":"_kobic","steam_id":76561199166938276,"connected_time":2397000000000,"state":"active","ping":80},{"user_id":515,"name":"Corhix","steam_id":76561198968706355,"connected_time":3052000000000,"state":"active","ping":43},{"user_id":520,"name":"corpse_cadaver","steam_id":76561199225360457,"connected_time":2939000000000,"state":"active","ping":63},{"user_id":539,"name":"conq","steam_id":76561199110124835,"connected_time":1225000000000,"state":"active","ping":96},{"user_id":548,"name":"bocchi the oppai","steam_id":76561198008307645,"connected_time":481000000000,"state":"active","ping":124},{"user_id":522,"name":"m1ko-  ❀❆","steam_id":76561198337154745,"connected_time":2623000000000,"state":"active","ping":90},{"user_id":530,"name":"n3bukadnedzar","steam_id":76561198108308709,"connected_time":1893000000000,"state":"active","ping":97},{"user_id":555,"name":"Drutzhfer","steam_id":76561198299948446,"connected_time":420000000000,"state":"active","ping":104},{"user_id":562,"name":"yw","steam_id":76561199382726488,"connected_time":21000000000,"state":"spawning","ping":76}]},{"server_id":1,"name":"Uncletopia | Los Angeles | 1 | All Maps","name_short":"lax-1","host":"lax-1.us.uncletopia.com","port":27015,"enabled":true,"region":"us-west","cc":"us","latitude":33.94279,"longitude":-118.41004,"reserved":0,"last_update":"0001-01-01T00:00:00Z","name_a2s":"Uncletopia | Los Angeles | 1 | All Maps","protocol":17,"map":"koth_viaduct","folder":"tf","game":"Team Fortress","app_id":440,"player_count":0,"max_players":24,"Bots":0,"server_type":"Dedicated","server_os":"Linux","password":true,"vac":true,"version":"7742253","steam_id":85568392924469991,"keywords":["cp","nocrits","nodmgspread","uncletopia"],"game_id":440,"stv_port":27016,"stv_name":"Uncletopia | Los Angeles | 1 | All Maps | STV","players":null},{"server_id":112,"name":"Uncletopia | Los Angeles | 2 | All Maps","name_short":"lax-2","host":"lax-1.us.uncletopia.com","port":27025,"enabled":true,"region":"us-west","cc":"us","latitude":33.94279,"longitude":-118.41004,"reserved":0,"last_update":"0001-01-01T00:00:00Z","name_a2s":"Uncletopia | Los Angeles | 2 | All Maps","protocol":17,"map":"koth_viaduct","folder":"tf","game":"Team Fortress","app_id":440,"player_count":0,"max_players":24,"Bots":0,"server_type":"Dedicated","server_os":"Linux","password":true,"vac":true,"version":"7742253","steam_id":85568392924469992,"keywords":["cp","nocrits","nodmgspread","uncletopia"],"game_id":440,"stv_port":27026,"stv_name":"Uncletopia | Los Angeles | 2 | All Maps | STV","players":null},{"server_id":324,"name":"Uncletopia | Los Angeles | 3 | All Maps","name_short":"lax-3","host":"lax-1.us.uncletopia.com","port":27035,"enabled":true,"region":"us-west","cc":"us","latitude":33.94279,"longitude":-118.41004,"reserved":0,"last_update":"0001-01-01T00:00:00Z","name_a2s":"Uncletopia | Los Angeles | 3 | All Maps","protocol":17,"map":"cp_altitude","folder":"tf","game":"Team Fortress","app_id":440,"player_count":0,"max_players":24,"Bots":0,"server_type":"Dedicated","server_os":"Linux","password":true,"vac":true,"version":"7742253","steam_id":85568392924510198,"keywords":["cp","nocrits","nodmgspread","uncletopia"],"game_id":440,"stv_port":27036,"stv_name":"Uncletopia | Los Angeles | 3 | All Maps | STV","players":null},{"server_id":25,"name":"Uncletopia | Los Angeles | 4 | Stopwatch Beta","name_short":"lax-4","host":"lax-1.us.uncletopia.com","port":27045,"enabled":true,"region":"us-west","cc":"us","latitude":33.94279,"longitude":-118.41004,"reserved":0,"last_update":"0001-01-01T00:00:00Z","name_a2s":"Uncletopia | Los Angeles | 4 | Stopwatch Beta","protocol":17,"map":"workshop/koth_product_final.ugc454272353","folder":"tf","game":"Team Fortress","app_id":440,"player_count":0,"max_players":24,"Bots":0,"server_type":"Dedicated","server_os":"Linux","password":true,"vac":true,"version":"7742253","steam_id":85568392924510199,"keywords":["cp","nocrits","nodmgspread","uncletopia"],"game_id":440,"stv_port":27046,"stv_name":"Uncletopia | Los Angeles | 4 | Stopwatch Beta | STV","players":null},{"server_id":11,"name":"Uncletopia | London | 1 | All Maps","name_short":"lon-1","host":"lon-1.uk.uncletopia.com","port":27015,"enabled":true,"region":"eu","cc":"gb","latitude":51.509865,"longitude":-0.118092,"reserved":0,"last_update":"0001-01-01T00:00:00Z","name_a2s":"Uncletopia | London | 1 | All Maps","protocol":17,"map":"pl_barnblitz","folder":"tf","game":"Team Fortress","app_id":440,"player_count":24,"max_players":24,"Bots":0,"server_type":"Dedicated","server_os":"Linux","password":true,"vac":true,"version":"7742253","steam_id":85568392924367362,"keywords":["nocrits","nodmgspread","payload","uncletopia"],"game_id":440,"stv_port":27016,"stv_name":"Uncletopia | London | 1 | All Maps | STV","players":[{"user_id":147,"name":"Tavish","steam_id":76561197971486686,"connected_time":1948000000000,"state":"active","ping":45},{"user_id":165,"name":"Pabs :D","steam_id":76561198000016962,"connected_time":16000000000,"state":"spawning","ping":87},{"user_id":155,"name":"blade","steam_id":76561199308850812,"connected_time":1504000000000,"state":"active","ping":70},{"user_id":156,"name":"TheChris67","steam_id":76561198045794729,"connected_time":1106000000000,"state":"active","ping":50},{"user_id":160,"name":"lord-squidness","steam_id":76561198734104623,"connected_time":528000000000,"state":"active","ping":47},{"user_id":109,"name":"Major","steam_id":76561198086483282,"connected_time":3511000000000,"state":"active","ping":47},{"user_id":123,"name":"RelatableiLLness","steam_id":76561198441669772,"connected_time":2615000000000,"state":"active","ping":141},{"user_id":146,"name":"Palko","steam_id":76561198874359962,"connected_time":2024000000000,"state":"active","ping":82},{"user_id":92,"name":"Graf von Scyth","steam_id":76561198198497733,"connected_time":4106000000000,"state":"active","ping":47},{"user_id":148,"name":"Jakearooney","steam_id":76561198137205424,"connected_time":1903000000000,"state":"active","ping":61},{"user_id":151,"name":"Real human (not a toilet)","steam_id":76561198255131799,"connected_time":1590000000000,"state":"active","ping":68},{"user_id":105,"name":"hitman's hatemaker","steam_id":76561198093605066,"connected_time":3601000000000,"state":"active","ping":89},{"user_id":164,"name":"Potato Receiver","steam_id":76561198982674420,"connected_time":461000000000,"state":"active","ping":50},{"user_id":161,"name":"MarioThePlumber","steam_id":76561198314229530,"connected_time":506000000000,"state":"active","ping":83},{"user_id":85,"name":"HudRud","steam_id":76561198048378956,"connected_time":4599000000000,"state":"active","ping":81},{"user_id":138,"name":"Maiko","steam_id":76561198859253041,"connected_time":2243000000000,"state":"active","ping":76},{"user_id":163,"name":"GARbageTrash","steam_id":76561199101269633,"connected_time":495000000000,"state":"active","ping":82},{"user_id":137,"name":"csnipery","steam_id":76561199435280050,"connected_time":2263000000000,"state":"active","ping":75},{"user_id":162,"name":"presidentialAIDS","steam_id":76561199257284077,"connected_time":505000000000,"state":"active","ping":129},{"user_id":120,"name":"zaleek69","steam_id":76561198058877595,"connected_time":2775000000000,"state":"active","ping":76},{"user_id":133,"name":"Saiko","steam_id":76561198140258756,"connected_time":2446000000000,"state":"active","ping":90},{"user_id":41,"name":"Dark ^^","steam_id":76561198036241064,"connected_time":6570000000000,"state":"active","ping":68},{"user_id":134,"name":"тукку ирма","steam_id":76561197998715016,"connected_time":2424000000000,"state":"active","ping":64}]},{"server_id":114,"name":"Uncletopia | London | 2 | All Maps","name_short":"lon-2","host":"lon-1.uk.uncletopia.com","port":27025,"enabled":true,"region":"eu","cc":"gb","latitude":51.509865,"longitude":-0.118092,"reserved":0,"last_update":"0001-01-01T00:00:00Z","name_a2s":"Uncletopia | London | 2 | All Maps","protocol":17,"map":"pl_borneo","folder":"tf","game":"Team Fortress","app_id":440,"player_count":0,"max_players":24,"Bots":0,"server_type":"Dedicated","server_os":"Linux","password":true,"vac":true,"version":"7742253","steam_id":85568392924470941,"keywords":["nocrits","nodmgspread","payload","uncletopia"],"game_id":440,"stv_port":27026,"stv_name":"Uncletopia | London | 2 | All Maps | STV","players":null},{"server_id":320,"name":"Uncletopia | London | 3 | All Maps","name_short":"lon-3","host":"lon-1.uk.uncletopia.com","port":27035,"enabled":true,"region":"eu","cc":"gb","latitude":51.509865,"longitude":-0.118092,"reserved":0,"last_update":"0001-01-01T00:00:00Z","name_a2s":"Uncletopia | London | 3 | All Maps","protocol":17,"map":"cp_dustbowl","folder":"tf","game":"Team Fortress","app_id":440,"player_count":24,"max_players":24,"Bots":0,"server_type":"Dedicated","server_os":"Linux","password":true,"vac":true,"version":"7742253","steam_id":85568392924510192,"keywords":["cp","nocrits","nodmgspread","uncletopia"],"game_id":440,"stv_port":27036,"stv_name":"Uncletopia | London | 3 | All Maps | STV","players":[{"user_id":325,"name":"ϟ]KicsiHuszár[ϟ","steam_id":76561198085963539,"connected_time":2270000000000,"state":"active","ping":76},{"user_id":327,"name":"Detective obvious (f2p)","steam_id":76561198977045933,"connected_time":1614000000000,"state":"active","ping":144},{"user_id":307,"name":"Blert","steam_id":76561199022262740,"connected_time":2609000000000,"state":"active","ping":60},{"user_id":287,"name":"wise ukrainian shaman","steam_id":76561198989398023,"connected_time":3852000000000,"state":"active","ping":110},{"user_id":342,"name":"S0LDaTo","steam_id":76561198269413360,"connected_time":117000000000,"state":"active","ping":80},{"user_id":309,"name":"PASTAMANIA!","steam_id":76561197967858558,"connected_time":2568000000000,"state":"active","ping":46},{"user_id":310,"name":"Prison Mike","steam_id":76561198014221596,"connected_time":2561000000000,"state":"active","ping":54},{"user_id":312,"name":"JOHN GAMING (based)","steam_id":76561199085822219,"connected_time":2539000000000,"state":"active","ping":83},{"user_id":258,"name":"Mr. Potato the 11th","steam_id":76561198163246758,"connected_time":6034000000000,"state":"active","ping":68},{"user_id":329,"name":"doc","steam_id":76561198000050301,"connected_time":1164000000000,"state":"active","ping":45},{"user_id":239,"name":"Barely Sentient","steam_id":76561198143305625,"connected_time":7034000000000,"state":"active","ping":93},{"user_id":343,"name":"ℓ0ℓO","steam_id":76561198026811744,"connected_time":71000000000,"state":"active","ping":147},{"user_id":313,"name":"Paranoob","steam_id":76561199093369711,"connected_time":2538000000000,"state":"active","ping":100},{"user_id":334,"name":"(._.)","steam_id":76561198142286891,"connected_time":1011000000000,"state":"active","ping":50},{"user_id":326,"name":"Bullets","steam_id":76561198058876482,"connected_time":1854000000000,"state":"active","ping":54},{"user_id":321,"name":"VillCo","steam_id":76561198121897322,"connected_time":2401000000000,"state":"active","ping":79},{"user_id":330,"name":"dustloaf","steam_id":76561198074339302,"connected_time":1122000000000,"state":"active","ping":94},{"user_id":305,"name":"Swayer","steam_id":76561198056192460,"connected_time":2671000000000,"state":"active","ping":61},{"user_id":247,"name":"Economic crisis","steam_id":76561198063562843,"connected_time":6552000000000,"state":"active","ping":61},{"user_id":278,"name":"Myrkkykaktus (Kromax)","steam_id":76561198851209777,"connected_time":4486000000000,"state":"active","ping":80},{"user_id":314,"name":"Nameless_Mann","steam_id":76561198015543601,"connected_time":2532000000000,"state":"active","ping":78},{"user_id":315,"name":"green_frog","steam_id":76561199202028346,"connected_time":2529000000000,"state":"active","ping":173},{"user_id":337,"name":"Noodle","steam_id":76561197997208006,"connected_time":847000000000,"state":"active","ping":63},{"user_id":339,"name":"ZePequenio","steam_id":76561197968506094,"connected_time":731000000000,"state":"active","ping":42}]},{"server_id":321,"name":"Uncletopia | London | 4 | All Maps","name_short":"lon-4","host":"lon-1.uk.uncletopia.com","port":27045,"enabled":true,"region":"eu","cc":"gb","latitude":51.509865,"longitude":-0.118092,"reserved":0,"last_update":"0001-01-01T00:00:00Z","name_a2s":"Uncletopia | London | 4 | All Maps","protocol":17,"map":"koth_highpass","folder":"tf","game":"Team Fortress","app_id":440,"player_count":0,"max_players":24,"Bots":0,"server_type":"Dedicated","server_os":"Linux","password":true,"vac":true,"version":"7742253","steam_id":85568392924510193,"keywords":["cp","nocrits","nodmgspread","uncletopia"],"game_id":440,"stv_port":27046,"stv_name":"Uncletopia | London | 4 | All Maps | STV","players":null},{"server_id":21,"name":"Uncletopia | London | 5 | All Maps","name_short":"lon-5","host":"lon-1.uk.uncletopia.com","port":27055,"enabled":true,"region":"eu","cc":"gb","latitude":51.509865,"longitude":-0.118092,"reserved":0,"last_update":"0001-01-01T00:00:00Z","name_a2s":"Uncletopia | London | 5 | All Maps","protocol":17,"map":"pl_borneo","folder":"tf","game":"Team Fortress","app_id":440,"player_count":24,"max_players":24,"Bots":0,"server_type":"Dedicated","server_os":"Linux","password":true,"vac":true,"version":"7742253","steam_id":85568392924742829,"keywords":["nocrits","nodmgspread","payload","uncletopia"],"game_id":440,"stv_port":27056,"stv_name":"Uncletopia | London | 5 | All Maps | STV","players":[{"user_id":212,"name":"misato from Evangelion (real)","steam_id":76561198130860698,"connected_time":1216000000000,"state":"active","ping":52},{"user_id":215,"name":"DevOth","steam_id":76561198066203788,"connected_time":824000000000,"state":"active","ping":50},{"user_id":207,"name":"Joe","steam_id":76561198368758532,"connected_time":2007000000000,"state":"active","ping":86},{"user_id":180,"name":"HeresyMan","steam_id":76561198169154183,"connected_time":3259000000000,"state":"active","ping":75},{"user_id":210,"name":"Johnny Sweatpants","steam_id":76561198999647653,"connected_time":1281000000000,"state":"active","ping":77},{"user_id":220,"name":"SimonTheOverseer","steam_id":76561198957685588,"connected_time":546000000000,"state":"active","ping":57},{"user_id":200,"name":"catboy trickster","steam_id":76561198075665211,"connected_time":2478000000000,"state":"active","ping":46},{"user_id":191,"name":"Acxsa","steam_id":76561198098979449,"connected_time":2912000000000,"state":"active","ping":69},{"user_id":214,"name":"ΚΑΡΟΛΟΣ ΜΑΡΚΟΣ","steam_id":76561198155149163,"connected_time":1005000000000,"state":"active","ping":102},{"user_id":208,"name":"Karsapaali","steam_id":76561198322322739,"connected_time":1541000000000,"state":"active","ping":81},{"user_id":219,"name":"I am the one who donks","steam_id":76561198419583460,"connected_time":550000000000,"state":"active","ping":65},{"user_id":177,"name":"popaj72","steam_id":76561198108657509,"connected_time":3768000000000,"state":"active","ping":32},{"user_id":213,"name":"Kroto","steam_id":76561198056233760,"connected_time":1098000000000,"state":"active","ping":60},{"user_id":226,"name":"shapeshifter","steam_id":76561198028444359,"connected_time":86000000000,"state":"active","ping":60},{"user_id":192,"name":"kentucky fried chicken","steam_id":76561198348853160,"connected_time":2908000000000,"state":"active","ping":105},{"user_id":217,"name":"jaMie","steam_id":76561198170148783,"connected_time":717000000000,"state":"active","ping":39},{"user_id":225,"name":"El`Capitano Flex","steam_id":76561198061813730,"connected_time":152000000000,"state":"active","ping":68},{"user_id":206,"name":"important photo","steam_id":76561199042045774,"connected_time":2237000000000,"state":"active","ping":65},{"user_id":216,"name":"Mandele","steam_id":76561199183213205,"connected_time":822000000000,"state":"active","ping":74},{"user_id":224,"name":"salatkas","steam_id":76561198033237090,"connected_time":348000000000,"state":"active","ping":59},{"user_id":221,"name":"micros43","steam_id":76561197987859657,"connected_time":545000000000,"state":"active","ping":78},{"user_id":222,"name":"SynthBox3","steam_id":76561199094075745,"connected_time":540000000000,"state":"active","ping":91},{"user_id":188,"name":"lukastank but on sedatives","steam_id":76561198071882999,"connected_time":3058000000000,"state":"active","ping":63},{"user_id":223,"name":"FigazMaslam","steam_id":76561198148207978,"connected_time":528000000000,"state":"active","ping":82}]},{"server_id":22,"name":"Uncletopia | London | 6 | All Maps","name_short":"lon-6","host":"lon-1.uk.uncletopia.com","port":27065,"enabled":true,"region":"eu","cc":"gb","latitude":51.509865,"longitude":-0.118092,"reserved":0,"last_update":"0001-01-01T00:00:00Z","name_a2s":"Uncletopia | London | 6 | All Maps","protocol":17,"map":"pl_borneo","folder":"tf","game":"Team Fortress","app_id":440,"player_count":0,"max_players":24,"Bots":0,"server_type":"Dedicated","server_os":"Linux","password":true,"vac":true,"version":"7742253","steam_id":85568392924742830,"keywords":["nocrits","nodmgspread","payload","uncletopia"],"game_id":440,"stv_port":27066,"stv_name":"Uncletopia | London | 6 | All Maps | STV","players":null},{"server_id":40,"name":"Uncletopia | London | 7 | No Payload","name_short":"lon-7","host":"lon-1.uk.uncletopia.com","port":27075,"enabled":true,"region":"eu","cc":"gb","latitude":51.509865,"longitude":-0.118092,"reserved":0,"last_update":"0001-01-01T00:00:00Z","name_a2s":"Uncletopia | London | 7 | No Payload","protocol":17,"map":"koth_viaduct","folder":"tf","game":"Team Fortress","app_id":440,"player_count":0,"max_players":24,"Bots":0,"server_type":"Dedicated","server_os":"Linux","password":true,"vac":true,"version":"7742253","steam_id":85568392924964314,"keywords":["cp","nocrits","nodmgspread","uncletopia"],"game_id":440,"stv_port":27076,"stv_name":"Uncletopia | London | 7 | No Payload | STV","players":null},{"server_id":41,"name":"Uncletopia | London | 8 | Community","name_short":"lon-8","host":"lon-1.uk.uncletopia.com","port":27085,"enabled":true,"region":"eu","cc":"gb","latitude":51.509865,"longitude":-0.118092,"reserved":0,"last_update":"0001-01-01T00:00:00Z","name_a2s":"Uncletopia | London | 8 | Community","protocol":17,"map":"cp_altitude","folder":"tf","game":"Team Fortress","app_id":440,"player_count":0,"max_players":24,"Bots":0,"server_type":"Dedicated","server_os":"Linux","password":true,"vac":true,"version":"7742253","steam_id":85568392924964315,"keywords":["cp","nocrits","nodmgspread","uncletopia"],"game_id":440,"stv_port":27086,"stv_name":"Uncletopia | London | 8 | Community | STV","players":null},{"server_id":300,"name":"Uncletopia | Montréal | 1 | All Maps","name_short":"mtl-1","host":"mtl-1.ca.uncletopia.com","port":27015,"enabled":true,"region":"us-east","cc":"ca","latitude":45.50889,"longitude":-73.56167,"reserved":0,"last_update":"0001-01-01T00:00:00Z","name_a2s":"Uncletopia | Montréal | 1 | All Maps","protocol":17,"map":"cp_snakewater_final1","folder":"tf","game":"Team Fortress","app_id":440,"player_count":0,"max_players":24,"Bots":0,"server_type":"Dedicated","server_os":"Linux","password":true,"vac":true,"version":"7742253","steam_id":85568392924500087,"keywords":["cp","nocrits","nodmgspread","uncletopia"],"game_id":440,"stv_port":27016,"stv_name":"Uncletopia | Montréal | 1 | All Maps | STV","players":null},{"server_id":301,"name":"Uncletopia | Montréal | 2 | All Maps","name_short":"mtl-2","host":"mtl-1.ca.uncletopia.com","port":27025,"enabled":true,"region":"us-east","cc":"ca","latitude":45.50889,"longitude":-73.56167,"reserved":0,"last_update":"0001-01-01T00:00:00Z","name_a2s":"Uncletopia | Montréal | 2 | All Maps","protocol":17,"map":"koth_highpass","folder":"tf","game":"Team Fortress","app_id":440,"player_count":0,"max_players":24,"Bots":0,"server_type":"Dedicated","server_os":"Linux","password":true,"vac":true,"version":"7742253","steam_id":85568392924500088,"keywords":["cp","nocrits","nodmgspread","uncletopia"],"game_id":440,"stv_port":27026,"stv_name":"Uncletopia | Montréal | 2 | All Maps | STV","players":null},{"server_id":302,"name":"Uncletopia | Montréal | 3 | All Maps","name_short":"mtl-3","host":"mtl-1.ca.uncletopia.com","port":27035,"enabled":true,"region":"us-east","cc":"ca","latitude":45.50889,"longitude":-73.56167,"reserved":0,"last_update":"0001-01-01T00:00:00Z","name_a2s":"Uncletopia | Montréal | 3 | All Maps","protocol":17,"map":"cp_mountainlab","folder":"tf","game":"Team Fortress","app_id":440,"player_count":0,"max_players":24,"Bots":0,"server_type":"Dedicated","server_os":"Linux","password":true,"vac":true,"version":"7742253","steam_id":85568392924500089,"keywords":["cp","nocrits","nodmgspread","uncletopia"],"game_id":440,"stv_port":27036,"stv_name":"Uncletopia | Montréal | 3 | All Maps | STV","players":null},{"server_id":303,"name":"Uncletopia | Montréal | 4 | No Payload","name_short":"mtl-4","host":"mtl-1.ca.uncletopia.com","port":27045,"enabled":true,"region":"us-east","cc":"ca","latitude":45.50889,"longitude":-73.56167,"reserved":0,"last_update":"0001-01-01T00:00:00Z","name_a2s":"Uncletopia | Montréal | 4 | No Payload","protocol":17,"map":"cp_snakewater_final1","folder":"tf","game":"Team Fortress","app_id":440,"player_count":0,"max_players":24,"Bots":0,"server_type":"Dedicated","server_os":"Linux","password":true,"vac":true,"version":"7742253","steam_id":85568392924500090,"keywords":["cp","nocrits","nodmgspread","uncletopia"],"game_id":440,"stv_port":27046,"stv_name":"Uncletopia | Montréal | 4 | No Payload | STV","players":null},{"server_id":13,"name":"Uncletopia | New York City | 1 | All Maps","name_short":"nyc-1","host":"nyc-1.us.uncletopia.com","port":27015,"enabled":true,"region":"us-east","cc":"us","latitude":40.73061,"longitude":-73.93524,"reserved":0,"last_update":"0001-01-01T00:00:00Z","name_a2s":"Uncletopia | New York City | 1 | All Maps","protocol":17,"map":"cp_mountainlab","folder":"tf","game":"Team Fortress","app_id":440,"player_count":0,"max_players":24,"Bots":0,"server_type":"Dedicated","server_os":"Linux","password":true,"vac":true,"version":"7742253","steam_id":85568392924469993,"keywords":["cp","nocrits","nodmgspread","uncletopia"],"game_id":440,"stv_port":27016,"stv_name":"Uncletopia | New York City | 1 | All Maps | STV","players":null},{"server_id":14,"name":"Uncletopia | New York City | 2 | All Maps","name_short":"nyc-2","host":"nyc-1.us.uncletopia.com","port":27025,"enabled":true,"region":"us-east","cc":"us","latitude":40.73061,"longitude":-73.93524,"reserved":0,"last_update":"0001-01-01T00:00:00Z","name_a2s":"Uncletopia | New York City | 2 | All Maps","protocol":17,"map":"cp_altitude","folder":"tf","game":"Team Fortress","app_id":440,"player_count":0,"max_players":24,"Bots":0,"server_type":"Dedicated","server_os":"Linux","password":true,"vac":true,"version":"7742253","steam_id":85568392924469994,"keywords":["cp","nocrits","nodmgspread","uncletopia"],"game_id":440,"stv_port":27026,"stv_name":"Uncletopia | New York City | 2 | All Maps | STV","players":null},{"server_id":15,"name":"Uncletopia | New York City | 3 | Stopwatch Beta","name_short":"nyc-3","host":"nyc-1.us.uncletopia.com","port":27035,"enabled":true,"region":"us-east","cc":"us","latitude":40.73061,"longitude":-73.93524,"reserved":0,"last_update":"0001-01-01T00:00:00Z","name_a2s":"Uncletopia | New York City | 3 | Stopwatch Beta","protocol":17,"map":"pl_pier","folder":"tf","game":"Team Fortress","app_id":440,"player_count":0,"max_players":24,"Bots":0,"server_type":"Dedicated","server_os":"Linux","password":true,"vac":true,"version":"7742253","steam_id":85568392924742820,"keywords":["nocrits","nodmgspread","payload","uncletopia"],"game_id":440,"stv_port":27036,"stv_name":"Uncletopia | New York City | 3 | Stopwatch Beta | STV","players":null},{"server_id":16,"name":"Uncletopia | New York City | 4 | Community","name_short":"nyc-4","host":"nyc-1.us.uncletopia.com","port":27045,"enabled":true,"region":"us-east","cc":"us","latitude":40.73061,"longitude":-73.93524,"reserved":0,"last_update":"0001-01-01T00:00:00Z","name_a2s":"Uncletopia | New York City | 4 | Community","protocol":17,"map":"koth_viaduct","folder":"tf","game":"Team Fortress","app_id":440,"player_count":0,"max_players":24,"Bots":0,"server_type":"Dedicated","server_os":"Linux","password":true,"vac":true,"version":"7742253","steam_id":85568392924742821,"keywords":["cp","nocrits","nodmgspread","uncletopia"],"game_id":440,"stv_port":27046,"stv_name":"Uncletopia | New York City | 4 | Community | STV","players":null},{"server_id":142,"name":"Uncletopia | São Paulo | 1 | All Maps","name_short":"sao-1","host":"sao-1.br.uncletopia.com","port":27015,"enabled":true,"region":"sa","cc":"br","latitude":-23.533773,"longitude":-46.62529,"reserved":0,"last_update":"0001-01-01T00:00:00Z","name_a2s":"Uncletopia | São Paulo | 1 | All Maps","protocol":17,"map":"koth_viaduct","folder":"tf","game":"Team Fortress","app_id":440,"player_count":0,"max_players":24,"Bots":0,"server_type":"Dedicated","server_os":"Linux","password":true,"vac":true,"version":"7742253","steam_id":85568392924469996,"keywords":["cp","nocrits","nodmgspread","uncletopia"],"game_id":440,"stv_port":27016,"stv_name":"Uncletopia | São Paulo | 1 | All Maps | STV","players":null},{"server_id":143,"name":"Uncletopia | São Paulo | 2 | All Maps","name_short":"sao-2","host":"sao-2.br.uncletopia.com","port":27015,"enabled":true,"region":"sa","cc":"br","latitude":-23.533773,"longitude":-46.62529,"reserved":0,"last_update":"0001-01-01T00:00:00Z","name_a2s":"Uncletopia | São Paulo | 2 | All Maps","protocol":17,"map":"koth_viaduct","folder":"tf","game":"Team Fortress","app_id":440,"player_count":0,"max_players":24,"Bots":0,"server_type":"Dedicated","server_os":"Linux","password":true,"vac":true,"version":"7742253","steam_id":85568392924485349,"keywords":["cp","nocrits","nodmgspread","uncletopia"],"game_id":440,"stv_port":27016,"stv_name":"Uncletopia | São Paulo | 2 | All Maps | STV","players":null},{"server_id":7,"name":"Uncletopia | Seattle | 1 | All Maps","name_short":"sea-1","host":"sea-1.us.uncletopia.com","port":27015,"enabled":true,"region":"us-west","cc":"us","latitude":47.608013,"longitude":-122.33517,"reserved":0,"last_update":"0001-01-01T00:00:00Z","name_a2s":"Uncletopia | Seattle | 1 | All Maps","protocol":17,"map":"koth_lakeside_final","folder":"tf","game":"Team Fortress","app_id":440,"player_count":0,"max_players":24,"Bots":0,"server_type":"Dedicated","server_os":"Linux","password":true,"vac":true,"version":"7742253","steam_id":85568392924469997,"keywords":["cp","nocrits","nodmgspread","uncletopia"],"game_id":440,"stv_port":27016,"stv_name":"Uncletopia | Seattle | 1 | All Maps | STV","players":null},{"server_id":119,"name":"Uncletopia | Seattle | 2 | All Maps","name_short":"sea-2","host":"sea-1.us.uncletopia.com","port":27025,"enabled":true,"region":"us-west","cc":"us","latitude":47.608013,"longitude":-122.33517,"reserved":0,"last_update":"0001-01-01T00:00:00Z","name_a2s":"Uncletopia | Seattle | 2 | All Maps","protocol":17,"map":"koth_highpass","folder":"tf","game":"Team Fortress","app_id":440,"player_count":3,"max_players":24,"Bots":0,"server_type":"Dedicated","server_os":"Linux","password":true,"vac":true,"version":"7742253","steam_id":85568392924469998,"keywords":["cp","nocrits","nodmgspread","uncletopia"],"game_id":440,"stv_port":27026,"stv_name":"Uncletopia | Seattle | 2 | All Maps | STV","players":[{"user_id":665,"name":"Sir Galahad","steam_id":76561198195999859,"connected_time":461000000000,"state":"active","ping":42},{"user_id":664,"name":"Kin1730","steam_id":76561198085920875,"connected_time":535000000000,"state":"active","ping":124},{"user_id":666,"name":"alice's adventures in pyroland","steam_id":76561198325306660,"connected_time":2000000000,"state":"spawning","ping":64}]},{"server_id":406,"name":"Uncletopia | Seattle | 3 | Stopwatch Beta","name_short":"sea-3","host":"sea-1.us.uncletopia.com","port":27035,"enabled":true,"region":"us-west","cc":"us","latitude":47.608013,"longitude":-122.33517,"reserved":0,"last_update":"0001-01-01T00:00:00Z","name_a2s":"Uncletopia | Seattle | 3 | Stopwatch Beta","protocol":17,"map":"pl_borneo","folder":"tf","game":"Team Fortress","app_id":440,"player_count":0,"max_players":24,"Bots":0,"server_type":"Dedicated","server_os":"Linux","password":true,"vac":true,"version":"7742253","steam_id":85568392924515217,"keywords":["nocrits","nodmgspread","payload","uncletopia"],"game_id":440,"stv_port":27036,"stv_name":"Uncletopia | Seattle | 3 | Stopwatch Beta | STV","players":null},{"server_id":17,"name":"Uncletopia | San Francisco | 1 | All Maps","name_short":"sfo-1","host":"sfo-1.us.uncletopia.com","port":27015,"enabled":true,"region":"us-west","cc":"us","latitude":37.77397,"longitude":-122.4313,"reserved":0,"last_update":"0001-01-01T00:00:00Z","name_a2s":"Uncletopia | San Francisco | 1 | All Maps","protocol":17,"map":"koth_highpass","folder":"tf","game":"Team Fortress","app_id":440,"player_count":0,"max_players":24,"Bots":0,"server_type":"Dedicated","server_os":"Linux","password":true,"vac":true,"version":"7742253","steam_id":85568392924469999,"keywords":["cp","nocrits","nodmgspread","uncletopia"],"game_id":440,"stv_port":27016,"stv_name":"Uncletopia | San Francisco | 1 | All Maps | STV","players":null},{"server_id":18,"name":"Uncletopia | San Francisco | 2 | All Maps","name_short":"sfo-2","host":"sfo-1.us.uncletopia.com","port":27025,"enabled":true,"region":"us-west","cc":"us","latitude":37.77397,"longitude":-122.4313,"reserved":0,"last_update":"0001-01-01T00:00:00Z","name_a2s":"Uncletopia | San Francisco | 2 | All Maps","protocol":17,"map":"koth_lakeside_final","folder":"tf","game":"Team Fortress","app_id":440,"player_count":0,"max_players":24,"Bots":0,"server_type":"Dedicated","server_os":"Linux","password":true,"vac":true,"version":"7742253","steam_id":85568392924470000,"keywords":["cp","nocrits","nodmgspread","uncletopia"],"game_id":440,"stv_port":27026,"stv_name":"Uncletopia | San Francisco | 2 | All Maps | STV","players":null},{"server_id":19,"name":"Uncletopia | San Francisco | 3 | Stopwatch Beta","name_short":"sfo-3","host":"sfo-1.us.uncletopia.com","port":27035,"enabled":true,"region":"us-west","cc":"us","latitude":37.77397,"longitude":-122.4313,"reserved":0,"last_update":"0001-01-01T00:00:00Z","name_a2s":"Uncletopia | San Francisco | 3 | Stopwatch Beta","protocol":17,"map":"workshop/cp_process_f11.ugc2302948105","folder":"tf","game":"Team Fortress","app_id":440,"player_count":0,"max_players":24,"Bots":0,"server_type":"Dedicated","server_os":"Linux","password":true,"vac":true,"version":"7742253","steam_id":85568392924742824,"keywords":["cp","nocrits","nodmgspread","uncletopia"],"game_id":440,"stv_port":27036,"stv_name":"Uncletopia | San Francisco | 3 | Stopwatch Beta | STV","players":null},{"server_id":20,"name":"Uncletopia | San Francisco | 4 | Community","name_short":"sfo-4","host":"sfo-1.us.uncletopia.com","port":27045,"enabled":true,"region":"us-west","cc":"us","latitude":37.77397,"longitude":-122.4313,"reserved":0,"last_update":"0001-01-01T00:00:00Z","name_a2s":"Uncletopia | San Francisco | 4 | Community","protocol":17,"map":"workshop/koth_slaughter_rc1.ugc1712845210","folder":"tf","game":"Team Fortress","app_id":440,"player_count":0,"max_players":24,"Bots":0,"server_type":"Dedicated","server_os":"Linux","password":true,"vac":true,"version":"7742253","steam_id":85568392924742826,"keywords":["cp","nocrits","nodmgspread","uncletopia"],"game_id":440,"stv_port":27046,"stv_name":"Uncletopia | San Francisco | 4 | Community | STV","players":null},{"server_id":141,"name":"Uncletopia | Sydney | 1 | All Maps","name_short":"syd-1","host":"syd-1.au.uncletopia.com","port":27015,"enabled":true,"region":"au","cc":"au","latitude":-33.865143,"longitude":151.2099,"reserved":0,"last_update":"0001-01-01T00:00:00Z","name_a2s":"Uncletopia | Sydney | 1 | All Maps","protocol":17,"map":"pl_upward","folder":"tf","game":"Team Fortress","app_id":440,"player_count":24,"max_players":24,"Bots":0,"server_type":"Dedicated","server_os":"Linux","password":true,"vac":true,"version":"7742253","steam_id":85568392924470001,"keywords":["nocrits","nodmgspread","payload","uncletopia"],"game_id":440,"stv_port":27016,"stv_name":"Uncletopia | Sydney | 1 | All Maps | STV","players":[{"user_id":814,"name":"Corn","steam_id":76561198086465847,"connected_time":1364000000000,"state":"active","ping":45},{"user_id":748,"name":"April","steam_id":76561198848287180,"connected_time":5901000000000,"state":"active","ping":50},{"user_id":808,"name":"Speedy","steam_id":76561198065839605,"connected_time":1460000000000,"state":"active","ping":78},{"user_id":797,"name":"No Bueno","steam_id":76561197978951174,"connected_time":2514000000000,"state":"active","ping":73},{"user_id":820,"name":"Bobby Bigman","steam_id":76561198044679656,"connected_time":923000000000,"state":"active","ping":59},{"user_id":795,"name":"wooz ✧","steam_id":76561198442198135,"connected_time":2551000000000,"state":"active","ping":50},{"user_id":831,"name":"HAND BANANA","steam_id":76561197960279341,"connected_time":328000000000,"state":"active","ping":58},{"user_id":809,"name":"Empr","steam_id":76561198024387396,"connected_time":1460000000000,"state":"active","ping":62},{"user_id":796,"name":"WinterPizza850","steam_id":76561199043352840,"connected_time":2547000000000,"state":"active","ping":79},{"user_id":819,"name":"z","steam_id":76561198302670452,"connected_time":1053000000000,"state":"active","ping":66},{"user_id":817,"name":"Irreaperghost","steam_id":76561198806825214,"connected_time":1282000000000,"state":"active","ping":48},{"user_id":821,"name":"Raven","steam_id":76561198428025966,"connected_time":895000000000,"state":"active","ping":67},{"user_id":832,"name":"Mr. Blop","steam_id":76561198072273373,"connected_time":181000000000,"state":"active","ping":54},{"user_id":822,"name":"tweedie","steam_id":76561198063425523,"connected_time":894000000000,"state":"active","ping":70},{"user_id":815,"name":"...","steam_id":76561198309750355,"connected_time":1348000000000,"state":"active","ping":56},{"user_id":830,"name":"MrGamerPerson","steam_id":76561198805972890,"connected_time":406000000000,"state":"active","ping":54},{"user_id":802,"name":"krandlez` (Any/All)","steam_id":76561198044839726,"connected_time":2074000000000,"state":"active","ping":43},{"user_id":811,"name":"filthy fintan","steam_id":76561198099334542,"connected_time":1452000000000,"state":"active","ping":55},{"user_id":803,"name":"Korvid66","steam_id":76561198321471147,"connected_time":1819000000000,"state":"active","ping":98},{"user_id":807,"name":"how the dogs chill","steam_id":76561198124050781,"connected_time":1575000000000,"state":"active","ping":61},{"user_id":828,"name":"Soru","steam_id":76561198010844786,"connected_time":629000000000,"state":"active","ping":69},{"user_id":792,"name":"bla","steam_id":76561198119397414,"connected_time":2645000000000,"state":"active","ping":57},{"user_id":829,"name":"Hyojin","steam_id":76561199277317248,"connected_time":513000000000,"state":"active","ping":179},{"user_id":806,"name":"duckcord","steam_id":76561199121869924,"connected_time":1597000000000,"state":"active","ping":38}]},{"server_id":123,"name":"Uncletopia | Sydney | 2 | All Maps","name_short":"syd-2","host":"syd-1.au.uncletopia.com","port":27025,"enabled":true,"region":"au","cc":"au","latitude":-33.865143,"longitude":151.2099,"reserved":0,"last_update":"0001-01-01T00:00:00Z","name_a2s":"Uncletopia | Sydney | 2 | All Maps","protocol":17,"map":"cp_altitude","folder":"tf","game":"Team Fortress","app_id":440,"player_count":20,"max_players":24,"Bots":0,"server_type":"Dedicated","server_os":"Linux","password":true,"vac":true,"version":"7742253","steam_id":85568392924470002,"keywords":["cp","nocrits","nodmgspread","uncletopia"],"game_id":440,"stv_port":27026,"stv_name":"Uncletopia | Sydney | 2 | All Maps | STV","players":[{"user_id":632,"name":"bladd3r 1nf3ct1on","steam_id":76561199219399215,"connected_time":582000000000,"state":"active","ping":52},{"user_id":574,"name":"Wildermold","steam_id":76561198147047060,"connected_time":3606000000000,"state":"active","ping":60},{"user_id":623,"name":"xCqrd","steam_id":76561199164693693,"connected_time":988000000000,"state":"active","ping":55},{"user_id":624,"name":"ToastedShadows","steam_id":76561199096375285,"connected_time":938000000000,"state":"active","ping":49},{"user_id":645,"name":"Calamarie","steam_id":76561198963403876,"connected_time":75000000000,"state":"active","ping":90},{"user_id":617,"name":"Extra Exotic","steam_id":76561198045191981,"connected_time":1454000000000,"state":"active","ping":58},{"user_id":643,"name":"Dr Crazii","steam_id":76561198067775226,"connected_time":112000000000,"state":"active","ping":83},{"user_id":566,"name":"BongRat37","steam_id":76561198111068066,"connected_time":4111000000000,"state":"active","ping":54},{"user_id":644,"name":"Preksy","steam_id":76561199179193076,"connected_time":101000000000,"state":"active","ping":295},{"user_id":646,"name":"A lizard","steam_id":76561198301643498,"connected_time":74000000000,"state":"active","ping":57},{"user_id":602,"name":"AlphaPro89","steam_id":76561199229380739,"connected_time":1858000000000,"state":"active","ping":75},{"user_id":633,"name":"Giant Rat","steam_id":76561198110170714,"connected_time":579000000000,"state":"active","ping":51},{"user_id":576,"name":"TheRedJohn","steam_id":76561198108660304,"connected_time":3392000000000,"state":"active","ping":48},{"user_id":636,"name":"Dr Rags","steam_id":76561198179481430,"connected_time":321000000000,"state":"active","ping":96},{"user_id":647,"name":"Donald J. Trump","steam_id":76561198340442932,"connected_time":74000000000,"state":"active","ping":70},{"user_id":637,"name":"The Rat King","steam_id":76561199165005160,"connected_time":304000000000,"state":"active","ping":107},{"user_id":648,"name":"Phantom Postman","steam_id":76561198075252643,"connected_time":41000000000,"state":"active","ping":63},{"user_id":603,"name":"Xenovide","steam_id":76561198248261030,"connected_time":1853000000000,"state":"active","ping":130},{"user_id":649,"name":"spitzy","steam_id":76561198048066395,"connected_time":6000000000,"state":"spawning","ping":77},{"user_id":640,"name":"dr gibbus","steam_id":76561199121749745,"connected_time":251000000000,"state":"active","ping":109}]},{"server_id":395,"name":"Uncletopia | Sydney | 3 | All Maps","name_short":"syd-3","host":"syd-1.au.uncletopia.com","port":27035,"enabled":true,"region":"au","cc":"au","latitude":-33.865143,"longitude":151.2099,"reserved":0,"last_update":"0001-01-01T00:00:00Z","name_a2s":"Uncletopia | Sydney | 3 | All Maps","protocol":17,"map":"cp_egypt_final","folder":"tf","game":"Team Fortress","app_id":440,"player_count":6,"max_players":24,"Bots":0,"server_type":"Dedicated","server_os":"Linux","password":true,"vac":true,"version":"7742253","steam_id":85568392925194467,"keywords":["cp","nocrits","nodmgspread","uncletopia"],"game_id":440,"stv_port":27036,"stv_name":"Uncletopia | Sydney | 3 | All Maps | STV","players":[{"user_id":49,"name":"PanMan","steam_id":76561199027390996,"connected_time":4293000000000,"state":"active","ping":65},{"user_id":33,"name":"Branko [Server DJ]","steam_id":76561199262196710,"connected_time":7817000000000,"state":"active","ping":40},{"user_id":34,"name":"Caberknight TF2","steam_id":76561199446773766,"connected_time":7708000000000,"state":"active","ping":83},{"user_id":67,"name":"TTG","steam_id":76561198398928715,"connected_time":667000000000,"state":"active","ping":43},{"user_id":69,"name":"UrAvgDMG","steam_id":76561199214859141,"connected_time":424000000000,"state":"active","ping":139},{"user_id":64,"name":"LampoMcLamp","steam_id":76561199207279665,"connected_time":1618000000000,"state":"active","ping":73}]},{"server_id":396,"name":"Uncletopia | Sydney | 4 | All Maps","name_short":"syd-4","host":"syd-1.au.uncletopia.com","port":27045,"enabled":true,"region":"au","cc":"au","latitude":-33.865143,"longitude":151.2099,"reserved":0,"last_update":"0001-01-01T00:00:00Z","name_a2s":"Uncletopia | Sydney | 4 | All Maps","protocol":17,"map":"cp_mountainlab","folder":"tf","game":"Team Fortress","app_id":440,"player_count":0,"max_players":24,"Bots":0,"server_type":"Dedicated","server_os":"Linux","password":true,"vac":true,"version":"7742253","steam_id":85568392925397958,"keywords":["cp","nocrits","nodmgspread","uncletopia"],"game_id":440,"stv_port":27046,"stv_name":"Uncletopia | Sydney | 4 | All Maps | STV","players":null},{"server_id":58,"name":"Uncletopia | Sydney | 5 | Stopwatch Beta","name_short":"syd-5","host":"syd-1.au.uncletopia.com","port":27055,"enabled":true,"region":"au","cc":"au","latitude":-33.865143,"longitude":151.2099,"reserved":0,"last_update":"0001-01-01T00:00:00Z","name_a2s":"Uncletopia | Sydney | 5 | Stopwatch Beta","protocol":17,"map":"koth_highpass","folder":"tf","game":"Team Fortress","app_id":440,"player_count":0,"max_players":24,"Bots":0,"server_type":"Dedicated","server_os":"Linux","password":true,"vac":true,"version":"7742253","steam_id":85568392925397959,"keywords":["cp","nocrits","nodmgspread","uncletopia"],"game_id":440,"stv_port":27056,"stv_name":"Uncletopia | Sydney | 5 | Stopwatch Beta | STV","players":null},{"server_id":59,"name":"Uncletopia | Sydney | 6 | Community","name_short":"syd-6","host":"syd-1.au.uncletopia.com","port":27065,"enabled":true,"region":"au","cc":"au","latitude":-33.865143,"longitude":151.2099,"reserved":0,"last_update":"0001-01-01T00:00:00Z","name_a2s":"Uncletopia | Sydney | 6 | Community","protocol":17,"map":"workshop/koth_ramjam_rc1.ugc459778887","folder":"tf","game":"Team Fortress","app_id":440,"player_count":0,"max_players":24,"Bots":0,"server_type":"Dedicated","server_os":"Linux","password":true,"vac":true,"version":"7742253","steam_id":85568392925397960,"keywords":["cp","nocrits","nodmgspread","uncletopia"],"game_id":440,"stv_port":27066,"stv_name":"Uncletopia | Sydney | 6 | Community | STV","players":null},{"server_id":49,"name":"Uncletopia | Warsaw | 1 | All Maps","name_short":"waw-1","host":"waw-1.pl.uncletopia.com","port":27015,"enabled":true,"region":"eu","cc":"pl","latitude":52.2297,"longitude":21.017532,"reserved":0,"last_update":"0001-01-01T00:00:00Z","name_a2s":"","protocol":0,"map":"","folder":"","game":"","app_id":0,"player_count":0,"max_players":0,"Bots":0,"server_type":"","server_os":"","password":false,"vac":false,"version":"","steam_id":0,"keywords":null,"game_id":0,"stv_port":0,"stv_name":"","players":null},{"server_id":50,"name":"Uncletopia | Warsaw | 2 | All Maps","name_short":"waw-2","host":"waw-1.pl.uncletopia.com","port":27025,"enabled":true,"region":"eu","cc":"pl","latitude":52.2297,"longitude":21.017532,"reserved":0,"last_update":"0001-01-01T00:00:00Z","name_a2s":"Uncletopia | Warsaw | 2 | All Maps","protocol":17,"map":"cp_mountainlab","folder":"tf","game":"Team Fortress","app_id":440,"player_count":0,"max_players":24,"Bots":0,"server_type":"Dedicated","server_os":"Linux","password":true,"vac":true,"version":"7742253","steam_id":85568392925397851,"keywords":["cp","nocrits","nodmgspread","uncletopia"],"game_id":440,"stv_port":27026,"stv_name":"Uncletopia | Warsaw | 2 | All Maps | STV","players":null},{"server_id":51,"name":"Uncletopia | Warsaw | 3 | All Maps","name_short":"waw-3","host":"waw-1.pl.uncletopia.com","port":27035,"enabled":true,"region":"eu","cc":"pl","latitude":52.2297,"longitude":21.017532,"reserved":0,"last_update":"0001-01-01T00:00:00Z","name_a2s":"Uncletopia | Warsaw | 3 | All Maps","protocol":17,"map":"koth_lakeside_final","folder":"tf","game":"Team Fortress","app_id":440,"player_count":0,"max_players":24,"Bots":0,"server_type":"Dedicated","server_os":"Linux","password":true,"vac":true,"version":"7742253","steam_id":85568392925397852,"keywords":["cp","nocrits","nodmgspread","uncletopia"],"game_id":440,"stv_port":27036,"stv_name":"Uncletopia | Warsaw | 3 | All Maps | STV","players":null},{"server_id":52,"name":"Uncletopia | Warsaw | 4 | All Maps","name_short":"waw-4","host":"waw-1.pl.uncletopia.com","port":27045,"enabled":true,"region":"eu","cc":"pl","latitude":52.2297,"longitude":21.017532,"reserved":0,"last_update":"0001-01-01T00:00:00Z","name_a2s":"Uncletopia | Warsaw | 4 | All Maps","protocol":17,"map":"pl_upward","folder":"tf","game":"Team Fortress","app_id":440,"player_count":0,"max_players":24,"Bots":0,"server_type":"Dedicated","server_os":"Linux","password":true,"vac":true,"version":"7742253","steam_id":85568392925397853,"keywords":["nocrits","nodmgspread","payload","uncletopia"],"game_id":440,"stv_port":27046,"stv_name":"Uncletopia | Warsaw | 4 | All Maps | STV","players":null},{"server_id":53,"name":"Uncletopia | Warsaw | 5 | Stopwatch Beta","name_short":"waw-5","host":"waw-1.pl.uncletopia.com","port":27055,"enabled":true,"region":"eu","cc":"pl","latitude":52.2297,"longitude":21.017532,"reserved":0,"last_update":"0001-01-01T00:00:00Z","name_a2s":"Uncletopia | Warsaw | 5 | Stopwatch Beta","protocol":17,"map":"pl_swiftwater_final1","folder":"tf","game":"Team Fortress","app_id":440,"player_count":0,"max_players":24,"Bots":0,"server_type":"Dedicated","server_os":"Linux","password":true,"vac":true,"version":"7742253","steam_id":85568392925397854,"keywords":["nocrits","nodmgspread","payload","uncletopia"],"game_id":440,"stv_port":27056,"stv_name":"Uncletopia | Warsaw | 5 | Stopwatch Beta | STV","players":null},{"server_id":54,"name":"Uncletopia | Warsaw | 6 | Community","name_short":"waw-6","host":"waw-1.pl.uncletopia.com","port":27065,"enabled":true,"region":"eu","cc":"pl","latitude":52.2297,"longitude":21.017532,"reserved":0,"last_update":"0001-01-01T00:00:00Z","name_a2s":"Uncletopia | Warsaw | 6 | Community","protocol":17,"map":"koth_highpass","folder":"tf","game":"Team Fortress","app_id":440,"player_count":0,"max_players":24,"Bots":0,"server_type":"Dedicated","server_os":"Linux","password":true,"vac":true,"version":"7742253","steam_id":85568392925397856,"keywords":["cp","nocrits","nodmgspread","uncletopia"],"game_id":440,"stv_port":27066,"stv_name":"Uncletopia | Warsaw | 6 | Community | STV","players":null}]}