{"status":true,"message":"","result":[{"server_id":9,"name":"Uncletopia | Atlanta | 1 | All Maps","name_short":"atl-1","host":"atl-1.us.uncletopia.com","port":27015,"enabled":true,"region":"us-east","cc":"us","latitude":33.753746,"longitude":-84.38633,"reserved":0,"last_update":"0001-01-01T00:00:00Z","name_a2s":"Uncletopia | Atlanta | 1 | All Maps","protocol":17,"map":"pl_upward","folder":"tf","game":"Team Fortress","app_id":440,"player_count":24,"max_players":24,"Bots":0,"server_type":"Dedicated","server_os":"Linux","password":true,"vac":true,"version":"7757534","steam_id":85568392924469982,"keywords":["nocrits","nodmgspread","payload","uncletopia"],"game_id":440,"stv_port":27016,"stv_name":"Uncletopia | Atlanta | 1 | All Maps | STV","players":[{"user_id":732,"name":"Manic","steam_id":76561198128149670,"connected_time":138000000000,"state":"active","ping":60},{"user_id":712,"name":"ATL1 | Pango","steam_id":76561198069811545,"connected_time":1417000000000,"state":"active","ping":45},{"user_id":721,"name":"Fancy Bed","steam_id":76561198007172366,"connected_time":1093000000000,"state":"active","ping":60},{"user_id":714,"name":"HAT-WEARING‚Ñ¢ Maggot Gamer Cat","steam_id":76561197973992705,"connected_time":1376000000000,"state":"active","ping":112},{"user_id":715,"name":"[PINGU‚Ñ¢] Tiny Tuna","steam_id":76561198193611579,"connected_time":1359000000000,"state":"active","ping":59},{"user_id":725,"name":"basil","steam_id":76561198075758026,"connected_time":832000000000,"state":"active","ping":61},{"user_id":678,"name":"phily cheese stake","steam_id":76561198180951431,"connected_time":3696000000000,"state":"active","ping":64},{"user_id":726,"name":"thefifthwall","steam_id":76561198116216081,"connected_time":759000000000,"state":"active","ping":67},{"user_id":716,"name":"GuillerMak","steam_id":76561198100614936,"connected_time":1343000000000,"state":"active","ping":94},{"user_id":733,"name":"Wumbologist","steam_id":76561198188729514,"connected_time":61000000000,"state":"active","ping":47},{"user_id":707,"name":"Bonchiko","steam_id":76561198065133470,"connected_time":1804000000000,"state":"active","ping":56},{"user_id":735,"name":"shake","steam_id":76561199064204750,"connected_time":41000000000,"state":"active","ping":78},{"user_id":727,"name":"HAT-STEALING‚Ñ¢ Tiny Gamer Tuna","steam_id":76561198313121580,"connected_time":730000000000,"state":"active","ping":106},{"user_id":734,"name":"Kidzbopsicle","steam_id":76561198047660691,"connected_time":57000000000,"state":"active","ping":59},{"user_id":728,"name":"nomad","steam_id":76561197998740399,"connected_time":336000000000,"state":"active","ping":68},{"user_id":730,"name":"pigswill","steam_id":76561197999081865,"connected_time":224000000000,"state":"active","ping":77},{"user_id":724,"name":"eish","steam_id":76561198089463603,"connected_time":890000000000,"state":"active","ping":120},{"user_id":731,"name":"RagnarosTFL","steam_id":76561198122036288,"connected_time":206000000000,"state":"active","ping":66},{"user_id":705,"name":"girthmilk","steam_id":76561198054799782,"connected_time":2298000000000,"state":"active","ping":68},{"user_id":673,"name":"Ghetto Smosh Fan","steam_id":76561198097272509,"connected_time":4343000000000,"state":"active","ping":35},{"user_id":711,"name":"Kirb Says Poyo","steam_id":76561198212823547,"connected_time":1598000000000,"state":"active","ping":113},{"user_id":681,"name":"the governor of illinois","steam_id":76561198222776116,"connected_time":3561000000000,"state":"active","ping":68},{"user_id":718,"name":"nautical nonsense","steam_id":76561198099412571,"connected_time":1163000000000,"state":"active","ping":65},{"user_id":736,"name":"‚ö°Mr.Muff ·Éö‡πä","steam_id":76561198217103553,"connected_time":12000000000,"state":"spawning","ping":65}]},{"server_id":104,"name":"Uncletopia | Atlanta | 2 | All Maps","name_short":"atl-2","host":"atl-1.us.uncletopia.com","port":27025,"enabled":true,"region":"us-east","cc":"us","latitude":33.753746,"longitude":-84.38633,"reserved":0,"last_update":"0001-01-01T00:00:00Z","name_a2s":"Uncletopia | Atlanta | 2 | All Maps","protocol":17,"map":"pl_upward","folder":"tf","game":"Team Fortress","app_id":440,"player_count":24,"max_players":24,"Bots":0,"server_type":"Dedicated","server_os":"Linux","password":true,"vac":true,"version":"7757534","steam_id":85568392924469983,"keywords":["nocrits","nodmgspread","payload","uncletopia"],"game_id":440,"stv_port":27026,"stv_name":"Uncletopia | Atlanta | 2 | All Maps | STV","players":[{"user_id":413,"name":"DuckMann","steam_id":76561198197058638,"connected_time":3694000000000,"state":"active","ping":45},{"user_id":416,"name":"Warlock","steam_id":76561198801747883,"connected_time":2839000000000,"state":"active","ping":93},{"user_id":425,"name":"anime picture books","steam_id":76561198133839495,"connected_time":1134000000000,"state":"active","ping":95},{"user_id":409,"name":"Roald","steam_id":76561198143182772,"connected_time":4004000000000,"state":"active","ping":78},{"user_id":383,"name":"SlooperSoaker","steam_id":76561198121050895,"connected_time":6208000000000,"state":"active","ping":85},{"user_id":398,"name":"„ÅÑ„Å°„Åî„Åæ„Çç","steam_id":76561198166100997,"connected_time":5261000000000,"state":"active","ping":61},{"user_id":386,"name":"I Came","steam_id":76561198082938358,"connected_time":6116000000000,"state":"active","ping":87},{"user_id":426,"name":"Xen","steam_id":76561198025311844,"connected_time":960000000000,"state":"active","ping":87},{"user_id":407,"name":"The Sydney Sleeper Itself","steam_id":76561198180251763,"connected_time":4080000000000,"state":"active","ping":76},{"user_id":420,"name":"lucil3 on Bandcamp","steam_id":76561198149063013,"connected_time":2412000000000,"state":"active","ping":69},{"user_id":419,"name":"StickyWicket","steam_id":76561198000155177,"connected_time":2434000000000,"state":"active","ping":61},{"user_id":424,"name":"Picbascassquiato","steam_id":76561198011487900,"connected_time":1606000000000,"state":"active","ping":85},{"user_id":393,"name":"Thirty-Two Double-Yoos","steam_id":76561198068231069,"connected_time":5710000000000,"state":"active","ping":113},{"user_id":429,"name":"GltichBrah_T","steam_id":76561199467036505,"connected_time":862000000000,"state":"active","ping":67},{"user_id":403,"name":"BOTBOT","steam_id":76561198271928618,"connected_time":5005000000000,"state":"active","ping":95},{"user_id":394,"name":"Biflexual","steam_id":76561198317718938,"connected_time":5632000000000,"state":"active","ping":95},{"user_id":385,"name":"Rymank","steam_id":76561198051497372,"connected_time":6193000000000,"state":"active","ping":72},{"user_id":414,"name":"scr//bble","steam_id":76561198117803411,"connected_time":3409000000000,"state":"active","ping":68},{"user_id":428,"name":"fac","steam_id":76561198009818412,"connected_time":886000000000,"state":"active","ping":60},{"user_id":430,"name":"Amy Roxwell","steam_id":76561198303391830,"connected_time":861000000000,"state":"active","ping":109},{"user_id":384,"name":"i eat pallet","steam_id":76561198101378377,"connected_time":6204000000000,"state":"active","ping":94},{"user_id":433,"name":"Sarbanes-Oxley","steam_id":76561197975898479,"connected_time":275000000000,"state":"active","ping":73},{"user_id":390,"name":"XBOX 360","steam_id":76561198066590783,"connected_time":5916000000000,"state":"active","ping":77},{"user_id":412,"name":"Orko","steam_id":76561198162232131,"connected_time":3975000000000,"state":"active","ping":82}]},{"server_id":400,"name":"Uncletopia | Atlanta | 3 | Community","name_short":"atl-3","host":"atl-1.us.uncletopia.com","port":27035,"enabled":true,"region":"us-east","cc":"us","latitude":33.753746,"longitude":-84.38633,"reserved":0,"last_update":"0001-01-01T00:00:00Z","name_a2s":"Uncletopia | Atlanta | 3 | Community","protocol":17,"map":"workshop/pl_barnblitz_pro7.ugc582280235","folder":"tf","game":"Team Fortress","app_id":440,"player_count":24,"max_players":24,"Bots":0,"server_type":"Dedicated","server_os":"Linux","password":true,"vac":true,"version":"7757534","steam_id":85568392924515187,"keywords":["nocrits","nodmgspread","payload","uncletopia"],"game_id":440,"stv_port":27036,"stv_name":"Uncletopia | Atlanta | 3 | Community | STV","players":[{"user_id":286,"name":"Qwerty","steam_id":76561198023525894,"connected_time":6311000000000,"state":"active","ping":170},{"user_id":354,"name":"i am a gamer","steam_id":76561199043555189,"connected_time":94000000000,"state":"active","ping":71},{"user_id":353,"name":"helen keller is a fraud","steam_id":76561199478701178,"connected_time":474000000000,"state":"active","ping":190},{"user_id":213,"name":"CrusadeBreaker","steam_id":76561198209086801,"connected_time":12169000000000,"state":"active","ping":76},{"user_id":297,"name":"GODZILLABOY871","steam_id":76561198311700586,"connected_time":5027000000000,"state":"active","ping":87},{"user_id":355,"name":"Rafl","steam_id":76561198055222756,"connected_time":79000000000,"state":"active","ping":79},{"user_id":264,"name":"TI-83 Plus","steam_id":76561198316134443,"connected_time":8706000000000,"state":"active","ping":58},{"user_id":340,"name":"Rari","steam_id":76561198128537564,"connected_time":1456000000000,"state":"active","ping":67},{"user_id":345,"name":"igotmail","steam_id":76561198070631899,"connected_time":996000000000,"state":"active","ping":80},{"user_id":316,"name":"Spycrab101","steam_id":76561198141836805,"connected_time":4571000000000,"state":"active","ping":136},{"user_id":339,"name":"breadroll","steam_id":76561198039506482,"connected_time":1516000000000,"state":"active","ping":60},{"user_id":226,"name":"Nox(She/Her)","steam_id":76561198141950842,"connected_time":11395000000000,"state":"active","ping":45},{"user_id":301,"name":"Grimace","steam_id":76561198297216420,"connected_time":4919000000000,"state":"active","ping":52},{"user_id":346,"name":"A Can of Arizona Green Tea","steam_id":76561198062481133,"connected_time":934000000000,"state":"active","ping":94},{"user_id":299,"name":"HeartBox1","steam_id":76561198216690181,"connected_time":5008000000000,"state":"active","ping":121},{"user_id":337,"name":"Kid B8","steam_id":76561198086764710,"connected_time":1620000000000,"state":"active","ping":92},{"user_id":322,"name":"Prof. Eggnog","steam_id":76561198193389166,"connected_time":3502000000000,"state":"active","ping":118},{"user_id":318,"name":"MrrPickle","steam_id":76561198122046514,"connected_time":4403000000000,"state":"active","ping":71},{"user_id":347,"name":"Jamie","steam_id":76561198917309036,"connected_time":925000000000,"state":"active","ping":70},{"user_id":349,"name":"Wiener Hole Paper Cut","steam_id":76561198000808203,"connected_time":899000000000,"state":"active","ping":78},{"user_id":351,"name":"Mildstrife","steam_id":76561198000080715,"connected_time":702000000000,"state":"active","ping":88},{"user_id":215,"name":"Bara Himbo","steam_id":76561198063265957,"connected_time":12107000000000,"state":"active","ping":97},{"user_id":326,"name":"DaÃµksuki","steam_id":76561198084127751,"connected_time":3111000000000,"state":"active","ping":80},{"user_id":310,"name":"Red","steam_id":76561198031865869,"connected_time":4755000000000,"state":"active","ping":75}]},{"server_id":401,"name":"Uncletopia | Atlanta | 4 | No Payload","name_short":"atl-4","host":"atl-1.us.uncletopia.com","port":27045,"enabled":true,"region":"us-east","cc":"us","latitude":33.753746,"longitude":-84.38633,"reserved":0,"last_update":"0001-01-01T00:00:00Z","name_a2s":"","protocol":0,"map":"","folder":"","game":"","app_id":0,"player_count":0,"max_players":0,"Bots":0,"server_type":"","server_os":"","password":false,"vac":false,"version":"","steam_id":0,"keywords":null,"game_id":0,"stv_port":0,"stv_name":"","players":null},{"server_id":2,"name":"Uncletopia | Chicago | 1 | All Maps","name_short":"chi-1","host":"chi-1.us.uncletopia.com","port":27015,"enabled":true,"region":"us-central","cc":"us","latitude":41.881832,"longitude":-87.62318,"reserved":0,"last_update":"0001-01-01T00:00:00Z","name_a2s":"Uncletopia | Chicago | 1 | All Maps","protocol":17,"map":"koth_cascade","folder":"tf","game":"Team Fortress","app_id":440,"player_count":17,"max_players":24,"Bots":0,"server_type":"Dedicated","server_os":"Linux","password":true,"vac":true,"version":"7757534","steam_id":85568392924469984,"keywords":["cp","nocrits","nodmgspread","uncletopia"],"game_id":440,"stv_port":27016,"stv_name":"Uncletopia | Chicago | 1 | All Maps | STV","players":[{"user_id":695,"name":"illious","steam_id":76561198169925494,"connected_time":3784000000000,"state":"active","ping":72},{"user_id":718,"name":"THE EPIC JS","steam_id":76561198870848222,"connected_time":712000000000,"state":"active","ping":113},{"user_id":655,"name":"blob","steam_id":76561198122375328,"connected_time":6519000000000,"state":"active","ping":57},{"user_id":677,"name":"Chinese \"Weather\" Balloon","steam_id":76561198031675881,"connected_time":5233000000000,"state":"active","ping":69},{"user_id":697,"name":"bee","steam_id":76561198178015361,"connected_time":3347000000000,"state":"active","ping":54},{"user_id":707,"name":"Zero","steam_id":76561199383267408,"connected_time":2302000000000,"state":"active","ping":74},{"user_id":671,"name":"Samrizo el Chorizo","steam_id":76561198009838162,"connected_time":5371000000000,"state":"active","ping":66},{"user_id":654,"name":"The Mayo Man","steam_id":76561197995377425,"connected_time":6716000000000,"state":"active","ping":66},{"user_id":716,"name":"KoolBucky","steam_id":76561198147927648,"connected_time":804000000000,"state":"active","ping":90},{"user_id":691,"name":"coxen","steam_id":76561198095125557,"connected_time":4261000000000,"state":"active","ping":57},{"user_id":645,"name":"Astoriae!","steam_id":76561199090168858,"connected_time":6951000000000,"state":"active","ping":59},{"user_id":713,"name":"creature","steam_id":76561198281892720,"connected_time":1974000000000,"state":"active","ping":45},{"user_id":714,"name":"Varveer","steam_id":76561198218897383,"connected_time":1190000000000,"state":"active","ping":73},{"user_id":705,"name":"PKBEAST_7","steam_id":76561198177136537,"connected_time":2366000000000,"state":"active","ping":84},{"user_id":694,"name":"Gad","steam_id":76561198020792373,"connected_time":4005000000000,"state":"active","ping":45},{"user_id":720,"name":"Jester","steam_id":76561199203898660,"connected_time":484000000000,"state":"active","ping":97},{"user_id":704,"name":"Spy Gaming","steam_id":76561198453295613,"connected_time":3046000000000,"state":"active","ping":112}]},{"server_id":106,"name":"Uncletopia | Chicago | 2 | All Maps","name_short":"chi-2","host":"chi-1.us.uncletopia.com","port":27025,"enabled":true,"region":"us-central","cc":"us","latitude":41.881832,"longitude":-87.62318,"reserved":0,"last_update":"0001-01-01T00:00:00Z","name_a2s":"Uncletopia | Chicago | 2 | All Maps","protocol":17,"map":"koth_badlands","folder":"tf","game":"Team Fortress","app_id":440,"player_count":21,"max_players":24,"Bots":0,"server_type":"Dedicated","server_os":"Linux","password":true,"vac":true,"version":"7757534","steam_id":85568392924469985,"keywords":["cp","nocrits","nodmgspread","uncletopia"],"game_id":440,"stv_port":27026,"stv_name":"Uncletopia | Chicago | 2 | All Maps | STV","players":[{"user_id":592,"name":"4 life","steam_id":76561198175961598,"connected_time":9589000000000,"state":"active","ping":119},{"user_id":661,"name":"Worst Scenario","steam_id":76561199052130229,"connected_time":4337000000000,"state":"active","ping":57},{"user_id":681,"name":"claeb :)","steam_id":76561198028761580,"connected_time":3232000000000,"state":"active","ping":60},{"user_id":698,"name":"WaywardFinn","steam_id":76561198040391296,"connected_time":910000000000,"state":"active","ping":80},{"user_id":701,"name":"Sheep","steam_id":76561198122705864,"connected_time":876000000000,"state":"active","ping":80},{"user_id":665,"name":"bocchi la piedra","steam_id":76561198026458662,"connected_time":4033000000000,"state":"active","ping":95},{"user_id":687,"name":"Zoot","steam_id":76561198121944243,"connected_time":2597000000000,"state":"active","ping":70},{"user_id":699,"name":"Proof by close enough","steam_id":76561198083345384,"connected_time":904000000000,"state":"active","ping":87},{"user_id":631,"name":"Thomas the train","steam_id":76561198040153410,"connected_time":6214000000000,"state":"active","ping":44},{"user_id":697,"name":"Giorno_Giovanna","steam_id":76561199014402406,"connected_time":961000000000,"state":"active","ping":85},{"user_id":693,"name":"Jezzus","steam_id":76561199289676387,"connected_time":1341000000000,"state":"active","ping":89},{"user_id":474,"name":"b3afy","steam_id":76561198084208649,"connected_time":16791000000000,"state":"active","ping":90},{"user_id":598,"name":"brothax laptop","steam_id":76561197996713526,"connected_time":9511000000000,"state":"active","ping":90},{"user_id":653,"name":"5unny PHD IN HATEOLOGY","steam_id":76561198133111058,"connected_time":5108000000000,"state":"active","ping":62},{"user_id":706,"name":"Boznyan","steam_id":76561198129164016,"connected_time":429000000000,"state":"active","ping":55},{"user_id":689,"name":"vv","steam_id":76561198134813102,"connected_time":2083000000000,"state":"active","ping":57},{"user_id":684,"name":"Fantastic","steam_id":76561198079088978,"connected_time":3036000000000,"state":"active","ping":42},{"user_id":703,"name":"frank gallagher","steam_id":76561198973429541,"connected_time":804000000000,"state":"active","ping":92},{"user_id":696,"name":"whitneyscience1","steam_id":76561199405650048,"connected_time":973000000000,"state":"active","ping":185},{"user_id":662,"name":"Sal Vulcano","steam_id":76561198016677665,"connected_time":4329000000000,"state":"active","ping":70},{"user_id":682,"name":"bing bing pharts","steam_id":76561198301019618,"connected_time":3216000000000,"state":"active","ping":107}]},{"server_id":402,"name":"Uncletopia | Chicago | 3 | All Maps","name_short":"chi-3","host":"chi-1.us.uncletopia.com","port":27035,"enabled":true,"region":"us-central","cc":"us","latitude":41.881832,"longitude":-87.62318,"reserved":0,"last_update":"0001-01-01T00:00:00Z","name_a2s":"Uncletopia | Chicago | 3 | All Maps","protocol":17,"map":"pl_swiftwater_final1","folder":"tf","game":"Team Fortress","app_id":440,"player_count":23,"max_players":24,"Bots":0,"server_type":"Dedicated","server_os":"Linux","password":true,"vac":true,"version":"7757534","steam_id":85568392924515191,"keywords":["nocrits","nodmgspread","payload","uncletopia"],"game_id":440,"stv_port":27036,"stv_name":"Uncletopia | Chicago | 3 | All Maps | STV","players":[{"user_id":361,"name":"‚Ä∫ snow","steam_id":76561198109783729,"connected_time":442000000000,"state":"active","ping":47},{"user_id":363,"name":"wokky bin laddn","steam_id":76561198265200834,"connected_time":345000000000,"state":"active","ping":74},{"user_id":344,"name":"have a nice life fan","steam_id":76561198159684104,"connected_time":1036000000000,"state":"active","ping":71},{"user_id":293,"name":"Yune","steam_id":76561198039324447,"connected_time":4350000000000,"state":"active","ping":82},{"user_id":367,"name":"Maxxycat","steam_id":76561198194062681,"connected_time":25000000000,"state":"active","ping":56},{"user_id":338,"name":"villainy","steam_id":76561199061380038,"connected_time":1208000000000,"state":"active","ping":74},{"user_id":365,"name":"BORN TO DIE!","steam_id":76561198258334891,"connected_time":92000000000,"state":"active","ping":70},{"user_id":357,"name":"Rich Homie Rob","steam_id":76561198046570914,"connected_time":848000000000,"state":"active","ping":102},{"user_id":306,"name":"N√©oGothiqueüïØ","steam_id":76561198003467269,"connected_time":3303000000000,"state":"active","ping":76},{"user_id":362,"name":"Cornelius","steam_id":76561198123447388,"connected_time":436000000000,"state":"active","ping":45},{"user_id":310,"name":"sqgly","steam_id":76561198105508955,"connected_time":3019000000000,"state":"active","ping":47},{"user_id":346,"name":"M4L1C3","steam_id":76561198282839695,"connected_time":1022000000000,"state":"active","ping":98},{"user_id":347,"name":"be","steam_id":76561198000824533,"connected_time":1017000000000,"state":"active","ping":80},{"user_id":342,"name":"Papahemmy","steam_id":76561198155470810,"connected_time":1126000000000,"state":"active","ping":64},{"user_id":311,"name":"enmgxcltayiqoacx","steam_id":76561197974965536,"connected_time":3013000000000,"state":"active","ping":60},{"user_id":326,"name":"Poyo Boyo","steam_id":76561198010201227,"connected_time":1685000000000,"state":"active","ping":75},{"user_id":348,"name":"I am Lex","steam_id":76561198342910289,"connected_time":1007000000000,"state":"active","ping":55},{"user_id":355,"name":"GalaxySheep","steam_id":76561198066484754,"connected_time":962000000000,"state":"active","ping":67},{"user_id":359,"name":"gNarNar","steam_id":76561197994505205,"connected_time":619000000000,"state":"active","ping":58},{"user_id":360,"name":"Purple Pajamas","steam_id":76561199174310124,"connected_time":613000000000,"state":"active","ping":83},{"user_id":364,"name":"Spike","steam_id":76561198141356571,"connected_time":250000000000,"state":"active","ping":59},{"user_id":353,"name":"L_J","steam_id":76561198331514963,"connected_time":987000000000,"state":"active","ping":48},{"user_id":354,"name":"PheebsyDeebsy","steam_id":76561198101509436,"connected_time":973000000000,"state":"active","ping":93}]},{"server_id":403,"name":"Uncletopia | Chicago | 4 | All Maps","name_short":"chi-4","host":"chi-1.us.uncletopia.com","port":27045,"enabled":true,"region":"us-central","cc":"us","latitude":41.881832,"longitude":-87.62318,"reserved":0,"last_update":"0001-01-01T00:00:00Z","name_a2s":"Uncletopia | Chicago | 4 | All Maps","protocol":17,"map":"pl_pier","folder":"tf","game":"Team Fortress","app_id":440,"player_count":24,"max_players":24,"Bots":0,"server_type":"Dedicated","server_os":"Linux","password":true,"vac":true,"version":"7757534","steam_id":85568392924515193,"keywords":["nocrits","nodmgspread","payload","uncletopia"],"game_id":440,"stv_port":27046,"stv_name":"Uncletopia | Chicago | 4 | All Maps | STV","players":[{"user_id":613,"name":"*****setget","steam_id":76561198118824188,"connected_time":947000000000,"state":"active","ping":121},{"user_id":543,"name":"TransSammie","steam_id":76561198046331930,"connected_time":6290000000000,"state":"active","ping":90},{"user_id":612,"name":"Mucho Mango Addict","steam_id":76561198322396592,"connected_time":954000000000,"state":"active","ping":103},{"user_id":596,"name":"Cousin Corn on the Cob","steam_id":76561198049837377,"connected_time":2773000000000,"state":"active","ping":46},{"user_id":614,"name":"tabasco","steam_id":76561198355094896,"connected_time":822000000000,"state":"active","ping":60},{"user_id":607,"name":"natahan","steam_id":76561198043250800,"connected_time":2434000000000,"state":"active","ping":63},{"user_id":609,"name":"jayb1rd","steam_id":76561198057185312,"connected_time":1098000000000,"state":"active","ping":60},{"user_id":583,"name":"Yoshi62","steam_id":76561199103748704,"connected_time":3951000000000,"state":"active","ping":125},{"user_id":615,"name":"Mr. Dick‚Ñ¢","steam_id":76561198047309044,"connected_time":788000000000,"state":"active","ping":58},{"user_id":626,"name":"Bludgeon","steam_id":76561198272009412,"connected_time":409000000000,"state":"active","ping":110},{"user_id":616,"name":"Dammit, Jim!","steam_id":76561198038509136,"connected_time":772000000000,"state":"active","ping":86},{"user_id":487,"name":"NotSoNorth","steam_id":76561198447292053,"connected_time":10756000000000,"state":"active","ping":61},{"user_id":617,"name":"Metapod","steam_id":76561198008725465,"connected_time":769000000000,"state":"active","ping":89},{"user_id":619,"name":"DatFluffyPancake","steam_id":76561198271958697,"connected_time":751000000000,"state":"active","ping":77},{"user_id":620,"name":"The Engineer Gaming","steam_id":76561198192609974,"connected_time":746000000000,"state":"active","ping":75},{"user_id":602,"name":"Cliff Uppercut","steam_id":76561197999439391,"connected_time":2730000000000,"state":"active","ping":78},{"user_id":621,"name":"urine trouble","steam_id":76561199013266640,"connected_time":741000000000,"state":"active","ping":48},{"user_id":527,"name":"Rec","steam_id":76561198022813906,"connected_time":7678000000000,"state":"active","ping":54},{"user_id":622,"name":"Natsuki the Scunt","steam_id":76561199175922684,"connected_time":738000000000,"state":"active","ping":104},{"user_id":623,"name":"popfulmail","steam_id":76561198865971290,"connected_time":720000000000,"state":"active","ping":86},{"user_id":594,"name":"SubZero_416","steam_id":76561198176467907,"connected_time":3040000000000,"state":"active","ping":75},{"user_id":529,"name":"Jak(i)","steam_id":76561198076823144,"connected_time":7546000000000,"state":"active","ping":67},{"user_id":625,"name":"only a spoonful","steam_id":76561198113180616,"connected_time":715000000000,"state":"active","ping":70},{"user_id":534,"name":"Mindset","steam_id":76561198107074449,"connected_time":6953000000000,"state":"active","ping":55}]},{"server_id":36,"name":"Uncletopia | Chicago | 5 | All Maps","name_short":"chi-5","host":"chi-2.us.uncletopia.com","port":27015,"enabled":true,"region":"us-central","cc":"us","latitude":41.881832,"longitude":-87.62318,"reserved":0,"last_update":"0001-01-01T00:00:00Z","name_a2s":"Uncletopia | Chicago | 5 | All Maps","protocol":17,"map":"pl_snowycoast","folder":"tf","game":"Team Fortress","app_id":440,"player_count":23,"max_players":24,"Bots":0,"server_type":"Dedicated","server_os":"Linux","password":true,"vac":true,"version":"7757534","steam_id":85568392924866362,"keywords":["nocrits","nodmgspread","payload","uncletopia"],"game_id":440,"stv_port":27016,"stv_name":"Uncletopia | Chicago | 5 | All Maps | STV","players":[{"user_id":481,"name":"papersamurai","steam_id":76561198313608698,"connected_time":87000000000,"state":"active","ping":50},{"user_id":434,"name":"pasta","steam_id":76561198084719895,"connected_time":3799000000000,"state":"active","ping":45},{"user_id":420,"name":"Bored Barred Owl","steam_id":76561198263895597,"connected_time":5672000000000,"state":"active","ping":76},{"user_id":465,"name":"ellby","steam_id":76561198304585963,"connected_time":1111000000000,"state":"active","ping":56},{"user_id":459,"name":"scooterre","steam_id":76561198055068182,"connected_time":1849000000000,"state":"active","ping":57},{"user_id":475,"name":"Mr. 3","steam_id":76561198176366429,"connected_time":651000000000,"state":"active","ping":63},{"user_id":451,"name":"Meowhunter ‚ô°","steam_id":76561198319992602,"connected_time":2213000000000,"state":"active","ping":79},{"user_id":386,"name":"Ludidas","steam_id":76561198156272124,"connected_time":7340000000000,"state":"active","ping":51},{"user_id":452,"name":"thecal","steam_id":76561198307893384,"connected_time":2211000000000,"state":"active","ping":52},{"user_id":464,"name":"Stressmelo","steam_id":76561199204445185,"connected_time":1323000000000,"state":"active","ping":74},{"user_id":390,"name":"Ask Nicely For Heals","steam_id":76561198138478907,"connected_time":7317000000000,"state":"active","ping":54},{"user_id":445,"name":"Bananaramagrams","steam_id":76561198084429090,"connected_time":2986000000000,"state":"active","ping":83},{"user_id":474,"name":"Battery Acid Addict","steam_id":76561198439793697,"connected_time":668000000000,"state":"active","ping":98},{"user_id":448,"name":"Lore","steam_id":76561198098407538,"connected_time":2654000000000,"state":"active","ping":48},{"user_id":453,"name":"john capitalism","steam_id":76561198118833685,"connected_time":2195000000000,"state":"active","ping":76},{"user_id":476,"name":"iceman","steam_id":76561198135397441,"connected_time":648000000000,"state":"active","ping":76},{"user_id":460,"name":"Lavender","steam_id":76561198142770666,"connected_time":1789000000000,"state":"active","ping":51},{"user_id":463,"name":"Rykah","steam_id":76561198095040360,"connected_time":1375000000000,"state":"active","ping":81},{"user_id":477,"name":"Brisk","steam_id":76561198129769783,"connected_time":643000000000,"state":"active","ping":80},{"user_id":442,"name":"evdoke","steam_id":76561198044555219,"connected_time":3483000000000,"state":"active","ping":60},{"user_id":478,"name":"footoftheday","steam_id":76561198052712449,"connected_time":578000000000,"state":"active","ping":65},{"user_id":349,"name":"Tako","steam_id":76561199264073138,"connected_time":10612000000000,"state":"active","ping":82},{"user_id":479,"name":"DOUBLE XP WEEKEND","steam_id":76561198078626283,"connected_time":501000000000,"state":"active","ping":84}]},{"server_id":37,"name":"Uncletopia | Chicago | 6 | All Maps","name_short":"chi-6","host":"chi-2.us.uncletopia.com","port":27025,"enabled":true,"region":"us-central","cc":"us","latitude":41.881832,"longitude":-87.62318,"reserved":0,"last_update":"0001-01-01T00:00:00Z","name_a2s":"Uncletopia | Chicago | 6 | All Maps","protocol":17,"map":"cp_sunshine","folder":"tf","game":"Team Fortress","app_id":440,"player_count":24,"max_players":24,"Bots":0,"server_type":"Dedicated","server_os":"Linux","password":true,"vac":true,"version":"7757534","steam_id":85568392924866363,"keywords":["cp","nocrits","nodmgspread","uncletopia"],"game_id":440,"stv_port":27026,"stv_name":"Uncletopia | Chicago | 6 | All Maps | STV","players":[{"user_id":343,"name":"Rat","steam_id":76561198146558552,"connected_time":1988000000000,"state":"active","ping":110},{"user_id":320,"name":"Ninty","steam_id":76561199364725776,"connected_time":2540000000000,"state":"active","ping":88},{"user_id":358,"name":"xd Clover","steam_id":76561198038905361,"connected_time":913000000000,"state":"active","ping":59},{"user_id":366,"name":"garfield","steam_id":76561198114119308,"connected_time":688000000000,"state":"active","ping":63},{"user_id":357,"name":"The chumbler | 20bb","steam_id":76561198999161827,"connected_time":950000000000,"state":"active","ping":58},{"user_id":360,"name":"nerb","steam_id":76561198038080028,"connected_time":901000000000,"state":"active","ping":49},{"user_id":367,"name":"Sprinklingmydoughnut","steam_id":76561198168009092,"connected_time":652000000000,"state":"active","ping":100},{"user_id":368,"name":"totally not a pile of beans","steam_id":76561198119851931,"connected_time":629000000000,"state":"active","ping":85},{"user_id":369,"name":"Darkmaen","steam_id":76561198060543390,"connected_time":622000000000,"state":"active","ping":147},{"user_id":296,"name":"[DEEP] Danmar33","steam_id":76561198056453091,"connected_time":5046000000000,"state":"active","ping":49},{"user_id":297,"name":"AFK BRB","steam_id":76561198104939612,"connected_time":5011000000000,"state":"active","ping":55},{"user_id":373,"name":"Melad","steam_id":76561198018849258,"connected_time":234000000000,"state":"active","ping":61},{"user_id":362,"name":"shibaba bababool","steam_id":76561197972601902,"connected_time":872000000000,"state":"active","ping":88},{"user_id":308,"name":"[DEEP] Roz257","steam_id":76561198842844532,"connected_time":4192000000000,"state":"active","ping":66},{"user_id":323,"name":"flappyflap2","steam_id":76561198285048973,"connected_time":2493000000000,"state":"active","ping":62},{"user_id":372,"name":"CloudVic","steam_id":76561198118868716,"connected_time":277000000000,"state":"active","ping":78},{"user_id":335,"name":"C4K3","steam_id":76561197996963285,"connected_time":2141000000000,"state":"active","ping":81},{"user_id":293,"name":"M4_Patriot","steam_id":76561198380134648,"connected_time":5177000000000,"state":"active","ping":110},{"user_id":294,"name":"pravus367","steam_id":76561198130024571,"connected_time":5175000000000,"state":"active","ping":101},{"user_id":356,"name":"Sparse","steam_id":76561198865084441,"connected_time":1346000000000,"state":"active","ping":82},{"user_id":364,"name":"GreekGoat_Coffee","steam_id":76561198129331088,"connected_time":840000000000,"state":"active","ping":46},{"user_id":338,"name":"Spike Bones","steam_id":76561198234926120,"connected_time":2045000000000,"state":"active","ping":91},{"user_id":342,"name":"Beanos","steam_id":76561198856717798,"connected_time":2002000000000,"state":"active","ping":69}]},{"server_id":38,"name":"Uncletopia | Chicago | 7 | Stopwatch Beta","name_short":"chi-7","host":"chi-2.us.uncletopia.com","port":27035,"enabled":true,"region":"us-central","cc":"us","latitude":41.881832,"longitude":-87.62318,"reserved":0,"last_update":"0001-01-01T00:00:00Z","name_a2s":"Uncletopia | Chicago | 7 | Stopwatch Beta","protocol":17,"map":"workshop/koth_clearcut_b15.ugc2107050255","folder":"tf","game":"Team Fortress","app_id":440,"player_count":0,"max_players":24,"Bots":0,"server_type":"Dedicated","server_os":"Linux","password":true,"vac":true,"version":"7757534","steam_id":85568392924866364,"keywords":["cp","nocrits","nodmgspread","uncletopia"],"game_id":440,"stv_port":27036,"stv_name":"Uncletopia | Chicago | 7 | Stopwatch Beta | STV","players":null},{"server_id":39,"name":"Uncletopia | Chicago | 8 | Community","name_short":"chi-8","host":"chi-2.us.uncletopia.com","port":27045,"enabled":true,"region":"us-central","cc":"us","latitude":41.881832,"longitude":-87.62318,"reserved":0,"last_update":"0001-01-01T00:00:00Z","name_a2s":"Uncletopia | Chicago | 8 | Community","protocol":17,"map":"workshop/cp_bruhstbowl_b5.ugc2878604990","folder":"tf","game":"Team Fortress","app_id":440,"player_count":0,"max_players":24,"Bots":0,"server_type":"Dedicated","server_os":"Linux","password":true,"vac":true,"version":"7757534","steam_id":85568392924866365,"keywords":["cp","nocrits","nodmgspread","uncletopia"],"game_id":440,"stv_port":27046,"stv_name":"Uncletopia | Chicago | 8 | Community | STV","players":null},{"server_id":8,"name":"Uncletopia | Dallas | 1 | All Maps","name_short":"dal-1","host":"dal-1.us.uncletopia.com","port":27015,"enabled":true,"region":"us-central","cc":"us","latitude":32.779167,"longitude":-96.80889,"reserved":0,"last_update":"0001-01-01T00:00:00Z","name_a2s":"Uncletopia | Dallas | 1 | All Maps","protocol":17,"map":"pl_pier","folder":"tf","game":"Team Fortress","app_id":440,"player_count":23,"max_players":24,"Bots":0,"server_type":"Dedicated","server_os":"Linux","password":true,"vac":true,"version":"7757534","steam_id":85568392924469986,"keywords":["nocrits","nodmgspread","payload","uncletopia"],"game_id":440,"stv_port":27016,"stv_name":"Uncletopia | Dallas | 1 | All Maps | STV","players":[{"user_id":578,"name":"ü§®","steam_id":76561199365672047,"connected_time":860000000000,"state":"active","ping":102},{"user_id":593,"name":"‚ô•_0ak lynn_‚ô•","steam_id":76561198080197090,"connected_time":185000000000,"state":"active","ping":47},{"user_id":445,"name":"cheers2x","steam_id":76561198366299848,"connected_time":13207000000000,"state":"active","ping":61},{"user_id":564,"name":"ShadowDragon0125","steam_id":76561198343849022,"connected_time":3362000000000,"state":"active","ping":71},{"user_id":565,"name":"Spy","steam_id":76561198937717599,"connected_time":3345000000000,"state":"active","ping":37},{"user_id":555,"name":"Orca?","steam_id":76561198164341099,"connected_time":4156000000000,"state":"active","ping":72},{"user_id":594,"name":"blue of days","steam_id":76561199113013688,"connected_time":156000000000,"state":"active","ping":77},{"user_id":587,"name":"Witchings","steam_id":76561198247431254,"connected_time":650000000000,"state":"active","ping":95},{"user_id":596,"name":"stratoposs","steam_id":76561198267831406,"connected_time":5000000000,"state":"spawning","ping":75},{"user_id":556,"name":"Grinski","steam_id":76561198054787727,"connected_time":3910000000000,"state":"active","ping":100},{"user_id":571,"name":"ChottoAMinute","steam_id":76561198873157775,"connected_time":2652000000000,"state":"active","ping":33},{"user_id":575,"name":"Etomb","steam_id":76561198210017208,"connected_time":1996000000000,"state":"active","ping":75},{"user_id":589,"name":"Raydn","steam_id":76561198418414338,"connected_time":582000000000,"state":"active","ping":58},{"user_id":582,"name":"BroBoss64","steam_id":76561198995865904,"connected_time":844000000000,"state":"active","ping":66},{"user_id":569,"name":"Invisorum","steam_id":76561198051902115,"connected_time":2920000000000,"state":"active","ping":98},{"user_id":559,"name":"Si1entSn1pa","steam_id":76561198170095479,"connected_time":3417000000000,"state":"active","ping":89},{"user_id":583,"name":"Bung","steam_id":76561199208429628,"connected_time":817000000000,"state":"active","ping":61},{"user_id":558,"name":"„ÄåJimbo Reference„Äç","steam_id":76561198016078541,"connected_time":3429000000000,"state":"active","ping":83},{"user_id":595,"name":"omniking9000","steam_id":76561199433524342,"connected_time":58000000000,"state":"active","ping":63},{"user_id":525,"name":"AlexLovesYou  (drun)","steam_id":76561199163263543,"connected_time":6470000000000,"state":"active","ping":105},{"user_id":590,"name":"Just A Potato","steam_id":76561198056360867,"connected_time":581000000000,"state":"active","ping":83},{"user_id":591,"name":"potatofox98","steam_id":76561198083721201,"connected_time":580000000000,"state":"active","ping":91},{"user_id":561,"name":"The Robot Menace","steam_id":76561198043390413,"connected_time":3404000000000,"state":"active","ping":53}]},{"server_id":108,"name":"Uncletopia | Dallas | 2 | All Maps","name_short":"dal-2","host":"dal-1.us.uncletopia.com","port":27025,"enabled":true,"region":"us-central","cc":"us","latitude":32.779167,"longitude":-96.80889,"reserved":0,"last_update":"0001-01-01T00:00:00Z","name_a2s":"Uncletopia | Dallas | 2 | All Maps","protocol":17,"map":"cp_sunshine","folder":"tf","game":"Team Fortress","app_id":440,"player_count":18,"max_players":24,"Bots":0,"server_type":"Dedicated","server_os":"Linux","password":true,"vac":true,"version":"7757534","steam_id":85568392924469988,"keywords":["cp","nocrits","nodmgspread","uncletopia"],"game_id":440,"stv_port":27026,"stv_name":"Uncletopia | Dallas | 2 | All Maps | STV","players":[{"user_id":536,"name":"Sentry","steam_id":76561198852196079,"connected_time":66000000000,"state":"active","ping":80},{"user_id":511,"name":"lemon","steam_id":76561198329179651,"connected_time":1280000000000,"state":"active","ping":105},{"user_id":533,"name":"joe mama","steam_id":76561198180696981,"connected_time":162000000000,"state":"active","ping":80},{"user_id":534,"name":"cheetaz","steam_id":76561198224614084,"connected_time":107000000000,"state":"active","ping":60},{"user_id":528,"name":"CentinelYhos","steam_id":76561198216409593,"connected_time":272000000000,"state":"active","ping":80},{"user_id":527,"name":"loboto gaming","steam_id":76561199088321574,"connected_time":380000000000,"state":"active","ping":101},{"user_id":490,"name":"Colonel Salt","steam_id":76561198207009563,"connected_time":2795000000000,"state":"active","ping":58},{"user_id":529,"name":"Caoticaos","steam_id":76561198114800227,"connected_time":253000000000,"state":"active","ping":142},{"user_id":537,"name":"veldt","steam_id":76561198056135308,"connected_time":26000000000,"state":"spawning","ping":40},{"user_id":517,"name":"LemonPoppyMuffin","steam_id":76561198044813750,"connected_time":1148000000000,"state":"active","ping":60},{"user_id":436,"name":"xZackAttack27x","steam_id":76561198035446639,"connected_time":7166000000000,"state":"active","ping":32},{"user_id":476,"name":"deadpixel","steam_id":76561198150249843,"connected_time":4604000000000,"state":"active","ping":74},{"user_id":504,"name":"Giselle","steam_id":76561198162593640,"connected_time":1919000000000,"state":"active","ping":98},{"user_id":530,"name":"Zelumie","steam_id":76561198147335801,"connected_time":234000000000,"state":"active","ping":72},{"user_id":531,"name":"Zeppelin Ziggy","steam_id":76561198006932308,"connected_time":230000000000,"state":"active","ping":94},{"user_id":481,"name":"Soozy420","steam_id":76561198809074422,"connected_time":3976000000000,"state":"active","ping":81},{"user_id":522,"name":"Big Jack Horner","steam_id":76561198847690613,"connected_time":1033000000000,"state":"active","ping":88},{"user_id":478,"name":"Phil Collins","steam_id":76561198068868644,"connected_time":4456000000000,"state":"active","ping":79}]},{"server_id":5,"name":"Uncletopia | Frankfurt | 1 | All Maps","name_short":"frk-1","host":"frk-1.de.uncletopia.com","port":27015,"enabled":true,"region":"eu","cc":"de","latitude":50.110924,"longitude":8.682127,"reserved":0,"last_update":"0001-01-01T00:00:00Z","name_a2s":"Uncletopia | Frankfurt | 1 | All Maps","protocol":17,"map":"pl_snowycoast","folder":"tf","game":"Team Fortress","app_id":440,"player_count":0,"max_players":24,"Bots":0,"server_type":"Dedicated","server_os":"Linux","password":true,"vac":true,"version":"7757534","steam_id":85568392924469989,"keywords":["nocrits","nodmgspread","payload","uncletopia"],"game_id":440,"stv_port":27016,"stv_name":"Uncletopia | Frankfurt | 1 | All Maps | STV","players":null},{"server_id":110,"name":"Uncletopia | Frankfurt | 2 | All Maps","name_short":"frk-2","host":"frk-1.de.uncletopia.com","port":27025,"enabled":true,"region":"eu","cc":"de","latitude":50.110924,"longitude":8.682127,"reserved":0,"last_update":"0001-01-01T00:00:00Z","name_a2s":"Uncletopia | Frankfurt | 2 | All Maps","protocol":17,"map":"cp_snakewater_final1","folder":"tf","game":"Team Fortress","app_id":440,"player_count":0,"max_players":24,"Bots":0,"server_type":"Dedicated","server_os":"Linux","password":true,"vac":true,"version":"7757534","steam_id":85568392924469990,"keywords":["cp","nocrits","nodmgspread","uncletopia"],"game_id":440,"stv_port":27026,"stv_name":"Uncletopia | Frankfurt | 2 | All Maps | STV","players":null},{"server_id":308,"name":"Uncletopia | Frankfurt | 3 | All Maps","name_short":"frk-3","host":"frk-1.de.uncletopia.com","port":27035,"enabled":true,"region":"eu","cc":"de","latitude":50.110924,"longitude":8.682127,"reserved":0,"last_update":"0001-01-01T00:00:00Z","name_a2s":"Uncletopia | Frankfurt | 3 | All Maps","protocol":17,"map":"pl_swiftwater_final1","folder":"tf","game":"Team Fortress","app_id":440,"player_count":0,"max_players":24,"Bots":0,"server_type":"Dedicated","server_os":"Linux","password":true,"vac":true,"version":"7757534","steam_id":85568392924504274,"keywords":["nocrits","nodmgspread","payload","uncletopia"],"game_id":440,"stv_port":27036,"stv_name":"Uncletopia | Frankfurt | 3 | All Maps | STV","players":null},{"server_id":309,"name":"Uncletopia | Frankfurt | 4 | All Maps","name_short":"frk-4","host":"frk-1.de.uncletopia.com","port":27045,"enabled":true,"region":"eu","cc":"de","latitude":50.110924,"longitude":8.682127,"reserved":0,"last_update":"0001-01-01T00:00:00Z","name_a2s":"Uncletopia | Frankfurt | 4 | All Maps","protocol":17,"map":"koth_viaduct","folder":"tf","game":"Team Fortress","app_id":440,"player_count":0,"max_players":24,"Bots":0,"server_type":"Dedicated","server_os":"Linux","password":true,"vac":true,"version":"7757534","steam_id":85568392924504275,"keywords":["cp","nocrits","nodmgspread","uncletopia"],"game_id":440,"stv_port":27046,"stv_name":"Uncletopia | Frankfurt | 4 | All Maps | STV","players":null},{"server_id":310,"name":"Uncletopia | Frankfurt | 5 | All Maps","name_short":"frk-5","host":"frk-1.de.uncletopia.com","port":27055,"enabled":true,"region":"eu","cc":"de","latitude":50.110924,"longitude":8.682127,"reserved":0,"last_update":"0001-01-01T00:00:00Z","name_a2s":"Uncletopia | Frankfurt | 5 | All Maps","protocol":17,"map":"koth_lakeside_final","folder":"tf","game":"Team Fortress","app_id":440,"player_count":0,"max_players":24,"Bots":0,"server_type":"Dedicated","server_os":"Linux","password":true,"vac":true,"version":"7757534","steam_id":85568392924504277,"keywords":["cp","nocrits","nodmgspread","uncletopia"],"game_id":440,"stv_port":27056,"stv_name":"Uncletopia | Frankfurt | 5 | All Maps | STV","players":null},{"server_id":311,"name":"Uncletopia | Frankfurt | 6 | All Maps","name_short":"frk-6","host":"frk-1.de.uncletopia.com","port":27065,"enabled":true,"region":"eu","cc":"de","latitude":50.110924,"longitude":8.682127,"reserved":0,"last_update":"0001-01-01T00:00:00Z","name_a2s":"Uncletopia | Frankfurt | 6 | All Maps","protocol":17,"map":"pl_frontier_final","folder":"tf","game":"Team Fortress","app_id":440,"player_count":0,"max_players":24,"Bots":0,"server_type":"Dedicated","server_os":"Linux","password":true,"vac":true,"version":"7757534","steam_id":85568392924504278,"keywords":["nocrits","nodmgspread","payload","uncletopia"],"game_id":440,"stv_port":27066,"stv_name":"Uncletopia | Frankfurt | 6 | All Maps | STV","players":null},{"server_id":23,"name":"Uncletopia | Frankfurt | 7 | Stopwatch Beta","name_short":"frk-7","host":"frk-1.de.uncletopia.com","port":27075,"enabled":true,"region":"eu","cc":"de","latitude":50.110924,"longitude":8.682127,"reserved":0,"last_update":"0001-01-01T00:00:00Z","name_a2s":"Uncletopia | Frankfurt | 7 | Stopwatch Beta","protocol":17,"map":"cp_sunshine","folder":"tf","game":"Team Fortress","app_id":440,"player_count":0,"max_players":24,"Bots":0,"server_type":"Dedicated","server_os":"Linux","password":true,"vac":true,"version":"7757534","steam_id":85568392924742827,"keywords":["cp","nocrits","nodmgspread","uncletopia"],"game_id":440,"stv_port":27076,"stv_name":"Uncletopia | Frankfurt | 7 | Stopwatch Beta | STV","players":null},{"server_id":24,"name":"Uncletopia | Frankfurt | 8 | Community","name_short":"frk-8","host":"frk-1.de.uncletopia.com","port":27085,"enabled":true,"region":"eu","cc":"de","latitude":50.110924,"longitude":8.682127,"reserved":0,"last_update":"0001-01-01T00:00:00Z","name_a2s":"Uncletopia | Frankfurt | 8 | Community","protocol":17,"map":"koth_lakeside_final","folder":"tf","game":"Team Fortress","app_id":440,"player_count":0,"max_players":24,"Bots":0,"server_type":"Dedicated","server_os":"Linux","password":true,"vac":true,"version":"7757534","steam_id":85568392924742828,"keywords":["cp","nocrits","nodmgspread","uncletopia"],"game_id":440,"stv_port":27086,"stv_name":"Uncletopia | Frankfurt | 8 | Community | STV","players":null},{"server_id":202,"name":"Uncletopia | Hong Kong | 1 | All Maps","name_short":"hgk-1","host":"hgk-1.hk.uncletopia.com","port":27015,"enabled":true,"region":"asia","cc":"hk","latitude":22.302711,"longitude":114.177216,"reserved":0,"last_update":"0001-01-01T00:00:00Z","name_a2s":"Uncletopia | Hong Kong | 1 | All Maps","protocol":17,"map":"pl_borneo","folder":"tf","game":"Team Fortress","app_id":440,"player_count":24,"max_players":24,"Bots":0,"server_type":"Dedicated","server_os":"Linux","password":true,"vac":true,"version":"7757534","steam_id":85568392924494504,"keywords":["nocrits","nodmgspread","payload","uncletopia"],"game_id":440,"stv_port":27016,"stv_name":"Uncletopia | Hong Kong | 1 | All Maps | STV","players":[{"user_id":104,"name":"idontknowhatimdoing(f2p)","steam_id":76561198973533534,"connected_time":981000000000,"state":"active","ping":113},{"user_id":95,"name":"2syk1673*","steam_id":76561198338911926,"connected_time":1481000000000,"state":"active","ping":65},{"user_id":85,"name":"·É¶Jun.","steam_id":76561198275846469,"connected_time":2317000000000,"state":"active","ping":79},{"user_id":92,"name":"Eugene the WISE","steam_id":76561198303608523,"connected_time":1692000000000,"state":"active","ping":110},{"user_id":75,"name":"Wx","steam_id":76561199217780897,"connected_time":2956000000000,"state":"active","ping":113},{"user_id":65,"name":"spinach (old mouse)","steam_id":76561198042539541,"connected_time":3173000000000,"state":"active","ping":76},{"user_id":51,"name":"Milk‚ù§","steam_id":76561198163911560,"connected_time":4132000000000,"state":"active","ping":135},{"user_id":86,"name":"Dits","steam_id":76561198283833960,"connected_time":2124000000000,"state":"active","ping":39},{"user_id":87,"name":"huh :-)","steam_id":76561198293775978,"connected_time":2016000000000,"state":"active","ping":94},{"user_id":107,"name":"gero's boytoy","steam_id":76561199226227211,"connected_time":459000000000,"state":"active","ping":123},{"user_id":28,"name":"Meru","steam_id":76561198405734851,"connected_time":5589000000000,"state":"active","ping":131},{"user_id":88,"name":"UnoSee","steam_id":76561198406640602,"connected_time":1884000000000,"state":"active","ping":85},{"user_id":89,"name":"FreeKills4Every1","steam_id":76561198422781396,"connected_time":1869000000000,"state":"active","ping":101},{"user_id":31,"name":"Mysterious_Network","steam_id":76561199445957166,"connected_time":5235000000000,"state":"active","ping":65},{"user_id":70,"name":"sinyeon","steam_id":76561198125363469,"connected_time":3019000000000,"state":"active","ping":82},{"user_id":59,"name":"David Keithson","steam_id":76561199279393636,"connected_time":3516000000000,"state":"active","ping":82},{"user_id":34,"name":"screaming sniper","steam_id":76561199085568674,"connected_time":5070000000000,"state":"active","ping":71},{"user_id":93,"name":"momosneakeradventure","steam_id":76561199046440440,"connected_time":1680000000000,"state":"active","ping":47},{"user_id":61,"name":"Arpazha","steam_id":76561199072257230,"connected_time":3452000000000,"state":"active","ping":120},{"user_id":71,"name":"P","steam_id":76561198304514505,"connected_time":3008000000000,"state":"active","ping":85},{"user_id":110,"name":"booty cheeks xd","steam_id":76561198324008555,"connected_time":52000000000,"state":"active","ping":53},{"user_id":108,"name":"sloth of the fragment clan","steam_id":76561198214192048,"connected_time":379000000000,"state":"active","ping":91},{"user_id":56,"name":"MsD IV","steam_id":76561198059707655,"connected_time":3805000000000,"state":"active","ping":153},{"user_id":94,"name":":uroSmonk:","steam_id":76561198074339034,"connected_time":1642000000000,"state":"active","ping":76}]},{"server_id":1,"name":"Uncletopia | Los Angeles | 1 | All Maps","name_short":"lax-1","host":"lax-1.us.uncletopia.com","port":27015,"enabled":true,"region":"us-west","cc":"us","latitude":33.94279,"longitude":-118.41004,"reserved":0,"last_update":"0001-01-01T00:00:00Z","name_a2s":"Uncletopia | Los Angeles | 1 | All Maps","protocol":17,"map":"koth_sawmill","folder":"tf","game":"Team Fortress","app_id":440,"player_count":24,"max_players":24,"Bots":0,"server_type":"Dedicated","server_os":"Linux","password":true,"vac":true,"version":"7757534","steam_id":85568392924469991,"keywords":["cp","nocrits","nodmgspread","uncletopia"],"game_id":440,"stv_port":27016,"stv_name":"Uncletopia | Los Angeles | 1 | All Maps | STV","players":[{"user_id":59,"name":"Celia [ +/- ] ‚úî","steam_id":76561198067164431,"connected_time":822000000000,"state":"active","ping":40},{"user_id":33,"name":"Haiwik","steam_id":76561198871081291,"connected_time":2577000000000,"state":"active","ping":82},{"user_id":75,"name":"PussPuss","steam_id":76561198028684082,"connected_time":217000000000,"state":"active","ping":114},{"user_id":35,"name":"el muchacho","steam_id":76561198282632562,"connected_time":1953000000000,"state":"active","ping":96},{"user_id":36,"name":"taquito","steam_id":76561198272049926,"connected_time":1932000000000,"state":"active","ping":93},{"user_id":37,"name":"twunkers","steam_id":76561198571960290,"connected_time":1877000000000,"state":"active","ping":99},{"user_id":68,"name":"DeathSushi","steam_id":76561199156131540,"connected_time":537000000000,"state":"active","ping":90},{"user_id":41,"name":"Aequalis747","steam_id":76561199456589841,"connected_time":1610000000000,"state":"active","ping":66},{"user_id":61,"name":"r u guys going trick or treatin","steam_id":76561199074585110,"connected_time":761000000000,"state":"active","ping":45},{"user_id":70,"name":"fiberbriver","steam_id":76561198253933991,"connected_time":360000000000,"state":"active","ping":53},{"user_id":44,"name":"xbox record that","steam_id":76561198150117455,"connected_time":1504000000000,"state":"active","ping":52},{"user_id":46,"name":"Duckles","steam_id":76561198049203455,"connected_time":1476000000000,"state":"active","ping":80},{"user_id":47,"name":"Hazi","steam_id":76561198066844855,"connected_time":1432000000000,"state":"active","ping":68},{"user_id":48,"name":"TeCon","steam_id":76561198049127236,"connected_time":1417000000000,"state":"active","ping":58},{"user_id":71,"name":"soweli","steam_id":76561198044363630,"connected_time":296000000000,"state":"active","ping":103},{"user_id":64,"name":"bean drinker","steam_id":76561198044004639,"connected_time":685000000000,"state":"active","ping":76},{"user_id":65,"name":"Da Wizard","steam_id":76561198842482031,"connected_time":682000000000,"state":"active","ping":85},{"user_id":53,"name":"werolat","steam_id":76561197960544784,"connected_time":1264000000000,"state":"active","ping":87},{"user_id":54,"name":"Potatobreeder","steam_id":76561199077867000,"connected_time":1254000000000,"state":"active","ping":99},{"user_id":72,"name":"023e20902o0239ee02390o239e","steam_id":76561198175741741,"connected_time":289000000000,"state":"active","ping":97},{"user_id":73,"name":"OttoDogX","steam_id":76561198042007578,"connected_time":285000000000,"state":"active","ping":47},{"user_id":74,"name":"Nero","steam_id":76561198162875889,"connected_time":282000000000,"state":"active","ping":53},{"user_id":76,"name":"Dr. Gordon Freeman","steam_id":76561198258258079,"connected_time":134000000000,"state":"active","ping":108},{"user_id":77,"name":"Mighty Morphin Flower Arrangers","steam_id":76561198133158032,"connected_time":106000000000,"state":"active","ping":58}]},{"server_id":112,"name":"Uncletopia | Los Angeles | 2 | All Maps","name_short":"lax-2","host":"lax-1.us.uncletopia.com","port":27025,"enabled":true,"region":"us-west","cc":"us","latitude":33.94279,"longitude":-118.41004,"reserved":0,"last_update":"0001-01-01T00:00:00Z","name_a2s":"Uncletopia | Los Angeles | 2 | All Maps","protocol":17,"map":"pl_borneo","folder":"tf","game":"Team Fortress","app_id":440,"player_count":24,"max_players":24,"Bots":0,"server_type":"Dedicated","server_os":"Linux","password":true,"vac":true,"version":"7757534","steam_id":85568392924469992,"keywords":["nocrits","nodmgspread","payload","uncletopia"],"game_id":440,"stv_port":27026,"stv_name":"Uncletopia | Los Angeles | 2 | All Maps | STV","players":[{"user_id":264,"name":"An00bis","steam_id":76561198044084508,"connected_time":290000000000,"state":"active","ping":60},{"user_id":252,"name":"GiantEagleMan","steam_id":76561198317914933,"connected_time":1739000000000,"state":"active","ping":58},{"user_id":265,"name":"FROYO b4nny","steam_id":76561197970669109,"connected_time":274000000000,"state":"active","ping":50},{"user_id":238,"name":"merkury731","steam_id":76561198110565430,"connected_time":2512000000000,"state":"active","ping":109},{"user_id":244,"name":"ChipE","steam_id":76561198137146627,"connected_time":2292000000000,"state":"active","ping":71},{"user_id":263,"name":"‚òÖCyberMario‚òÖ","steam_id":76561198045798329,"connected_time":319000000000,"state":"active","ping":73},{"user_id":246,"name":"Peyote Peterson","steam_id":76561198071093032,"connected_time":2183000000000,"state":"active","ping":31},{"user_id":239,"name":"BasedGod","steam_id":76561198061177973,"connected_time":2486000000000,"state":"active","ping":49},{"user_id":240,"name":"muffinman12126","steam_id":76561199471924109,"connected_time":2461000000000,"state":"active","ping":59},{"user_id":228,"name":"Sudo","steam_id":76561198123714026,"connected_time":3167000000000,"state":"active","ping":69},{"user_id":258,"name":"walrooos","steam_id":76561198024521839,"connected_time":1612000000000,"state":"active","ping":40},{"user_id":248,"name":"squash","steam_id":76561198150281353,"connected_time":2159000000000,"state":"active","ping":86},{"user_id":253,"name":"DEQUAVIS","steam_id":76561198843060075,"connected_time":1737000000000,"state":"active","ping":55},{"user_id":268,"name":"Mikeonut","steam_id":76561198305752102,"connected_time":5000000000,"state":"spawning","ping":39},{"user_id":216,"name":"Squiliam","steam_id":76561198025278006,"connected_time":3860000000000,"state":"active","ping":71},{"user_id":232,"name":"Klopo","steam_id":76561198871108633,"connected_time":2813000000000,"state":"active","ping":46},{"user_id":243,"name":"Chirp","steam_id":76561198240780230,"connected_time":2385000000000,"state":"active","ping":55},{"user_id":235,"name":"bobletoob","steam_id":76561199184464900,"connected_time":2612000000000,"state":"active","ping":56},{"user_id":220,"name":"beabadoobee","steam_id":76561198122177409,"connected_time":3626000000000,"state":"active","ping":45},{"user_id":266,"name":"KingShoop","steam_id":76561198060077597,"connected_time":274000000000,"state":"active","ping":75},{"user_id":267,"name":"SneekiCheekiQbone","steam_id":76561198045077980,"connected_time":267000000000,"state":"active","ping":42},{"user_id":255,"name":"Shitty_Wizard","steam_id":76561198047889979,"connected_time":1708000000000,"state":"active","ping":83},{"user_id":256,"name":"hoopswoop9","steam_id":76561199203050556,"connected_time":1696000000000,"state":"active","ping":59},{"user_id":260,"name":"MuscleWizard","steam_id":76561198113756539,"connected_time":1328000000000,"state":"active","ping":59}]},{"server_id":324,"name":"Uncletopia | Los Angeles | 3 | All Maps","name_short":"lax-3","host":"lax-1.us.uncletopia.com","port":27035,"enabled":true,"region":"us-west","cc":"us","latitude":33.94279,"longitude":-118.41004,"reserved":0,"last_update":"0001-01-01T00:00:00Z","name_a2s":"Uncletopia | Los Angeles | 3 | All Maps","protocol":17,"map":"pl_upward","folder":"tf","game":"Team Fortress","app_id":440,"player_count":24,"max_players":24,"Bots":0,"server_type":"Dedicated","server_os":"Linux","password":true,"vac":true,"version":"7757534","steam_id":85568392924510198,"keywords":["nocrits","nodmgspread","payload","uncletopia"],"game_id":440,"stv_port":27036,"stv_name":"Uncletopia | Los Angeles | 3 | All Maps | STV","players":[{"user_id":52,"name":"Loamy","steam_id":76561198064183674,"connected_time":2767000000000,"state":"active","ping":34},{"user_id":99,"name":"Averagemicrowavedchickenstick","steam_id":76561199128225865,"connected_time":70000000000,"state":"active","ping":82},{"user_id":92,"name":"TeriyakiDynamite","steam_id":76561198050049346,"connected_time":493000000000,"state":"active","ping":60},{"user_id":24,"name":"ordinaryJoe","steam_id":76561198139822390,"connected_time":3841000000000,"state":"active","ping":47},{"user_id":80,"name":"slowdance","steam_id":76561198097427947,"connected_time":1243000000000,"state":"active","ping":93},{"user_id":94,"name":"I Am Alpharius","steam_id":76561198033100226,"connected_time":392000000000,"state":"active","ping":120},{"user_id":89,"name":"Benshiro","steam_id":76561198151776951,"connected_time":572000000000,"state":"active","ping":64},{"user_id":95,"name":"ryqset","steam_id":76561198349299874,"connected_time":334000000000,"state":"active","ping":92},{"user_id":93,"name":"[_Dr.Scythe_]","steam_id":76561198845245858,"connected_time":478000000000,"state":"active","ping":91},{"user_id":86,"name":"WillUberDemoknights","steam_id":76561198320452169,"connected_time":954000000000,"state":"active","ping":64},{"user_id":96,"name":"genset90","steam_id":76561199025671520,"connected_time":329000000000,"state":"active","ping":96},{"user_id":34,"name":"sammy #freecream","steam_id":76561199001307670,"connected_time":3491000000000,"state":"active","ping":79},{"user_id":67,"name":"Cinical","steam_id":76561198353955322,"connected_time":2010000000000,"state":"active","ping":50},{"user_id":36,"name":"scout unenjoyer","steam_id":76561199011185438,"connected_time":3457000000000,"state":"active","ping":93},{"user_id":87,"name":"Moshi Man","steam_id":76561198038249762,"connected_time":775000000000,"state":"active","ping":107},{"user_id":84,"name":"The Foolish Samurai","steam_id":76561198094494945,"connected_time":1116000000000,"state":"active","ping":76},{"user_id":97,"name":"cool beans","steam_id":76561198045758072,"connected_time":324000000000,"state":"active","ping":55},{"user_id":71,"name":"Not A Rapper","steam_id":76561198077523537,"connected_time":1643000000000,"state":"active","ping":98},{"user_id":76,"name":"carol in HR","steam_id":76561198071775268,"connected_time":1299000000000,"state":"active","ping":105},{"user_id":46,"name":"Vitzenhauzer","steam_id":76561198116449787,"connected_time":3060000000000,"state":"active","ping":118},{"user_id":47,"name":"Luke Skywalker","steam_id":76561198076241249,"connected_time":3055000000000,"state":"active","ping":131},{"user_id":98,"name":"defcon","steam_id":76561198100656328,"connected_time":320000000000,"state":"active","ping":112},{"user_id":49,"name":"Chalupa Jones","steam_id":76561198335855588,"connected_time":2970000000000,"state":"active","ping":53},{"user_id":77,"name":"Skarp129","steam_id":76561198108679057,"connected_time":1299000000000,"state":"active","ping":50}]},{"server_id":25,"name":"Uncletopia | Los Angeles | 4 | Stopwatch Beta","name_short":"lax-4","host":"lax-1.us.uncletopia.com","port":27045,"enabled":true,"region":"us-west","cc":"us","latitude":33.94279,"longitude":-118.41004,"reserved":0,"last_update":"0001-01-01T00:00:00Z","name_a2s":"Uncletopia | Los Angeles | 4 | Stopwatch Beta","protocol":17,"map":"pl_swiftwater_final1","folder":"tf","game":"Team Fortress","app_id":440,"player_count":0,"max_players":24,"Bots":0,"server_type":"Dedicated","server_os":"Linux","password":true,"vac":true,"version":"7757534","steam_id":85568392924510199,"keywords":["nocrits","nodmgspread","payload","uncletopia"],"game_id":440,"stv_port":27046,"stv_name":"Uncletopia | Los Angeles | 4 | Stopwatch Beta | STV","players":null},{"server_id":11,"name":"Uncletopia | London | 1 | All Maps","name_short":"lon-1","host":"lon-1.uk.uncletopia.com","port":27015,"enabled":true,"region":"eu","cc":"gb","latitude":51.509865,"longitude":-0.118092,"reserved":0,"last_update":"0001-01-01T00:00:00Z","name_a2s":"Uncletopia | London | 1 | All Maps","protocol":17,"map":"koth_viaduct","folder":"tf","game":"Team Fortress","app_id":440,"player_count":0,"max_players":24,"Bots":0,"server_type":"Dedicated","server_os":"Linux","password":true,"vac":true,"version":"7757534","steam_id":85568392924367362,"keywords":["cp","nocrits","nodmgspread","uncletopia"],"game_id":440,"stv_port":27016,"stv_name":"Uncletopia | London | 1 | All Maps | STV","players":null},{"server_id":114,"name":"Uncletopia | London | 2 | All Maps","name_short":"lon-2","host":"lon-1.uk.uncletopia.com","port":27025,"enabled":true,"region":"eu","cc":"gb","latitude":51.509865,"longitude":-0.118092,"reserved":0,"last_update":"0001-01-01T00:00:00Z","name_a2s":"Uncletopia | London | 2 | All Maps","protocol":17,"map":"pl_snowycoast","folder":"tf","game":"Team Fortress","app_id":440,"player_count":0,"max_players":24,"Bots":0,"server_type":"Dedicated","server_os":"Linux","password":true,"vac":true,"version":"7757534","steam_id":85568392924470941,"keywords":["nocrits","nodmgspread","payload","uncletopia"],"game_id":440,"stv_port":27026,"stv_name":"Uncletopia | London | 2 | All Maps | STV","players":null},{"server_id":320,"name":"Uncletopia | London | 3 | All Maps","name_short":"lon-3","host":"lon-1.uk.uncletopia.com","port":27035,"enabled":true,"region":"eu","cc":"gb","latitude":51.509865,"longitude":-0.118092,"reserved":0,"last_update":"0001-01-01T00:00:00Z","name_a2s":"Uncletopia | London | 3 | All Maps","protocol":17,"map":"koth_cascade","folder":"tf","game":"Team Fortress","app_id":440,"player_count":0,"max_players":24,"Bots":0,"server_type":"Dedicated","server_os":"Linux","password":true,"vac":true,"version":"7757534","steam_id":85568392924510192,"keywords":["cp","nocrits","nodmgspread","uncletopia"],"game_id":440,"stv_port":27036,"stv_name":"Uncletopia | London | 3 | All Maps | STV","players":null},{"server_id":321,"name":"Uncletopia | London | 4 | All Maps","name_short":"lon-4","host":"lon-1.uk.uncletopia.com","port":27045,"enabled":true,"region":"eu","cc":"gb","latitude":51.509865,"longitude":-0.118092,"reserved":0,"last_update":"0001-01-01T00:00:00Z","name_a2s":"Uncletopia | London | 4 | All Maps","protocol":17,"map":"cp_altitude","folder":"tf","game":"Team Fortress","app_id":440,"player_count":14,"max_players":24,"Bots":0,"server_type":"Dedicated","server_os":"Linux","password":true,"vac":true,"version":"7757534","steam_id":85568392924510193,"keywords":["cp","nocrits","nodmgspread","uncletopia"],"game_id":440,"stv_port":27046,"stv_name":"Uncletopia | London | 4 | All Maps | STV","players":[{"user_id":767,"name":"Psyche","steam_id":76561198091662001,"connected_time":5414000000000,"state":"active","ping":56},{"user_id":847,"name":"iIMOFIi","steam_id":76561199000483925,"connected_time":310000000000,"state":"active","ping":180},{"user_id":848,"name":"kektuse","steam_id":76561198088426580,"connected_time":243000000000,"state":"active","ping":60},{"user_id":819,"name":"sheeum","steam_id":76561198277403366,"connected_time":2335000000000,"state":"active","ping":156},{"user_id":845,"name":"cherry powder","steam_id":76561199006915718,"connected_time":571000000000,"state":"active","ping":67},{"user_id":824,"name":"Serange","steam_id":76561198330490467,"connected_time":1992000000000,"state":"active","ping":58},{"user_id":849,"name":"Lemmers235","steam_id":76561199192668922,"connected_time":160000000000,"state":"active","ping":176},{"user_id":800,"name":"cz","steam_id":76561198965227348,"connected_time":3812000000000,"state":"active","ping":69},{"user_id":850,"name":"NotUserUnderknown","steam_id":76561199023148748,"connected_time":142000000000,"state":"spawning","ping":816},{"user_id":851,"name":"WebstarEGTV","steam_id":76561198162593789,"connected_time":117000000000,"state":"active","ping":214},{"user_id":827,"name":"Something","steam_id":76561199065293620,"connected_time":1948000000000,"state":"active","ping":161},{"user_id":852,"name":"–¢—Ä—É–ø –í–æ–ª–æ–¥—è","steam_id":76561198035718457,"connected_time":99000000000,"state":"spawning","ping":122},{"user_id":853,"name":"Ninjabro","steam_id":76561199196435084,"connected_time":96000000000,"state":"active","ping":193},{"user_id":816,"name":"tapeworms!","steam_id":76561198069649097,"connected_time":2611000000000,"state":"active","ping":46}]},{"server_id":21,"name":"Uncletopia | London | 5 | All Maps","name_short":"lon-5","host":"lon-1.uk.uncletopia.com","port":27055,"enabled":true,"region":"eu","cc":"gb","latitude":51.509865,"longitude":-0.118092,"reserved":0,"last_update":"0001-01-01T00:00:00Z","name_a2s":"Uncletopia | London | 5 | All Maps","protocol":17,"map":"pl_badwater","folder":"tf","game":"Team Fortress","app_id":440,"player_count":0,"max_players":24,"Bots":0,"server_type":"Dedicated","server_os":"Linux","password":true,"vac":true,"version":"7757534","steam_id":85568392924742829,"keywords":["nocrits","nodmgspread","payload","uncletopia"],"game_id":440,"stv_port":27056,"stv_name":"Uncletopia | London | 5 | All Maps | STV","players":null},{"server_id":22,"name":"Uncletopia | London | 6 | All Maps","name_short":"lon-6","host":"lon-1.uk.uncletopia.com","port":27065,"enabled":true,"region":"eu","cc":"gb","latitude":51.509865,"longitude":-0.118092,"reserved":0,"last_update":"0001-01-01T00:00:00Z","name_a2s":"Uncletopia | London | 6 | All Maps","protocol":17,"map":"koth_highpass","folder":"tf","game":"Team Fortress","app_id":440,"player_count":0,"max_players":24,"Bots":0,"server_type":"Dedicated","server_os":"Linux","password":true,"vac":true,"version":"7757534","steam_id":85568392924742830,"keywords":["cp","nocrits","nodmgspread","uncletopia"],"game_id":440,"stv_port":27066,"stv_name":"Uncletopia | London | 6 | All Maps | STV","players":null},{"server_id":40,"name":"Uncletopia | London | 7 | No Payload","name_short":"lon-7","host":"lon-1.uk.uncletopia.com","port":27075,"enabled":true,"region":"eu","cc":"gb","latitude":51.509865,"longitude":-0.118092,"reserved":0,"last_update":"0001-01-01T00:00:00Z","name_a2s":"Uncletopia | London | 7 | No Payload","protocol":17,"map":"koth_harvest_final","folder":"tf","game":"Team Fortress","app_id":440,"player_count":0,"max_players":24,"Bots":0,"server_type":"Dedicated","server_os":"Linux","password":true,"vac":true,"version":"7757534","steam_id":85568392924964314,"keywords":["cp","nocrits","nodmgspread","uncletopia"],"game_id":440,"stv_port":27076,"stv_name":"Uncletopia | London | 7 | No Payload | STV","players":null},{"server_id":41,"name":"Uncletopia | London | 8 | Community","name_short":"lon-8","host":"lon-1.uk.uncletopia.com","port":27085,"enabled":true,"region":"eu","cc":"gb","latitude":51.509865,"longitude":-0.118092,"reserved":0,"last_update":"0001-01-01T00:00:00Z","name_a2s":"Uncletopia | London | 8 | Community","protocol":17,"map":"workshop/cp_caldera_rc2.ugc2834196889","folder":"tf","game":"Team Fortress","app_id":440,"player_count":0,"max_players":24,"Bots":0,"server_type":"Dedicated","server_os":"Linux","password":true,"vac":true,"version":"7757534","steam_id":85568392924964315,"keywords":["cp","nocrits","nodmgspread","uncletopia"],"game_id":440,"stv_port":27086,"stv_name":"Uncletopia | London | 8 | Community | STV","players":null},{"server_id":300,"name":"Uncletopia | Montr√©al | 1 | All Maps","name_short":"mtl-1","host":"mtl-1.ca.uncletopia.com","port":27015,"enabled":true,"region":"us-east","cc":"ca","latitude":45.50889,"longitude":-73.56167,"reserved":0,"last_update":"0001-01-01T00:00:00Z","name_a2s":"Uncletopia | Montr√©al | 1 | All Maps","protocol":17,"map":"koth_highpass","folder":"tf","game":"Team Fortress","app_id":440,"player_count":0,"max_players":24,"Bots":0,"server_type":"Dedicated","server_os":"Linux","password":true,"vac":true,"version":"7757534","steam_id":85568392924500087,"keywords":["cp","nocrits","nodmgspread","uncletopia"],"game_id":440,"stv_port":27016,"stv_name":"Uncletopia | Montr√©al | 1 | All Maps | STV","players":null},{"server_id":301,"name":"Uncletopia | Montr√©al | 2 | All Maps","name_short":"mtl-2","host":"mtl-1.ca.uncletopia.com","port":27025,"enabled":true,"region":"us-east","cc":"ca","latitude":45.50889,"longitude":-73.56167,"reserved":0,"last_update":"0001-01-01T00:00:00Z","name_a2s":"Uncletopia | Montr√©al | 2 | All Maps","protocol":17,"map":"ctf_2fort","folder":"tf","game":"Team Fortress","app_id":440,"player_count":13,"max_players":24,"Bots":0,"server_type":"Dedicated","server_os":"Linux","password":true,"vac":true,"version":"7757534","steam_id":85568392924500088,"keywords":["ctf","nocrits","nodmgspread","uncletopia"],"game_id":440,"stv_port":27026,"stv_name":"Uncletopia | Montr√©al | 2 | All Maps | STV","players":[{"user_id":250,"name":"Sapphireblitz","steam_id":76561198272635379,"connected_time":248000000000,"state":"active","ping":66},{"user_id":255,"name":"The boi Everett","steam_id":76561199229813848,"connected_time":5000000000,"state":"spawning","ping":77},{"user_id":251,"name":"glitchhero12","steam_id":76561199401322907,"connected_time":180000000000,"state":"active","ping":78},{"user_id":252,"name":"Bermblaster_69","steam_id":76561199081624697,"connected_time":144000000000,"state":"active","ping":128},{"user_id":247,"name":"SeanEee","steam_id":76561198217227232,"connected_time":673000000000,"state":"active","ping":70},{"user_id":253,"name":"Chris P. Bacon","steam_id":76561198095519802,"connected_time":144000000000,"state":"active","ping":97},{"user_id":199,"name":"Nappa","steam_id":76561198142406272,"connected_time":3958000000000,"state":"active","ping":69},{"user_id":205,"name":"Krillin","steam_id":76561198102009232,"connected_time":3802000000000,"state":"active","ping":76},{"user_id":201,"name":"Vegeta","steam_id":76561198120976988,"connected_time":3878000000000,"state":"active","ping":58},{"user_id":240,"name":"Jarlpy","steam_id":76561198193905778,"connected_time":975000000000,"state":"active","ping":92},{"user_id":204,"name":"dvnncl","steam_id":76561198337115759,"connected_time":3824000000000,"state":"active","ping":59},{"user_id":224,"name":"_SDM","steam_id":76561198050136796,"connected_time":1964000000000,"state":"active","ping":76},{"user_id":246,"name":"Daddys Home","steam_id":76561198034702011,"connected_time":730000000000,"state":"active","ping":63}]},{"server_id":302,"name":"Uncletopia | Montr√©al | 3 | All Maps","name_short":"mtl-3","host":"mtl-1.ca.uncletopia.com","port":27035,"enabled":true,"region":"us-east","cc":"ca","latitude":45.50889,"longitude":-73.56167,"reserved":0,"last_update":"0001-01-01T00:00:00Z","name_a2s":"Uncletopia | Montr√©al | 3 | All Maps","protocol":17,"map":"pl_pier","folder":"tf","game":"Team Fortress","app_id":440,"player_count":0,"max_players":24,"Bots":0,"server_type":"Dedicated","server_os":"Linux","password":true,"vac":true,"version":"7757534","steam_id":85568392924500089,"keywords":["nocrits","nodmgspread","payload","uncletopia"],"game_id":440,"stv_port":27036,"stv_name":"Uncletopia | Montr√©al | 3 | All Maps | STV","players":null},{"server_id":303,"name":"Uncletopia | Montr√©al | 4 | No Payload","name_short":"mtl-4","host":"mtl-1.ca.uncletopia.com","port":27045,"enabled":true,"region":"us-east","cc":"ca","latitude":45.50889,"longitude":-73.56167,"reserved":0,"last_update":"0001-01-01T00:00:00Z","name_a2s":"Uncletopia | Montr√©al | 4 | No Payload","protocol":17,"map":"plr_nightfall_final","folder":"tf","game":"Team Fortress","app_id":440,"player_count":0,"max_players":24,"Bots":0,"server_type":"Dedicated","server_os":"Linux","password":true,"vac":true,"version":"7757534","steam_id":85568392924500090,"keywords":["nocrits","nodmgspread","payload","uncletopia"],"game_id":440,"stv_port":27046,"stv_name":"Uncletopia | Montr√©al | 4 | No Payload | STV","players":null},{"server_id":13,"name":"Uncletopia | New York City | 1 | All Maps","name_short":"nyc-1","host":"nyc-1.us.uncletopia.com","port":27015,"enabled":true,"region":"us-east","cc":"us","latitude":40.73061,"longitude":-73.93524,"reserved":0,"last_update":"0001-01-01T00:00:00Z","name_a2s":"Uncletopia | New York City | 1 | All Maps","protocol":17,"map":"pl_swiftwater_final1","folder":"tf","game":"Team Fortress","app_id":440,"player_count":24,"max_players":24,"Bots":0,"server_type":"Dedicated","server_os":"Linux","password":true,"vac":true,"version":"7757534","steam_id":85568392924469993,"keywords":["nocrits","nodmgspread","payload","uncletopia"],"game_id":440,"stv_port":27016,"stv_name":"Uncletopia | New York City | 1 | All Maps | STV","players":[{"user_id":552,"name":"wool","steam_id":76561198869689933,"connected_time":1848000000000,"state":"active","ping":54},{"user_id":569,"name":"A Shiny Vegan Tricycle","steam_id":76561198358757709,"connected_time":491000000000,"state":"active","ping":87},{"user_id":567,"name":"TheGuyWhoPlays","steam_id":76561198277363002,"connected_time":794000000000,"state":"active","ping":65},{"user_id":563,"name":"Raptortastico","steam_id":76561198105613110,"connected_time":998000000000,"state":"active","ping":63},{"user_id":570,"name":"queenbonqueenqueen","steam_id":76561198799729926,"connected_time":390000000000,"state":"active","ping":96},{"user_id":530,"name":"Temujin","steam_id":76561198030936583,"connected_time":2717000000000,"state":"active","ping":31},{"user_id":517,"name":"erwebomio","steam_id":76561198071152924,"connected_time":3517000000000,"state":"active","ping":113},{"user_id":560,"name":"Rat_king","steam_id":76561199465689129,"connected_time":1188000000000,"state":"active","ping":85},{"user_id":556,"name":"femboy hooters line cook","steam_id":76561198083607304,"connected_time":1792000000000,"state":"active","ping":60},{"user_id":568,"name":"trappy (soggy)","steam_id":76561198402801140,"connected_time":777000000000,"state":"active","ping":83},{"user_id":565,"name":"Luka Tim","steam_id":76561198277163301,"connected_time":865000000000,"state":"active","ping":77},{"user_id":564,"name":"C Papi","steam_id":76561198027779564,"connected_time":988000000000,"state":"active","ping":62},{"user_id":500,"name":"Jmciano24","steam_id":76561198050723212,"connected_time":4305000000000,"state":"active","ping":54},{"user_id":501,"name":"plasmaofthedawn","steam_id":76561198287916194,"connected_time":4233000000000,"state":"active","ping":67},{"user_id":566,"name":"Bluedime","steam_id":76561198123181025,"connected_time":824000000000,"state":"active","ping":41},{"user_id":533,"name":"Piss Collector","steam_id":76561198157339070,"connected_time":2686000000000,"state":"active","ping":70},{"user_id":535,"name":"Inigo Montoya","steam_id":76561198010603881,"connected_time":2659000000000,"state":"active","ping":88},{"user_id":480,"name":"wack","steam_id":76561198095697330,"connected_time":6438000000000,"state":"active","ping":78},{"user_id":553,"name":"Caterpillar Smoking a Blunt","steam_id":76561198369511235,"connected_time":1844000000000,"state":"active","ping":63},{"user_id":554,"name":"DaMultiversalist","steam_id":76561198239552412,"connected_time":1837000000000,"state":"active","ping":88},{"user_id":509,"name":"grate_fiter-232","steam_id":76561198073424589,"connected_time":4141000000000,"state":"active","ping":52},{"user_id":537,"name":"Yummy Kabobz","steam_id":76561198067661705,"connected_time":2650000000000,"state":"active","ping":54},{"user_id":495,"name":"Mefir","steam_id":76561198013650292,"connected_time":4880000000000,"state":"active","ping":112},{"user_id":555,"name":"Yugh","steam_id":76561198010708247,"connected_time":1837000000000,"state":"active","ping":79}]},{"server_id":14,"name":"Uncletopia | New York City | 2 | All Maps","name_short":"nyc-2","host":"nyc-1.us.uncletopia.com","port":27025,"enabled":true,"region":"us-east","cc":"us","latitude":40.73061,"longitude":-73.93524,"reserved":0,"last_update":"0001-01-01T00:00:00Z","name_a2s":"Uncletopia | New York City | 2 | All Maps","protocol":17,"map":"pl_borneo","folder":"tf","game":"Team Fortress","app_id":440,"player_count":24,"max_players":24,"Bots":0,"server_type":"Dedicated","server_os":"Linux","password":true,"vac":true,"version":"7757534","steam_id":85568392924469994,"keywords":["nocrits","nodmgspread","payload","uncletopia"],"game_id":440,"stv_port":27026,"stv_name":"Uncletopia | New York City | 2 | All Maps | STV","players":[{"user_id":651,"name":"Ashia","steam_id":76561198089336357,"connected_time":225000000000,"state":"active","ping":60},{"user_id":645,"name":"unerringCaprition (She/Her)","steam_id":76561198042528476,"connected_time":521000000000,"state":"active","ping":112},{"user_id":653,"name":"esh","steam_id":76561197994492154,"connected_time":54000000000,"state":"active","ping":140},{"user_id":617,"name":"nori_420","steam_id":76561199117134203,"connected_time":2605000000000,"state":"active","ping":136},{"user_id":632,"name":"Toast","steam_id":76561198401995265,"connected_time":1827000000000,"state":"active","ping":76},{"user_id":623,"name":"Femtofarad","steam_id":76561198308583053,"connected_time":2557000000000,"state":"active","ping":68},{"user_id":644,"name":"whoopsydoodle","steam_id":76561198045145360,"connected_time":539000000000,"state":"active","ping":42},{"user_id":646,"name":"James","steam_id":76561198055687973,"connected_time":493000000000,"state":"active","ping":74},{"user_id":527,"name":"6t26j","steam_id":76561198278282836,"connected_time":8678000000000,"state":"active","ping":53},{"user_id":452,"name":"Spiral Mountain","steam_id":76561198058683715,"connected_time":13896000000000,"state":"active","ping":90},{"user_id":634,"name":"Juri Han","steam_id":76561198041678517,"connected_time":1730000000000,"state":"active","ping":128},{"user_id":655,"name":"Aristotle Voulton","steam_id":76561198100174923,"connected_time":35000000000,"state":"active","ping":216},{"user_id":640,"name":"leumas","steam_id":76561198240408540,"connected_time":1613000000000,"state":"active","ping":45},{"user_id":607,"name":"give me spaghetti","steam_id":76561198010019214,"connected_time":2971000000000,"state":"active","ping":35},{"user_id":650,"name":"El Duderino","steam_id":76561198084404539,"connected_time":263000000000,"state":"active","ping":81},{"user_id":602,"name":"obelisk the whore mentor","steam_id":76561198000564263,"connected_time":3001000000000,"state":"active","ping":74},{"user_id":592,"name":"Gary","steam_id":76561198133309753,"connected_time":4162000000000,"state":"active","ping":53},{"user_id":613,"name":"SIGMA [BS]","steam_id":76561197962604879,"connected_time":2839000000000,"state":"active","ping":53},{"user_id":603,"name":"proud owner of a large tongue","steam_id":76561198106690989,"connected_time":2998000000000,"state":"active","ping":55},{"user_id":604,"name":"lanoc","steam_id":76561198055415367,"connected_time":2996000000000,"state":"active","ping":62},{"user_id":630,"name":"ShaqtusHD(She/Her)","steam_id":76561199138286233,"connected_time":2144000000000,"state":"active","ping":66},{"user_id":656,"name":"TheCaberMagnet","steam_id":76561198796383697,"connected_time":27000000000,"state":"active","ping":59},{"user_id":657,"name":"chiswola","steam_id":76561198046920142,"connected_time":15000000000,"state":"active","ping":103},{"user_id":638,"name":"Lancer47","steam_id":76561198020481475,"connected_time":1661000000000,"state":"active","ping":59}]},{"server_id":15,"name":"Uncletopia | New York City | 3 | Stopwatch Beta","name_short":"nyc-3","host":"nyc-1.us.uncletopia.com","port":27035,"enabled":true,"region":"us-east","cc":"us","latitude":40.73061,"longitude":-73.93524,"reserved":0,"last_update":"0001-01-01T00:00:00Z","name_a2s":"Uncletopia | New York City | 3 | Stopwatch Beta","protocol":17,"map":"cp_gullywash_final1","folder":"tf","game":"Team Fortress","app_id":440,"player_count":7,"max_players":24,"Bots":0,"server_type":"Dedicated","server_os":"Linux","password":true,"vac":true,"version":"7757534","steam_id":85568392924742820,"keywords":["cp","nocrits","nodmgspread","uncletopia"],"game_id":440,"stv_port":27036,"stv_name":"Uncletopia | New York City | 3 | Stopwatch Beta | STV","players":[{"user_id":95,"name":"Derpy Engineer HD","steam_id":76561198103184085,"connected_time":3805000000000,"state":"active","ping":139},{"user_id":96,"name":"The Pizza King","steam_id":76561198024287176,"connected_time":3787000000000,"state":"active","ping":85},{"user_id":129,"name":"Chunky Oatmeal","steam_id":76561198082322538,"connected_time":1462000000000,"state":"active","ping":77},{"user_id":137,"name":"St. Michael","steam_id":76561198037611052,"connected_time":175000000000,"state":"active","ping":77},{"user_id":48,"name":"Aegis","steam_id":76561198272052750,"connected_time":6971000000000,"state":"active","ping":63},{"user_id":69,"name":"DiscoTraveler","steam_id":76561199240168088,"connected_time":5791000000000,"state":"active","ping":47},{"user_id":132,"name":"‚ä∞Aero‚ä±","steam_id":76561198084648457,"connected_time":1231000000000,"state":"active","ping":86}]},{"server_id":16,"name":"Uncletopia | New York City | 4 | Community","name_short":"nyc-4","host":"nyc-1.us.uncletopia.com","port":27045,"enabled":true,"region":"us-east","cc":"us","latitude":40.73061,"longitude":-73.93524,"reserved":0,"last_update":"0001-01-01T00:00:00Z","name_a2s":"Uncletopia | New York City | 4 | Community","protocol":17,"map":"workshop/pl_corrode_rc2.ugc546577989","folder":"tf","game":"Team Fortress","app_id":440,"player_count":21,"max_players":24,"Bots":0,"server_type":"Dedicated","server_os":"Linux","password":true,"vac":true,"version":"7757534","steam_id":85568392924742821,"keywords":["nocrits","nodmgspread","payload","uncletopia"],"game_id":440,"stv_port":27046,"stv_name":"Uncletopia | New York City | 4 | Community | STV","players":[{"user_id":294,"name":"Mr. Fahrenheit","steam_id":76561198021489595,"connected_time":1802000000000,"state":"active","ping":95},{"user_id":309,"name":"GiraffeMan","steam_id":76561198042104084,"connected_time":869000000000,"state":"active","ping":48},{"user_id":313,"name":"medd","steam_id":76561198078238722,"connected_time":633000000000,"state":"active","ping":107},{"user_id":312,"name":"Jack Blolack","steam_id":76561199231261155,"connected_time":650000000000,"state":"active","ping":87},{"user_id":311,"name":"Chickblock2","steam_id":76561199007504565,"connected_time":753000000000,"state":"active","ping":73},{"user_id":314,"name":"BigOrca54","steam_id":76561198181360271,"connected_time":560000000000,"state":"active","ping":80},{"user_id":324,"name":"Chrisp","steam_id":76561199100599491,"connected_time":168000000000,"state":"active","ping":86},{"user_id":315,"name":"CanadaJay","steam_id":76561198077444944,"connected_time":486000000000,"state":"active","ping":67},{"user_id":292,"name":"soup warrior","steam_id":76561198313226860,"connected_time":1877000000000,"state":"active","ping":58},{"user_id":279,"name":"ComputeCore167","steam_id":76561198301250353,"connected_time":2630000000000,"state":"active","ping":217},{"user_id":297,"name":"Toastie","steam_id":76561198246760934,"connected_time":1751000000000,"state":"active","ping":42},{"user_id":275,"name":"sword lesbian","steam_id":76561198019735460,"connected_time":2875000000000,"state":"active","ping":132},{"user_id":251,"name":"FrogInShorts","steam_id":76561198081903213,"connected_time":4618000000000,"state":"active","ping":68},{"user_id":236,"name":"will uber light classes","steam_id":76561198117033273,"connected_time":5470000000000,"state":"active","ping":121},{"user_id":284,"name":"b4rry","steam_id":76561198365887154,"connected_time":2438000000000,"state":"active","ping":50},{"user_id":316,"name":"CupcakeWarlock","steam_id":76561198179963697,"connected_time":435000000000,"state":"active","ping":57},{"user_id":317,"name":"Rain","steam_id":76561198022607401,"connected_time":425000000000,"state":"active","ping":74},{"user_id":322,"name":"SunrayzGlow","steam_id":76561199099743497,"connected_time":242000000000,"state":"active","ping":101},{"user_id":319,"name":"RebelScum","steam_id":76561199231752872,"connected_time":343000000000,"state":"active","ping":75},{"user_id":239,"name":"CongorCongus","steam_id":76561198370278728,"connected_time":5293000000000,"state":"active","ping":131},{"user_id":308,"name":"Nickson1","steam_id":76561198175839309,"connected_time":906000000000,"state":"active","ping":61}]},{"server_id":142,"name":"Uncletopia | S√£o Paulo | 1 | All Maps","name_short":"sao-1","host":"sao-1.br.uncletopia.com","port":27015,"enabled":true,"region":"sa","cc":"br","latitude":-23.533773,"longitude":-46.62529,"reserved":0,"last_update":"0001-01-01T00:00:00Z","name_a2s":"Uncletopia | S√£o Paulo | 1 | All Maps","protocol":17,"map":"koth_viaduct","folder":"tf","game":"Team Fortress","app_id":440,"player_count":0,"max_players":24,"Bots":0,"server_type":"Dedicated","server_os":"Linux","password":true,"vac":true,"version":"7757534","steam_id":85568392924469996,"keywords":["cp","nocrits","nodmgspread","uncletopia"],"game_id":440,"stv_port":27016,"stv_name":"Uncletopia | S√£o Paulo | 1 | All Maps | STV","players":null},{"server_id":143,"name":"Uncletopia | S√£o Paulo | 2 | All Maps","name_short":"sao-2","host":"sao-2.br.uncletopia.com","port":27015,"enabled":true,"region":"sa","cc":"br","latitude":-23.533773,"longitude":-46.62529,"reserved":0,"last_update":"0001-01-01T00:00:00Z","name_a2s":"Uncletopia | S√£o Paulo | 2 | All Maps","protocol":17,"map":"koth_viaduct","folder":"tf","game":"Team Fortress","app_id":440,"player_count":0,"max_players":24,"Bots":0,"server_type":"Dedicated","server_os":"Linux","password":true,"vac":true,"version":"7757534","steam_id":85568392924485349,"keywords":["cp","nocrits","nodmgspread","uncletopia"],"game_id":440,"stv_port":27016,"stv_name":"Uncletopia | S√£o Paulo | 2 | All Maps | STV","players":null},{"server_id":7,"name":"Uncletopia | Seattle | 1 | All Maps","name_short":"sea-1","host":"sea-1.us.uncletopia.com","port":27015,"enabled":true,"region":"us-west","cc":"us","latitude":47.608013,"longitude":-122.33517,"reserved":0,"last_update":"0001-01-01T00:00:00Z","name_a2s":"Uncletopia | Seattle | 1 | All Maps","protocol":17,"map":"pl_frontier_final","folder":"tf","game":"Team Fortress","app_id":440,"player_count":24,"max_players":24,"Bots":0,"server_type":"Dedicated","server_os":"Linux","password":true,"vac":true,"version":"7757534","steam_id":85568392924469997,"keywords":["nocrits","nodmgspread","payload","uncletopia"],"game_id":440,"stv_port":27016,"stv_name":"Uncletopia | Seattle | 1 | All Maps | STV","players":[{"user_id":651,"name":"FI LO","steam_id":76561198976530881,"connected_time":330000000000,"state":"active","ping":74},{"user_id":613,"name":"Greskrendtregk","steam_id":76561197969553142,"connected_time":3961000000000,"state":"active","ping":49},{"user_id":644,"name":"lox","steam_id":76561198288531493,"connected_time":981000000000,"state":"active","ping":52},{"user_id":609,"name":"[TrC] Dackstrus","steam_id":76561197973518509,"connected_time":4055000000000,"state":"active","ping":66},{"user_id":634,"name":"litcherally in vents","steam_id":76561199169558959,"connected_time":1815000000000,"state":"active","ping":45},{"user_id":653,"name":"Y2K","steam_id":76561199191855486,"connected_time":206000000000,"state":"active","ping":50},{"user_id":590,"name":"keithykeithers","steam_id":76561197995552615,"connected_time":5414000000000,"state":"active","ping":48},{"user_id":582,"name":"exephur","steam_id":76561198135763234,"connected_time":6386000000000,"state":"active","ping":67},{"user_id":618,"name":"Lochanside","steam_id":76561198137080309,"connected_time":2919000000000,"state":"active","ping":83},{"user_id":608,"name":"soup","steam_id":76561198043209046,"connected_time":4089000000000,"state":"active","ping":82},{"user_id":635,"name":"Inflight","steam_id":76561198920049475,"connected_time":1750000000000,"state":"active","ping":111},{"user_id":646,"name":"nelly modelo","steam_id":76561198044875206,"connected_time":802000000000,"state":"active","ping":44},{"user_id":612,"name":"Fred","steam_id":76561197983870604,"connected_time":4034000000000,"state":"active","ping":89},{"user_id":586,"name":"Nightshade","steam_id":76561199011017814,"connected_time":5425000000000,"state":"active","ping":72},{"user_id":621,"name":"shy guy","steam_id":76561198151246059,"connected_time":1984000000000,"state":"active","ping":73},{"user_id":620,"name":"mac_cheese","steam_id":76561198071334162,"connected_time":2668000000000,"state":"active","ping":56},{"user_id":645,"name":"mournings end part 2 enthusiast","steam_id":76561197993524097,"connected_time":931000000000,"state":"active","ping":74},{"user_id":638,"name":"5392vin","steam_id":76561198880493511,"connected_time":1590000000000,"state":"active","ping":61},{"user_id":636,"name":"trashbro","steam_id":76561199417993197,"connected_time":1705000000000,"state":"active","ping":78},{"user_id":647,"name":"Cam(era)","steam_id":76561198285054047,"connected_time":668000000000,"state":"active","ping":84},{"user_id":577,"name":"Big Yoshi","steam_id":76561199160576376,"connected_time":6840000000000,"state":"active","ping":81},{"user_id":641,"name":"reepoi","steam_id":76561198131577298,"connected_time":1445000000000,"state":"active","ping":90},{"user_id":649,"name":"Nea","steam_id":76561198408792773,"connected_time":408000000000,"state":"active","ping":54},{"user_id":602,"name":"dep","steam_id":76561198044106812,"connected_time":4537000000000,"state":"active","ping":105}]},{"server_id":119,"name":"Uncletopia | Seattle | 2 | All Maps","name_short":"sea-2","host":"sea-1.us.uncletopia.com","port":27025,"enabled":true,"region":"us-west","cc":"us","latitude":47.608013,"longitude":-122.33517,"reserved":0,"last_update":"0001-01-01T00:00:00Z","name_a2s":"Uncletopia | Seattle | 2 | All Maps","protocol":17,"map":"pl_frontier_final","folder":"tf","game":"Team Fortress","app_id":440,"player_count":23,"max_players":24,"Bots":0,"server_type":"Dedicated","server_os":"Linux","password":true,"vac":true,"version":"7757534","steam_id":85568392924469998,"keywords":["nocrits","nodmgspread","payload","uncletopia"],"game_id":440,"stv_port":27026,"stv_name":"Uncletopia | Seattle | 2 | All Maps | STV","players":[{"user_id":522,"name":"Tibetan Pop Star","steam_id":76561198844903984,"connected_time":7986000000000,"state":"active","ping":83},{"user_id":615,"name":"amagicowl","steam_id":76561199060487814,"connected_time":39000000000,"state":"active","ping":57},{"user_id":580,"name":"Bunanu","steam_id":76561198145052660,"connected_time":3650000000000,"state":"active","ping":49},{"user_id":546,"name":"weeb#saveTf2","steam_id":76561199021791121,"connected_time":6423000000000,"state":"active","ping":52},{"user_id":583,"name":"zeel107","steam_id":76561198063892990,"connected_time":3444000000000,"state":"active","ping":51},{"user_id":607,"name":"ProbiusSC","steam_id":76561198379167322,"connected_time":2106000000000,"state":"active","ping":84},{"user_id":487,"name":"Ska√∞i","steam_id":76561198063949642,"connected_time":9079000000000,"state":"active","ping":44},{"user_id":570,"name":"triangleman","steam_id":76561198972733542,"connected_time":4382000000000,"state":"active","ping":113},{"user_id":604,"name":"smeasly","steam_id":76561198028718812,"connected_time":2466000000000,"state":"active","ping":39},{"user_id":616,"name":"comfycaffeine","steam_id":76561198058690096,"connected_time":13000000000,"state":"active","ping":240},{"user_id":613,"name":"rE_d0","steam_id":76561198975450630,"connected_time":455000000000,"state":"active","ping":47},{"user_id":602,"name":"ILLVZN","steam_id":76561199065961083,"connected_time":2656000000000,"state":"active","ping":84},{"user_id":603,"name":"Thanks Ants","steam_id":76561197966221018,"connected_time":2595000000000,"state":"active","ping":52},{"user_id":606,"name":"volta","steam_id":76561199214283884,"connected_time":2123000000000,"state":"active","ping":137},{"user_id":589,"name":"EXTREME MAN","steam_id":76561198844273999,"connected_time":3287000000000,"state":"active","ping":43},{"user_id":581,"name":"TacticalFluke","steam_id":76561198403291862,"connected_time":3536000000000,"state":"active","ping":68},{"user_id":599,"name":"the woman warrior","steam_id":76561198411130578,"connected_time":2855000000000,"state":"active","ping":63},{"user_id":238,"name":"Dunkle","steam_id":76561198041903573,"connected_time":16507000000000,"state":"active","ping":44},{"user_id":612,"name":"KellyKapoor","steam_id":76561198040828123,"connected_time":478000000000,"state":"active","ping":50},{"user_id":563,"name":"green cupcake","steam_id":76561198114030795,"connected_time":4971000000000,"state":"active","ping":57},{"user_id":609,"name":"StrayGuitarist","steam_id":76561198091315714,"connected_time":1372000000000,"state":"active","ping":99},{"user_id":519,"name":"rock gaming","steam_id":76561199402868311,"connected_time":8412000000000,"state":"active","ping":103},{"user_id":601,"name":"Rocketface","steam_id":76561198043679540,"connected_time":2789000000000,"state":"active","ping":80}]},{"server_id":406,"name":"Uncletopia | Seattle | 3 | Stopwatch Beta","name_short":"sea-3","host":"sea-1.us.uncletopia.com","port":27035,"enabled":true,"region":"us-west","cc":"us","latitude":47.608013,"longitude":-122.33517,"reserved":0,"last_update":"0001-01-01T00:00:00Z","name_a2s":"Uncletopia | Seattle | 3 | Stopwatch Beta","protocol":17,"map":"workshop/pl_vigil_rc9.ugc1266210012","folder":"tf","game":"Team Fortress","app_id":440,"player_count":0,"max_players":24,"Bots":0,"server_type":"Dedicated","server_os":"Linux","password":true,"vac":true,"version":"7757534","steam_id":85568392924515217,"keywords":["nocrits","nodmgspread","payload","uncletopia"],"game_id":440,"stv_port":27036,"stv_name":"Uncletopia | Seattle | 3 | Stopwatch Beta | STV","players":null},{"server_id":17,"name":"Uncletopia | San Francisco | 1 | All Maps","name_short":"sfo-1","host":"sfo-1.us.uncletopia.com","port":27015,"enabled":true,"region":"us-west","cc":"us","latitude":37.77397,"longitude":-122.4313,"reserved":0,"last_update":"0001-01-01T00:00:00Z","name_a2s":"Uncletopia | San Francisco | 1 | All Maps","protocol":17,"map":"pl_upward","folder":"tf","game":"Team Fortress","app_id":440,"player_count":24,"max_players":24,"Bots":0,"server_type":"Dedicated","server_os":"Linux","password":true,"vac":true,"version":"7757534","steam_id":85568392924469999,"keywords":["nocrits","nodmgspread","payload","uncletopia"],"game_id":440,"stv_port":27016,"stv_name":"Uncletopia | San Francisco | 1 | All Maps | STV","players":[{"user_id":572,"name":"Dangerous_Dave76","steam_id":76561199230056550,"connected_time":1428000000000,"state":"active","ping":65},{"user_id":543,"name":"Sonny","steam_id":76561198042243689,"connected_time":3471000000000,"state":"active","ping":44},{"user_id":585,"name":"Idiotden","steam_id":76561199340950135,"connected_time":493000000000,"state":"active","ping":70},{"user_id":589,"name":"| Ramenoodly |HIRING MODLR","steam_id":76561198011711098,"connected_time":319000000000,"state":"active","ping":75},{"user_id":558,"name":"Casuallyanidiot","steam_id":76561199119545568,"connected_time":2521000000000,"state":"active","ping":69},{"user_id":575,"name":"kym","steam_id":76561198340743816,"connected_time":1052000000000,"state":"active","ping":58},{"user_id":546,"name":"Jimmy","steam_id":76561198857959855,"connected_time":3446000000000,"state":"active","ping":47},{"user_id":594,"name":"ExplosiveGamer21","steam_id":76561198132370955,"connected_time":43000000000,"state":"spawning","ping":112},{"user_id":593,"name":"chinese spy balloon","steam_id":76561198184814466,"connected_time":67000000000,"state":"active","ping":60},{"user_id":560,"name":"Khaast","steam_id":76561198170253694,"connected_time":2157000000000,"state":"active","ping":85},{"user_id":523,"name":"Pie","steam_id":76561198996610188,"connected_time":5960000000000,"state":"active","ping":134},{"user_id":580,"name":"‡∏∏","steam_id":76561198212421513,"connected_time":702000000000,"state":"active","ping":60},{"user_id":577,"name":"Sidekick","steam_id":76561198392740835,"connected_time":919000000000,"state":"active","ping":68},{"user_id":586,"name":"SvicidalBug","steam_id":76561198221390504,"connected_time":466000000000,"state":"active","ping":86},{"user_id":591,"name":"Pah-Wraith Gul Dukat","steam_id":76561198033918106,"connected_time":296000000000,"state":"active","ping":61},{"user_id":573,"name":"Doctor Pyro","steam_id":76561198240400118,"connected_time":1188000000000,"state":"active","ping":108},{"user_id":564,"name":"Sunny","steam_id":76561198261667312,"connected_time":2093000000000,"state":"active","ping":70},{"user_id":581,"name":"Chmiken","steam_id":76561199041966499,"connected_time":688000000000,"state":"active","ping":77},{"user_id":592,"name":"The Baked Bean","steam_id":76561198828415709,"connected_time":172000000000,"state":"active","ping":61},{"user_id":574,"name":"Mandible Jones","steam_id":76561197996862126,"connected_time":1147000000000,"state":"active","ping":63},{"user_id":588,"name":"witch","steam_id":76561197974871380,"connected_time":402000000000,"state":"active","ping":62},{"user_id":579,"name":"Big Ounce","steam_id":76561198101366032,"connected_time":737000000000,"state":"active","ping":74},{"user_id":552,"name":"Engynier Gaimeang (F2P)","steam_id":76561199013888779,"connected_time":3337000000000,"state":"active","ping":58},{"user_id":557,"name":"liftin'","steam_id":76561199089515791,"connected_time":2580000000000,"state":"active","ping":55}]},{"server_id":18,"name":"Uncletopia | San Francisco | 2 | All Maps","name_short":"sfo-2","host":"sfo-1.us.uncletopia.com","port":27025,"enabled":true,"region":"us-west","cc":"us","latitude":37.77397,"longitude":-122.4313,"reserved":0,"last_update":"0001-01-01T00:00:00Z","name_a2s":"Uncletopia | San Francisco | 2 | All Maps","protocol":17,"map":"pl_barnblitz","folder":"tf","game":"Team Fortress","app_id":440,"player_count":23,"max_players":24,"Bots":0,"server_type":"Dedicated","server_os":"Linux","password":true,"vac":true,"version":"7757534","steam_id":85568392924470000,"keywords":["nocrits","nodmgspread","payload","uncletopia"],"game_id":440,"stv_port":27026,"stv_name":"Uncletopia | San Francisco | 2 | All Maps | STV","players":[{"user_id":487,"name":"huiei","steam_id":76561198073763735,"connected_time":2220000000000,"state":"active","ping":54},{"user_id":505,"name":"R5-D4","steam_id":76561198025196439,"connected_time":730000000000,"state":"active","ping":72},{"user_id":491,"name":"[Bandit]","steam_id":76561197986919852,"connected_time":2003000000000,"state":"active","ping":60},{"user_id":508,"name":"The Champagne of Mayonnaise","steam_id":76561197961107982,"connected_time":463000000000,"state":"active","ping":107},{"user_id":501,"name":"Krome","steam_id":76561198087317232,"connected_time":893000000000,"state":"active","ping":69},{"user_id":495,"name":"Cheff cook","steam_id":76561198451203268,"connected_time":1231000000000,"state":"active","ping":52},{"user_id":496,"name":"John Wick's puppy","steam_id":76561198064662875,"connected_time":1220000000000,"state":"active","ping":49},{"user_id":492,"name":"Gavin Newsom feet pics","steam_id":76561198349908268,"connected_time":1352000000000,"state":"active","ping":55},{"user_id":513,"name":"jordanddean2016","steam_id":76561198323772677,"connected_time":4000000000,"state":"spawning","ping":59},{"user_id":497,"name":"Tesman James","steam_id":76561199093793428,"connected_time":1203000000000,"state":"active","ping":107},{"user_id":486,"name":"Joy in A Box","steam_id":76561198156820753,"connected_time":2692000000000,"state":"active","ping":183},{"user_id":476,"name":"Nyges","steam_id":76561198139236154,"connected_time":3557000000000,"state":"active","ping":65},{"user_id":498,"name":"WillieMakit","steam_id":76561197985391684,"connected_time":1194000000000,"state":"active","ping":74},{"user_id":509,"name":"Blazing Hyena","steam_id":76561199121852680,"connected_time":421000000000,"state":"active","ping":54},{"user_id":510,"name":"Cuno Doesn't Care!","steam_id":76561198007372782,"connected_time":417000000000,"state":"active","ping":56},{"user_id":484,"name":"FijiJay","steam_id":76561199166357504,"connected_time":2929000000000,"state":"active","ping":125},{"user_id":438,"name":"ScoutSecoTF2","steam_id":76561198366212156,"connected_time":6334000000000,"state":"active","ping":114},{"user_id":499,"name":"BreadQuest","steam_id":76561198082425960,"connected_time":1188000000000,"state":"active","ping":62},{"user_id":431,"name":"jon pickle water","steam_id":76561199036212135,"connected_time":6882000000000,"state":"active","ping":93},{"user_id":506,"name":"StarGuyVI","steam_id":76561199366304746,"connected_time":648000000000,"state":"active","ping":117},{"user_id":460,"name":"DemoLiberTF2","steam_id":76561198095378689,"connected_time":4513000000000,"state":"active","ping":90},{"user_id":475,"name":"Chicken Soup","steam_id":76561197989268948,"connected_time":3640000000000,"state":"active","ping":102},{"user_id":485,"name":"Ian","steam_id":76561198159334435,"connected_time":2787000000000,"state":"active","ping":163}]},{"server_id":19,"name":"Uncletopia | San Francisco | 3 | Stopwatch Beta","name_short":"sfo-3","host":"sfo-1.us.uncletopia.com","port":27035,"enabled":true,"region":"us-west","cc":"us","latitude":37.77397,"longitude":-122.4313,"reserved":0,"last_update":"0001-01-01T00:00:00Z","name_a2s":"Uncletopia | San Francisco | 3 | Stopwatch Beta","protocol":17,"map":"workshop/pl_summercoast_rc8e.ugc1761528829","folder":"tf","game":"Team Fortress","app_id":440,"player_count":0,"max_players":24,"Bots":0,"server_type":"Dedicated","server_os":"Linux","password":true,"vac":true,"version":"7757534","steam_id":85568392924742824,"keywords":["nocrits","nodmgspread","payload","uncletopia"],"game_id":440,"stv_port":27036,"stv_name":"Uncletopia | San Francisco | 3 | Stopwatch Beta | STV","players":null},{"server_id":20,"name":"Uncletopia | San Francisco | 4 | Community","name_short":"sfo-4","host":"sfo-1.us.uncletopia.com","port":27045,"enabled":true,"region":"us-west","cc":"us","latitude":37.77397,"longitude":-122.4313,"reserved":0,"last_update":"0001-01-01T00:00:00Z","name_a2s":"Uncletopia | San Francisco | 4 | Community","protocol":17,"map":"workshop/cp_villa_b19.ugc2113052569","folder":"tf","game":"Team Fortress","app_id":440,"player_count":24,"max_players":24,"Bots":0,"server_type":"Dedicated","server_os":"Linux","password":true,"vac":true,"version":"7757534","steam_id":85568392924742826,"keywords":["cp","nocrits","nodmgspread","uncletopia"],"game_id":440,"stv_port":27046,"stv_name":"Uncletopia | San Francisco | 4 | Community | STV","players":[{"user_id":263,"name":"mrhazman","steam_id":76561198040467069,"connected_time":991000000000,"state":"active","ping":62},{"user_id":198,"name":"PinguEnjoyer6","steam_id":76561199186723516,"connected_time":7050000000000,"state":"active","ping":54},{"user_id":269,"name":"The Radical Left","steam_id":76561198079306245,"connected_time":652000000000,"state":"active","ping":70},{"user_id":264,"name":"ghostglitch","steam_id":76561197991608573,"connected_time":884000000000,"state":"active","ping":46},{"user_id":266,"name":"miguelrodriguez2013","steam_id":76561198269253587,"connected_time":746000000000,"state":"active","ping":45},{"user_id":240,"name":"Surgicalsubset","steam_id":76561198983418107,"connected_time":2366000000000,"state":"active","ping":121},{"user_id":265,"name":"Joshzu","steam_id":76561198200521137,"connected_time":850000000000,"state":"active","ping":66},{"user_id":86,"name":"BoX_hEaD101","steam_id":76561198200875467,"connected_time":13253000000000,"state":"active","ping":71},{"user_id":267,"name":"Kebibble","steam_id":76561198800039751,"connected_time":719000000000,"state":"active","ping":118},{"user_id":268,"name":"Alice","steam_id":76561198254447217,"connected_time":685000000000,"state":"active","ping":69},{"user_id":270,"name":"OfficialGir","steam_id":76561198256026535,"connected_time":651000000000,"state":"active","ping":125},{"user_id":241,"name":"YellowBABE","steam_id":76561198805259721,"connected_time":2358000000000,"state":"active","ping":138},{"user_id":271,"name":"Jessiebeanie","steam_id":76561197993178955,"connected_time":609000000000,"state":"active","ping":79},{"user_id":248,"name":"Goldy","steam_id":76561198386274766,"connected_time":2244000000000,"state":"active","ping":93},{"user_id":277,"name":"Konquerer","steam_id":76561197971583039,"connected_time":326000000000,"state":"active","ping":120},{"user_id":278,"name":"Beansniffer94","steam_id":76561198815600865,"connected_time":269000000000,"state":"active","ping":100},{"user_id":272,"name":"CPTforever","steam_id":76561198237767198,"connected_time":518000000000,"state":"active","ping":45},{"user_id":273,"name":"CHIKN","steam_id":76561198277792665,"connected_time":462000000000,"state":"active","ping":50},{"user_id":274,"name":"Deathmagus","steam_id":76561198004626117,"connected_time":430000000000,"state":"active","ping":70},{"user_id":275,"name":"Mogo Baggins","steam_id":76561198004332009,"connected_time":419000000000,"state":"active","ping":122},{"user_id":256,"name":"Mike Bean Burritos","steam_id":76561198173430607,"connected_time":1661000000000,"state":"active","ping":71},{"user_id":259,"name":"awtem","steam_id":76561198083673187,"connected_time":1414000000000,"state":"active","ping":63},{"user_id":251,"name":"Freddie Mercury","steam_id":76561198847085833,"connected_time":2166000000000,"state":"active","ping":67},{"user_id":276,"name":"Negative_Vibes","steam_id":76561197962572503,"connected_time":412000000000,"state":"active","ping":114}]},{"server_id":141,"name":"Uncletopia | Sydney | 1 | All Maps","name_short":"syd-1","host":"syd-1.au.uncletopia.com","port":27015,"enabled":true,"region":"au","cc":"au","latitude":-33.865143,"longitude":151.2099,"reserved":0,"last_update":"0001-01-01T00:00:00Z","name_a2s":"Uncletopia | Sydney | 1 | All Maps","protocol":17,"map":"pl_frontier_final","folder":"tf","game":"Team Fortress","app_id":440,"player_count":24,"max_players":24,"Bots":0,"server_type":"Dedicated","server_os":"Linux","password":true,"vac":true,"version":"7757534","steam_id":85568392924470001,"keywords":["nocrits","nodmgspread","payload","uncletopia"],"game_id":440,"stv_port":27016,"stv_name":"Uncletopia | Sydney | 1 | All Maps | STV","players":[{"user_id":206,"name":"horrid creature ·òõ‚ÅêÃ§·ïê·ê∑","steam_id":76561198061998379,"connected_time":4390000000000,"state":"active","ping":48},{"user_id":182,"name":"humperdink snoodlepuff","steam_id":76561198063481761,"connected_time":6427000000000,"state":"active","ping":45},{"user_id":251,"name":"beth.cubitt","steam_id":76561198454733447,"connected_time":804000000000,"state":"active","ping":89},{"user_id":247,"name":"Cyrome","steam_id":76561198049602369,"connected_time":1237000000000,"state":"active","ping":62},{"user_id":236,"name":"no teles 4 u","steam_id":76561198018478297,"connected_time":2208000000000,"state":"active","ping":71},{"user_id":160,"name":"TwilightJericho","steam_id":76561198044875117,"connected_time":8848000000000,"state":"active","ping":67},{"user_id":235,"name":"East","steam_id":76561197998179587,"connected_time":2221000000000,"state":"active","ping":100},{"user_id":244,"name":"Snowy","steam_id":76561198255720598,"connected_time":1575000000000,"state":"active","ping":46},{"user_id":210,"name":"Jodelk√∂nig Franzl Lang","steam_id":76561198007667830,"connected_time":3869000000000,"state":"active","ping":65},{"user_id":242,"name":"Faraday","steam_id":76561198232171500,"connected_time":1757000000000,"state":"active","ping":74},{"user_id":248,"name":"Dom","steam_id":76561198846401809,"connected_time":1232000000000,"state":"active","ping":68},{"user_id":213,"name":"come at me bro","steam_id":76561198965679329,"connected_time":3205000000000,"state":"active","ping":52},{"user_id":237,"name":"MrSpooder","steam_id":76561199029919742,"connected_time":2181000000000,"state":"active","ping":45},{"user_id":234,"name":"tim88435","steam_id":76561198089653987,"connected_time":2306000000000,"state":"active","ping":50},{"user_id":225,"name":"Araxamas","steam_id":76561198014474886,"connected_time":2691000000000,"state":"active","ping":98},{"user_id":246,"name":"Verveeld","steam_id":76561198245980544,"connected_time":1486000000000,"state":"active","ping":63},{"user_id":229,"name":"Bob Ross","steam_id":76561198081686896,"connected_time":2677000000000,"state":"active","ping":64},{"user_id":231,"name":"Scarfy_da_Kobold","steam_id":76561198377974384,"connected_time":2642000000000,"state":"active","ping":76},{"user_id":239,"name":"BruceWillis235","steam_id":76561198884324029,"connected_time":1846000000000,"state":"active","ping":89},{"user_id":223,"name":"SUSHIMAN","steam_id":76561199089989428,"connected_time":2864000000000,"state":"active","ping":91},{"user_id":212,"name":"ToffeeApples","steam_id":76561198061960926,"connected_time":3310000000000,"state":"active","ping":102},{"user_id":249,"name":"Zoey","steam_id":76561198126153554,"connected_time":1225000000000,"state":"active","ping":76},{"user_id":250,"name":"Marmalade Cat","steam_id":76561198086309767,"connected_time":1162000000000,"state":"active","ping":62},{"user_id":224,"name":"calculusfish","steam_id":76561198067205959,"connected_time":2863000000000,"state":"active","ping":61}]},{"server_id":123,"name":"Uncletopia | Sydney | 2 | All Maps","name_short":"syd-2","host":"syd-1.au.uncletopia.com","port":27025,"enabled":true,"region":"au","cc":"au","latitude":-33.865143,"longitude":151.2099,"reserved":0,"last_update":"0001-01-01T00:00:00Z","name_a2s":"Uncletopia | Sydney | 2 | All Maps","protocol":17,"map":"koth_cascade","folder":"tf","game":"Team Fortress","app_id":440,"player_count":2,"max_players":24,"Bots":0,"server_type":"Dedicated","server_os":"Linux","password":true,"vac":true,"version":"7757534","steam_id":85568392924470002,"keywords":["cp","nocrits","nodmgspread","uncletopia"],"game_id":440,"stv_port":27026,"stv_name":"Uncletopia | Sydney | 2 | All Maps | STV","players":[{"user_id":22,"name":"Lord Oink (xe/xir)","steam_id":76561198125237921,"connected_time":805000000000,"state":"active","ping":39},{"user_id":23,"name":"BamBoozled","steam_id":76561199065491364,"connected_time":349000000000,"state":"active","ping":76}]},{"server_id":395,"name":"Uncletopia | Sydney | 3 | All Maps","name_short":"syd-3","host":"syd-1.au.uncletopia.com","port":27035,"enabled":true,"region":"au","cc":"au","latitude":-33.865143,"longitude":151.2099,"reserved":0,"last_update":"0001-01-01T00:00:00Z","name_a2s":"Uncletopia | Sydney | 3 | All Maps","protocol":17,"map":"cp_snakewater_final1","folder":"tf","game":"Team Fortress","app_id":440,"player_count":0,"max_players":24,"Bots":0,"server_type":"Dedicated","server_os":"Linux","password":true,"vac":true,"version":"7757534","steam_id":85568392925194467,"keywords":["cp","nocrits","nodmgspread","uncletopia"],"game_id":440,"stv_port":27036,"stv_name":"Uncletopia | Sydney | 3 | All Maps | STV","players":null},{"server_id":396,"name":"Uncletopia | Sydney | 4 | All Maps","name_short":"syd-4","host":"syd-1.au.uncletopia.com","port":27045,"enabled":true,"region":"au","cc":"au","latitude":-33.865143,"longitude":151.2099,"reserved":0,"last_update":"0001-01-01T00:00:00Z","name_a2s":"Uncletopia | Sydney | 4 | All Maps","protocol":17,"map":"pl_barnblitz","folder":"tf","game":"Team Fortress","app_id":440,"player_count":0,"max_players":24,"Bots":0,"server_type":"Dedicated","server_os":"Linux","password":true,"vac":true,"version":"7757534","steam_id":85568392925397958,"keywords":["nocrits","nodmgspread","payload","uncletopia"],"game_id":440,"stv_port":27046,"stv_name":"Uncletopia | Sydney | 4 | All Maps | STV","players":null},{"server_id":58,"name":"Uncletopia | Sydney | 5 | Stopwatch Beta","name_short":"syd-5","host":"syd-1.au.uncletopia.com","port":27055,"enabled":true,"region":"au","cc":"au","latitude":-33.865143,"longitude":151.2099,"reserved":0,"last_update":"0001-01-01T00:00:00Z","name_a2s":"Uncletopia | Sydney | 5 | Stopwatch Beta","protocol":17,"map":"koth_cascade","folder":"tf","game":"Team Fortress","app_id":440,"player_count":0,"max_players":24,"Bots":0,"server_type":"Dedicated","server_os":"Linux","password":true,"vac":true,"version":"7757534","steam_id":85568392925397959,"keywords":["cp","nocrits","nodmgspread","uncletopia"],"game_id":440,"stv_port":27056,"stv_name":"Uncletopia | Sydney | 5 | Stopwatch Beta | STV","players":null},{"server_id":59,"name":"Uncletopia | Sydney | 6 | Community","name_short":"syd-6","host":"syd-1.au.uncletopia.com","port":27065,"enabled":true,"region":"au","cc":"au","latitude":-33.865143,"longitude":151.2099,"reserved":0,"last_update":"0001-01-01T00:00:00Z","name_a2s":"Uncletopia | Sydney | 6 | Community","protocol":17,"map":"workshop/cp_alloy_rc3.ugc592805587","folder":"tf","game":"Team Fortress","app_id":440,"player_count":0,"max_players":24,"Bots":0,"server_type":"Dedicated","server_os":"Linux","password":true,"vac":true,"version":"7757534","steam_id":85568392925397960,"keywords":["cp","nocrits","nodmgspread","uncletopia"],"game_id":440,"stv_port":27066,"stv_name":"Uncletopia | Sydney | 6 | Community | STV","players":null},{"server_id":49,"name":"Uncletopia | Warsaw | 1 | All Maps","name_short":"waw-1","host":"waw-1.pl.uncletopia.com","port":27015,"enabled":true,"region":"eu","cc":"pl","latitude":52.2297,"longitude":21.017532,"reserved":0,"last_update":"0001-01-01T00:00:00Z","name_a2s":"","protocol":0,"map":"","folder":"","game":"","app_id":0,"player_count":0,"max_players":0,"Bots":0,"server_type":"","server_os":"","password":false,"vac":false,"version":"","steam_id":0,"keywords":null,"game_id":0,"stv_port":0,"stv_name":"","players":null},{"server_id":50,"name":"Uncletopia | Warsaw | 2 | All Maps","name_short":"waw-2","host":"waw-1.pl.uncletopia.com","port":27025,"enabled":true,"region":"eu","cc":"pl","latitude":52.2297,"longitude":21.017532,"reserved":0,"last_update":"0001-01-01T00:00:00Z","name_a2s":"Uncletopia | Warsaw | 2 | All Maps","protocol":17,"map":"koth_viaduct","folder":"tf","game":"Team Fortress","app_id":440,"player_count":0,"max_players":24,"Bots":0,"server_type":"Dedicated","server_os":"Linux","password":true,"vac":true,"version":"7757534","steam_id":85568392925397851,"keywords":["cp","nocrits","nodmgspread","uncletopia"],"game_id":440,"stv_port":27026,"stv_name":"Uncletopia | Warsaw | 2 | All Maps | STV","players":null},{"server_id":51,"name":"Uncletopia | Warsaw | 3 | All Maps","name_short":"waw-3","host":"waw-1.pl.uncletopia.com","port":27035,"enabled":true,"region":"eu","cc":"pl","latitude":52.2297,"longitude":21.017532,"reserved":0,"last_update":"0001-01-01T00:00:00Z","name_a2s":"Uncletopia | Warsaw | 3 | All Maps","protocol":17,"map":"pl_badwater","folder":"tf","game":"Team Fortress","app_id":440,"player_count":0,"max_players":24,"Bots":0,"server_type":"Dedicated","server_os":"Linux","password":true,"vac":true,"version":"7757534","steam_id":85568392925397852,"keywords":["nocrits","nodmgspread","payload","uncletopia"],"game_id":440,"stv_port":27036,"stv_name":"Uncletopia | Warsaw | 3 | All Maps | STV","players":null},{"server_id":52,"name":"Uncletopia | Warsaw | 4 | All Maps","name_short":"waw-4","host":"waw-1.pl.uncletopia.com","port":27045,"enabled":true,"region":"eu","cc":"pl","latitude":52.2297,"longitude":21.017532,"reserved":0,"last_update":"0001-01-01T00:00:00Z","name_a2s":"Uncletopia | Warsaw | 4 | All Maps","protocol":17,"map":"koth_lakeside_final","folder":"tf","game":"Team Fortress","app_id":440,"player_count":0,"max_players":24,"Bots":0,"server_type":"Dedicated","server_os":"Linux","password":true,"vac":true,"version":"7757534","steam_id":85568392925397853,"keywords":["cp","nocrits","nodmgspread","uncletopia"],"game_id":440,"stv_port":27046,"stv_name":"Uncletopia | Warsaw | 4 | All Maps | STV","players":null},{"server_id":53,"name":"Uncletopia | Warsaw | 5 | Stopwatch Beta","name_short":"waw-5","host":"waw-1.pl.uncletopia.com","port":27055,"enabled":true,"region":"eu","cc":"pl","latitude":52.2297,"longitude":21.017532,"reserved":0,"last_update":"0001-01-01T00:00:00Z","name_a2s":"Uncletopia | Warsaw | 5 | Stopwatch Beta","protocol":17,"map":"pl_borneo","folder":"tf","game":"Team Fortress","app_id":440,"player_count":0,"max_players":24,"Bots":0,"server_type":"Dedicated","server_os":"Linux","password":true,"vac":true,"version":"7757534","steam_id":85568392925397854,"keywords":["nocrits","nodmgspread","payload","uncletopia"],"game_id":440,"stv_port":27056,"stv_name":"Uncletopia | Warsaw | 5 | Stopwatch Beta | STV","players":null},{"server_id":54,"name":"Uncletopia | Warsaw | 6 | Community","name_short":"waw-6","host":"waw-1.pl.uncletopia.com","port":27065,"enabled":true,"region":"eu","cc":"pl","latitude":52.2297,"longitude":21.017532,"reserved":0,"last_update":"0001-01-01T00:00:00Z","name_a2s":"Uncletopia | Warsaw | 6 | Community","protocol":17,"map":"koth_lakeside_final","folder":"tf","game":"Team Fortress","app_id":440,"player_count":0,"max_players":24,"Bots":0,"server_type":"Dedicated","server_os":"Linux","password":true,"vac":true,"version":"7757534","steam_id":85568392925397856,"keywords":["cp","nocrits","nodmgspread","uncletopia"],"game_id":440,"stv_port":27066,"stv_name":"Uncletopia | Warsaw | 6 | Community | STV","players":null}]}