{"status":true,"message":"","result":[{"server_id":9,"name":"Uncletopia | Atlanta | 1 | All Maps","name_short":"atl-1","host":"atl-1.us.uncletopia.com","port":27015,"enabled":true,"region":"us-east","cc":"us","latitude":33.753746,"longitude":-84.38633,"reserved":0,"last_update":"0001-01-01T00:00:00Z","name_a2s":"Uncletopia | Atlanta | 1 | All Maps","protocol":17,"map":"pl_pier","folder":"tf","game":"Team Fortress","app_id":440,"player_count":24,"max_players":24,"Bots":0,"server_type":"Dedicated","server_os":"Linux","password":true,"vac":true,"version":"7757534","steam_id":85568392924469982,"keywords":["nocrits","nodmgspread","payload","uncletopia"],"game_id":440,"stv_port":27016,"stv_name":"Uncletopia | Atlanta | 1 | All Maps | STV","players":[{"user_id":598,"name":"Brown_Dream","steam_id":76561198975766145,"connected_time":3323000000000,"state":"active","ping":73},{"user_id":619,"name":"リグマ","steam_id":76561197993145277,"connected_time":1467000000000,"state":"active","ping":82},{"user_id":630,"name":"Brian","steam_id":76561198089908485,"connected_time":531000000000,"state":"active","ping":67},{"user_id":604,"name":"Johaun","steam_id":76561198296328253,"connected_time":2665000000000,"state":"active","ping":62},{"user_id":569,"name":"Wormy","steam_id":76561198045221301,"connected_time":6006000000000,"state":"active","ping":46},{"user_id":623,"name":"Poppet","steam_id":76561198012301951,"connected_time":1321000000000,"state":"active","ping":82},{"user_id":585,"name":"perlecta","steam_id":76561198160407837,"connected_time":4974000000000,"state":"active","ping":60},{"user_id":620,"name":"moopmop","steam_id":76561198065224965,"connected_time":1456000000000,"state":"active","ping":103},{"user_id":610,"name":"Ye Olde Solanir","steam_id":76561198006524822,"connected_time":1920000000000,"state":"active","ping":68},{"user_id":556,"name":"GKEmperor","steam_id":76561197995187011,"connected_time":6935000000000,"state":"active","ping":76},{"user_id":587,"name":"♡Hunter♡","steam_id":76561199109153042,"connected_time":4928000000000,"state":"active","ping":97},{"user_id":608,"name":"mos","steam_id":76561198146126212,"connected_time":1957000000000,"state":"active","ping":61},{"user_id":624,"name":"vacuum cleaner","steam_id":76561198073474255,"connected_time":1178000000000,"state":"active","ping":52},{"user_id":633,"name":"Just PYE","steam_id":76561199439622967,"connected_time":416000000000,"state":"active","ping":71},{"user_id":593,"name":"Broken Cereal√","steam_id":76561198087489795,"connected_time":4038000000000,"state":"active","ping":67},{"user_id":609,"name":"noah","steam_id":76561198140305002,"connected_time":1943000000000,"state":"active","ping":98},{"user_id":594,"name":"DFR Le4n!!!","steam_id":76561198045522596,"connected_time":4035000000000,"state":"active","ping":71},{"user_id":558,"name":"joe","steam_id":76561198045781320,"connected_time":6933000000000,"state":"active","ping":69},{"user_id":605,"name":"rose","steam_id":76561198048882285,"connected_time":2543000000000,"state":"active","ping":60},{"user_id":625,"name":"clev","steam_id":76561198062739295,"connected_time":828000000000,"state":"active","ping":48},{"user_id":629,"name":"habib_g6ix_God","steam_id":76561198053621664,"connected_time":589000000000,"state":"active","ping":70},{"user_id":615,"name":"SPRUCE","steam_id":76561198081684676,"connected_time":1752000000000,"state":"active","ping":130},{"user_id":631,"name":"sand","steam_id":76561198086193212,"connected_time":523000000000,"state":"active","ping":61},{"user_id":632,"name":"SadVeggie","steam_id":76561198163430099,"connected_time":476000000000,"state":"active","ping":101}]},{"server_id":104,"name":"Uncletopia | Atlanta | 2 | All Maps","name_short":"atl-2","host":"atl-1.us.uncletopia.com","port":27025,"enabled":true,"region":"us-east","cc":"us","latitude":33.753746,"longitude":-84.38633,"reserved":0,"last_update":"0001-01-01T00:00:00Z","name_a2s":"Uncletopia | Atlanta | 2 | All Maps","protocol":17,"map":"cp_mountainlab","folder":"tf","game":"Team Fortress","app_id":440,"player_count":22,"max_players":24,"Bots":0,"server_type":"Dedicated","server_os":"Linux","password":true,"vac":true,"version":"7757534","steam_id":85568392924469983,"keywords":["cp","nocrits","nodmgspread","uncletopia"],"game_id":440,"stv_port":27026,"stv_name":"Uncletopia | Atlanta | 2 | All Maps | STV","players":[{"user_id":452,"name":"lorelius hogglefart","steam_id":76561198211781375,"connected_time":1133000000000,"state":"active","ping":64},{"user_id":444,"name":"Speedy","steam_id":76561198080761661,"connected_time":3274000000000,"state":"active","ping":78},{"user_id":453,"name":"beefaroni","steam_id":76561198126489501,"connected_time":1100000000000,"state":"active","ping":61},{"user_id":434,"name":"Sunkisses_","steam_id":76561198046476671,"connected_time":3555000000000,"state":"active","ping":74},{"user_id":454,"name":"Lizard Veterinarian","steam_id":76561198066274397,"connected_time":1088000000000,"state":"active","ping":70},{"user_id":376,"name":"rkp!","steam_id":76561199053070819,"connected_time":6448000000000,"state":"active","ping":66},{"user_id":435,"name":"Magala","steam_id":76561199061889582,"connected_time":3536000000000,"state":"active","ping":71},{"user_id":455,"name":"professor coke","steam_id":76561198108165531,"connected_time":1063000000000,"state":"active","ping":59},{"user_id":448,"name":"HammerHead","steam_id":76561197975668646,"connected_time":2846000000000,"state":"active","ping":75},{"user_id":465,"name":"STEVE","steam_id":76561198063475894,"connected_time":312000000000,"state":"active","ping":53},{"user_id":438,"name":"moon","steam_id":76561198045756891,"connected_time":3518000000000,"state":"active","ping":75},{"user_id":439,"name":"Mayo_","steam_id":76561198289375121,"connected_time":3517000000000,"state":"active","ping":55},{"user_id":466,"name":"Saikyo","steam_id":76561198212461467,"connected_time":309000000000,"state":"active","ping":76},{"user_id":404,"name":"Bad Rollout","steam_id":76561197971948876,"connected_time":4630000000000,"state":"active","ping":76},{"user_id":464,"name":"sweaterfan","steam_id":76561199389567214,"connected_time":734000000000,"state":"active","ping":65},{"user_id":415,"name":"Angela-1","steam_id":76561198086481048,"connected_time":4309000000000,"state":"active","ping":86},{"user_id":458,"name":"Frodo T Baggins","steam_id":76561198048090297,"connected_time":1004000000000,"state":"active","ping":81},{"user_id":406,"name":"crush fordys","steam_id":76561198947813673,"connected_time":4546000000000,"state":"active","ping":171},{"user_id":463,"name":"Wonko","steam_id":76561198043914891,"connected_time":876000000000,"state":"active","ping":60},{"user_id":460,"name":"a crystal lizard","steam_id":76561197997661928,"connected_time":959000000000,"state":"active","ping":84},{"user_id":442,"name":"Pseudo","steam_id":76561198026679489,"connected_time":3465000000000,"state":"active","ping":82},{"user_id":461,"name":"Sad Boi Hours uWu","steam_id":76561198070927203,"connected_time":947000000000,"state":"active","ping":84}]},{"server_id":400,"name":"Uncletopia | Atlanta | 3 | Community","name_short":"atl-3","host":"atl-1.us.uncletopia.com","port":27035,"enabled":true,"region":"us-east","cc":"us","latitude":33.753746,"longitude":-84.38633,"reserved":0,"last_update":"0001-01-01T00:00:00Z","name_a2s":"Uncletopia | Atlanta | 3 | Community","protocol":17,"map":"workshop/koth_kemptown_rc1.ugc767410655","folder":"tf","game":"Team Fortress","app_id":440,"player_count":0,"max_players":24,"Bots":0,"server_type":"Dedicated","server_os":"Linux","password":true,"vac":true,"version":"7757534","steam_id":85568392924515187,"keywords":["cp","nocrits","nodmgspread","uncletopia"],"game_id":440,"stv_port":27036,"stv_name":"Uncletopia | Atlanta | 3 | Community | STV","players":null},{"server_id":401,"name":"Uncletopia | Atlanta | 4 | No Payload","name_short":"atl-4","host":"atl-1.us.uncletopia.com","port":27045,"enabled":true,"region":"us-east","cc":"us","latitude":33.753746,"longitude":-84.38633,"reserved":0,"last_update":"0001-01-01T00:00:00Z","name_a2s":"","protocol":0,"map":"","folder":"","game":"","app_id":0,"player_count":0,"max_players":0,"Bots":0,"server_type":"","server_os":"","password":false,"vac":false,"version":"","steam_id":0,"keywords":null,"game_id":0,"stv_port":0,"stv_name":"","players":null},{"server_id":2,"name":"Uncletopia | Chicago | 1 | All Maps","name_short":"chi-1","host":"chi-1.us.uncletopia.com","port":27015,"enabled":true,"region":"us-central","cc":"us","latitude":41.881832,"longitude":-87.62318,"reserved":0,"last_update":"0001-01-01T00:00:00Z","name_a2s":"Uncletopia | Chicago | 1 | All Maps","protocol":17,"map":"koth_highpass","folder":"tf","game":"Team Fortress","app_id":440,"player_count":22,"max_players":24,"Bots":0,"server_type":"Dedicated","server_os":"Linux","password":true,"vac":true,"version":"7757534","steam_id":85568392924469984,"keywords":["cp","nocrits","nodmgspread","uncletopia"],"game_id":440,"stv_port":27016,"stv_name":"Uncletopia | Chicago | 1 | All Maps | STV","players":[{"user_id":651,"name":"crypt","steam_id":76561198280142450,"connected_time":557000000000,"state":"active","ping":66},{"user_id":582,"name":"Derpydude2002","steam_id":76561198811719519,"connected_time":4701000000000,"state":"active","ping":61},{"user_id":669,"name":"bintu_right","steam_id":76561198274969537,"connected_time":17000000000,"state":"active","ping":121},{"user_id":652,"name":"Lore","steam_id":76561198098407538,"connected_time":549000000000,"state":"active","ping":45},{"user_id":584,"name":"Aribari","steam_id":76561198117327938,"connected_time":4667000000000,"state":"active","ping":56},{"user_id":665,"name":"playguy carter","steam_id":76561198080679337,"connected_time":188000000000,"state":"active","ping":52},{"user_id":657,"name":"kunzy","steam_id":76561198322051622,"connected_time":435000000000,"state":"active","ping":71},{"user_id":648,"name":"bee","steam_id":76561198025553902,"connected_time":666000000000,"state":"active","ping":43},{"user_id":668,"name":"Nolan","steam_id":76561198169648081,"connected_time":39000000000,"state":"active","ping":83},{"user_id":647,"name":"Jimbo","steam_id":76561198159568572,"connected_time":677000000000,"state":"active","ping":29},{"user_id":610,"name":"twitch.tv/Yoshi21 | TF2Pugs.com","steam_id":76561198002516729,"connected_time":1951000000000,"state":"active","ping":60},{"user_id":667,"name":"M4 Sherman","steam_id":76561198011096132,"connected_time":46000000000,"state":"active","ping":93},{"user_id":655,"name":"worker","steam_id":76561198039608940,"connected_time":479000000000,"state":"active","ping":113},{"user_id":551,"name":"GeneralTaco","steam_id":76561198026783097,"connected_time":7445000000000,"state":"active","ping":112},{"user_id":634,"name":"RipHunter77","steam_id":76561198272973014,"connected_time":1095000000000,"state":"active","ping":78},{"user_id":656,"name":"Breadn","steam_id":76561199478078821,"connected_time":469000000000,"state":"active","ping":46},{"user_id":617,"name":"Spike Bones","steam_id":76561198234926120,"connected_time":1696000000000,"state":"active","ping":89},{"user_id":618,"name":"Squubles #SaveTF2","steam_id":76561198315128664,"connected_time":1686000000000,"state":"active","ping":70},{"user_id":661,"name":"WonderSmileGuy","steam_id":76561198067592093,"connected_time":390000000000,"state":"active","ping":87},{"user_id":603,"name":"AdmiralSharpie","steam_id":76561198066394239,"connected_time":2645000000000,"state":"active","ping":68},{"user_id":609,"name":"LikeASir","steam_id":76561198042209721,"connected_time":2136000000000,"state":"active","ping":44},{"user_id":664,"name":"mu","steam_id":76561197997530228,"connected_time":331000000000,"state":"active","ping":105}]},{"server_id":106,"name":"Uncletopia | Chicago | 2 | All Maps","name_short":"chi-2","host":"chi-1.us.uncletopia.com","port":27025,"enabled":true,"region":"us-central","cc":"us","latitude":41.881832,"longitude":-87.62318,"reserved":0,"last_update":"0001-01-01T00:00:00Z","name_a2s":"Uncletopia | Chicago | 2 | All Maps","protocol":17,"map":"cp_snakewater_final1","folder":"tf","game":"Team Fortress","app_id":440,"player_count":0,"max_players":24,"Bots":0,"server_type":"Dedicated","server_os":"Linux","password":true,"vac":true,"version":"7757534","steam_id":85568392924469985,"keywords":["cp","nocrits","nodmgspread","uncletopia"],"game_id":440,"stv_port":27026,"stv_name":"Uncletopia | Chicago | 2 | All Maps | STV","players":null},{"server_id":402,"name":"Uncletopia | Chicago | 3 | All Maps","name_short":"chi-3","host":"chi-1.us.uncletopia.com","port":27035,"enabled":true,"region":"us-central","cc":"us","latitude":41.881832,"longitude":-87.62318,"reserved":0,"last_update":"0001-01-01T00:00:00Z","name_a2s":"Uncletopia | Chicago | 3 | All Maps","protocol":17,"map":"pl_barnblitz","folder":"tf","game":"Team Fortress","app_id":440,"player_count":0,"max_players":24,"Bots":0,"server_type":"Dedicated","server_os":"Linux","password":true,"vac":true,"version":"7757534","steam_id":85568392924515191,"keywords":["nocrits","nodmgspread","payload","uncletopia"],"game_id":440,"stv_port":27036,"stv_name":"Uncletopia | Chicago | 3 | All Maps | STV","players":null},{"server_id":403,"name":"Uncletopia | Chicago | 4 | All Maps","name_short":"chi-4","host":"chi-1.us.uncletopia.com","port":27045,"enabled":true,"region":"us-central","cc":"us","latitude":41.881832,"longitude":-87.62318,"reserved":0,"last_update":"0001-01-01T00:00:00Z","name_a2s":"Uncletopia | Chicago | 4 | All Maps","protocol":17,"map":"pl_borneo","folder":"tf","game":"Team Fortress","app_id":440,"player_count":0,"max_players":24,"Bots":0,"server_type":"Dedicated","server_os":"Linux","password":true,"vac":true,"version":"7757534","steam_id":85568392924515193,"keywords":["nocrits","nodmgspread","payload","uncletopia"],"game_id":440,"stv_port":27046,"stv_name":"Uncletopia | Chicago | 4 | All Maps | STV","players":null},{"server_id":36,"name":"Uncletopia | Chicago | 5 | All Maps","name_short":"chi-5","host":"chi-2.us.uncletopia.com","port":27015,"enabled":true,"region":"us-central","cc":"us","latitude":41.881832,"longitude":-87.62318,"reserved":0,"last_update":"0001-01-01T00:00:00Z","name_a2s":"Uncletopia | Chicago | 5 | All Maps","protocol":17,"map":"pl_pier","folder":"tf","game":"Team Fortress","app_id":440,"player_count":24,"max_players":24,"Bots":0,"server_type":"Dedicated","server_os":"Linux","password":true,"vac":true,"version":"7757534","steam_id":85568392924866362,"keywords":["nocrits","nodmgspread","payload","uncletopia"],"game_id":440,"stv_port":27016,"stv_name":"Uncletopia | Chicago | 5 | All Maps | STV","players":[{"user_id":306,"name":"Sternward","steam_id":76561198342969184,"connected_time":1278000000000,"state":"active","ping":187},{"user_id":302,"name":"Grill #WeSavedTF2","steam_id":76561198084040844,"connected_time":1626000000000,"state":"active","ping":83},{"user_id":288,"name":"MachineOfMachinesOfMachinesOf$\u0026","steam_id":76561198258143103,"connected_time":2214000000000,"state":"active","ping":54},{"user_id":323,"name":"Nova","steam_id":76561198201444213,"connected_time":114000000000,"state":"active","ping":85},{"user_id":318,"name":"upside down cat","steam_id":76561198028288349,"connected_time":571000000000,"state":"active","ping":91},{"user_id":250,"name":"Krellah","steam_id":76561198287045069,"connected_time":4052000000000,"state":"active","ping":54},{"user_id":294,"name":"Grand Piano Tuna","steam_id":76561198135137213,"connected_time":1919000000000,"state":"active","ping":71},{"user_id":251,"name":"sonic1394","steam_id":76561198054636788,"connected_time":4040000000000,"state":"active","ping":71},{"user_id":289,"name":"Chicken Joe","steam_id":76561198095143020,"connected_time":2193000000000,"state":"active","ping":116},{"user_id":319,"name":"girlpeen supreme","steam_id":76561198031242903,"connected_time":550000000000,"state":"active","ping":71},{"user_id":320,"name":"Fives","steam_id":76561197999060901,"connected_time":514000000000,"state":"active","ping":63},{"user_id":284,"name":"Cool Dog [(Real) Big]","steam_id":76561198106476075,"connected_time":2307000000000,"state":"active","ping":79},{"user_id":277,"name":"O.G. C.E.O","steam_id":76561198063928325,"connected_time":2944000000000,"state":"active","ping":60},{"user_id":268,"name":"Glass Joe","steam_id":76561198317365741,"connected_time":3303000000000,"state":"active","ping":72},{"user_id":305,"name":"wakeupbdot","steam_id":76561198160786631,"connected_time":1309000000000,"state":"active","ping":91},{"user_id":311,"name":"MEdeev","steam_id":76561198165381710,"connected_time":1183000000000,"state":"active","ping":60},{"user_id":321,"name":"Renota","steam_id":76561198058224488,"connected_time":434000000000,"state":"active","ping":75},{"user_id":303,"name":"shawarma.lord007","steam_id":76561198115458307,"connected_time":1597000000000,"state":"active","ping":106},{"user_id":322,"name":"juice","steam_id":76561198206042563,"connected_time":411000000000,"state":"active","ping":98},{"user_id":317,"name":"Jill Stingray","steam_id":76561198074209737,"connected_time":635000000000,"state":"active","ping":59},{"user_id":312,"name":"Fantastic","steam_id":76561198079088978,"connected_time":1168000000000,"state":"active","ping":46},{"user_id":304,"name":"NB","steam_id":76561198116106967,"connected_time":1531000000000,"state":"active","ping":48},{"user_id":313,"name":"Meh","steam_id":76561198078187920,"connected_time":1157000000000,"state":"active","ping":89},{"user_id":315,"name":"Kraul","steam_id":76561198043682060,"connected_time":898000000000,"state":"active","ping":98}]},{"server_id":37,"name":"Uncletopia | Chicago | 6 | All Maps","name_short":"chi-6","host":"chi-2.us.uncletopia.com","port":27025,"enabled":true,"region":"us-central","cc":"us","latitude":41.881832,"longitude":-87.62318,"reserved":0,"last_update":"0001-01-01T00:00:00Z","name_a2s":"Uncletopia | Chicago | 6 | All Maps","protocol":17,"map":"pl_badwater","folder":"tf","game":"Team Fortress","app_id":440,"player_count":24,"max_players":24,"Bots":0,"server_type":"Dedicated","server_os":"Linux","password":true,"vac":true,"version":"7757534","steam_id":85568392924866363,"keywords":["nocrits","nodmgspread","payload","uncletopia"],"game_id":440,"stv_port":27026,"stv_name":"Uncletopia | Chicago | 6 | All Maps | STV","players":[{"user_id":795,"name":"gromit","steam_id":76561198037746805,"connected_time":1326000000000,"state":"active","ping":64},{"user_id":788,"name":"The Horselords and Animal Gods","steam_id":76561197975094050,"connected_time":2360000000000,"state":"active","ping":112},{"user_id":798,"name":"microninjeez","steam_id":76561198074936422,"connected_time":1163000000000,"state":"active","ping":66},{"user_id":807,"name":"Cynicalrage #TF2center","steam_id":76561198085805532,"connected_time":288000000000,"state":"active","ping":45},{"user_id":797,"name":"Avalon","steam_id":76561198189709771,"connected_time":1252000000000,"state":"active","ping":71},{"user_id":808,"name":"Faraday","steam_id":76561198089928357,"connected_time":278000000000,"state":"active","ping":71},{"user_id":658,"name":"Rick Beato","steam_id":76561199080451611,"connected_time":12479000000000,"state":"active","ping":84},{"user_id":778,"name":"veryscaryreaper","steam_id":76561198380018244,"connected_time":3193000000000,"state":"active","ping":74},{"user_id":801,"name":"Eddieboy","steam_id":76561198009166712,"connected_time":1095000000000,"state":"active","ping":60},{"user_id":806,"name":"Zach-Man","steam_id":76561198058805749,"connected_time":649000000000,"state":"active","ping":106},{"user_id":776,"name":"Mr. Dry Lips","steam_id":76561198028157625,"connected_time":3383000000000,"state":"active","ping":84},{"user_id":767,"name":"trappy (soggy)","steam_id":76561198402801140,"connected_time":3786000000000,"state":"active","ping":57},{"user_id":803,"name":"HanakoToast","steam_id":76561198045233131,"connected_time":1055000000000,"state":"active","ping":122},{"user_id":758,"name":"Habba","steam_id":76561197986096340,"connected_time":4125000000000,"state":"active","ping":72},{"user_id":786,"name":"rock lee","steam_id":76561198054070811,"connected_time":2949000000000,"state":"active","ping":104},{"user_id":719,"name":"earthbound393","steam_id":76561199444276547,"connected_time":6823000000000,"state":"active","ping":115},{"user_id":775,"name":"soph","steam_id":76561198067497459,"connected_time":3402000000000,"state":"active","ping":64},{"user_id":770,"name":"› snow","steam_id":76561198109783729,"connected_time":3723000000000,"state":"active","ping":53},{"user_id":804,"name":"playername","steam_id":76561198121955432,"connected_time":1050000000000,"state":"active","ping":59},{"user_id":779,"name":"Chrisscar","steam_id":76561198086298130,"connected_time":3190000000000,"state":"active","ping":100},{"user_id":792,"name":"big ol' buford","steam_id":76561198290675957,"connected_time":1887000000000,"state":"active","ping":59},{"user_id":794,"name":"Spike","steam_id":76561198141356571,"connected_time":1608000000000,"state":"active","ping":60},{"user_id":805,"name":"deez ratz","steam_id":76561198864572366,"connected_time":1049000000000,"state":"active","ping":105},{"user_id":783,"name":"Jared In Target","steam_id":76561198372449718,"connected_time":3157000000000,"state":"active","ping":75}]},{"server_id":38,"name":"Uncletopia | Chicago | 7 | Stopwatch Beta","name_short":"chi-7","host":"chi-2.us.uncletopia.com","port":27035,"enabled":true,"region":"us-central","cc":"us","latitude":41.881832,"longitude":-87.62318,"reserved":0,"last_update":"0001-01-01T00:00:00Z","name_a2s":"Uncletopia | Chicago | 7 | Stopwatch Beta","protocol":17,"map":"workshop/cp_reckoner_rc6.ugc674719999","folder":"tf","game":"Team Fortress","app_id":440,"player_count":0,"max_players":24,"Bots":0,"server_type":"Dedicated","server_os":"Linux","password":true,"vac":true,"version":"7757534","steam_id":85568392924866364,"keywords":["cp","nocrits","nodmgspread","uncletopia"],"game_id":440,"stv_port":27036,"stv_name":"Uncletopia | Chicago | 7 | Stopwatch Beta | STV","players":null},{"server_id":39,"name":"Uncletopia | Chicago | 8 | Community","name_short":"chi-8","host":"chi-2.us.uncletopia.com","port":27045,"enabled":true,"region":"us-central","cc":"us","latitude":41.881832,"longitude":-87.62318,"reserved":0,"last_update":"0001-01-01T00:00:00Z","name_a2s":"Uncletopia | Chicago | 8 | Community","protocol":17,"map":"workshop/pl_cactuscanyon_redux_final1.ugc2579644293","folder":"tf","game":"Team Fortress","app_id":440,"player_count":5,"max_players":24,"Bots":0,"server_type":"Dedicated","server_os":"Linux","password":true,"vac":true,"version":"7757534","steam_id":85568392924866365,"keywords":["nocrits","nodmgspread","payload","uncletopia"],"game_id":440,"stv_port":27046,"stv_name":"Uncletopia | Chicago | 8 | Community | STV","players":[{"user_id":240,"name":"Ewok Dropkicker","steam_id":76561199154188122,"connected_time":630000000000,"state":"active","ping":44},{"user_id":236,"name":"Underachiever Mako","steam_id":76561198207943169,"connected_time":988000000000,"state":"active","ping":58},{"user_id":237,"name":"Sabaman55","steam_id":76561198212267979,"connected_time":981000000000,"state":"active","ping":43},{"user_id":238,"name":"Icecreem","steam_id":76561198271876045,"connected_time":978000000000,"state":"active","ping":75},{"user_id":239,"name":"Schmoop","steam_id":76561198840669453,"connected_time":909000000000,"state":"active","ping":84}]},{"server_id":8,"name":"Uncletopia | Dallas | 1 | All Maps","name_short":"dal-1","host":"dal-1.us.uncletopia.com","port":27015,"enabled":true,"region":"us-central","cc":"us","latitude":32.779167,"longitude":-96.80889,"reserved":0,"last_update":"0001-01-01T00:00:00Z","name_a2s":"Uncletopia | Dallas | 1 | All Maps","protocol":17,"map":"cp_sunshine","folder":"tf","game":"Team Fortress","app_id":440,"player_count":24,"max_players":24,"Bots":0,"server_type":"Dedicated","server_os":"Linux","password":true,"vac":true,"version":"7757534","steam_id":85568392924469986,"keywords":["cp","nocrits","nodmgspread","uncletopia"],"game_id":440,"stv_port":27016,"stv_name":"Uncletopia | Dallas | 1 | All Maps | STV","players":[{"user_id":508,"name":"errant","steam_id":76561197961758410,"connected_time":5128000000000,"state":"active","ping":36},{"user_id":560,"name":"Spirosity","steam_id":76561198013485753,"connected_time":1971000000000,"state":"active","ping":75},{"user_id":545,"name":"Anxious Nerd Bird","steam_id":76561198112178602,"connected_time":2836000000000,"state":"active","ping":79},{"user_id":566,"name":"\u003e\u003e=","steam_id":76561198337705174,"connected_time":1487000000000,"state":"active","ping":62},{"user_id":541,"name":"p4lly","steam_id":76561198078400787,"connected_time":3071000000000,"state":"active","ping":90},{"user_id":567,"name":"Elizabeth truss","steam_id":76561198058250979,"connected_time":1465000000000,"state":"active","ping":74},{"user_id":583,"name":"Jaguar","steam_id":76561197971152439,"connected_time":243000000000,"state":"active","ping":77},{"user_id":553,"name":"The French Gamer","steam_id":76561198043787070,"connected_time":2551000000000,"state":"active","ping":88},{"user_id":586,"name":"Sentient Trash Can","steam_id":76561199438622491,"connected_time":160000000000,"state":"active","ping":111},{"user_id":574,"name":"punaise","steam_id":76561198095105411,"connected_time":1163000000000,"state":"active","ping":98},{"user_id":584,"name":"Lezabel","steam_id":76561198970753261,"connected_time":188000000000,"state":"active","ping":74},{"user_id":587,"name":"lightning","steam_id":76561199214359565,"connected_time":142000000000,"state":"active","ping":109},{"user_id":537,"name":"bolainassr0","steam_id":76561199079078845,"connected_time":3227000000000,"state":"active","ping":100},{"user_id":589,"name":"BlastOff","steam_id":76561199191631199,"connected_time":72000000000,"state":"active","ping":125},{"user_id":588,"name":"bladees saddest, realest verse","steam_id":76561198098099826,"connected_time":141000000000,"state":"active","ping":70},{"user_id":576,"name":"John16Mark","steam_id":76561198119445407,"connected_time":1153000000000,"state":"active","ping":98},{"user_id":564,"name":"KyleBlack","steam_id":76561198139932550,"connected_time":1618000000000,"state":"active","ping":46},{"user_id":577,"name":"oaty","steam_id":76561198165011303,"connected_time":1143000000000,"state":"active","ping":126},{"user_id":529,"name":"Yummy Kabobz","steam_id":76561198067661705,"connected_time":3835000000000,"state":"active","ping":98},{"user_id":590,"name":"HeroOfTime","steam_id":76561199096218001,"connected_time":63000000000,"state":"active","ping":83},{"user_id":543,"name":"Shamrock Shake Oct.10.2020 @8pm","steam_id":76561198833313201,"connected_time":3044000000000,"state":"active","ping":90},{"user_id":581,"name":"Mr. DemoBones","steam_id":76561198044127250,"connected_time":378000000000,"state":"active","ping":70},{"user_id":579,"name":"Pope","steam_id":76561198053768137,"connected_time":801000000000,"state":"active","ping":46},{"user_id":497,"name":"Gandalf's Old Man Farts","steam_id":76561198058300151,"connected_time":6207000000000,"state":"active","ping":64}]},{"server_id":108,"name":"Uncletopia | Dallas | 2 | All Maps","name_short":"dal-2","host":"dal-1.us.uncletopia.com","port":27025,"enabled":true,"region":"us-central","cc":"us","latitude":32.779167,"longitude":-96.80889,"reserved":0,"last_update":"0001-01-01T00:00:00Z","name_a2s":"Uncletopia | Dallas | 2 | All Maps","protocol":17,"map":"pl_rumford_event","folder":"tf","game":"Team Fortress","app_id":440,"player_count":23,"max_players":24,"Bots":0,"server_type":"Dedicated","server_os":"Linux","password":true,"vac":true,"version":"7757534","steam_id":85568392924469988,"keywords":["nocrits","nodmgspread","payload","uncletopia"],"game_id":440,"stv_port":27026,"stv_name":"Uncletopia | Dallas | 2 | All Maps | STV","players":[{"user_id":792,"name":"https://en.wikipedia.org/","steam_id":76561198261326806,"connected_time":736000000000,"state":"active","ping":129},{"user_id":815,"name":"HeisenBurger","steam_id":76561198040632080,"connected_time":330000000000,"state":"active","ping":75},{"user_id":793,"name":"manicgecco","steam_id":76561198795657236,"connected_time":733000000000,"state":"active","ping":86},{"user_id":794,"name":"floofy","steam_id":76561198389769098,"connected_time":731000000000,"state":"active","ping":79},{"user_id":816,"name":"Knight","steam_id":76561198154529952,"connected_time":163000000000,"state":"active","ping":105},{"user_id":796,"name":"twin","steam_id":76561198055626638,"connected_time":706000000000,"state":"active","ping":106},{"user_id":759,"name":"Yo Mama's Phat Nuts","steam_id":76561199080135821,"connected_time":2212000000000,"state":"active","ping":76},{"user_id":800,"name":"fake gamer","steam_id":76561198049784197,"connected_time":677000000000,"state":"active","ping":87},{"user_id":787,"name":"Bryguy","steam_id":76561198092096120,"connected_time":1283000000000,"state":"active","ping":70},{"user_id":797,"name":"Foof","steam_id":76561198068996707,"connected_time":703000000000,"state":"active","ping":48},{"user_id":768,"name":"Heartz","steam_id":76561198108143973,"connected_time":1936000000000,"state":"active","ping":73},{"user_id":798,"name":"Comfy Monkey","steam_id":76561197998434936,"connected_time":697000000000,"state":"active","ping":74},{"user_id":817,"name":"sentry up there","steam_id":76561198301598124,"connected_time":55000000000,"state":"active","ping":109},{"user_id":799,"name":"KnightOfGames","steam_id":76561198080460659,"connected_time":691000000000,"state":"active","ping":64},{"user_id":814,"name":"Bloom","steam_id":76561199065581662,"connected_time":388000000000,"state":"active","ping":112},{"user_id":790,"name":"TTV/YT Hunter","steam_id":76561198115812405,"connected_time":889000000000,"state":"active","ping":100},{"user_id":779,"name":"papersamurai","steam_id":76561198313608698,"connected_time":1756000000000,"state":"active","ping":78},{"user_id":717,"name":"Burny Sanders","steam_id":76561197961879048,"connected_time":5376000000000,"state":"active","ping":45},{"user_id":777,"name":"Moss","steam_id":76561198309118529,"connected_time":1776000000000,"state":"active","ping":82},{"user_id":760,"name":"lucil3 on Bandcamp","steam_id":76561198149063013,"connected_time":2209000000000,"state":"active","ping":56},{"user_id":801,"name":"Faplord","steam_id":76561198036843182,"connected_time":662000000000,"state":"active","ping":73},{"user_id":742,"name":"Leviathan","steam_id":76561197997528907,"connected_time":3158000000000,"state":"active","ping":76},{"user_id":806,"name":"shart","steam_id":76561198039002838,"connected_time":545000000000,"state":"active","ping":104}]},{"server_id":5,"name":"Uncletopia | Frankfurt | 1 | All Maps","name_short":"frk-1","host":"frk-1.de.uncletopia.com","port":27015,"enabled":true,"region":"eu","cc":"de","latitude":50.110924,"longitude":8.682127,"reserved":0,"last_update":"0001-01-01T00:00:00Z","name_a2s":"Uncletopia | Frankfurt | 1 | All Maps","protocol":17,"map":"pl_snowycoast","folder":"tf","game":"Team Fortress","app_id":440,"player_count":0,"max_players":24,"Bots":0,"server_type":"Dedicated","server_os":"Linux","password":true,"vac":true,"version":"7757534","steam_id":85568392924469989,"keywords":["nocrits","nodmgspread","payload","uncletopia"],"game_id":440,"stv_port":27016,"stv_name":"Uncletopia | Frankfurt | 1 | All Maps | STV","players":null},{"server_id":110,"name":"Uncletopia | Frankfurt | 2 | All Maps","name_short":"frk-2","host":"frk-1.de.uncletopia.com","port":27025,"enabled":true,"region":"eu","cc":"de","latitude":50.110924,"longitude":8.682127,"reserved":0,"last_update":"0001-01-01T00:00:00Z","name_a2s":"Uncletopia | Frankfurt | 2 | All Maps","protocol":17,"map":"cp_snakewater_final1","folder":"tf","game":"Team Fortress","app_id":440,"player_count":0,"max_players":24,"Bots":0,"server_type":"Dedicated","server_os":"Linux","password":true,"vac":true,"version":"7757534","steam_id":85568392924469990,"keywords":["cp","nocrits","nodmgspread","uncletopia"],"game_id":440,"stv_port":27026,"stv_name":"Uncletopia | Frankfurt | 2 | All Maps | STV","players":null},{"server_id":308,"name":"Uncletopia | Frankfurt | 3 | All Maps","name_short":"frk-3","host":"frk-1.de.uncletopia.com","port":27035,"enabled":true,"region":"eu","cc":"de","latitude":50.110924,"longitude":8.682127,"reserved":0,"last_update":"0001-01-01T00:00:00Z","name_a2s":"Uncletopia | Frankfurt | 3 | All Maps","protocol":17,"map":"pl_swiftwater_final1","folder":"tf","game":"Team Fortress","app_id":440,"player_count":0,"max_players":24,"Bots":0,"server_type":"Dedicated","server_os":"Linux","password":true,"vac":true,"version":"7757534","steam_id":85568392924504274,"keywords":["nocrits","nodmgspread","payload","uncletopia"],"game_id":440,"stv_port":27036,"stv_name":"Uncletopia | Frankfurt | 3 | All Maps | STV","players":null},{"server_id":309,"name":"Uncletopia | Frankfurt | 4 | All Maps","name_short":"frk-4","host":"frk-1.de.uncletopia.com","port":27045,"enabled":true,"region":"eu","cc":"de","latitude":50.110924,"longitude":8.682127,"reserved":0,"last_update":"0001-01-01T00:00:00Z","name_a2s":"Uncletopia | Frankfurt | 4 | All Maps","protocol":17,"map":"koth_viaduct","folder":"tf","game":"Team Fortress","app_id":440,"player_count":0,"max_players":24,"Bots":0,"server_type":"Dedicated","server_os":"Linux","password":true,"vac":true,"version":"7757534","steam_id":85568392924504275,"keywords":["cp","nocrits","nodmgspread","uncletopia"],"game_id":440,"stv_port":27046,"stv_name":"Uncletopia | Frankfurt | 4 | All Maps | STV","players":null},{"server_id":310,"name":"Uncletopia | Frankfurt | 5 | All Maps","name_short":"frk-5","host":"frk-1.de.uncletopia.com","port":27055,"enabled":true,"region":"eu","cc":"de","latitude":50.110924,"longitude":8.682127,"reserved":0,"last_update":"0001-01-01T00:00:00Z","name_a2s":"Uncletopia | Frankfurt | 5 | All Maps","protocol":17,"map":"koth_lakeside_final","folder":"tf","game":"Team Fortress","app_id":440,"player_count":0,"max_players":24,"Bots":0,"server_type":"Dedicated","server_os":"Linux","password":true,"vac":true,"version":"7757534","steam_id":85568392924504277,"keywords":["cp","nocrits","nodmgspread","uncletopia"],"game_id":440,"stv_port":27056,"stv_name":"Uncletopia | Frankfurt | 5 | All Maps | STV","players":null},{"server_id":311,"name":"Uncletopia | Frankfurt | 6 | All Maps","name_short":"frk-6","host":"frk-1.de.uncletopia.com","port":27065,"enabled":true,"region":"eu","cc":"de","latitude":50.110924,"longitude":8.682127,"reserved":0,"last_update":"0001-01-01T00:00:00Z","name_a2s":"Uncletopia | Frankfurt | 6 | All Maps","protocol":17,"map":"pl_frontier_final","folder":"tf","game":"Team Fortress","app_id":440,"player_count":0,"max_players":24,"Bots":0,"server_type":"Dedicated","server_os":"Linux","password":true,"vac":true,"version":"7757534","steam_id":85568392924504278,"keywords":["nocrits","nodmgspread","payload","uncletopia"],"game_id":440,"stv_port":27066,"stv_name":"Uncletopia | Frankfurt | 6 | All Maps | STV","players":null},{"server_id":23,"name":"Uncletopia | Frankfurt | 7 | Stopwatch Beta","name_short":"frk-7","host":"frk-1.de.uncletopia.com","port":27075,"enabled":true,"region":"eu","cc":"de","latitude":50.110924,"longitude":8.682127,"reserved":0,"last_update":"0001-01-01T00:00:00Z","name_a2s":"Uncletopia | Frankfurt | 7 | Stopwatch Beta","protocol":17,"map":"cp_sunshine","folder":"tf","game":"Team Fortress","app_id":440,"player_count":0,"max_players":24,"Bots":0,"server_type":"Dedicated","server_os":"Linux","password":true,"vac":true,"version":"7757534","steam_id":85568392924742827,"keywords":["cp","nocrits","nodmgspread","uncletopia"],"game_id":440,"stv_port":27076,"stv_name":"Uncletopia | Frankfurt | 7 | Stopwatch Beta | STV","players":null},{"server_id":24,"name":"Uncletopia | Frankfurt | 8 | Community","name_short":"frk-8","host":"frk-1.de.uncletopia.com","port":27085,"enabled":true,"region":"eu","cc":"de","latitude":50.110924,"longitude":8.682127,"reserved":0,"last_update":"0001-01-01T00:00:00Z","name_a2s":"Uncletopia | Frankfurt | 8 | Community","protocol":17,"map":"koth_lakeside_final","folder":"tf","game":"Team Fortress","app_id":440,"player_count":0,"max_players":24,"Bots":0,"server_type":"Dedicated","server_os":"Linux","password":true,"vac":true,"version":"7757534","steam_id":85568392924742828,"keywords":["cp","nocrits","nodmgspread","uncletopia"],"game_id":440,"stv_port":27086,"stv_name":"Uncletopia | Frankfurt | 8 | Community | STV","players":null},{"server_id":202,"name":"Uncletopia | Hong Kong | 1 | All Maps","name_short":"hgk-1","host":"hgk-1.hk.uncletopia.com","port":27015,"enabled":true,"region":"asia","cc":"hk","latitude":22.302711,"longitude":114.177216,"reserved":0,"last_update":"0001-01-01T00:00:00Z","name_a2s":"Uncletopia | Hong Kong | 1 | All Maps","protocol":17,"map":"pl_badwater","folder":"tf","game":"Team Fortress","app_id":440,"player_count":5,"max_players":24,"Bots":0,"server_type":"Dedicated","server_os":"Linux","password":true,"vac":true,"version":"7757534","steam_id":85568392924494504,"keywords":["nocrits","nodmgspread","payload","uncletopia"],"game_id":440,"stv_port":27016,"stv_name":"Uncletopia | Hong Kong | 1 | All Maps | STV","players":[{"user_id":33,"name":"MongGoyo63","steam_id":76561198349540834,"connected_time":118000000000,"state":"active","ping":90},{"user_id":16,"name":"Compressed","steam_id":76561199230196794,"connected_time":2473000000000,"state":"active","ping":117},{"user_id":28,"name":"gero's boytoy","steam_id":76561199226227211,"connected_time":380000000000,"state":"active","ping":112},{"user_id":24,"name":"Puppycorn","steam_id":76561198384164542,"connected_time":885000000000,"state":"active","ping":139},{"user_id":30,"name":"pepsiman","steam_id":76561198167669037,"connected_time":366000000000,"state":"active","ping":44}]},{"server_id":1,"name":"Uncletopia | Los Angeles | 1 | All Maps","name_short":"lax-1","host":"lax-1.us.uncletopia.com","port":27015,"enabled":true,"region":"us-west","cc":"us","latitude":33.94279,"longitude":-118.41004,"reserved":0,"last_update":"0001-01-01T00:00:00Z","name_a2s":"Uncletopia | Los Angeles | 1 | All Maps","protocol":17,"map":"plr_hightower","folder":"tf","game":"Team Fortress","app_id":440,"player_count":24,"max_players":24,"Bots":0,"server_type":"Dedicated","server_os":"Linux","password":true,"vac":true,"version":"7757534","steam_id":85568392924469991,"keywords":["nocrits","nodmgspread","payload","uncletopia"],"game_id":440,"stv_port":27016,"stv_name":"Uncletopia | Los Angeles | 1 | All Maps | STV","players":[{"user_id":290,"name":"[Colorbomb]","steam_id":76561198006316527,"connected_time":527000000000,"state":"active","ping":60},{"user_id":264,"name":"Syrup","steam_id":76561198055850531,"connected_time":2428000000000,"state":"active","ping":48},{"user_id":291,"name":"็็็็็","steam_id":76561198118859752,"connected_time":481000000000,"state":"active","ping":45},{"user_id":292,"name":"doozy","steam_id":76561198033106776,"connected_time":438000000000,"state":"active","ping":116},{"user_id":283,"name":"Cuno Doesn't Care!","steam_id":76561198007372782,"connected_time":1112000000000,"state":"active","ping":60},{"user_id":267,"name":"Lucaaa","steam_id":76561198076700516,"connected_time":2402000000000,"state":"active","ping":121},{"user_id":294,"name":"ANIMEniacs123","steam_id":76561198334759690,"connected_time":416000000000,"state":"active","ping":78},{"user_id":286,"name":"-HsG- DesolatedRow","steam_id":76561198041156679,"connected_time":897000000000,"state":"active","ping":60},{"user_id":250,"name":"Peter, what are you doing?","steam_id":76561198066452726,"connected_time":4161000000000,"state":"active","ping":47},{"user_id":206,"name":"Eden","steam_id":76561198081284664,"connected_time":7891000000000,"state":"active","ping":45},{"user_id":295,"name":"Jolly Wolly","steam_id":76561198087571347,"connected_time":373000000000,"state":"active","ping":81},{"user_id":227,"name":"big fish","steam_id":76561198186479818,"connected_time":6227000000000,"state":"active","ping":54},{"user_id":296,"name":"Whisper!","steam_id":76561198119609795,"connected_time":356000000000,"state":"active","ping":55},{"user_id":256,"name":"postgres","steam_id":76561198011204750,"connected_time":3616000000000,"state":"active","ping":96},{"user_id":298,"name":"AAGooseman","steam_id":76561198378941369,"connected_time":188000000000,"state":"active","ping":46},{"user_id":299,"name":"Seriously Bruh","steam_id":76561198070408485,"connected_time":168000000000,"state":"active","ping":77},{"user_id":208,"name":"Cosmic Visor","steam_id":76561197990817172,"connected_time":7567000000000,"state":"active","ping":74},{"user_id":198,"name":"fertile moist and well drained","steam_id":76561198031409921,"connected_time":9654000000000,"state":"active","ping":47},{"user_id":280,"name":"Enrique","steam_id":76561198151531499,"connected_time":1453000000000,"state":"active","ping":80},{"user_id":301,"name":"aqua","steam_id":76561199407709552,"connected_time":91000000000,"state":"active","ping":94},{"user_id":288,"name":"Mr. Noodle","steam_id":76561198025280658,"connected_time":887000000000,"state":"active","ping":58},{"user_id":259,"name":"Wso1123","steam_id":76561198048040111,"connected_time":3558000000000,"state":"active","ping":63},{"user_id":284,"name":"BBL Sponsor","steam_id":76561199093733603,"connected_time":1076000000000,"state":"active","ping":70},{"user_id":270,"name":"Meso","steam_id":76561197988971820,"connected_time":2279000000000,"state":"active","ping":77}]},{"server_id":112,"name":"Uncletopia | Los Angeles | 2 | All Maps","name_short":"lax-2","host":"lax-1.us.uncletopia.com","port":27025,"enabled":true,"region":"us-west","cc":"us","latitude":33.94279,"longitude":-118.41004,"reserved":0,"last_update":"0001-01-01T00:00:00Z","name_a2s":"Uncletopia | Los Angeles | 2 | All Maps","protocol":17,"map":"pl_barnblitz","folder":"tf","game":"Team Fortress","app_id":440,"player_count":24,"max_players":24,"Bots":0,"server_type":"Dedicated","server_os":"Linux","password":true,"vac":true,"version":"7757534","steam_id":85568392924469992,"keywords":["nocrits","nodmgspread","payload","uncletopia"],"game_id":440,"stv_port":27026,"stv_name":"Uncletopia | Los Angeles | 2 | All Maps | STV","players":[{"user_id":29,"name":"Schnitz","steam_id":76561198265484253,"connected_time":5912000000000,"state":"active","ping":60},{"user_id":98,"name":"Yimbo","steam_id":76561198087329444,"connected_time":783000000000,"state":"active","ping":44},{"user_id":32,"name":"MERCHANT","steam_id":76561198210010549,"connected_time":5861000000000,"state":"active","ping":106},{"user_id":94,"name":"dAiLyGrInD","steam_id":76561198163531915,"connected_time":1334000000000,"state":"active","ping":93},{"user_id":36,"name":"Bonkers","steam_id":76561198161835788,"connected_time":5780000000000,"state":"active","ping":89},{"user_id":37,"name":"Snooter","steam_id":76561198042435225,"connected_time":5754000000000,"state":"active","ping":87},{"user_id":99,"name":"Sky","steam_id":76561198853245153,"connected_time":777000000000,"state":"active","ping":68},{"user_id":43,"name":"Arbiter Soul [Piss Gaming]","steam_id":76561198067798973,"connected_time":4596000000000,"state":"active","ping":68},{"user_id":85,"name":"noelle","steam_id":76561198842577534,"connected_time":1620000000000,"state":"active","ping":98},{"user_id":48,"name":"Yoozer","steam_id":76561198420257694,"connected_time":4255000000000,"state":"active","ping":49},{"user_id":57,"name":"PinguEnjoyer6","steam_id":76561199186723516,"connected_time":3922000000000,"state":"active","ping":50},{"user_id":47,"name":"weedmaster","steam_id":76561199012869095,"connected_time":4319000000000,"state":"active","ping":102},{"user_id":67,"name":"Ice cream sandwich","steam_id":76561198172748357,"connected_time":3621000000000,"state":"active","ping":58},{"user_id":52,"name":"The Assistant Regional Manager","steam_id":76561199221484936,"connected_time":4106000000000,"state":"active","ping":57},{"user_id":100,"name":"DV","steam_id":76561198295570806,"connected_time":633000000000,"state":"active","ping":57},{"user_id":82,"name":"Twombly","steam_id":76561198056532348,"connected_time":2075000000000,"state":"active","ping":56},{"user_id":86,"name":"GriDLocK; T0T4113D","steam_id":76561197999816631,"connected_time":1616000000000,"state":"active","ping":90},{"user_id":63,"name":"noellehound","steam_id":76561198108844158,"connected_time":3788000000000,"state":"active","ping":56},{"user_id":96,"name":"BigGoose","steam_id":76561198833281392,"connected_time":905000000000,"state":"active","ping":69},{"user_id":101,"name":"Nya! ( \u003eω\u003c)♡","steam_id":76561198146580482,"connected_time":352000000000,"state":"active","ping":39},{"user_id":92,"name":"motion","steam_id":76561198935158462,"connected_time":1389000000000,"state":"active","ping":58},{"user_id":93,"name":"PunishedCrab","steam_id":76561198079650017,"connected_time":1382000000000,"state":"active","ping":79},{"user_id":95,"name":"Notation","steam_id":76561198119509319,"connected_time":966000000000,"state":"active","ping":92},{"user_id":78,"name":"KingOfFrance","steam_id":76561199342148309,"connected_time":2897000000000,"state":"active","ping":48}]},{"server_id":324,"name":"Uncletopia | Los Angeles | 3 | All Maps","name_short":"lax-3","host":"lax-1.us.uncletopia.com","port":27035,"enabled":true,"region":"us-west","cc":"us","latitude":33.94279,"longitude":-118.41004,"reserved":0,"last_update":"0001-01-01T00:00:00Z","name_a2s":"Uncletopia | Los Angeles | 3 | All Maps","protocol":17,"map":"pl_swiftwater_final1","folder":"tf","game":"Team Fortress","app_id":440,"player_count":0,"max_players":24,"Bots":0,"server_type":"Dedicated","server_os":"Linux","password":true,"vac":true,"version":"7757534","steam_id":85568392924510198,"keywords":["nocrits","nodmgspread","payload","uncletopia"],"game_id":440,"stv_port":27036,"stv_name":"Uncletopia | Los Angeles | 3 | All Maps | STV","players":null},{"server_id":25,"name":"Uncletopia | Los Angeles | 4 | Stopwatch Beta","name_short":"lax-4","host":"lax-1.us.uncletopia.com","port":27045,"enabled":true,"region":"us-west","cc":"us","latitude":33.94279,"longitude":-118.41004,"reserved":0,"last_update":"0001-01-01T00:00:00Z","name_a2s":"Uncletopia | Los Angeles | 4 | Stopwatch Beta","protocol":17,"map":"pl_swiftwater_final1","folder":"tf","game":"Team Fortress","app_id":440,"player_count":0,"max_players":24,"Bots":0,"server_type":"Dedicated","server_os":"Linux","password":true,"vac":true,"version":"7757534","steam_id":85568392924510199,"keywords":["nocrits","nodmgspread","payload","uncletopia"],"game_id":440,"stv_port":27046,"stv_name":"Uncletopia | Los Angeles | 4 | Stopwatch Beta | STV","players":null},{"server_id":11,"name":"Uncletopia | London | 1 | All Maps","name_short":"lon-1","host":"lon-1.uk.uncletopia.com","port":27015,"enabled":true,"region":"eu","cc":"gb","latitude":51.509865,"longitude":-0.118092,"reserved":0,"last_update":"0001-01-01T00:00:00Z","name_a2s":"Uncletopia | London | 1 | All Maps","protocol":17,"map":"cp_snakewater_final1","folder":"tf","game":"Team Fortress","app_id":440,"player_count":9,"max_players":24,"Bots":0,"server_type":"Dedicated","server_os":"Linux","password":true,"vac":true,"version":"7757534","steam_id":85568392924367362,"keywords":["cp","nocrits","nodmgspread","uncletopia"],"game_id":440,"stv_port":27016,"stv_name":"Uncletopia | London | 1 | All Maps | STV","players":[{"user_id":11,"name":"thekoolest88","steam_id":76561199022415672,"connected_time":2563000000000,"state":"active","ping":136},{"user_id":41,"name":"funny yakuza man","steam_id":76561198800685443,"connected_time":273000000000,"state":"active","ping":60},{"user_id":35,"name":"PP_master69420","steam_id":76561199019913910,"connected_time":1254000000000,"state":"active","ping":77},{"user_id":37,"name":"An Agent of Chaos","steam_id":76561198972766717,"connected_time":913000000000,"state":"active","ping":44},{"user_id":43,"name":"[placeholder]","steam_id":76561198092615776,"connected_time":117000000000,"state":"connecting","ping":134},{"user_id":39,"name":"BONK-TEC!","steam_id":76561198272667029,"connected_time":623000000000,"state":"active","ping":50},{"user_id":23,"name":"ja","steam_id":76561199228540618,"connected_time":2089000000000,"state":"active","ping":87},{"user_id":20,"name":"jimbob","steam_id":76561198089322416,"connected_time":2201000000000,"state":"active","ping":92},{"user_id":31,"name":"/ffª rilookp","steam_id":76561198143529110,"connected_time":1731000000000,"state":"active","ping":46}]},{"server_id":114,"name":"Uncletopia | London | 2 | All Maps","name_short":"lon-2","host":"lon-1.uk.uncletopia.com","port":27025,"enabled":true,"region":"eu","cc":"gb","latitude":51.509865,"longitude":-0.118092,"reserved":0,"last_update":"0001-01-01T00:00:00Z","name_a2s":"Uncletopia | London | 2 | All Maps","protocol":17,"map":"koth_viaduct","folder":"tf","game":"Team Fortress","app_id":440,"player_count":0,"max_players":24,"Bots":0,"server_type":"Dedicated","server_os":"Linux","password":true,"vac":true,"version":"7757534","steam_id":85568392924470941,"keywords":["cp","nocrits","nodmgspread","uncletopia"],"game_id":440,"stv_port":27026,"stv_name":"Uncletopia | London | 2 | All Maps | STV","players":null},{"server_id":320,"name":"Uncletopia | London | 3 | All Maps","name_short":"lon-3","host":"lon-1.uk.uncletopia.com","port":27035,"enabled":true,"region":"eu","cc":"gb","latitude":51.509865,"longitude":-0.118092,"reserved":0,"last_update":"0001-01-01T00:00:00Z","name_a2s":"Uncletopia | London | 3 | All Maps","protocol":17,"map":"cp_dustbowl","folder":"tf","game":"Team Fortress","app_id":440,"player_count":0,"max_players":24,"Bots":0,"server_type":"Dedicated","server_os":"Linux","password":true,"vac":true,"version":"7757534","steam_id":85568392924510192,"keywords":["cp","nocrits","nodmgspread","uncletopia"],"game_id":440,"stv_port":27036,"stv_name":"Uncletopia | London | 3 | All Maps | STV","players":null},{"server_id":321,"name":"Uncletopia | London | 4 | All Maps","name_short":"lon-4","host":"lon-1.uk.uncletopia.com","port":27045,"enabled":true,"region":"eu","cc":"gb","latitude":51.509865,"longitude":-0.118092,"reserved":0,"last_update":"0001-01-01T00:00:00Z","name_a2s":"Uncletopia | London | 4 | All Maps","protocol":17,"map":"cp_dustbowl","folder":"tf","game":"Team Fortress","app_id":440,"player_count":0,"max_players":24,"Bots":0,"server_type":"Dedicated","server_os":"Linux","password":true,"vac":true,"version":"7757534","steam_id":85568392924510193,"keywords":["cp","nocrits","nodmgspread","uncletopia"],"game_id":440,"stv_port":27046,"stv_name":"Uncletopia | London | 4 | All Maps | STV","players":null},{"server_id":21,"name":"Uncletopia | London | 5 | All Maps","name_short":"lon-5","host":"lon-1.uk.uncletopia.com","port":27055,"enabled":true,"region":"eu","cc":"gb","latitude":51.509865,"longitude":-0.118092,"reserved":0,"last_update":"0001-01-01T00:00:00Z","name_a2s":"Uncletopia | London | 5 | All Maps","protocol":17,"map":"cp_altitude","folder":"tf","game":"Team Fortress","app_id":440,"player_count":0,"max_players":24,"Bots":0,"server_type":"Dedicated","server_os":"Linux","password":true,"vac":true,"version":"7757534","steam_id":85568392924742829,"keywords":["cp","nocrits","nodmgspread","uncletopia"],"game_id":440,"stv_port":27056,"stv_name":"Uncletopia | London | 5 | All Maps | STV","players":null},{"server_id":22,"name":"Uncletopia | London | 6 | All Maps","name_short":"lon-6","host":"lon-1.uk.uncletopia.com","port":27065,"enabled":true,"region":"eu","cc":"gb","latitude":51.509865,"longitude":-0.118092,"reserved":0,"last_update":"0001-01-01T00:00:00Z","name_a2s":"Uncletopia | London | 6 | All Maps","protocol":17,"map":"cp_mountainlab","folder":"tf","game":"Team Fortress","app_id":440,"player_count":0,"max_players":24,"Bots":0,"server_type":"Dedicated","server_os":"Linux","password":true,"vac":true,"version":"7757534","steam_id":85568392924742830,"keywords":["cp","nocrits","nodmgspread","uncletopia"],"game_id":440,"stv_port":27066,"stv_name":"Uncletopia | London | 6 | All Maps | STV","players":null},{"server_id":40,"name":"Uncletopia | London | 7 | No Payload","name_short":"lon-7","host":"lon-1.uk.uncletopia.com","port":27075,"enabled":true,"region":"eu","cc":"gb","latitude":51.509865,"longitude":-0.118092,"reserved":0,"last_update":"0001-01-01T00:00:00Z","name_a2s":"Uncletopia | London | 7 | No Payload","protocol":17,"map":"pl_badwater","folder":"tf","game":"Team Fortress","app_id":440,"player_count":0,"max_players":24,"Bots":0,"server_type":"Dedicated","server_os":"Linux","password":true,"vac":true,"version":"7757534","steam_id":85568392924964314,"keywords":["nocrits","nodmgspread","payload","uncletopia"],"game_id":440,"stv_port":27076,"stv_name":"Uncletopia | London | 7 | No Payload | STV","players":null},{"server_id":41,"name":"Uncletopia | London | 8 | Community","name_short":"lon-8","host":"lon-1.uk.uncletopia.com","port":27085,"enabled":true,"region":"eu","cc":"gb","latitude":51.509865,"longitude":-0.118092,"reserved":0,"last_update":"0001-01-01T00:00:00Z","name_a2s":"Uncletopia | London | 8 | Community","protocol":17,"map":"pl_barnblitz","folder":"tf","game":"Team Fortress","app_id":440,"player_count":0,"max_players":24,"Bots":0,"server_type":"Dedicated","server_os":"Linux","password":true,"vac":true,"version":"7757534","steam_id":85568392924964315,"keywords":["nocrits","nodmgspread","payload","uncletopia"],"game_id":440,"stv_port":27086,"stv_name":"Uncletopia | London | 8 | Community | STV","players":null},{"server_id":300,"name":"Uncletopia | Montréal | 1 | All Maps","name_short":"mtl-1","host":"mtl-1.ca.uncletopia.com","port":27015,"enabled":true,"region":"us-east","cc":"ca","latitude":45.50889,"longitude":-73.56167,"reserved":0,"last_update":"0001-01-01T00:00:00Z","name_a2s":"Uncletopia | Montréal | 1 | All Maps","protocol":17,"map":"pl_frontier_final","folder":"tf","game":"Team Fortress","app_id":440,"player_count":0,"max_players":24,"Bots":0,"server_type":"Dedicated","server_os":"Linux","password":true,"vac":true,"version":"7757534","steam_id":85568392924500087,"keywords":["nocrits","nodmgspread","payload","uncletopia"],"game_id":440,"stv_port":27016,"stv_name":"Uncletopia | Montréal | 1 | All Maps | STV","players":null},{"server_id":301,"name":"Uncletopia | Montréal | 2 | All Maps","name_short":"mtl-2","host":"mtl-1.ca.uncletopia.com","port":27025,"enabled":true,"region":"us-east","cc":"ca","latitude":45.50889,"longitude":-73.56167,"reserved":0,"last_update":"0001-01-01T00:00:00Z","name_a2s":"Uncletopia | Montréal | 2 | All Maps","protocol":17,"map":"koth_lakeside_final","folder":"tf","game":"Team Fortress","app_id":440,"player_count":0,"max_players":24,"Bots":0,"server_type":"Dedicated","server_os":"Linux","password":true,"vac":true,"version":"7757534","steam_id":85568392924500088,"keywords":["cp","nocrits","nodmgspread","uncletopia"],"game_id":440,"stv_port":27026,"stv_name":"Uncletopia | Montréal | 2 | All Maps | STV","players":null},{"server_id":302,"name":"Uncletopia | Montréal | 3 | All Maps","name_short":"mtl-3","host":"mtl-1.ca.uncletopia.com","port":27035,"enabled":true,"region":"us-east","cc":"ca","latitude":45.50889,"longitude":-73.56167,"reserved":0,"last_update":"0001-01-01T00:00:00Z","name_a2s":"Uncletopia | Montréal | 3 | All Maps","protocol":17,"map":"koth_cascade","folder":"tf","game":"Team Fortress","app_id":440,"player_count":0,"max_players":24,"Bots":0,"server_type":"Dedicated","server_os":"Linux","password":true,"vac":true,"version":"7757534","steam_id":85568392924500089,"keywords":["cp","nocrits","nodmgspread","uncletopia"],"game_id":440,"stv_port":27036,"stv_name":"Uncletopia | Montréal | 3 | All Maps | STV","players":null},{"server_id":303,"name":"Uncletopia | Montréal | 4 | No Payload","name_short":"mtl-4","host":"mtl-1.ca.uncletopia.com","port":27045,"enabled":true,"region":"us-east","cc":"ca","latitude":45.50889,"longitude":-73.56167,"reserved":0,"last_update":"0001-01-01T00:00:00Z","name_a2s":"Uncletopia | Montréal | 4 | No Payload","protocol":17,"map":"cp_mercenarypark","folder":"tf","game":"Team Fortress","app_id":440,"player_count":0,"max_players":24,"Bots":0,"server_type":"Dedicated","server_os":"Linux","password":true,"vac":true,"version":"7757534","steam_id":85568392924500090,"keywords":["cp","nocrits","nodmgspread","uncletopia"],"game_id":440,"stv_port":27046,"stv_name":"Uncletopia | Montréal | 4 | No Payload | STV","players":null},{"server_id":13,"name":"Uncletopia | New York City | 1 | All Maps","name_short":"nyc-1","host":"nyc-1.us.uncletopia.com","port":27015,"enabled":true,"region":"us-east","cc":"us","latitude":40.73061,"longitude":-73.93524,"reserved":0,"last_update":"0001-01-01T00:00:00Z","name_a2s":"Uncletopia | New York City | 1 | All Maps","protocol":17,"map":"koth_harvest_final","folder":"tf","game":"Team Fortress","app_id":440,"player_count":18,"max_players":24,"Bots":0,"server_type":"Dedicated","server_os":"Linux","password":true,"vac":true,"version":"7757534","steam_id":85568392924469993,"keywords":["cp","nocrits","nodmgspread","uncletopia"],"game_id":440,"stv_port":27016,"stv_name":"Uncletopia | New York City | 1 | All Maps | STV","players":[{"user_id":242,"name":"Jin","steam_id":76561198119873148,"connected_time":15467000000000,"state":"active","ping":47},{"user_id":395,"name":"monkey","steam_id":76561198075858535,"connected_time":1633000000000,"state":"active","ping":78},{"user_id":365,"name":"ShadBad","steam_id":76561198248287390,"connected_time":3658000000000,"state":"active","ping":136},{"user_id":400,"name":"no thoughts, head empty snake","steam_id":76561198872396820,"connected_time":994000000000,"state":"active","ping":74},{"user_id":385,"name":"cannibalistic rival archetype.","steam_id":76561198294013916,"connected_time":2670000000000,"state":"active","ping":44},{"user_id":401,"name":"storepilled grocerycel","steam_id":76561198097588802,"connected_time":838000000000,"state":"active","ping":68},{"user_id":405,"name":"Superplay64","steam_id":76561198172471162,"connected_time":418000000000,"state":"active","ping":85},{"user_id":386,"name":"FS Jorda","steam_id":76561198071421459,"connected_time":2656000000000,"state":"active","ping":30},{"user_id":403,"name":"DSM-IVCE","steam_id":76561199438515797,"connected_time":729000000000,"state":"active","ping":150},{"user_id":411,"name":"whats fizzin","steam_id":76561198230670996,"connected_time":162000000000,"state":"active","ping":72},{"user_id":374,"name":"Jadeum","steam_id":76561198212101084,"connected_time":2991000000000,"state":"active","ping":36},{"user_id":406,"name":"Osteo-Oligarch","steam_id":76561198164731896,"connected_time":300000000000,"state":"active","ping":78},{"user_id":407,"name":"low res sasuke jpg","steam_id":76561198035288369,"connected_time":276000000000,"state":"active","ping":79},{"user_id":408,"name":"killer of noob, winner of game","steam_id":76561198190583242,"connected_time":259000000000,"state":"active","ping":152},{"user_id":306,"name":"Fever Dreams","steam_id":76561198116614620,"connected_time":10255000000000,"state":"active","ping":78},{"user_id":343,"name":"ＳＬＶＴＣＨＡＭＰ","steam_id":76561198883157736,"connected_time":6345000000000,"state":"active","ping":128},{"user_id":414,"name":"ghurt","steam_id":76561198110161551,"connected_time":76000000000,"state":"active","ping":63},{"user_id":393,"name":"evdoke","steam_id":76561198044555219,"connected_time":2273000000000,"state":"active","ping":44}]},{"server_id":14,"name":"Uncletopia | New York City | 2 | All Maps","name_short":"nyc-2","host":"nyc-1.us.uncletopia.com","port":27025,"enabled":true,"region":"us-east","cc":"us","latitude":40.73061,"longitude":-73.93524,"reserved":0,"last_update":"0001-01-01T00:00:00Z","name_a2s":"Uncletopia | New York City | 2 | All Maps","protocol":17,"map":"koth_sawmill","folder":"tf","game":"Team Fortress","app_id":440,"player_count":20,"max_players":24,"Bots":0,"server_type":"Dedicated","server_os":"Linux","password":true,"vac":true,"version":"7757534","steam_id":85568392924469994,"keywords":["cp","nocrits","nodmgspread","uncletopia"],"game_id":440,"stv_port":27026,"stv_name":"Uncletopia | New York City | 2 | All Maps | STV","players":[{"user_id":371,"name":"Bzamo","steam_id":76561198039883392,"connected_time":434000000000,"state":"active","ping":40},{"user_id":316,"name":"I ate those food","steam_id":76561198084614149,"connected_time":4193000000000,"state":"active","ping":41},{"user_id":345,"name":"time has run out","steam_id":76561198066450438,"connected_time":2177000000000,"state":"active","ping":67},{"user_id":361,"name":"Bread Makes you Fat","steam_id":76561198985126532,"connected_time":1250000000000,"state":"active","ping":52},{"user_id":372,"name":"boy from the rafters","steam_id":76561198042926224,"connected_time":24000000000,"state":"active","ping":86},{"user_id":355,"name":"Grandpa","steam_id":76561198355894789,"connected_time":1731000000000,"state":"active","ping":86},{"user_id":317,"name":"Nopendium","steam_id":76561198087712908,"connected_time":4125000000000,"state":"active","ping":52},{"user_id":365,"name":"The Original Freelander","steam_id":76561198026152104,"connected_time":846000000000,"state":"active","ping":42},{"user_id":342,"name":"Spiralimp","steam_id":76561198275979182,"connected_time":2245000000000,"state":"active","ping":105},{"user_id":368,"name":"footp","steam_id":76561198001027361,"connected_time":795000000000,"state":"active","ping":47},{"user_id":366,"name":"blank","steam_id":76561198105529673,"connected_time":824000000000,"state":"active","ping":104},{"user_id":335,"name":"chroma","steam_id":76561198050188632,"connected_time":2512000000000,"state":"active","ping":46},{"user_id":351,"name":"DiscoTraveler","steam_id":76561199240168088,"connected_time":2014000000000,"state":"active","ping":54},{"user_id":370,"name":"Alkaios","steam_id":76561198246193520,"connected_time":524000000000,"state":"active","ping":58},{"user_id":336,"name":"great1photo","steam_id":76561198085481933,"connected_time":2510000000000,"state":"active","ping":80},{"user_id":337,"name":"Ivy","steam_id":76561198047758442,"connected_time":2502000000000,"state":"active","ping":121},{"user_id":338,"name":"THEY LET YOU PUT ANYTHING HERE","steam_id":76561198056214875,"connected_time":2478000000000,"state":"active","ping":72},{"user_id":357,"name":"the girl gamer with IBS","steam_id":76561198029274581,"connected_time":1611000000000,"state":"active","ping":66},{"user_id":340,"name":"P1uc","steam_id":76561198140919454,"connected_time":2449000000000,"state":"active","ping":113},{"user_id":341,"name":"Truffleoil","steam_id":76561198114689041,"connected_time":2372000000000,"state":"active","ping":60}]},{"server_id":15,"name":"Uncletopia | New York City | 3 | Stopwatch Beta","name_short":"nyc-3","host":"nyc-1.us.uncletopia.com","port":27035,"enabled":true,"region":"us-east","cc":"us","latitude":40.73061,"longitude":-73.93524,"reserved":0,"last_update":"0001-01-01T00:00:00Z","name_a2s":"Uncletopia | New York City | 3 | Stopwatch Beta","protocol":17,"map":"pl_upward","folder":"tf","game":"Team Fortress","app_id":440,"player_count":0,"max_players":24,"Bots":0,"server_type":"Dedicated","server_os":"Linux","password":true,"vac":true,"version":"7757534","steam_id":85568392924742820,"keywords":["nocrits","nodmgspread","payload","uncletopia"],"game_id":440,"stv_port":27036,"stv_name":"Uncletopia | New York City | 3 | Stopwatch Beta | STV","players":null},{"server_id":16,"name":"Uncletopia | New York City | 4 | Community","name_short":"nyc-4","host":"nyc-1.us.uncletopia.com","port":27045,"enabled":true,"region":"us-east","cc":"us","latitude":40.73061,"longitude":-73.93524,"reserved":0,"last_update":"0001-01-01T00:00:00Z","name_a2s":"Uncletopia | New York City | 4 | Community","protocol":17,"map":"workshop/cp_overgrown_rc7b.ugc503939302","folder":"tf","game":"Team Fortress","app_id":440,"player_count":0,"max_players":24,"Bots":0,"server_type":"Dedicated","server_os":"Linux","password":true,"vac":true,"version":"7757534","steam_id":85568392924742821,"keywords":["cp","nocrits","nodmgspread","uncletopia"],"game_id":440,"stv_port":27046,"stv_name":"Uncletopia | New York City | 4 | Community | STV","players":null},{"server_id":142,"name":"Uncletopia | São Paulo | 1 | All Maps","name_short":"sao-1","host":"sao-1.br.uncletopia.com","port":27015,"enabled":true,"region":"sa","cc":"br","latitude":-23.533773,"longitude":-46.62529,"reserved":0,"last_update":"0001-01-01T00:00:00Z","name_a2s":"Uncletopia | São Paulo | 1 | All Maps","protocol":17,"map":"koth_harvest_final","folder":"tf","game":"Team Fortress","app_id":440,"player_count":0,"max_players":24,"Bots":0,"server_type":"Dedicated","server_os":"Linux","password":true,"vac":true,"version":"7757534","steam_id":85568392924469996,"keywords":["cp","nocrits","nodmgspread","uncletopia"],"game_id":440,"stv_port":27016,"stv_name":"Uncletopia | São Paulo | 1 | All Maps | STV","players":null},{"server_id":143,"name":"Uncletopia | São Paulo | 2 | All Maps","name_short":"sao-2","host":"sao-2.br.uncletopia.com","port":27015,"enabled":true,"region":"sa","cc":"br","latitude":-23.533773,"longitude":-46.62529,"reserved":0,"last_update":"0001-01-01T00:00:00Z","name_a2s":"Uncletopia | São Paulo | 2 | All Maps","protocol":17,"map":"koth_viaduct","folder":"tf","game":"Team Fortress","app_id":440,"player_count":0,"max_players":24,"Bots":0,"server_type":"Dedicated","server_os":"Linux","password":true,"vac":true,"version":"7757534","steam_id":85568392924485349,"keywords":["cp","nocrits","nodmgspread","uncletopia"],"game_id":440,"stv_port":27016,"stv_name":"Uncletopia | São Paulo | 2 | All Maps | STV","players":null},{"server_id":7,"name":"Uncletopia | Seattle | 1 | All Maps","name_short":"sea-1","host":"sea-1.us.uncletopia.com","port":27015,"enabled":true,"region":"us-west","cc":"us","latitude":47.608013,"longitude":-122.33517,"reserved":0,"last_update":"0001-01-01T00:00:00Z","name_a2s":"Uncletopia | Seattle | 1 | All Maps","protocol":17,"map":"cp_mossrock","folder":"tf","game":"Team Fortress","app_id":440,"player_count":25,"max_players":24,"Bots":0,"server_type":"Dedicated","server_os":"Linux","password":true,"vac":true,"version":"7757534","steam_id":85568392924469997,"keywords":["cp","nocrits","nodmgspread","uncletopia"],"game_id":440,"stv_port":27016,"stv_name":"Uncletopia | Seattle | 1 | All Maps | STV","players":[{"user_id":887,"name":"spiderland","steam_id":76561198335992132,"connected_time":1755000000000,"state":"active","ping":48},{"user_id":904,"name":"spenca","steam_id":76561198025371154,"connected_time":452000000000,"state":"active","ping":64},{"user_id":903,"name":"Skabbety","steam_id":76561198168044257,"connected_time":678000000000,"state":"active","ping":42},{"user_id":878,"name":"ITSPICE","steam_id":76561198173274042,"connected_time":2425000000000,"state":"active","ping":61},{"user_id":909,"name":"heats","steam_id":76561198029719720,"connected_time":152000000000,"state":"active","ping":139},{"user_id":900,"name":"PerKnuckleChuckle","steam_id":76561198023221596,"connected_time":949000000000,"state":"active","ping":93},{"user_id":885,"name":"p9 Doctor™ (drunk)","steam_id":76561198134309750,"connected_time":1769000000000,"state":"active","ping":108},{"user_id":884,"name":"RING DONG DORINGOS","steam_id":76561198043558709,"connected_time":1964000000000,"state":"active","ping":45},{"user_id":910,"name":"lug nut larry","steam_id":76561198170643378,"connected_time":134000000000,"state":"active","ping":95},{"user_id":894,"name":"Shields","steam_id":76561198043216746,"connected_time":1616000000000,"state":"active","ping":64},{"user_id":897,"name":"SpencerthePumpkin","steam_id":76561198016755611,"connected_time":1125000000000,"state":"active","ping":63},{"user_id":911,"name":"SwiftVines","steam_id":76561198083682421,"connected_time":126000000000,"state":"active","ping":44},{"user_id":902,"name":"rorywashere /ᐠ - ˕ -マ Ⳋ","steam_id":76561198065825165,"connected_time":899000000000,"state":"active","ping":111},{"user_id":893,"name":"yup","steam_id":76561199190800520,"connected_time":1640000000000,"state":"active","ping":42},{"user_id":853,"name":"M4L1C3","steam_id":76561198282839695,"connected_time":5112000000000,"state":"active","ping":72},{"user_id":898,"name":"GalaxySheep","steam_id":76561198066484754,"connected_time":1125000000000,"state":"active","ping":137},{"user_id":892,"name":"ULTRACOCK","steam_id":76561198022967929,"connected_time":1711000000000,"state":"active","ping":87},{"user_id":905,"name":"NEBULA","steam_id":76561198086878595,"connected_time":372000000000,"state":"active","ping":73},{"user_id":874,"name":"Aardappel","steam_id":76561198030894676,"connected_time":2925000000000,"state":"active","ping":73},{"user_id":906,"name":"reiidaya","steam_id":76561198325306660,"connected_time":204000000000,"state":"active","ping":56},{"user_id":782,"name":"soup","steam_id":76561198043209046,"connected_time":11453000000000,"state":"active","ping":84},{"user_id":907,"name":"p9 delight","steam_id":76561197980280272,"connected_time":182000000000,"state":"active","ping":50},{"user_id":912,"name":"jorts (not sober(","steam_id":76561199041179985,"connected_time":84000000000,"state":"active","ping":60},{"user_id":859,"name":"PheebsyDeebsy","steam_id":76561198101509436,"connected_time":4967000000000,"state":"active","ping":71},{"user_id":877,"name":"rat gets the cheese","steam_id":76561198031234032,"connected_time":2634000000000,"state":"active","ping":101}]},{"server_id":119,"name":"Uncletopia | Seattle | 2 | All Maps","name_short":"sea-2","host":"sea-1.us.uncletopia.com","port":27025,"enabled":true,"region":"us-west","cc":"us","latitude":47.608013,"longitude":-122.33517,"reserved":0,"last_update":"0001-01-01T00:00:00Z","name_a2s":"Uncletopia | Seattle | 2 | All Maps","protocol":17,"map":"pl_borneo","folder":"tf","game":"Team Fortress","app_id":440,"player_count":24,"max_players":24,"Bots":0,"server_type":"Dedicated","server_os":"Linux","password":true,"vac":true,"version":"7757534","steam_id":85568392924469998,"keywords":["nocrits","nodmgspread","payload","uncletopia"],"game_id":440,"stv_port":27026,"stv_name":"Uncletopia | Seattle | 2 | All Maps | STV","players":[{"user_id":514,"name":"NOT FRIENDLY","steam_id":76561198041327231,"connected_time":3171000000000,"state":"active","ping":57},{"user_id":528,"name":"Java3dition","steam_id":76561198157880479,"connected_time":1313000000000,"state":"active","ping":48},{"user_id":538,"name":"CPTforever","steam_id":76561198237767198,"connected_time":189000000000,"state":"active","ping":60},{"user_id":532,"name":"ferby","steam_id":76561198028229594,"connected_time":948000000000,"state":"active","ping":67},{"user_id":521,"name":"General Fisticuffs","steam_id":76561198255721392,"connected_time":1793000000000,"state":"active","ping":101},{"user_id":527,"name":"The_Pacific_gamer","steam_id":76561198089491446,"connected_time":1327000000000,"state":"active","ping":46},{"user_id":525,"name":"Rise for the National Spamton","steam_id":76561198138468982,"connected_time":1439000000000,"state":"active","ping":54},{"user_id":529,"name":"Octo","steam_id":76561198024056355,"connected_time":1301000000000,"state":"active","ping":75},{"user_id":540,"name":"remilia","steam_id":76561198069180543,"connected_time":161000000000,"state":"active","ping":57},{"user_id":468,"name":"SvicidalBug","steam_id":76561198221390504,"connected_time":6012000000000,"state":"active","ping":62},{"user_id":483,"name":"DWSkilltonTTV","steam_id":76561197967027880,"connected_time":4905000000000,"state":"active","ping":98},{"user_id":447,"name":"Re-Crix","steam_id":76561198351895601,"connected_time":7544000000000,"state":"active","ping":85},{"user_id":519,"name":"Bevan(The Manager)","steam_id":76561198073890273,"connected_time":2253000000000,"state":"active","ping":62},{"user_id":487,"name":"FluffyNinjaRobatech","steam_id":76561197981072423,"connected_time":4642000000000,"state":"active","ping":105},{"user_id":539,"name":"Schlostic","steam_id":76561198081961642,"connected_time":183000000000,"state":"active","ping":50},{"user_id":492,"name":"Thndr_","steam_id":76561198113242036,"connected_time":4514000000000,"state":"active","ping":70},{"user_id":534,"name":"One Horned Bitch Destroyer","steam_id":76561198045810191,"connected_time":644000000000,"state":"active","ping":42},{"user_id":460,"name":"Villchip","steam_id":76561198198599982,"connected_time":6755000000000,"state":"active","ping":52},{"user_id":533,"name":"RUTHGATOR BLINSBURGER","steam_id":76561198070136627,"connected_time":710000000000,"state":"active","ping":76},{"user_id":508,"name":"Thexx ❤","steam_id":76561198113823050,"connected_time":3707000000000,"state":"active","ping":45},{"user_id":530,"name":"Biggie Grug","steam_id":76561198042998887,"connected_time":1212000000000,"state":"active","ping":75},{"user_id":503,"name":"Sniff","steam_id":76561198010270922,"connected_time":4064000000000,"state":"active","ping":43},{"user_id":476,"name":"DW codeN1nj4","steam_id":76561198025558856,"connected_time":5528000000000,"state":"active","ping":69},{"user_id":531,"name":"Joshzu","steam_id":76561198200521137,"connected_time":1189000000000,"state":"active","ping":56}]},{"server_id":406,"name":"Uncletopia | Seattle | 3 | Stopwatch Beta","name_short":"sea-3","host":"sea-1.us.uncletopia.com","port":27035,"enabled":true,"region":"us-west","cc":"us","latitude":47.608013,"longitude":-122.33517,"reserved":0,"last_update":"0001-01-01T00:00:00Z","name_a2s":"Uncletopia | Seattle | 3 | Stopwatch Beta","protocol":17,"map":"workshop/koth_clearcut_b15.ugc2107050255","folder":"tf","game":"Team Fortress","app_id":440,"player_count":0,"max_players":24,"Bots":0,"server_type":"Dedicated","server_os":"Linux","password":true,"vac":true,"version":"7757534","steam_id":85568392924515217,"keywords":["cp","nocrits","nodmgspread","uncletopia"],"game_id":440,"stv_port":27036,"stv_name":"Uncletopia | Seattle | 3 | Stopwatch Beta | STV","players":null},{"server_id":17,"name":"Uncletopia | San Francisco | 1 | All Maps","name_short":"sfo-1","host":"sfo-1.us.uncletopia.com","port":27015,"enabled":true,"region":"us-west","cc":"us","latitude":37.77397,"longitude":-122.4313,"reserved":0,"last_update":"0001-01-01T00:00:00Z","name_a2s":"Uncletopia | San Francisco | 1 | All Maps","protocol":17,"map":"koth_viaduct","folder":"tf","game":"Team Fortress","app_id":440,"player_count":24,"max_players":24,"Bots":0,"server_type":"Dedicated","server_os":"Linux","password":true,"vac":true,"version":"7757534","steam_id":85568392924469999,"keywords":["cp","nocrits","nodmgspread","uncletopia"],"game_id":440,"stv_port":27016,"stv_name":"Uncletopia | San Francisco | 1 | All Maps | STV","players":[{"user_id":322,"name":"Dylanxp300","steam_id":76561198271974937,"connected_time":644000000000,"state":"active","ping":135},{"user_id":298,"name":"Xi Jinping BodyPillow","steam_id":76561198864599452,"connected_time":1648000000000,"state":"active","ping":126},{"user_id":295,"name":"Hannibal Lecture","steam_id":76561198329087915,"connected_time":1920000000000,"state":"active","ping":68},{"user_id":271,"name":"\\m/ Cyfun (she/it)","steam_id":76561197960882221,"connected_time":3051000000000,"state":"active","ping":105},{"user_id":297,"name":"Shnitzel \"Sex Offender\" Rock Gu","steam_id":76561198056638070,"connected_time":1673000000000,"state":"active","ping":68},{"user_id":328,"name":"what da dog doin","steam_id":76561198090573639,"connected_time":138000000000,"state":"active","ping":55},{"user_id":281,"name":"Sunny","steam_id":76561198261667312,"connected_time":2744000000000,"state":"active","ping":69},{"user_id":300,"name":"Bobby","steam_id":76561198265253992,"connected_time":1634000000000,"state":"active","ping":67},{"user_id":301,"name":"Howard Hamlin","steam_id":76561198308883028,"connected_time":1594000000000,"state":"active","ping":66},{"user_id":315,"name":"knatspray","steam_id":76561198832507482,"connected_time":857000000000,"state":"active","ping":74},{"user_id":326,"name":"Danny Fentanyl","steam_id":76561197970791798,"connected_time":212000000000,"state":"active","ping":59},{"user_id":327,"name":"plsplsplslol","steam_id":76561198868084626,"connected_time":173000000000,"state":"active","ping":61},{"user_id":303,"name":"rmbl","steam_id":76561198150137369,"connected_time":1586000000000,"state":"active","ping":57},{"user_id":321,"name":"Berry Festive Vlad","steam_id":76561198149616270,"connected_time":674000000000,"state":"active","ping":76},{"user_id":304,"name":"Tiatan","steam_id":76561198091778741,"connected_time":1578000000000,"state":"active","ping":64},{"user_id":313,"name":"huiei","steam_id":76561198073763735,"connected_time":941000000000,"state":"active","ping":56},{"user_id":305,"name":"I punch babies","steam_id":76561198110843978,"connected_time":1567000000000,"state":"active","ping":61},{"user_id":317,"name":"M4_Patriot","steam_id":76561198380134648,"connected_time":776000000000,"state":"active","ping":57},{"user_id":323,"name":"[NoMic]SUPERJARATEMONKEYDEATHCA","steam_id":76561197971492734,"connected_time":581000000000,"state":"active","ping":111},{"user_id":306,"name":"cracky","steam_id":76561197971365444,"connected_time":1530000000000,"state":"active","ping":70},{"user_id":294,"name":"Dat Engineer","steam_id":76561198275805954,"connected_time":2080000000000,"state":"active","ping":83},{"user_id":312,"name":"ramm","steam_id":76561199192289015,"connected_time":1156000000000,"state":"active","ping":82},{"user_id":308,"name":"Ashor","steam_id":76561198143131308,"connected_time":1508000000000,"state":"active","ping":61},{"user_id":318,"name":"pravus367","steam_id":76561198130024571,"connected_time":754000000000,"state":"active","ping":47}]},{"server_id":18,"name":"Uncletopia | San Francisco | 2 | All Maps","name_short":"sfo-2","host":"sfo-1.us.uncletopia.com","port":27025,"enabled":true,"region":"us-west","cc":"us","latitude":37.77397,"longitude":-122.4313,"reserved":0,"last_update":"0001-01-01T00:00:00Z","name_a2s":"Uncletopia | San Francisco | 2 | All Maps","protocol":17,"map":"pl_frontier_final","folder":"tf","game":"Team Fortress","app_id":440,"player_count":24,"max_players":24,"Bots":0,"server_type":"Dedicated","server_os":"Linux","password":true,"vac":true,"version":"7757534","steam_id":85568392924470000,"keywords":["nocrits","nodmgspread","payload","uncletopia"],"game_id":440,"stv_port":27026,"stv_name":"Uncletopia | San Francisco | 2 | All Maps | STV","players":[{"user_id":348,"name":"squashbone","steam_id":76561197999466442,"connected_time":2693000000000,"state":"active","ping":63},{"user_id":335,"name":"XxChocola20xX","steam_id":76561199108579557,"connected_time":4507000000000,"state":"active","ping":81},{"user_id":379,"name":"iSaH","steam_id":76561198305136202,"connected_time":465000000000,"state":"active","ping":72},{"user_id":384,"name":"DatFluffyPancake","steam_id":76561198271958697,"connected_time":227000000000,"state":"active","ping":76},{"user_id":366,"name":"An Unhappy Clown","steam_id":76561198175516514,"connected_time":1653000000000,"state":"active","ping":86},{"user_id":367,"name":"Fargo","steam_id":76561198044703931,"connected_time":1650000000000,"state":"active","ping":75},{"user_id":373,"name":"Crunchy","steam_id":76561198240523882,"connected_time":1288000000000,"state":"active","ping":59},{"user_id":369,"name":"hiko3.aug","steam_id":76561198379650478,"connected_time":1611000000000,"state":"active","ping":163},{"user_id":380,"name":"parmesan","steam_id":76561198118304061,"connected_time":457000000000,"state":"active","ping":62},{"user_id":378,"name":"vanillain","steam_id":76561198058617608,"connected_time":543000000000,"state":"active","ping":61},{"user_id":195,"name":"Drakon","steam_id":76561198078210822,"connected_time":13794000000000,"state":"active","ping":70},{"user_id":381,"name":"RapidXenophage","steam_id":76561198175149973,"connected_time":435000000000,"state":"active","ping":80},{"user_id":312,"name":"FCKGW-RHQQ2-YXRKT-8TG6W-2B7Q8","steam_id":76561197993138592,"connected_time":6149000000000,"state":"active","ping":57},{"user_id":353,"name":"chrome 2008 (she/they)","steam_id":76561198321277216,"connected_time":2617000000000,"state":"active","ping":53},{"user_id":382,"name":"charley","steam_id":76561198828238339,"connected_time":425000000000,"state":"active","ping":62},{"user_id":360,"name":"Friggy","steam_id":76561198131467867,"connected_time":2013000000000,"state":"active","ping":44},{"user_id":354,"name":"moe","steam_id":76561198929586245,"connected_time":2613000000000,"state":"active","ping":57},{"user_id":383,"name":"Burgie","steam_id":76561198066425198,"connected_time":330000000000,"state":"active","ping":66},{"user_id":375,"name":"Sadodere Grimace","steam_id":76561198008332028,"connected_time":1005000000000,"state":"active","ping":71},{"user_id":355,"name":"mechanicvirus","steam_id":76561198038161480,"connected_time":2613000000000,"state":"active","ping":69},{"user_id":344,"name":"Wavelengths (they/it)","steam_id":76561197997621320,"connected_time":4262000000000,"state":"active","ping":97},{"user_id":345,"name":"fish (2:3)","steam_id":76561198134331073,"connected_time":4261000000000,"state":"active","ping":87},{"user_id":357,"name":"epic gamer texan","steam_id":76561198199923638,"connected_time":2539000000000,"state":"active","ping":133},{"user_id":364,"name":"okimtryingnow","steam_id":76561198160086764,"connected_time":1837000000000,"state":"active","ping":66}]},{"server_id":19,"name":"Uncletopia | San Francisco | 3 | Stopwatch Beta","name_short":"sfo-3","host":"sfo-1.us.uncletopia.com","port":27035,"enabled":true,"region":"us-west","cc":"us","latitude":37.77397,"longitude":-122.4313,"reserved":0,"last_update":"0001-01-01T00:00:00Z","name_a2s":"Uncletopia | San Francisco | 3 | Stopwatch Beta","protocol":17,"map":"pl_swiftwater_final1","folder":"tf","game":"Team Fortress","app_id":440,"player_count":0,"max_players":24,"Bots":0,"server_type":"Dedicated","server_os":"Linux","password":true,"vac":true,"version":"7757534","steam_id":85568392924742824,"keywords":["nocrits","nodmgspread","payload","uncletopia"],"game_id":440,"stv_port":27036,"stv_name":"Uncletopia | San Francisco | 3 | Stopwatch Beta | STV","players":null},{"server_id":20,"name":"Uncletopia | San Francisco | 4 | Community","name_short":"sfo-4","host":"sfo-1.us.uncletopia.com","port":27045,"enabled":true,"region":"us-west","cc":"us","latitude":37.77397,"longitude":-122.4313,"reserved":0,"last_update":"0001-01-01T00:00:00Z","name_a2s":"Uncletopia | San Francisco | 4 | Community","protocol":17,"map":"workshop/cp_overgrown_rc7b.ugc503939302","folder":"tf","game":"Team Fortress","app_id":440,"player_count":0,"max_players":24,"Bots":0,"server_type":"Dedicated","server_os":"Linux","password":true,"vac":true,"version":"7757534","steam_id":85568392924742826,"keywords":["cp","nocrits","nodmgspread","uncletopia"],"game_id":440,"stv_port":27046,"stv_name":"Uncletopia | San Francisco | 4 | Community | STV","players":null},{"server_id":141,"name":"Uncletopia | Sydney | 1 | All Maps","name_short":"syd-1","host":"syd-1.au.uncletopia.com","port":27015,"enabled":true,"region":"au","cc":"au","latitude":-33.865143,"longitude":151.2099,"reserved":0,"last_update":"0001-01-01T00:00:00Z","name_a2s":"Uncletopia | Sydney | 1 | All Maps","protocol":17,"map":"ctf_2fort","folder":"tf","game":"Team Fortress","app_id":440,"player_count":7,"max_players":24,"Bots":0,"server_type":"Dedicated","server_os":"Linux","password":true,"vac":true,"version":"7757534","steam_id":85568392924470001,"keywords":["ctf","nocrits","nodmgspread","uncletopia"],"game_id":440,"stv_port":27016,"stv_name":"Uncletopia | Sydney | 1 | All Maps | STV","players":[{"user_id":58,"name":"Worst Sniper","steam_id":76561198025733081,"connected_time":852000000000,"state":"active","ping":69},{"user_id":34,"name":"Daniel Chong","steam_id":76561199009189725,"connected_time":3516000000000,"state":"active","ping":59},{"user_id":35,"name":"Lord Oink","steam_id":76561198125237921,"connected_time":3481000000000,"state":"active","ping":38},{"user_id":56,"name":"mase chong(not a snitch)","steam_id":76561199205171109,"connected_time":1267000000000,"state":"active","ping":67},{"user_id":59,"name":"KeeperOfBalance","steam_id":76561198028070089,"connected_time":797000000000,"state":"active","ping":85},{"user_id":62,"name":"Max!","steam_id":76561198100740818,"connected_time":453000000000,"state":"active","ping":60},{"user_id":63,"name":"NeonOn","steam_id":76561198321595238,"connected_time":334000000000,"state":"active","ping":60}]},{"server_id":123,"name":"Uncletopia | Sydney | 2 | All Maps","name_short":"syd-2","host":"syd-1.au.uncletopia.com","port":27025,"enabled":true,"region":"au","cc":"au","latitude":-33.865143,"longitude":151.2099,"reserved":0,"last_update":"0001-01-01T00:00:00Z","name_a2s":"Uncletopia | Sydney | 2 | All Maps","protocol":17,"map":"cp_mossrock","folder":"tf","game":"Team Fortress","app_id":440,"player_count":24,"max_players":24,"Bots":0,"server_type":"Dedicated","server_os":"Linux","password":true,"vac":true,"version":"7757534","steam_id":85568392924470002,"keywords":["cp","nocrits","nodmgspread","uncletopia"],"game_id":440,"stv_port":27026,"stv_name":"Uncletopia | Sydney | 2 | All Maps | STV","players":[{"user_id":192,"name":"Nenguu","steam_id":76561198243952386,"connected_time":1300000000000,"state":"active","ping":59},{"user_id":23,"name":"Jamie2Cool","steam_id":76561198155695809,"connected_time":13675000000000,"state":"active","ping":84},{"user_id":159,"name":"Brooklyn","steam_id":76561198160577231,"connected_time":4662000000000,"state":"active","ping":60},{"user_id":202,"name":"Oysenberry","steam_id":76561198125443335,"connected_time":597000000000,"state":"active","ping":32},{"user_id":135,"name":"TheDoctor30","steam_id":76561198433686866,"connected_time":6792000000000,"state":"active","ping":102},{"user_id":203,"name":"Flat White","steam_id":76561198410190974,"connected_time":280000000000,"state":"active","ping":89},{"user_id":174,"name":"Cup","steam_id":76561198038485845,"connected_time":2977000000000,"state":"active","ping":30},{"user_id":125,"name":"Skidallion","steam_id":76561198083922206,"connected_time":7587000000000,"state":"active","ping":71},{"user_id":87,"name":"Mail Bomb Victim","steam_id":76561198284533039,"connected_time":11047000000000,"state":"active","ping":51},{"user_id":164,"name":"sf/k","steam_id":76561198047758776,"connected_time":4007000000000,"state":"active","ping":39},{"user_id":199,"name":"Eugene (built different)","steam_id":76561198079108027,"connected_time":721000000000,"state":"active","ping":53},{"user_id":175,"name":"ttv/tfwnocatgirlgf :)","steam_id":76561198127508905,"connected_time":2817000000000,"state":"active","ping":36},{"user_id":204,"name":"toadload","steam_id":76561197995852421,"connected_time":228000000000,"state":"active","ping":58},{"user_id":177,"name":"Marzell","steam_id":76561198151276153,"connected_time":2763000000000,"state":"active","ping":93},{"user_id":200,"name":"Shadow Puppeteer","steam_id":76561198151121997,"connected_time":714000000000,"state":"active","ping":72},{"user_id":190,"name":"whiteshaq","steam_id":76561198131988811,"connected_time":1519000000000,"state":"active","ping":75},{"user_id":196,"name":"Kitty Person","steam_id":76561198798992121,"connected_time":1177000000000,"state":"active","ping":136},{"user_id":178,"name":"soupy","steam_id":76561198073734936,"connected_time":2306000000000,"state":"active","ping":85},{"user_id":185,"name":"Blash","steam_id":76561198833483297,"connected_time":1608000000000,"state":"active","ping":62},{"user_id":167,"name":"Khonshu","steam_id":76561198386345535,"connected_time":3864000000000,"state":"active","ping":68},{"user_id":205,"name":"Goldsrc","steam_id":76561198043416442,"connected_time":119000000000,"state":"active","ping":83},{"user_id":179,"name":"Genuline","steam_id":76561198126426787,"connected_time":2160000000000,"state":"active","ping":54},{"user_id":161,"name":"Critz Eastwood","steam_id":76561198050094688,"connected_time":4110000000000,"state":"active","ping":60},{"user_id":183,"name":"tom :D","steam_id":76561198073393715,"connected_time":1625000000000,"state":"active","ping":97}]},{"server_id":395,"name":"Uncletopia | Sydney | 3 | All Maps","name_short":"syd-3","host":"syd-1.au.uncletopia.com","port":27035,"enabled":true,"region":"au","cc":"au","latitude":-33.865143,"longitude":151.2099,"reserved":0,"last_update":"0001-01-01T00:00:00Z","name_a2s":"Uncletopia | Sydney | 3 | All Maps","protocol":17,"map":"pl_swiftwater_final1","folder":"tf","game":"Team Fortress","app_id":440,"player_count":5,"max_players":24,"Bots":0,"server_type":"Dedicated","server_os":"Linux","password":true,"vac":true,"version":"7757534","steam_id":85568392925194467,"keywords":["nocrits","nodmgspread","payload","uncletopia"],"game_id":440,"stv_port":27036,"stv_name":"Uncletopia | Sydney | 3 | All Maps | STV","players":[{"user_id":3,"name":"Passance","steam_id":76561198156058724,"connected_time":1147000000000,"state":"active","ping":71},{"user_id":4,"name":"All 5 Spice Girls","steam_id":76561198155935234,"connected_time":1092000000000,"state":"active","ping":168},{"user_id":5,"name":"K41","steam_id":76561198146207192,"connected_time":1062000000000,"state":"active","ping":38},{"user_id":6,"name":"suphindasaengxrun5","steam_id":76561199263161557,"connected_time":959000000000,"state":"active","ping":163},{"user_id":7,"name":"bluebonkbloop","steam_id":76561198998430585,"connected_time":681000000000,"state":"active","ping":93}]},{"server_id":396,"name":"Uncletopia | Sydney | 4 | All Maps","name_short":"syd-4","host":"syd-1.au.uncletopia.com","port":27045,"enabled":true,"region":"au","cc":"au","latitude":-33.865143,"longitude":151.2099,"reserved":0,"last_update":"0001-01-01T00:00:00Z","name_a2s":"Uncletopia | Sydney | 4 | All Maps","protocol":17,"map":"koth_highpass","folder":"tf","game":"Team Fortress","app_id":440,"player_count":0,"max_players":24,"Bots":0,"server_type":"Dedicated","server_os":"Linux","password":true,"vac":true,"version":"7757534","steam_id":85568392925397958,"keywords":["cp","nocrits","nodmgspread","uncletopia"],"game_id":440,"stv_port":27046,"stv_name":"Uncletopia | Sydney | 4 | All Maps | STV","players":null},{"server_id":58,"name":"Uncletopia | Sydney | 5 | Stopwatch Beta","name_short":"syd-5","host":"syd-1.au.uncletopia.com","port":27055,"enabled":true,"region":"au","cc":"au","latitude":-33.865143,"longitude":151.2099,"reserved":0,"last_update":"0001-01-01T00:00:00Z","name_a2s":"Uncletopia | Sydney | 5 | Stopwatch Beta","protocol":17,"map":"koth_cascade","folder":"tf","game":"Team Fortress","app_id":440,"player_count":0,"max_players":24,"Bots":0,"server_type":"Dedicated","server_os":"Linux","password":true,"vac":true,"version":"7757534","steam_id":85568392925397959,"keywords":["cp","nocrits","nodmgspread","uncletopia"],"game_id":440,"stv_port":27056,"stv_name":"Uncletopia | Sydney | 5 | Stopwatch Beta | STV","players":null},{"server_id":59,"name":"Uncletopia | Sydney | 6 | Community","name_short":"syd-6","host":"syd-1.au.uncletopia.com","port":27065,"enabled":true,"region":"au","cc":"au","latitude":-33.865143,"longitude":151.2099,"reserved":0,"last_update":"0001-01-01T00:00:00Z","name_a2s":"Uncletopia | Sydney | 6 | Community","protocol":17,"map":"workshop/koth_ramjam_rc1.ugc459778887","folder":"tf","game":"Team Fortress","app_id":440,"player_count":0,"max_players":24,"Bots":0,"server_type":"Dedicated","server_os":"Linux","password":true,"vac":true,"version":"7757534","steam_id":85568392925397960,"keywords":["cp","nocrits","nodmgspread","uncletopia"],"game_id":440,"stv_port":27066,"stv_name":"Uncletopia | Sydney | 6 | Community | STV","players":null},{"server_id":49,"name":"Uncletopia | Warsaw | 1 | All Maps","name_short":"waw-1","host":"waw-1.pl.uncletopia.com","port":27015,"enabled":true,"region":"eu","cc":"pl","latitude":52.2297,"longitude":21.017532,"reserved":0,"last_update":"0001-01-01T00:00:00Z","name_a2s":"","protocol":0,"map":"","folder":"","game":"","app_id":0,"player_count":0,"max_players":0,"Bots":0,"server_type":"","server_os":"","password":false,"vac":false,"version":"","steam_id":0,"keywords":null,"game_id":0,"stv_port":0,"stv_name":"","players":null},{"server_id":50,"name":"Uncletopia | Warsaw | 2 | All Maps","name_short":"waw-2","host":"waw-1.pl.uncletopia.com","port":27025,"enabled":true,"region":"eu","cc":"pl","latitude":52.2297,"longitude":21.017532,"reserved":0,"last_update":"0001-01-01T00:00:00Z","name_a2s":"Uncletopia | Warsaw | 2 | All Maps","protocol":17,"map":"koth_viaduct","folder":"tf","game":"Team Fortress","app_id":440,"player_count":0,"max_players":24,"Bots":0,"server_type":"Dedicated","server_os":"Linux","password":true,"vac":true,"version":"7757534","steam_id":85568392925397851,"keywords":["cp","nocrits","nodmgspread","uncletopia"],"game_id":440,"stv_port":27026,"stv_name":"Uncletopia | Warsaw | 2 | All Maps | STV","players":null},{"server_id":51,"name":"Uncletopia | Warsaw | 3 | All Maps","name_short":"waw-3","host":"waw-1.pl.uncletopia.com","port":27035,"enabled":true,"region":"eu","cc":"pl","latitude":52.2297,"longitude":21.017532,"reserved":0,"last_update":"0001-01-01T00:00:00Z","name_a2s":"Uncletopia | Warsaw | 3 | All Maps","protocol":17,"map":"pl_badwater","folder":"tf","game":"Team Fortress","app_id":440,"player_count":0,"max_players":24,"Bots":0,"server_type":"Dedicated","server_os":"Linux","password":true,"vac":true,"version":"7757534","steam_id":85568392925397852,"keywords":["nocrits","nodmgspread","payload","uncletopia"],"game_id":440,"stv_port":27036,"stv_name":"Uncletopia | Warsaw | 3 | All Maps | STV","players":null},{"server_id":52,"name":"Uncletopia | Warsaw | 4 | All Maps","name_short":"waw-4","host":"waw-1.pl.uncletopia.com","port":27045,"enabled":true,"region":"eu","cc":"pl","latitude":52.2297,"longitude":21.017532,"reserved":0,"last_update":"0001-01-01T00:00:00Z","name_a2s":"Uncletopia | Warsaw | 4 | All Maps","protocol":17,"map":"koth_lakeside_final","folder":"tf","game":"Team Fortress","app_id":440,"player_count":0,"max_players":24,"Bots":0,"server_type":"Dedicated","server_os":"Linux","password":true,"vac":true,"version":"7757534","steam_id":85568392925397853,"keywords":["cp","nocrits","nodmgspread","uncletopia"],"game_id":440,"stv_port":27046,"stv_name":"Uncletopia | Warsaw | 4 | All Maps | STV","players":null},{"server_id":53,"name":"Uncletopia | Warsaw | 5 | Stopwatch Beta","name_short":"waw-5","host":"waw-1.pl.uncletopia.com","port":27055,"enabled":true,"region":"eu","cc":"pl","latitude":52.2297,"longitude":21.017532,"reserved":0,"last_update":"0001-01-01T00:00:00Z","name_a2s":"Uncletopia | Warsaw | 5 | Stopwatch Beta","protocol":17,"map":"pl_borneo","folder":"tf","game":"Team Fortress","app_id":440,"player_count":0,"max_players":24,"Bots":0,"server_type":"Dedicated","server_os":"Linux","password":true,"vac":true,"version":"7757534","steam_id":85568392925397854,"keywords":["nocrits","nodmgspread","payload","uncletopia"],"game_id":440,"stv_port":27056,"stv_name":"Uncletopia | Warsaw | 5 | Stopwatch Beta | STV","players":null},{"server_id":54,"name":"Uncletopia | Warsaw | 6 | Community","name_short":"waw-6","host":"waw-1.pl.uncletopia.com","port":27065,"enabled":true,"region":"eu","cc":"pl","latitude":52.2297,"longitude":21.017532,"reserved":0,"last_update":"0001-01-01T00:00:00Z","name_a2s":"Uncletopia | Warsaw | 6 | Community","protocol":17,"map":"koth_lakeside_final","folder":"tf","game":"Team Fortress","app_id":440,"player_count":0,"max_players":24,"Bots":0,"server_type":"Dedicated","server_os":"Linux","password":true,"vac":true,"version":"7757534","steam_id":85568392925397856,"keywords":["cp","nocrits","nodmgspread","uncletopia"],"game_id":440,"stv_port":27066,"stv_name":"Uncletopia | Warsaw | 6 | Community | STV","players":null}]}