{"status":true,"message":"","result":[{"server_id":9,"name":"Uncletopia | Atlanta | 1 | All Maps","name_short":"atl-1","host":"atl-1.us.uncletopia.com","port":27015,"enabled":true,"region":"us-east","cc":"us","latitude":33.753746,"longitude":-84.38633,"reserved":0,"last_update":"0001-01-01T00:00:00Z","name_a2s":"Uncletopia | Atlanta | 1 | All Maps","protocol":17,"map":"koth_lakeside_final","folder":"tf","game":"Team Fortress","app_id":440,"player_count":8,"max_players":24,"Bots":0,"server_type":"Dedicated","server_os":"Linux","password":true,"vac":true,"version":"7961495","steam_id":85568392924469982,"keywords":["cp","nocrits","nodmgspread","uncletopia"],"game_id":440,"stv_port":27016,"stv_name":"Uncletopia | Atlanta | 1 | All Maps | STV","players":[{"user_id":5,"name":"Typh","steam_id":76561198315344079,"connected_time":1451000000000,"state":"active","ping":75},{"user_id":6,"name":"bleach65","steam_id":76561198115270571,"connected_time":1168000000000,"state":"active","ping":75},{"user_id":15,"name":"SAntOrGrav","steam_id":76561199444957686,"connected_time":303000000000,"state":"active","ping":128},{"user_id":12,"name":"Porgie","steam_id":76561198336480370,"connected_time":421000000000,"state":"active","ping":90},{"user_id":10,"name":"rockfantic","steam_id":76561199205066271,"connected_time":576000000000,"state":"active","ping":65},{"user_id":13,"name":"squaggles!","steam_id":76561197994995011,"connected_time":358000000000,"state":"active","ping":30},{"user_id":18,"name":"101_the_Robot","steam_id":76561198331039848,"connected_time":37000000000,"state":"active","ping":124},{"user_id":17,"name":"Bean King","steam_id":76561198393621940,"connected_time":60000000000,"state":"spawning","ping":45}]},{"server_id":104,"name":"Uncletopia | Atlanta | 2 | All Maps","name_short":"atl-2","host":"atl-1.us.uncletopia.com","port":27025,"enabled":true,"region":"us-east","cc":"us","latitude":33.753746,"longitude":-84.38633,"reserved":0,"last_update":"0001-01-01T00:00:00Z","name_a2s":"Uncletopia | Atlanta | 2 | All Maps","protocol":17,"map":"koth_cascade","folder":"tf","game":"Team Fortress","app_id":440,"player_count":0,"max_players":24,"Bots":0,"server_type":"Dedicated","server_os":"Linux","password":true,"vac":true,"version":"7961495","steam_id":85568392924469983,"keywords":["cp","nocrits","nodmgspread","uncletopia"],"game_id":440,"stv_port":27026,"stv_name":"Uncletopia | Atlanta | 2 | All Maps | STV","players":null},{"server_id":400,"name":"Uncletopia | Atlanta | 3 | Stopwatch","name_short":"atl-3","host":"atl-1.us.uncletopia.com","port":27035,"enabled":true,"region":"us-east","cc":"us","latitude":33.753746,"longitude":-84.38633,"reserved":0,"last_update":"0001-01-01T00:00:00Z","name_a2s":"Uncletopia | Atlanta | 3 | Stopwatch","protocol":17,"map":"pl_badwater","folder":"tf","game":"Team Fortress","app_id":440,"player_count":0,"max_players":24,"Bots":0,"server_type":"Dedicated","server_os":"Linux","password":true,"vac":true,"version":"7961495","steam_id":85568392924515187,"keywords":["nocrits","nodmgspread","payload","uncletopia"],"game_id":440,"stv_port":27036,"stv_name":"Uncletopia | Atlanta | 3 | Stopwatch | STV","players":null},{"server_id":401,"name":"Uncletopia | Atlanta | 4 | Community","name_short":"atl-4","host":"atl-1.us.uncletopia.com","port":27045,"enabled":true,"region":"us-east","cc":"us","latitude":33.753746,"longitude":-84.38633,"reserved":0,"last_update":"0001-01-01T00:00:00Z","name_a2s":"Uncletopia | Atlanta | 4 | Community","protocol":17,"map":"workshop/koth_bagel_rc6.ugc2514036946","folder":"tf","game":"Team Fortress","app_id":440,"player_count":0,"max_players":24,"Bots":0,"server_type":"Dedicated","server_os":"Linux","password":true,"vac":true,"version":"7961495","steam_id":85568392924515188,"keywords":["cp","nocrits","nodmgspread","uncletopia"],"game_id":440,"stv_port":27046,"stv_name":"Uncletopia | Atlanta | 4 | Community | STV","players":null},{"server_id":2,"name":"Uncletopia | Chicago | 1 | All Maps","name_short":"chi-1","host":"chi-1.us.uncletopia.com","port":27015,"enabled":true,"region":"us-central","cc":"us","latitude":41.881832,"longitude":-87.62318,"reserved":0,"last_update":"0001-01-01T00:00:00Z","name_a2s":"Uncletopia | Chicago | 1 | All Maps","protocol":17,"map":"pl_barnblitz","folder":"tf","game":"Team Fortress","app_id":440,"player_count":24,"max_players":24,"Bots":0,"server_type":"Dedicated","server_os":"Linux","password":true,"vac":true,"version":"7961495","steam_id":85568392924469984,"keywords":["nocrits","nodmgspread","payload","uncletopia"],"game_id":440,"stv_port":27016,"stv_name":"Uncletopia | Chicago | 1 | All Maps | STV","players":[{"user_id":14,"name":"the swarm","steam_id":76561199118569153,"connected_time":4523000000000,"state":"active","ping":54},{"user_id":66,"name":"DuckKey","steam_id":76561198904477889,"connected_time":194000000000,"state":"active","ping":52},{"user_id":56,"name":"robe","steam_id":76561198238166694,"connected_time":1344000000000,"state":"active","ping":53},{"user_id":17,"name":"HOLY SHIT ITS TITTY LAND!!!!!!","steam_id":76561199389283507,"connected_time":3882000000000,"state":"active","ping":70},{"user_id":49,"name":"Amoxicilina","steam_id":76561198168486429,"connected_time":2529000000000,"state":"active","ping":115},{"user_id":53,"name":"ImWishin","steam_id":76561198277198222,"connected_time":1836000000000,"state":"active","ping":65},{"user_id":22,"name":"JustADuck","steam_id":76561198311260943,"connected_time":3344000000000,"state":"active","ping":71},{"user_id":63,"name":"pinhead","steam_id":76561198371896626,"connected_time":314000000000,"state":"active","ping":102},{"user_id":59,"name":"Spectre","steam_id":76561198037535169,"connected_time":1249000000000,"state":"active","ping":77},{"user_id":52,"name":"Prometheus Jones","steam_id":76561198059087964,"connected_time":2205000000000,"state":"active","ping":57},{"user_id":26,"name":"Re-Loaded_Game","steam_id":76561199097136515,"connected_time":3246000000000,"state":"active","ping":114},{"user_id":54,"name":"Makka","steam_id":76561198272319281,"connected_time":1761000000000,"state":"active","ping":143},{"user_id":64,"name":"andrewthenelson","steam_id":76561199468895050,"connected_time":292000000000,"state":"active","ping":80},{"user_id":61,"name":"BabyPunter","steam_id":76561199443211026,"connected_time":1140000000000,"state":"active","ping":66},{"user_id":60,"name":"ุ","steam_id":76561198170624701,"connected_time":1198000000000,"state":"active","ping":74},{"user_id":31,"name":"Beans","steam_id":76561198960131934,"connected_time":3211000000000,"state":"active","ping":121},{"user_id":62,"name":"Ventastega","steam_id":76561197999366317,"connected_time":1001000000000,"state":"active","ping":75},{"user_id":48,"name":"HARRY B HOLE","steam_id":76561198842067238,"connected_time":2682000000000,"state":"active","ping":81},{"user_id":39,"name":"rat eater","steam_id":76561199216874750,"connected_time":3129000000000,"state":"active","ping":60},{"user_id":51,"name":"Shirt","steam_id":76561198082386564,"connected_time":2371000000000,"state":"active","ping":57},{"user_id":58,"name":"B.","steam_id":76561198040445907,"connected_time":1282000000000,"state":"active","ping":74},{"user_id":46,"name":"RusticCarp42989","steam_id":76561198361151865,"connected_time":2807000000000,"state":"active","ping":120},{"user_id":57,"name":"Big Phonius","steam_id":76561199092395311,"connected_time":1310000000000,"state":"active","ping":63},{"user_id":65,"name":"Maxwell Gaming","steam_id":76561199100160919,"connected_time":221000000000,"state":"active","ping":89}]},{"server_id":106,"name":"Uncletopia | Chicago | 2 | All Maps","name_short":"chi-2","host":"chi-1.us.uncletopia.com","port":27025,"enabled":true,"region":"us-central","cc":"us","latitude":41.881832,"longitude":-87.62318,"reserved":0,"last_update":"0001-01-01T00:00:00Z","name_a2s":"Uncletopia | Chicago | 2 | All Maps","protocol":17,"map":"pl_snowycoast","folder":"tf","game":"Team Fortress","app_id":440,"player_count":24,"max_players":24,"Bots":0,"server_type":"Dedicated","server_os":"Linux","password":true,"vac":true,"version":"7961495","steam_id":85568392924469985,"keywords":["nocrits","nodmgspread","payload","uncletopia"],"game_id":440,"stv_port":27026,"stv_name":"Uncletopia | Chicago | 2 | All Maps | STV","players":[{"user_id":165,"name":"meth ape","steam_id":76561199110579692,"connected_time":949000000000,"state":"active","ping":70},{"user_id":166,"name":"UzedPickle","steam_id":76561198005513760,"connected_time":938000000000,"state":"active","ping":77},{"user_id":178,"name":"guy who loves eating cigarettes","steam_id":76561198094495920,"connected_time":265000000000,"state":"active","ping":30},{"user_id":146,"name":"Redmesa","steam_id":76561199242529661,"connected_time":2975000000000,"state":"active","ping":72},{"user_id":55,"name":"\u003e:J","steam_id":76561198353456379,"connected_time":11312000000000,"state":"active","ping":71},{"user_id":184,"name":"Nut Commander","steam_id":76561198065989058,"connected_time":59000000000,"state":"active","ping":54},{"user_id":51,"name":"c","steam_id":76561198881665250,"connected_time":12738000000000,"state":"active","ping":90},{"user_id":174,"name":"Darkk","steam_id":76561198020460220,"connected_time":659000000000,"state":"active","ping":69},{"user_id":163,"name":"LerN","steam_id":76561198083463877,"connected_time":983000000000,"state":"active","ping":46},{"user_id":74,"name":"Sonic Mania 2 [100 Real Leaked","steam_id":76561198062764039,"connected_time":9740000000000,"state":"active","ping":164},{"user_id":172,"name":"Rat Poison","steam_id":76561199089290128,"connected_time":742000000000,"state":"active","ping":156},{"user_id":170,"name":"aureli","steam_id":76561199031411031,"connected_time":829000000000,"state":"active","ping":70},{"user_id":179,"name":"MR SKELTAL","steam_id":76561198031089598,"connected_time":239000000000,"state":"active","ping":69},{"user_id":154,"name":"Mr. Cheesey","steam_id":76561198153462183,"connected_time":2635000000000,"state":"active","ping":61},{"user_id":164,"name":"Letters","steam_id":76561198035508148,"connected_time":967000000000,"state":"active","ping":68},{"user_id":156,"name":"fresco","steam_id":76561199101199477,"connected_time":2402000000000,"state":"active","ping":58},{"user_id":167,"name":"c64guy","steam_id":76561198023022744,"connected_time":935000000000,"state":"active","ping":58},{"user_id":168,"name":"-W3E- grim10465","steam_id":76561198045698581,"connected_time":929000000000,"state":"active","ping":45},{"user_id":183,"name":"Bussy Bandit","steam_id":76561198034028769,"connected_time":85000000000,"state":"active","ping":60},{"user_id":181,"name":"Soloman Gumball","steam_id":76561198171077434,"connected_time":216000000000,"state":"active","ping":131},{"user_id":84,"name":"meowfang","steam_id":76561198123056791,"connected_time":9054000000000,"state":"active","ping":73},{"user_id":182,"name":"Westwood","steam_id":76561199387699252,"connected_time":195000000000,"state":"active","ping":87},{"user_id":180,"name":"godsdoctor","steam_id":76561198055010413,"connected_time":229000000000,"state":"active","ping":126},{"user_id":125,"name":"ratware","steam_id":76561198802653760,"connected_time":5263000000000,"state":"active","ping":111}]},{"server_id":402,"name":"Uncletopia | Chicago | 3 | All Maps","name_short":"chi-3","host":"chi-1.us.uncletopia.com","port":27035,"enabled":true,"region":"us-central","cc":"us","latitude":41.881832,"longitude":-87.62318,"reserved":0,"last_update":"0001-01-01T00:00:00Z","name_a2s":"Uncletopia | Chicago | 3 | All Maps","protocol":17,"map":"cp_process_final","folder":"tf","game":"Team Fortress","app_id":440,"player_count":24,"max_players":24,"Bots":0,"server_type":"Dedicated","server_os":"Linux","password":true,"vac":true,"version":"7961495","steam_id":85568392924515191,"keywords":["cp","nocrits","nodmgspread","uncletopia"],"game_id":440,"stv_port":27036,"stv_name":"Uncletopia | Chicago | 3 | All Maps | STV","players":[{"user_id":154,"name":"SalteaVT","steam_id":76561198072050521,"connected_time":497000000000,"state":"active","ping":79},{"user_id":126,"name":"MadGaming","steam_id":76561199047549619,"connected_time":2549000000000,"state":"active","ping":82},{"user_id":133,"name":"Pengi","steam_id":76561198333097000,"connected_time":2232000000000,"state":"active","ping":38},{"user_id":138,"name":"fasterbum","steam_id":76561198142577444,"connected_time":1624000000000,"state":"active","ping":53},{"user_id":139,"name":"Elias","steam_id":76561198106431732,"connected_time":1573000000000,"state":"active","ping":33},{"user_id":121,"name":"Dim","steam_id":76561198061411324,"connected_time":2618000000000,"state":"active","ping":76},{"user_id":132,"name":"󠁳 ⁧fortnite56k","steam_id":76561198404564240,"connected_time":2349000000000,"state":"active","ping":61},{"user_id":147,"name":"Joe the Hooligan","steam_id":76561198814429079,"connected_time":1205000000000,"state":"active","ping":49},{"user_id":148,"name":"Fredrick","steam_id":76561197981419964,"connected_time":1168000000000,"state":"active","ping":69},{"user_id":137,"name":"MrKokonut","steam_id":76561198879575825,"connected_time":1689000000000,"state":"active","ping":59},{"user_id":140,"name":"Takeover","steam_id":76561197996081461,"connected_time":1573000000000,"state":"active","ping":61},{"user_id":152,"name":"Pop","steam_id":76561199012562851,"connected_time":1049000000000,"state":"active","ping":85},{"user_id":86,"name":"conner","steam_id":76561198052911241,"connected_time":5491000000000,"state":"active","ping":74},{"user_id":108,"name":"fugkin bnnuy","steam_id":76561199056190473,"connected_time":3765000000000,"state":"active","ping":71},{"user_id":144,"name":"JetZ","steam_id":76561199122488957,"connected_time":1419000000000,"state":"active","ping":66},{"user_id":134,"name":"Sharky","steam_id":76561198032663494,"connected_time":1943000000000,"state":"active","ping":64},{"user_id":149,"name":"HUESO","steam_id":76561198276383681,"connected_time":1159000000000,"state":"active","ping":97},{"user_id":150,"name":"Red Physical","steam_id":76561198151864382,"connected_time":1119000000000,"state":"active","ping":102},{"user_id":142,"name":"StormyBoyo","steam_id":76561198273482774,"connected_time":1562000000000,"state":"active","ping":86},{"user_id":151,"name":"Wendy's Brand Trash","steam_id":76561198328346670,"connected_time":1118000000000,"state":"active","ping":43},{"user_id":116,"name":"Dumpling","steam_id":76561198062763756,"connected_time":3266000000000,"state":"active","ping":55},{"user_id":122,"name":"The Caretaker","steam_id":76561198125241411,"connected_time":2618000000000,"state":"active","ping":111},{"user_id":131,"name":"IAmAProfesonal","steam_id":76561199171858953,"connected_time":2389000000000,"state":"active","ping":53},{"user_id":156,"name":"majima construction employee","steam_id":76561198441246401,"connected_time":423000000000,"state":"active","ping":58}]},{"server_id":403,"name":"Uncletopia | Chicago | 4 | All Maps","name_short":"chi-4","host":"chi-1.us.uncletopia.com","port":27045,"enabled":true,"region":"us-central","cc":"us","latitude":41.881832,"longitude":-87.62318,"reserved":0,"last_update":"0001-01-01T00:00:00Z","name_a2s":"Uncletopia | Chicago | 4 | All Maps","protocol":17,"map":"koth_highpass","folder":"tf","game":"Team Fortress","app_id":440,"player_count":0,"max_players":24,"Bots":0,"server_type":"Dedicated","server_os":"Linux","password":true,"vac":true,"version":"7961495","steam_id":85568392924515193,"keywords":["cp","nocrits","nodmgspread","uncletopia"],"game_id":440,"stv_port":27046,"stv_name":"Uncletopia | Chicago | 4 | All Maps | STV","players":null},{"server_id":36,"name":"Uncletopia | Chicago | 5 | All Maps","name_short":"chi-5","host":"chi-2.us.uncletopia.com","port":27015,"enabled":true,"region":"us-central","cc":"us","latitude":41.881832,"longitude":-87.62318,"reserved":0,"last_update":"0001-01-01T00:00:00Z","name_a2s":"Uncletopia | Chicago | 5 | All Maps","protocol":17,"map":"koth_viaduct","folder":"tf","game":"Team Fortress","app_id":440,"player_count":0,"max_players":24,"Bots":0,"server_type":"Dedicated","server_os":"Linux","password":true,"vac":true,"version":"7961495","steam_id":85568392924866362,"keywords":["cp","nocrits","nodmgspread","uncletopia"],"game_id":440,"stv_port":27016,"stv_name":"Uncletopia | Chicago | 5 | All Maps | STV","players":null},{"server_id":37,"name":"Uncletopia | Chicago | 6 | All Maps","name_short":"chi-6","host":"chi-2.us.uncletopia.com","port":27025,"enabled":true,"region":"us-central","cc":"us","latitude":41.881832,"longitude":-87.62318,"reserved":0,"last_update":"0001-01-01T00:00:00Z","name_a2s":"Uncletopia | Chicago | 6 | All Maps","protocol":17,"map":"pl_swiftwater_final1","folder":"tf","game":"Team Fortress","app_id":440,"player_count":23,"max_players":24,"Bots":0,"server_type":"Dedicated","server_os":"Linux","password":true,"vac":true,"version":"7961495","steam_id":85568392924866363,"keywords":["nocrits","nodmgspread","payload","uncletopia"],"game_id":440,"stv_port":27026,"stv_name":"Uncletopia | Chicago | 6 | All Maps | STV","players":[{"user_id":90,"name":"Andrew Weber","steam_id":76561199359977174,"connected_time":1030000000000,"state":"active","ping":93},{"user_id":66,"name":"Dalvarious","steam_id":76561198052771928,"connected_time":2900000000000,"state":"active","ping":71},{"user_id":84,"name":"Rennsellaer","steam_id":76561198096207580,"connected_time":1649000000000,"state":"active","ping":101},{"user_id":86,"name":"TiredBonz","steam_id":76561199445629071,"connected_time":1368000000000,"state":"active","ping":61},{"user_id":64,"name":"Ta5K","steam_id":76561198939558155,"connected_time":3028000000000,"state":"active","ping":45},{"user_id":97,"name":"LincolnShio_","steam_id":76561198831123552,"connected_time":528000000000,"state":"active","ping":65},{"user_id":98,"name":"+03e","steam_id":76561198147970180,"connected_time":515000000000,"state":"active","ping":46},{"user_id":99,"name":"pandora","steam_id":76561198347366984,"connected_time":504000000000,"state":"active","ping":91},{"user_id":14,"name":"Tabby!!!!","steam_id":76561198018288153,"connected_time":6383000000000,"state":"active","ping":43},{"user_id":94,"name":"Julio","steam_id":76561198272237516,"connected_time":752000000000,"state":"active","ping":65},{"user_id":16,"name":"kolkon","steam_id":76561198073360267,"connected_time":6125000000000,"state":"active","ping":88},{"user_id":63,"name":"Gargathor the Entity Catcher","steam_id":76561198189429665,"connected_time":3034000000000,"state":"active","ping":76},{"user_id":87,"name":"Lv3 Kobold Shadow Sorcerer","steam_id":76561198042068995,"connected_time":1296000000000,"state":"active","ping":94},{"user_id":83,"name":"not butter","steam_id":76561198100503104,"connected_time":1896000000000,"state":"active","ping":101},{"user_id":79,"name":"MaxTgaX","steam_id":76561198046287539,"connected_time":2083000000000,"state":"active","ping":58},{"user_id":100,"name":"rice white","steam_id":76561198320732910,"connected_time":104000000000,"state":"active","ping":75},{"user_id":89,"name":"The Great Eagle Scourge of 1822","steam_id":76561198325086209,"connected_time":1090000000000,"state":"active","ping":112},{"user_id":95,"name":"swan","steam_id":76561198012569200,"connected_time":537000000000,"state":"active","ping":73},{"user_id":65,"name":"reis","steam_id":76561199232952016,"connected_time":2972000000000,"state":"active","ping":180},{"user_id":27,"name":"Okpar","steam_id":76561199221067945,"connected_time":5812000000000,"state":"active","ping":102},{"user_id":42,"name":"I shit myself","steam_id":76561199174310124,"connected_time":4689000000000,"state":"active","ping":68},{"user_id":91,"name":"phroliax","steam_id":76561198207075529,"connected_time":892000000000,"state":"active","ping":85},{"user_id":96,"name":"austrian guy","steam_id":76561199147181622,"connected_time":537000000000,"state":"active","ping":124}]},{"server_id":38,"name":"Uncletopia | Chicago | 7 | Stopwatch","name_short":"chi-7","host":"chi-2.us.uncletopia.com","port":27035,"enabled":true,"region":"us-central","cc":"us","latitude":41.881832,"longitude":-87.62318,"reserved":0,"last_update":"0001-01-01T00:00:00Z","name_a2s":"Uncletopia | Chicago | 7 | Stopwatch","protocol":17,"map":"workshop/koth_product_final.ugc454272353","folder":"tf","game":"Team Fortress","app_id":440,"player_count":0,"max_players":24,"Bots":0,"server_type":"Dedicated","server_os":"Linux","password":true,"vac":true,"version":"7961495","steam_id":85568392924866364,"keywords":["cp","nocrits","nodmgspread","uncletopia"],"game_id":440,"stv_port":27036,"stv_name":"Uncletopia | Chicago | 7 | Stopwatch | STV","players":null},{"server_id":39,"name":"Uncletopia | Chicago | 8 | Community","name_short":"chi-8","host":"chi-2.us.uncletopia.com","port":27045,"enabled":true,"region":"us-central","cc":"us","latitude":41.881832,"longitude":-87.62318,"reserved":0,"last_update":"0001-01-01T00:00:00Z","name_a2s":"Uncletopia | Chicago | 8 | Community","protocol":17,"map":"pl_pier","folder":"tf","game":"Team Fortress","app_id":440,"player_count":0,"max_players":24,"Bots":0,"server_type":"Dedicated","server_os":"Linux","password":true,"vac":true,"version":"7961495","steam_id":85568392924866365,"keywords":["nocrits","nodmgspread","payload","uncletopia"],"game_id":440,"stv_port":27046,"stv_name":"Uncletopia | Chicago | 8 | Community | STV","players":null},{"server_id":8,"name":"Uncletopia | Dallas | 1 | All Maps","name_short":"dal-1","host":"dal-1.us.uncletopia.com","port":27015,"enabled":true,"region":"us-central","cc":"us","latitude":32.779167,"longitude":-96.80889,"reserved":0,"last_update":"0001-01-01T00:00:00Z","name_a2s":"Uncletopia | Dallas | 1 | All Maps","protocol":17,"map":"pl_frontier_final","folder":"tf","game":"Team Fortress","app_id":440,"player_count":24,"max_players":24,"Bots":0,"server_type":"Dedicated","server_os":"Linux","password":true,"vac":true,"version":"7961495","steam_id":85568392924469986,"keywords":["nocrits","nodmgspread","payload","uncletopia"],"game_id":440,"stv_port":27016,"stv_name":"Uncletopia | Dallas | 1 | All Maps | STV","players":[{"user_id":51,"name":"DlTTO","steam_id":76561199427026752,"connected_time":641000000000,"state":"active","ping":101},{"user_id":33,"name":"jerma but crying and lesbian","steam_id":76561198110661425,"connected_time":1307000000000,"state":"active","ping":76},{"user_id":40,"name":"J  Man","steam_id":76561198401224356,"connected_time":791000000000,"state":"active","ping":55},{"user_id":54,"name":"♣","steam_id":76561198052822168,"connected_time":204000000000,"state":"active","ping":179},{"user_id":31,"name":"Username","steam_id":76561198198918781,"connected_time":1502000000000,"state":"active","ping":105},{"user_id":8,"name":"andyiscolorless","steam_id":76561199239870921,"connected_time":3007000000000,"state":"active","ping":152},{"user_id":52,"name":"SCATTER","steam_id":76561198405168492,"connected_time":506000000000,"state":"active","ping":106},{"user_id":11,"name":"yes","steam_id":76561199226277457,"connected_time":2296000000000,"state":"active","ping":72},{"user_id":41,"name":"walrooos","steam_id":76561198024521839,"connected_time":779000000000,"state":"active","ping":74},{"user_id":36,"name":"You Don't Nomi.","steam_id":76561197969137836,"connected_time":1069000000000,"state":"active","ping":87},{"user_id":48,"name":"el wiwi","steam_id":76561198857304367,"connected_time":662000000000,"state":"active","ping":120},{"user_id":30,"name":"BOBBYBOBBYBOBBYBOBBYBOBBYBOBBYB","steam_id":76561198053277633,"connected_time":1661000000000,"state":"active","ping":112},{"user_id":18,"name":"Magnet Dood","steam_id":76561198364178746,"connected_time":1999000000000,"state":"active","ping":86},{"user_id":39,"name":"Darling","steam_id":76561198127525888,"connected_time":924000000000,"state":"active","ping":45},{"user_id":43,"name":"rizzard of oz","steam_id":76561198040907214,"connected_time":770000000000,"state":"active","ping":60},{"user_id":37,"name":"turnip","steam_id":76561197999375941,"connected_time":1048000000000,"state":"active","ping":61},{"user_id":22,"name":"sjpete61","steam_id":76561199103543529,"connected_time":1877000000000,"state":"active","ping":107},{"user_id":23,"name":"miguel","steam_id":76561198158054484,"connected_time":1871000000000,"state":"active","ping":63},{"user_id":57,"name":"lynt","steam_id":76561198988333976,"connected_time":93000000000,"state":"active","ping":63},{"user_id":56,"name":"zinnk","steam_id":76561198092081825,"connected_time":172000000000,"state":"active","ping":89},{"user_id":50,"name":"inzang","steam_id":76561198088318074,"connected_time":649000000000,"state":"active","ping":62},{"user_id":27,"name":"Sergeant Joker #savetf2","steam_id":76561198854616604,"connected_time":1776000000000,"state":"active","ping":91},{"user_id":46,"name":"so appalled","steam_id":76561198955248082,"connected_time":739000000000,"state":"active","ping":71},{"user_id":53,"name":"Koala Bear","steam_id":76561198118025990,"connected_time":399000000000,"state":"active","ping":98}]},{"server_id":108,"name":"Uncletopia | Dallas | 2 | All Maps","name_short":"dal-2","host":"dal-1.us.uncletopia.com","port":27025,"enabled":true,"region":"us-central","cc":"us","latitude":32.779167,"longitude":-96.80889,"reserved":0,"last_update":"0001-01-01T00:00:00Z","name_a2s":"Uncletopia | Dallas | 2 | All Maps","protocol":17,"map":"koth_viaduct","folder":"tf","game":"Team Fortress","app_id":440,"player_count":5,"max_players":24,"Bots":0,"server_type":"Dedicated","server_os":"Linux","password":true,"vac":true,"version":"7961495","steam_id":85568392924469988,"keywords":["cp","nocrits","nodmgspread","uncletopia"],"game_id":440,"stv_port":27026,"stv_name":"Uncletopia | Dallas | 2 | All Maps | STV","players":[{"user_id":3,"name":"DudeBergs","steam_id":76561198399777833,"connected_time":1298000000000,"state":"active","ping":56},{"user_id":7,"name":"hoOmIN","steam_id":76561198334947079,"connected_time":261000000000,"state":"active","ping":74},{"user_id":8,"name":"Zaid","steam_id":76561199142840666,"connected_time":56000000000,"state":"active","ping":143},{"user_id":9,"name":"lucky","steam_id":76561198323426623,"connected_time":14000000000,"state":"active","ping":90},{"user_id":10,"name":"mkl","steam_id":76561197986401685,"connected_time":5000000000,"state":"spawning","ping":48}]},{"server_id":404,"name":"Uncletopia | Dallas | 3 | All Maps","name_short":"dal-3","host":"dal-1.us.uncletopia.com","port":27035,"enabled":true,"region":"us-central","cc":"us","latitude":32.779167,"longitude":-96.80889,"reserved":0,"last_update":"0001-01-01T00:00:00Z","name_a2s":"Uncletopia | Dallas | 3 | All Maps","protocol":17,"map":"ctf_2fort","folder":"tf","game":"Team Fortress","app_id":440,"player_count":1,"max_players":24,"Bots":0,"server_type":"Dedicated","server_os":"Linux","password":true,"vac":true,"version":"7961495","steam_id":85568392924515219,"keywords":["ctf","nocrits","nodmgspread","uncletopia"],"game_id":440,"stv_port":27036,"stv_name":"Uncletopia | Dallas | 3 | All Maps | STV","players":[{"user_id":4,"name":"Tispy","steam_id":76561199207410049,"connected_time":91000000000,"state":"spawning","ping":226}]},{"server_id":405,"name":"Uncletopia | Dallas | 4 | Community","name_short":"dal-4","host":"dal-1.us.uncletopia.com","port":27045,"enabled":true,"region":"us-central","cc":"us","latitude":32.779167,"longitude":-96.80889,"reserved":0,"last_update":"0001-01-01T00:00:00Z","name_a2s":"Uncletopia | Dallas | 4 | Community","protocol":17,"map":"pl_pier","folder":"tf","game":"Team Fortress","app_id":440,"player_count":0,"max_players":24,"Bots":0,"server_type":"Dedicated","server_os":"Linux","password":true,"vac":true,"version":"7961495","steam_id":85568392924515220,"keywords":["nocrits","nodmgspread","payload","uncletopia"],"game_id":440,"stv_port":27046,"stv_name":"Uncletopia | Dallas | 4 | Community | STV","players":null},{"server_id":5,"name":"Uncletopia | Frankfurt | 1 | All Maps","name_short":"frk-1","host":"frk-1.de.uncletopia.com","port":27015,"enabled":true,"region":"eu","cc":"de","latitude":50.110924,"longitude":8.682127,"reserved":0,"last_update":"0001-01-01T00:00:00Z","name_a2s":"Uncletopia | Frankfurt | 1 | All Maps","protocol":17,"map":"cp_mountainlab","folder":"tf","game":"Team Fortress","app_id":440,"player_count":24,"max_players":24,"Bots":0,"server_type":"Dedicated","server_os":"Linux","password":true,"vac":true,"version":"7961495","steam_id":85568392924469989,"keywords":["cp","nocrits","nodmgspread","uncletopia"],"game_id":440,"stv_port":27016,"stv_name":"Uncletopia | Frankfurt | 1 | All Maps | STV","players":[{"user_id":234,"name":"WIZARD","steam_id":76561198199570742,"connected_time":1420000000000,"state":"active","ping":97},{"user_id":232,"name":"Mau","steam_id":76561198410945277,"connected_time":1516000000000,"state":"active","ping":105},{"user_id":235,"name":"sokige","steam_id":76561198167112371,"connected_time":1419000000000,"state":"active","ping":89},{"user_id":236,"name":"R!not","steam_id":76561197986328786,"connected_time":1414000000000,"state":"active","ping":45},{"user_id":242,"name":"Jara.","steam_id":76561197992207165,"connected_time":858000000000,"state":"active","ping":98},{"user_id":200,"name":"wasps","steam_id":76561198049485054,"connected_time":4663000000000,"state":"active","ping":75},{"user_id":220,"name":"Lartsa","steam_id":76561198275690230,"connected_time":2307000000000,"state":"active","ping":100},{"user_id":233,"name":"agent_richi","steam_id":76561199218542987,"connected_time":1509000000000,"state":"active","ping":46},{"user_id":213,"name":"dekrzz","steam_id":76561198157285449,"connected_time":2906000000000,"state":"active","ping":80},{"user_id":207,"name":"Ceasar","steam_id":76561198056590853,"connected_time":4023000000000,"state":"active","ping":57},{"user_id":237,"name":"SKÚTER","steam_id":76561199262157623,"connected_time":1409000000000,"state":"active","ping":69},{"user_id":238,"name":"Ceiling fan enthusiast","steam_id":76561197989214268,"connected_time":1328000000000,"state":"active","ping":71},{"user_id":243,"name":"else1","steam_id":76561197996558319,"connected_time":789000000000,"state":"active","ping":75},{"user_id":244,"name":"Plushy Freeman","steam_id":76561198004935560,"connected_time":788000000000,"state":"active","ping":70},{"user_id":239,"name":"Driver's drunkest God","steam_id":76561198969373800,"connected_time":1239000000000,"state":"active","ping":71},{"user_id":250,"name":"Lord Stamtish","steam_id":76561198254039257,"connected_time":158000000000,"state":"active","ping":136},{"user_id":221,"name":"The Big Bean","steam_id":76561198267696666,"connected_time":1970000000000,"state":"active","ping":55},{"user_id":248,"name":"Exgone","steam_id":76561198296655773,"connected_time":487000000000,"state":"active","ping":58},{"user_id":245,"name":"Silverbolt","steam_id":76561198153165763,"connected_time":680000000000,"state":"active","ping":66},{"user_id":148,"name":"Bulyto","steam_id":76561198043205202,"connected_time":9448000000000,"state":"active","ping":65},{"user_id":205,"name":"STORM↯","steam_id":76561198002220409,"connected_time":4267000000000,"state":"active","ping":104},{"user_id":184,"name":"Švarcas","steam_id":76561198841646694,"connected_time":6648000000000,"state":"active","ping":67},{"user_id":229,"name":"Finkaksu :3","steam_id":76561198201389163,"connected_time":1615000000000,"state":"active","ping":72},{"user_id":219,"name":"Free Bird is playing","steam_id":76561198858102095,"connected_time":2515000000000,"state":"active","ping":62}]},{"server_id":110,"name":"Uncletopia | Frankfurt | 2 | All Maps","name_short":"frk-2","host":"frk-1.de.uncletopia.com","port":27025,"enabled":true,"region":"eu","cc":"de","latitude":50.110924,"longitude":8.682127,"reserved":0,"last_update":"0001-01-01T00:00:00Z","name_a2s":"Uncletopia | Frankfurt | 2 | All Maps","protocol":17,"map":"pl_barnblitz","folder":"tf","game":"Team Fortress","app_id":440,"player_count":24,"max_players":24,"Bots":0,"server_type":"Dedicated","server_os":"Linux","password":true,"vac":true,"version":"7961495","steam_id":85568392924469990,"keywords":["nocrits","nodmgspread","payload","uncletopia"],"game_id":440,"stv_port":27026,"stv_name":"Uncletopia | Frankfurt | 2 | All Maps | STV","players":[{"user_id":155,"name":"Solid","steam_id":76561198357049292,"connected_time":1435000000000,"state":"active","ping":80},{"user_id":180,"name":"Bonduelle#Savetf2","steam_id":76561199041992422,"connected_time":541000000000,"state":"active","ping":161},{"user_id":166,"name":"Capitan Boba","steam_id":76561198058624532,"connected_time":994000000000,"state":"active","ping":65},{"user_id":144,"name":"FilDiFerro","steam_id":76561198115602824,"connected_time":2530000000000,"state":"active","ping":76},{"user_id":143,"name":"asa004","steam_id":76561198160323444,"connected_time":2596000000000,"state":"active","ping":75},{"user_id":135,"name":"Ignot","steam_id":76561198235896754,"connected_time":3553000000000,"state":"active","ping":84},{"user_id":181,"name":"the grongle","steam_id":76561198989398023,"connected_time":524000000000,"state":"active","ping":99},{"user_id":168,"name":"Tonne","steam_id":76561197970856766,"connected_time":970000000000,"state":"active","ping":60},{"user_id":178,"name":"Quote","steam_id":76561198170090267,"connected_time":609000000000,"state":"active","ping":96},{"user_id":116,"name":"TheEventGuy","steam_id":76561197972797744,"connected_time":5111000000000,"state":"active","ping":64},{"user_id":185,"name":"Thors","steam_id":76561197968739075,"connected_time":47000000000,"state":"active","ping":39},{"user_id":170,"name":"serious vape accusations","steam_id":76561198157406151,"connected_time":931000000000,"state":"active","ping":57},{"user_id":186,"name":"Tri-","steam_id":76561198133524794,"connected_time":10000000000,"state":"active","ping":49},{"user_id":156,"name":"azzy","steam_id":76561198061293740,"connected_time":1390000000000,"state":"active","ping":80},{"user_id":137,"name":"RiX","steam_id":76561197969053733,"connected_time":3265000000000,"state":"active","ping":61},{"user_id":182,"name":"JepCabestany","steam_id":76561198123812578,"connected_time":327000000000,"state":"active","ping":92},{"user_id":173,"name":"Pvt. Prinny","steam_id":76561198030278562,"connected_time":853000000000,"state":"active","ping":61},{"user_id":158,"name":"ÃNVS DRÃNVS","steam_id":76561198138733015,"connected_time":1269000000000,"state":"active","ping":107},{"user_id":174,"name":"Richard_HUN","steam_id":76561198299050967,"connected_time":842000000000,"state":"active","ping":82},{"user_id":163,"name":"Time-Green","steam_id":76561198133937444,"connected_time":1052000000000,"state":"active","ping":72},{"user_id":161,"name":"b9njmn","steam_id":76561198068481592,"connected_time":1144000000000,"state":"active","ping":88},{"user_id":164,"name":"Sisyphus","steam_id":76561198146194820,"connected_time":1020000000000,"state":"active","ping":51},{"user_id":138,"name":"LordTrap.exe","steam_id":76561198318089716,"connected_time":3237000000000,"state":"active","ping":73},{"user_id":184,"name":"Haha?","steam_id":76561198056882245,"connected_time":150000000000,"state":"active","ping":45}]},{"server_id":308,"name":"Uncletopia | Frankfurt | 3 | All Maps","name_short":"frk-3","host":"frk-1.de.uncletopia.com","port":27035,"enabled":true,"region":"eu","cc":"de","latitude":50.110924,"longitude":8.682127,"reserved":0,"last_update":"0001-01-01T00:00:00Z","name_a2s":"Uncletopia | Frankfurt | 3 | All Maps","protocol":17,"map":"koth_king","folder":"tf","game":"Team Fortress","app_id":440,"player_count":24,"max_players":24,"Bots":0,"server_type":"Dedicated","server_os":"Linux","password":true,"vac":true,"version":"7961495","steam_id":85568392924504274,"keywords":["cp","nocrits","nodmgspread","uncletopia"],"game_id":440,"stv_port":27036,"stv_name":"Uncletopia | Frankfurt | 3 | All Maps | STV","players":[{"user_id":184,"name":"Beemo","steam_id":76561198158818775,"connected_time":651000000000,"state":"active","ping":56},{"user_id":121,"name":"AWP Bodyshot :) ❤","steam_id":76561198029928533,"connected_time":5688000000000,"state":"active","ping":45},{"user_id":191,"name":"Mike","steam_id":76561198228455736,"connected_time":203000000000,"state":"active","ping":77},{"user_id":185,"name":"antuan","steam_id":76561198116262521,"connected_time":643000000000,"state":"active","ping":61},{"user_id":166,"name":"Hóňa","steam_id":76561198096006081,"connected_time":2159000000000,"state":"active","ping":60},{"user_id":105,"name":"kiniènse?","steam_id":76561198177533491,"connected_time":6966000000000,"state":"active","ping":56},{"user_id":188,"name":"Mister","steam_id":76561199049647854,"connected_time":267000000000,"state":"active","ping":48},{"user_id":181,"name":"Strafe","steam_id":76561198194054443,"connected_time":917000000000,"state":"active","ping":48},{"user_id":176,"name":"sex toilet","steam_id":76561198412197820,"connected_time":1362000000000,"state":"active","ping":94},{"user_id":135,"name":"jcb.f.smith","steam_id":76561199491964000,"connected_time":3845000000000,"state":"active","ping":66},{"user_id":144,"name":"tyroksi :D","steam_id":76561198103875245,"connected_time":3180000000000,"state":"active","ping":123},{"user_id":189,"name":"wheelie bin","steam_id":76561198040040328,"connected_time":250000000000,"state":"active","ping":60},{"user_id":186,"name":"Jewix","steam_id":76561198063457899,"connected_time":361000000000,"state":"active","ping":64},{"user_id":165,"name":"That Phlog mfer","steam_id":76561198050416948,"connected_time":2235000000000,"state":"active","ping":57},{"user_id":175,"name":"Mika","steam_id":76561199183780280,"connected_time":1476000000000,"state":"active","ping":55},{"user_id":110,"name":"Falfe","steam_id":76561199007446494,"connected_time":6725000000000,"state":"active","ping":71},{"user_id":172,"name":"JohnTraveltime","steam_id":76561199244281754,"connected_time":1725000000000,"state":"active","ping":71},{"user_id":167,"name":"SugipuLaur","steam_id":76561199138556623,"connected_time":2070000000000,"state":"active","ping":77},{"user_id":162,"name":"Skyrider of Spaceways","steam_id":76561197991678236,"connected_time":2406000000000,"state":"active","ping":129},{"user_id":169,"name":"Mayor Wank from Wanker Town","steam_id":76561197998253588,"connected_time":2025000000000,"state":"active","ping":50},{"user_id":187,"name":"_tile","steam_id":76561199112028580,"connected_time":339000000000,"state":"active","ping":70},{"user_id":119,"name":"джегеми хэпкингс","steam_id":76561198131531394,"connected_time":5902000000000,"state":"active","ping":89},{"user_id":173,"name":"Not A Fake Uncletopia Server","steam_id":76561198152871288,"connected_time":1593000000000,"state":"active","ping":68},{"user_id":164,"name":"Wolfus148","steam_id":76561199344516899,"connected_time":2297000000000,"state":"active","ping":77}]},{"server_id":309,"name":"Uncletopia | Frankfurt | 4 | All Maps","name_short":"frk-4","host":"frk-1.de.uncletopia.com","port":27045,"enabled":true,"region":"eu","cc":"de","latitude":50.110924,"longitude":8.682127,"reserved":0,"last_update":"0001-01-01T00:00:00Z","name_a2s":"Uncletopia | Frankfurt | 4 | All Maps","protocol":17,"map":"cp_sunshine","folder":"tf","game":"Team Fortress","app_id":440,"player_count":8,"max_players":24,"Bots":0,"server_type":"Dedicated","server_os":"Linux","password":true,"vac":true,"version":"7961495","steam_id":85568392924504275,"keywords":["cp","nocrits","nodmgspread","uncletopia"],"game_id":440,"stv_port":27046,"stv_name":"Uncletopia | Frankfurt | 4 | All Maps | STV","players":[{"user_id":338,"name":"mercenarypit","steam_id":76561198161935108,"connected_time":27000000000,"state":"spawning","ping":55},{"user_id":213,"name":"DudeoftheRock","steam_id":76561198059401865,"connected_time":9698000000000,"state":"active","ping":65},{"user_id":335,"name":"void monad","steam_id":76561198117012334,"connected_time":104000000000,"state":"active","ping":84},{"user_id":200,"name":"Spinya","steam_id":76561198086653667,"connected_time":9837000000000,"state":"active","ping":62},{"user_id":332,"name":"capslocked","steam_id":76561198095960796,"connected_time":134000000000,"state":"active","ping":54},{"user_id":339,"name":"Artock","steam_id":76561198808599713,"connected_time":17000000000,"state":"spawning","ping":80},{"user_id":311,"name":"Robert Cop","steam_id":76561198962134341,"connected_time":2961000000000,"state":"active","ping":74},{"user_id":287,"name":"goop","steam_id":76561198190073005,"connected_time":5146000000000,"state":"active","ping":51}]},{"server_id":310,"name":"Uncletopia | Frankfurt | 5 | All Maps","name_short":"frk-5","host":"frk-1.de.uncletopia.com","port":27055,"enabled":true,"region":"eu","cc":"de","latitude":50.110924,"longitude":8.682127,"reserved":0,"last_update":"0001-01-01T00:00:00Z","name_a2s":"Uncletopia | Frankfurt | 5 | All Maps","protocol":17,"map":"pl_badwater","folder":"tf","game":"Team Fortress","app_id":440,"player_count":24,"max_players":24,"Bots":0,"server_type":"Dedicated","server_os":"Linux","password":true,"vac":true,"version":"7961495","steam_id":85568392924504277,"keywords":["nocrits","nodmgspread","payload","uncletopia"],"game_id":440,"stv_port":27056,"stv_name":"Uncletopia | Frankfurt | 5 | All Maps | STV","players":[{"user_id":221,"name":"Buford D. Luffy","steam_id":76561198129828715,"connected_time":1222000000000,"state":"active","ping":53},{"user_id":211,"name":"Eric Catman","steam_id":76561198802117294,"connected_time":1943000000000,"state":"active","ping":79},{"user_id":227,"name":"Joo ♦","steam_id":76561197987609203,"connected_time":627000000000,"state":"active","ping":68},{"user_id":183,"name":"Thales gaming","steam_id":76561198154569703,"connected_time":3637000000000,"state":"active","ping":74},{"user_id":228,"name":"LEGEND FUMO.","steam_id":76561198061033903,"connected_time":608000000000,"state":"active","ping":47},{"user_id":212,"name":"konstlang","steam_id":76561198083980412,"connected_time":1936000000000,"state":"active","ping":77},{"user_id":205,"name":"knees","steam_id":76561198005924647,"connected_time":2667000000000,"state":"active","ping":74},{"user_id":226,"name":"MR.BOYKISSER","steam_id":76561198241894636,"connected_time":645000000000,"state":"active","ping":48},{"user_id":222,"name":"Penis Contortionist","steam_id":76561198073663784,"connected_time":1136000000000,"state":"active","ping":48},{"user_id":209,"name":"Meower","steam_id":76561198104468506,"connected_time":2123000000000,"state":"active","ping":75},{"user_id":223,"name":"broken fish","steam_id":76561199397549660,"connected_time":1083000000000,"state":"active","ping":60},{"user_id":229,"name":"GAU-8","steam_id":76561199497719804,"connected_time":607000000000,"state":"active","ping":105},{"user_id":194,"name":"mr.resetti","steam_id":76561198974520642,"connected_time":3446000000000,"state":"active","ping":68},{"user_id":237,"name":"flat cheese","steam_id":76561198149923239,"connected_time":450000000000,"state":"active","ping":91},{"user_id":238,"name":"jesse pinkman","steam_id":76561198153488940,"connected_time":309000000000,"state":"active","ping":75},{"user_id":239,"name":"thatdude958","steam_id":76561199086971180,"connected_time":308000000000,"state":"active","ping":107},{"user_id":230,"name":"rets_","steam_id":76561198061551392,"connected_time":575000000000,"state":"active","ping":52},{"user_id":216,"name":"heddwch","steam_id":76561198076097983,"connected_time":1925000000000,"state":"active","ping":73},{"user_id":231,"name":"humble genius","steam_id":76561198243808680,"connected_time":568000000000,"state":"active","ping":58},{"user_id":243,"name":"Chambersite","steam_id":76561198197022399,"connected_time":18000000000,"state":"active","ping":57},{"user_id":220,"name":"Evilton","steam_id":76561198844263922,"connected_time":1435000000000,"state":"active","ping":78},{"user_id":240,"name":"astafox229","steam_id":76561199139136601,"connected_time":300000000000,"state":"active","ping":111},{"user_id":234,"name":"Hoff","steam_id":76561198138540938,"connected_time":511000000000,"state":"active","ping":84},{"user_id":236,"name":"Odin","steam_id":76561198087800030,"connected_time":496000000000,"state":"active","ping":45}]},{"server_id":311,"name":"Uncletopia | Frankfurt | 6 | All Maps","name_short":"frk-6","host":"frk-1.de.uncletopia.com","port":27065,"enabled":true,"region":"eu","cc":"de","latitude":50.110924,"longitude":8.682127,"reserved":0,"last_update":"0001-01-01T00:00:00Z","name_a2s":"Uncletopia | Frankfurt | 6 | All Maps","protocol":17,"map":"pl_badwater","folder":"tf","game":"Team Fortress","app_id":440,"player_count":24,"max_players":24,"Bots":0,"server_type":"Dedicated","server_os":"Linux","password":true,"vac":true,"version":"7961495","steam_id":85568392924504278,"keywords":["nocrits","nodmgspread","payload","uncletopia"],"game_id":440,"stv_port":27066,"stv_name":"Uncletopia | Frankfurt | 6 | All Maps | STV","players":[{"user_id":401,"name":"eva","steam_id":76561198054474684,"connected_time":3064000000000,"state":"active","ping":75},{"user_id":435,"name":"BrianIsFruity","steam_id":76561198103706881,"connected_time":457000000000,"state":"active","ping":68},{"user_id":405,"name":"Forgetful","steam_id":76561198147445965,"connected_time":2241000000000,"state":"active","ping":67},{"user_id":362,"name":"Gorgeous George","steam_id":76561198144256544,"connected_time":5980000000000,"state":"active","ping":61},{"user_id":420,"name":"LOBZIK","steam_id":76561198114830120,"connected_time":1407000000000,"state":"active","ping":75},{"user_id":434,"name":"shniper","steam_id":76561199023476841,"connected_time":479000000000,"state":"active","ping":156},{"user_id":433,"name":"pinguwno","steam_id":76561199152690401,"connected_time":538000000000,"state":"active","ping":88},{"user_id":432,"name":"N00BCSF","steam_id":76561198035530934,"connected_time":628000000000,"state":"active","ping":75},{"user_id":441,"name":"DID YOU MOVE THE ROCK?","steam_id":76561198798803845,"connected_time":208000000000,"state":"active","ping":79},{"user_id":395,"name":"Killer Bean","steam_id":76561198072567787,"connected_time":3306000000000,"state":"active","ping":68},{"user_id":437,"name":"ImStillAVergil","steam_id":76561199248763115,"connected_time":378000000000,"state":"active","ping":65},{"user_id":386,"name":"Wild_Xray26","steam_id":76561198059386050,"connected_time":3529000000000,"state":"active","ping":64},{"user_id":252,"name":"Del0Voi","steam_id":76561198866515088,"connected_time":11564000000000,"state":"active","ping":76},{"user_id":415,"name":"Relix18144","steam_id":76561199202454318,"connected_time":1639000000000,"state":"active","ping":77},{"user_id":442,"name":"how about you get a job","steam_id":76561199061646193,"connected_time":65000000000,"state":"active","ping":87},{"user_id":439,"name":"Dararess","steam_id":76561198132427058,"connected_time":279000000000,"state":"active","ping":60},{"user_id":385,"name":"Ross [AT]","steam_id":76561198322955357,"connected_time":4071000000000,"state":"active","ping":80},{"user_id":402,"name":"Primoz J","steam_id":76561197962355741,"connected_time":2479000000000,"state":"active","ping":74},{"user_id":408,"name":"Old Beavis","steam_id":76561198065951617,"connected_time":2007000000000,"state":"active","ping":70},{"user_id":422,"name":"Worst Civilian Award 2023","steam_id":76561198200856195,"connected_time":1284000000000,"state":"active","ping":79},{"user_id":416,"name":"Cosmetic brain","steam_id":76561198055936410,"connected_time":1633000000000,"state":"active","ping":90},{"user_id":424,"name":"AlanWillson","steam_id":76561198043975413,"connected_time":1242000000000,"state":"active","ping":73},{"user_id":418,"name":"why rum gone","steam_id":76561198158484784,"connected_time":1444000000000,"state":"active","ping":58},{"user_id":428,"name":"Watermelon","steam_id":76561198078349914,"connected_time":1056000000000,"state":"active","ping":61}]},{"server_id":23,"name":"Uncletopia | Frankfurt | 7 | Stopwatch","name_short":"frk-7","host":"frk-1.de.uncletopia.com","port":27075,"enabled":true,"region":"eu","cc":"de","latitude":50.110924,"longitude":8.682127,"reserved":0,"last_update":"0001-01-01T00:00:00Z","name_a2s":"Uncletopia | Frankfurt | 7 | Stopwatch","protocol":17,"map":"workshop/koth_bagel_rc6.ugc2514036946","folder":"tf","game":"Team Fortress","app_id":440,"player_count":0,"max_players":24,"Bots":0,"server_type":"Dedicated","server_os":"Linux","password":true,"vac":true,"version":"7961495","steam_id":85568392924742827,"keywords":["cp","nocrits","nodmgspread","uncletopia"],"game_id":440,"stv_port":27076,"stv_name":"Uncletopia | Frankfurt | 7 | Stopwatch | STV","players":null},{"server_id":24,"name":"Uncletopia | Frankfurt | 8 | Community","name_short":"frk-8","host":"frk-1.de.uncletopia.com","port":27085,"enabled":true,"region":"eu","cc":"de","latitude":50.110924,"longitude":8.682127,"reserved":0,"last_update":"0001-01-01T00:00:00Z","name_a2s":"Uncletopia | Frankfurt | 8 | Community","protocol":17,"map":"workshop/cp_mannbase_rc2a.ugc1900737467","folder":"tf","game":"Team Fortress","app_id":440,"player_count":0,"max_players":24,"Bots":0,"server_type":"Dedicated","server_os":"Linux","password":true,"vac":true,"version":"7961495","steam_id":85568392924742828,"keywords":["cp","nocrits","nodmgspread","uncletopia"],"game_id":440,"stv_port":27086,"stv_name":"Uncletopia | Frankfurt | 8 | Community | STV","players":null},{"server_id":202,"name":"Uncletopia | Hong Kong | 1 | All Maps","name_short":"hgk-1","host":"hgk-1.hk.uncletopia.com","port":27015,"enabled":true,"region":"asia","cc":"hk","latitude":22.302711,"longitude":114.177216,"reserved":0,"last_update":"0001-01-01T00:00:00Z","name_a2s":"Uncletopia | Hong Kong | 1 | All Maps","protocol":17,"map":"pl_upward","folder":"tf","game":"Team Fortress","app_id":440,"player_count":24,"max_players":24,"Bots":0,"server_type":"Dedicated","server_os":"Linux","password":true,"vac":true,"version":"7961495","steam_id":85568392924494504,"keywords":["nocrits","nodmgspread","payload","uncletopia"],"game_id":440,"stv_port":27016,"stv_name":"Uncletopia | Hong Kong | 1 | All Maps | STV","players":[{"user_id":560,"name":"Drutzhfer","steam_id":76561198299948446,"connected_time":2066000000000,"state":"active","ping":113},{"user_id":542,"name":"Snelvis","steam_id":76561198120666352,"connected_time":3205000000000,"state":"active","ping":137},{"user_id":496,"name":"⬞","steam_id":76561199373637717,"connected_time":7065000000000,"state":"active","ping":67},{"user_id":559,"name":"Puddin","steam_id":76561198140052918,"connected_time":2227000000000,"state":"active","ping":86},{"user_id":494,"name":"Milf (The fan O'Milk)","steam_id":76561198213031155,"connected_time":7547000000000,"state":"active","ping":96},{"user_id":545,"name":"JDSFE","steam_id":76561198975490851,"connected_time":2916000000000,"state":"active","ping":84},{"user_id":537,"name":"j_rex","steam_id":76561198132473926,"connected_time":4137000000000,"state":"active","ping":54},{"user_id":478,"name":"v1.","steam_id":76561198037571054,"connected_time":8672000000000,"state":"active","ping":44},{"user_id":490,"name":"spinach (old mouse)","steam_id":76561198042539541,"connected_time":7791000000000,"state":"active","ping":78},{"user_id":569,"name":"xPhid","steam_id":76561199080808930,"connected_time":846000000000,"state":"active","ping":92},{"user_id":492,"name":"vintage","steam_id":76561198230213828,"connected_time":7787000000000,"state":"active","ping":65},{"user_id":557,"name":"IRA car dealership","steam_id":76561199224577498,"connected_time":2238000000000,"state":"active","ping":81},{"user_id":551,"name":"Creaserg","steam_id":76561198827951097,"connected_time":2290000000000,"state":"active","ping":88},{"user_id":538,"name":"brizzard","steam_id":76561198048438653,"connected_time":4115000000000,"state":"active","ping":55},{"user_id":498,"name":"Sgt・BEHOZUN","steam_id":76561198152362492,"connected_time":7020000000000,"state":"active","ping":160},{"user_id":543,"name":"juan233","steam_id":76561198867566247,"connected_time":3205000000000,"state":"active","ping":108},{"user_id":561,"name":"mutwo","steam_id":76561198077043500,"connected_time":1720000000000,"state":"active","ping":78},{"user_id":532,"name":"Ivy","steam_id":76561198400698408,"connected_time":5071000000000,"state":"active","ping":102},{"user_id":546,"name":"Mac09","steam_id":76561198934873063,"connected_time":2500000000000,"state":"active","ping":75},{"user_id":562,"name":"김광만","steam_id":76561198295279503,"connected_time":1634000000000,"state":"active","ping":83},{"user_id":572,"name":"Samoyed","steam_id":76561198299150410,"connected_time":188000000000,"state":"active","ping":81},{"user_id":548,"name":"Alka","steam_id":76561198268872312,"connected_time":2497000000000,"state":"active","ping":82},{"user_id":349,"name":"Cheesey","steam_id":76561198975684137,"connected_time":12524000000000,"state":"active","ping":88},{"user_id":568,"name":"allah no.1, gambling no.2","steam_id":76561198113401862,"connected_time":871000000000,"state":"active","ping":89}]},{"server_id":1,"name":"Uncletopia | Los Angeles | 1 | All Maps","name_short":"lax-1","host":"lax-1.us.uncletopia.com","port":27015,"enabled":true,"region":"us-west","cc":"us","latitude":33.94279,"longitude":-118.41004,"reserved":0,"last_update":"0001-01-01T00:00:00Z","name_a2s":"Uncletopia | Los Angeles | 1 | All Maps","protocol":17,"map":"pl_snowycoast","folder":"tf","game":"Team Fortress","app_id":440,"player_count":0,"max_players":24,"Bots":0,"server_type":"Dedicated","server_os":"Linux","password":true,"vac":true,"version":"7961495","steam_id":85568392924469991,"keywords":["nocrits","nodmgspread","payload","uncletopia"],"game_id":440,"stv_port":27016,"stv_name":"Uncletopia | Los Angeles | 1 | All Maps | STV","players":null},{"server_id":112,"name":"Uncletopia | Los Angeles | 2 | All Maps","name_short":"lax-2","host":"lax-1.us.uncletopia.com","port":27025,"enabled":true,"region":"us-west","cc":"us","latitude":33.94279,"longitude":-118.41004,"reserved":0,"last_update":"0001-01-01T00:00:00Z","name_a2s":"Uncletopia | Los Angeles | 2 | All Maps","protocol":17,"map":"cp_mountainlab","folder":"tf","game":"Team Fortress","app_id":440,"player_count":0,"max_players":24,"Bots":0,"server_type":"Dedicated","server_os":"Linux","password":true,"vac":true,"version":"7961495","steam_id":85568392924469992,"keywords":["cp","nocrits","nodmgspread","uncletopia"],"game_id":440,"stv_port":27026,"stv_name":"Uncletopia | Los Angeles | 2 | All Maps | STV","players":null},{"server_id":324,"name":"Uncletopia | Los Angeles | 3 | All Maps","name_short":"lax-3","host":"lax-1.us.uncletopia.com","port":27035,"enabled":true,"region":"us-west","cc":"us","latitude":33.94279,"longitude":-118.41004,"reserved":0,"last_update":"0001-01-01T00:00:00Z","name_a2s":"Uncletopia | Los Angeles | 3 | All Maps","protocol":17,"map":"pl_frontier_final","folder":"tf","game":"Team Fortress","app_id":440,"player_count":0,"max_players":24,"Bots":0,"server_type":"Dedicated","server_os":"Linux","password":true,"vac":true,"version":"7961495","steam_id":85568392924510198,"keywords":["nocrits","nodmgspread","payload","uncletopia"],"game_id":440,"stv_port":27036,"stv_name":"Uncletopia | Los Angeles | 3 | All Maps | STV","players":null},{"server_id":25,"name":"Uncletopia | Los Angeles | 4 | Stopwatch","name_short":"lax-4","host":"lax-1.us.uncletopia.com","port":27045,"enabled":true,"region":"us-west","cc":"us","latitude":33.94279,"longitude":-118.41004,"reserved":0,"last_update":"0001-01-01T00:00:00Z","name_a2s":"Uncletopia | Los Angeles | 4 | Stopwatch","protocol":17,"map":"pl_barnblitz","folder":"tf","game":"Team Fortress","app_id":440,"player_count":0,"max_players":24,"Bots":0,"server_type":"Dedicated","server_os":"Linux","password":true,"vac":true,"version":"7961495","steam_id":85568392924510199,"keywords":["nocrits","nodmgspread","payload","uncletopia"],"game_id":440,"stv_port":27046,"stv_name":"Uncletopia | Los Angeles | 4 | Stopwatch | STV","players":null},{"server_id":11,"name":"Uncletopia | London | 1 | All Maps","name_short":"lon-1","host":"lon-1.uk.uncletopia.com","port":27015,"enabled":true,"region":"eu","cc":"gb","latitude":51.509865,"longitude":-0.118092,"reserved":0,"last_update":"0001-01-01T00:00:00Z","name_a2s":"Uncletopia | London | 1 | All Maps","protocol":17,"map":"cp_mountainlab","folder":"tf","game":"Team Fortress","app_id":440,"player_count":24,"max_players":24,"Bots":0,"server_type":"Dedicated","server_os":"Linux","password":true,"vac":true,"version":"7961495","steam_id":85568392924367362,"keywords":["cp","nocrits","nodmgspread","uncletopia"],"game_id":440,"stv_port":27016,"stv_name":"Uncletopia | London | 1 | All Maps | STV","players":[{"user_id":474,"name":"kid bean","steam_id":76561198063328792,"connected_time":907000000000,"state":"active","ping":97},{"user_id":422,"name":"DrExplosive","steam_id":76561198063678579,"connected_time":4982000000000,"state":"active","ping":47},{"user_id":466,"name":"c1v","steam_id":76561199085624224,"connected_time":1039000000000,"state":"active","ping":66},{"user_id":479,"name":"anson2623","steam_id":76561198147658525,"connected_time":629000000000,"state":"active","ping":50},{"user_id":478,"name":"moseley519","steam_id":76561198045485374,"connected_time":811000000000,"state":"active","ping":45},{"user_id":452,"name":"Nessieling","steam_id":76561198083556891,"connected_time":2211000000000,"state":"active","ping":87},{"user_id":415,"name":"The Bread Bringer","steam_id":76561198264079743,"connected_time":5195000000000,"state":"active","ping":47},{"user_id":461,"name":"Dr. Funkenstein","steam_id":76561197977816210,"connected_time":1757000000000,"state":"active","ping":60},{"user_id":465,"name":"videogaming","steam_id":76561198251927912,"connected_time":1070000000000,"state":"active","ping":75},{"user_id":468,"name":"Dr. Le Quack","steam_id":76561197995711176,"connected_time":987000000000,"state":"active","ping":95},{"user_id":436,"name":"SirToast","steam_id":76561199229729107,"connected_time":3266000000000,"state":"active","ping":66},{"user_id":469,"name":"Slifer","steam_id":76561198062255803,"connected_time":986000000000,"state":"active","ping":75},{"user_id":462,"name":"stroyo","steam_id":76561198409592046,"connected_time":1724000000000,"state":"active","ping":39},{"user_id":470,"name":"Mr Lemon","steam_id":76561198054685254,"connected_time":980000000000,"state":"active","ping":63},{"user_id":472,"name":"rock","steam_id":76561198088518160,"connected_time":959000000000,"state":"active","ping":77},{"user_id":443,"name":"Trans Femtress 2","steam_id":76561198014056212,"connected_time":2515000000000,"state":"active","ping":71},{"user_id":464,"name":"Mr.Meeseeks","steam_id":76561198335193881,"connected_time":1228000000000,"state":"active","ping":164},{"user_id":473,"name":"fish?","steam_id":76561198429658370,"connected_time":925000000000,"state":"active","ping":118},{"user_id":448,"name":"DanFacka","steam_id":76561198980722668,"connected_time":2460000000000,"state":"active","ping":72},{"user_id":427,"name":"Wardruna96","steam_id":76561199057083828,"connected_time":4242000000000,"state":"active","ping":89},{"user_id":451,"name":"spl .davi","steam_id":76561198029015952,"connected_time":2369000000000,"state":"active","ping":70},{"user_id":477,"name":"FilipeskoBro  GameTame.com","steam_id":76561198831347261,"connected_time":843000000000,"state":"active","ping":72},{"user_id":476,"name":"cas.sierrafamilia","steam_id":76561199230945873,"connected_time":882000000000,"state":"active","ping":134},{"user_id":429,"name":"Jormag","steam_id":76561198401018345,"connected_time":3941000000000,"state":"active","ping":87}]},{"server_id":114,"name":"Uncletopia | London | 2 | All Maps","name_short":"lon-2","host":"lon-1.uk.uncletopia.com","port":27025,"enabled":true,"region":"eu","cc":"gb","latitude":51.509865,"longitude":-0.118092,"reserved":0,"last_update":"0001-01-01T00:00:00Z","name_a2s":"Uncletopia | London | 2 | All Maps","protocol":17,"map":"pl_hoodoo_final","folder":"tf","game":"Team Fortress","app_id":440,"player_count":24,"max_players":24,"Bots":0,"server_type":"Dedicated","server_os":"Linux","password":true,"vac":true,"version":"7961495","steam_id":85568392924470941,"keywords":["nocrits","nodmgspread","payload","uncletopia"],"game_id":440,"stv_port":27026,"stv_name":"Uncletopia | London | 2 | All Maps | STV","players":[{"user_id":243,"name":"- 84n4n3n8r07 -","steam_id":76561198047887705,"connected_time":5231000000000,"state":"active","ping":60},{"user_id":294,"name":"Tuosan","steam_id":76561198062611429,"connected_time":1352000000000,"state":"active","ping":89},{"user_id":244,"name":"my mom","steam_id":76561199225201569,"connected_time":5217000000000,"state":"active","ping":107},{"user_id":303,"name":"zezoca 75","steam_id":76561198880439803,"connected_time":920000000000,"state":"active","ping":89},{"user_id":300,"name":"The Hat Fancier","steam_id":76561198004272825,"connected_time":989000000000,"state":"active","ping":68},{"user_id":312,"name":"Hooks","steam_id":76561198255557997,"connected_time":56000000000,"state":"active","ping":76},{"user_id":222,"name":"Flying Squirrel","steam_id":76561198005202791,"connected_time":6571000000000,"state":"active","ping":69},{"user_id":307,"name":"The","steam_id":76561199378865926,"connected_time":147000000000,"state":"active","ping":131},{"user_id":309,"name":"Prison Mike","steam_id":76561198014221596,"connected_time":100000000000,"state":"active","ping":60},{"user_id":288,"name":"Para Bellum","steam_id":76561198375413446,"connected_time":2246000000000,"state":"active","ping":57},{"user_id":278,"name":"Spelunky ShopKeeper","steam_id":76561198372416737,"connected_time":2656000000000,"state":"active","ping":66},{"user_id":289,"name":"Razor","steam_id":76561197973965174,"connected_time":2071000000000,"state":"active","ping":60},{"user_id":313,"name":"Cabanos","steam_id":76561198285337328,"connected_time":52000000000,"state":"active","ping":76},{"user_id":305,"name":"Abyssion","steam_id":76561198040246963,"connected_time":868000000000,"state":"active","ping":57},{"user_id":314,"name":"I I | #saveTF2","steam_id":76561199101935057,"connected_time":41000000000,"state":"active","ping":104},{"user_id":304,"name":"Ark-e","steam_id":76561198261870909,"connected_time":913000000000,"state":"active","ping":44},{"user_id":301,"name":"finbar","steam_id":76561198056812396,"connected_time":984000000000,"state":"active","ping":82},{"user_id":302,"name":"Fidacha","steam_id":76561198003060881,"connected_time":925000000000,"state":"active","ping":63},{"user_id":285,"name":"Dr Zoidcrab","steam_id":76561198023709882,"connected_time":2449000000000,"state":"active","ping":44},{"user_id":284,"name":"Man","steam_id":76561197964776022,"connected_time":2513000000000,"state":"active","ping":47},{"user_id":286,"name":"Finem Belli","steam_id":76561198227177976,"connected_time":2436000000000,"state":"active","ping":47},{"user_id":293,"name":"CouchPotato","steam_id":76561198849369915,"connected_time":1657000000000,"state":"active","ping":64},{"user_id":315,"name":"Ricey","steam_id":76561198832961307,"connected_time":6000000000,"state":"spawning","ping":50},{"user_id":232,"name":"alibi","steam_id":76561198079490000,"connected_time":6355000000000,"state":"active","ping":56}]},{"server_id":320,"name":"Uncletopia | London | 3 | All Maps","name_short":"lon-3","host":"lon-1.uk.uncletopia.com","port":27035,"enabled":true,"region":"eu","cc":"gb","latitude":51.509865,"longitude":-0.118092,"reserved":0,"last_update":"0001-01-01T00:00:00Z","name_a2s":"Uncletopia | London | 3 | All Maps","protocol":17,"map":"cp_gorge","folder":"tf","game":"Team Fortress","app_id":440,"player_count":24,"max_players":24,"Bots":0,"server_type":"Dedicated","server_os":"Linux","password":true,"vac":true,"version":"7961495","steam_id":85568392924510192,"keywords":["cp","nocrits","nodmgspread","uncletopia"],"game_id":440,"stv_port":27036,"stv_name":"Uncletopia | London | 3 | All Maps | STV","players":[{"user_id":232,"name":"CrazyTrajce","steam_id":76561199052469254,"connected_time":389000000000,"state":"active","ping":91},{"user_id":223,"name":"Chris","steam_id":76561198179791702,"connected_time":951000000000,"state":"active","ping":179},{"user_id":226,"name":"goreston","steam_id":76561197964666781,"connected_time":646000000000,"state":"active","ping":46},{"user_id":233,"name":"создатель пива","steam_id":76561198039472276,"connected_time":355000000000,"state":"active","ping":76},{"user_id":234,"name":"Worms","steam_id":76561198040442214,"connected_time":345000000000,"state":"active","ping":42},{"user_id":216,"name":"Aida","steam_id":76561198311044984,"connected_time":2416000000000,"state":"active","ping":66},{"user_id":222,"name":"zayd","steam_id":76561198895235231,"connected_time":1528000000000,"state":"active","ping":47},{"user_id":192,"name":"blåhaj","steam_id":76561198094268619,"connected_time":4007000000000,"state":"active","ping":75},{"user_id":171,"name":"Pastoss","steam_id":76561198379098260,"connected_time":5842000000000,"state":"active","ping":59},{"user_id":225,"name":"Michael","steam_id":76561198003146906,"connected_time":747000000000,"state":"active","ping":43},{"user_id":184,"name":"Dan","steam_id":76561198289353288,"connected_time":5159000000000,"state":"active","ping":47},{"user_id":237,"name":"Capn. Wing Ding","steam_id":76561198076068424,"connected_time":70000000000,"state":"active","ping":136},{"user_id":224,"name":"deflox","steam_id":76561198087450635,"connected_time":919000000000,"state":"active","ping":53},{"user_id":212,"name":":3","steam_id":76561198169471853,"connected_time":2923000000000,"state":"active","ping":54},{"user_id":238,"name":"bed","steam_id":76561198215391679,"connected_time":68000000000,"state":"active","ping":59},{"user_id":206,"name":"Humm","steam_id":76561198077768823,"connected_time":3620000000000,"state":"active","ping":97},{"user_id":199,"name":"race car driver jerry","steam_id":76561198054047446,"connected_time":3928000000000,"state":"active","ping":69},{"user_id":218,"name":"goblinninja110","steam_id":76561198269159354,"connected_time":2340000000000,"state":"active","ping":67},{"user_id":231,"name":"Anri Okita's Massive Milkers","steam_id":76561199186352720,"connected_time":488000000000,"state":"active","ping":65},{"user_id":208,"name":"Tattletails","steam_id":76561198055690341,"connected_time":3231000000000,"state":"active","ping":56},{"user_id":220,"name":"im a girl","steam_id":76561198101995942,"connected_time":1760000000000,"state":"active","ping":90},{"user_id":146,"name":"sv_MrGibbs","steam_id":76561198114071972,"connected_time":9059000000000,"state":"active","ping":50},{"user_id":236,"name":"Princess Fuzz","steam_id":76561198025783000,"connected_time":317000000000,"state":"active","ping":39},{"user_id":202,"name":"DEMURE","steam_id":76561198263299590,"connected_time":3906000000000,"state":"active","ping":80}]},{"server_id":321,"name":"Uncletopia | London | 4 | All Maps","name_short":"lon-4","host":"lon-1.uk.uncletopia.com","port":27045,"enabled":true,"region":"eu","cc":"gb","latitude":51.509865,"longitude":-0.118092,"reserved":0,"last_update":"0001-01-01T00:00:00Z","name_a2s":"Uncletopia | London | 4 | All Maps","protocol":17,"map":"cp_sunshine","folder":"tf","game":"Team Fortress","app_id":440,"player_count":24,"max_players":24,"Bots":0,"server_type":"Dedicated","server_os":"Linux","password":true,"vac":true,"version":"7961495","steam_id":85568392924510193,"keywords":["cp","nocrits","nodmgspread","uncletopia"],"game_id":440,"stv_port":27046,"stv_name":"Uncletopia | London | 4 | All Maps | STV","players":[{"user_id":342,"name":"Moistie!!","steam_id":76561198989752113,"connected_time":287000000000,"state":"active","ping":49},{"user_id":319,"name":"bart simpson weed","steam_id":76561198014858762,"connected_time":926000000000,"state":"active","ping":55},{"user_id":346,"name":"dingus deluxe","steam_id":76561198834355366,"connected_time":107000000000,"state":"active","ping":143},{"user_id":326,"name":"Greenmaker","steam_id":76561198060466591,"connected_time":772000000000,"state":"active","ping":85},{"user_id":288,"name":"i like to jump","steam_id":76561198049112892,"connected_time":3517000000000,"state":"active","ping":62},{"user_id":300,"name":"Hrrr","steam_id":76561198106920678,"connected_time":1746000000000,"state":"active","ping":44},{"user_id":311,"name":"Dlaf'rferg (she/her)","steam_id":76561198284744735,"connected_time":1229000000000,"state":"active","ping":54},{"user_id":333,"name":"Retrograde_","steam_id":76561198155371354,"connected_time":724000000000,"state":"active","ping":49},{"user_id":343,"name":"DeterminedXD[HUN]","steam_id":76561199469006453,"connected_time":267000000000,"state":"active","ping":100},{"user_id":289,"name":"Sonnakai","steam_id":76561198051688749,"connected_time":3516000000000,"state":"active","ping":41},{"user_id":344,"name":"Jucatron","steam_id":76561198044259577,"connected_time":217000000000,"state":"active","ping":94},{"user_id":296,"name":"JC","steam_id":76561198029213352,"connected_time":2726000000000,"state":"active","ping":37},{"user_id":338,"name":"purplecan","steam_id":76561199208283508,"connected_time":565000000000,"state":"active","ping":76},{"user_id":278,"name":"Liam","steam_id":76561198010346323,"connected_time":3736000000000,"state":"active","ping":48},{"user_id":345,"name":"Dr Bondus Bolongus Dongus","steam_id":76561198378657692,"connected_time":122000000000,"state":"active","ping":45},{"user_id":347,"name":"Jemes","steam_id":76561198055620906,"connected_time":104000000000,"state":"active","ping":75},{"user_id":348,"name":"Hexagon","steam_id":76561198151205758,"connected_time":103000000000,"state":"active","ping":55},{"user_id":332,"name":"rob","steam_id":76561198122211848,"connected_time":748000000000,"state":"active","ping":92},{"user_id":323,"name":"sailor girlboss","steam_id":76561197964754824,"connected_time":837000000000,"state":"active","ping":74},{"user_id":329,"name":"Canpenbook64","steam_id":76561199195471984,"connected_time":760000000000,"state":"active","ping":60},{"user_id":330,"name":"вaфeльнoe мoрoжeнoe","steam_id":76561199074883856,"connected_time":759000000000,"state":"active","ping":55},{"user_id":350,"name":"gpupdate","steam_id":76561198154677956,"connected_time":95000000000,"state":"active","ping":82},{"user_id":337,"name":"Hemlock","steam_id":76561198048749863,"connected_time":637000000000,"state":"active","ping":64},{"user_id":341,"name":"cheese","steam_id":76561198188720263,"connected_time":484000000000,"state":"active","ping":46}]},{"server_id":21,"name":"Uncletopia | London | 5 | All Maps","name_short":"lon-5","host":"lon-1.uk.uncletopia.com","port":27055,"enabled":true,"region":"eu","cc":"gb","latitude":51.509865,"longitude":-0.118092,"reserved":0,"last_update":"0001-01-01T00:00:00Z","name_a2s":"Uncletopia | London | 5 | All Maps","protocol":17,"map":"cp_steel","folder":"tf","game":"Team Fortress","app_id":440,"player_count":24,"max_players":24,"Bots":0,"server_type":"Dedicated","server_os":"Linux","password":true,"vac":true,"version":"7961495","steam_id":85568392924742829,"keywords":["cp","nocrits","nodmgspread","uncletopia"],"game_id":440,"stv_port":27056,"stv_name":"Uncletopia | London | 5 | All Maps | STV","players":[{"user_id":84,"name":"Pudlich","steam_id":76561198300089671,"connected_time":1436000000000,"state":"active","ping":74},{"user_id":91,"name":"Lessoz","steam_id":76561199211572036,"connected_time":455000000000,"state":"active","ping":90},{"user_id":22,"name":"JayMaloney","steam_id":76561198050173547,"connected_time":4402000000000,"state":"active","ping":62},{"user_id":23,"name":"Grenouillator","steam_id":76561197991694500,"connected_time":4399000000000,"state":"active","ping":83},{"user_id":27,"name":"dabomb gaming","steam_id":76561198350475019,"connected_time":4110000000000,"state":"active","ping":98},{"user_id":67,"name":"Milk","steam_id":76561198125876588,"connected_time":2283000000000,"state":"active","ping":41},{"user_id":94,"name":"steinar","steam_id":76561198441857153,"connected_time":50000000000,"state":"active","ping":91},{"user_id":42,"name":"Churre Murre","steam_id":76561199013316825,"connected_time":3131000000000,"state":"active","ping":83},{"user_id":55,"name":"pad6z23h8s","steam_id":76561198880756741,"connected_time":2572000000000,"state":"active","ping":81},{"user_id":66,"name":"s3rg_","steam_id":76561198024043213,"connected_time":2301000000000,"state":"active","ping":64},{"user_id":82,"name":"AIDS MEDIC","steam_id":76561198042774930,"connected_time":1582000000000,"state":"active","ping":58},{"user_id":72,"name":"protester","steam_id":76561198301080836,"connected_time":2197000000000,"state":"active","ping":140},{"user_id":49,"name":"jekk.97","steam_id":76561198146961838,"connected_time":2819000000000,"state":"active","ping":120},{"user_id":86,"name":"bingle","steam_id":76561198359413453,"connected_time":1195000000000,"state":"active","ping":137},{"user_id":63,"name":"Tupac Shakur","steam_id":76561198247651486,"connected_time":2365000000000,"state":"active","ping":106},{"user_id":73,"name":"Juno","steam_id":76561198073839911,"connected_time":2181000000000,"state":"active","ping":60},{"user_id":56,"name":"heavy sings (real)","steam_id":76561199023804405,"connected_time":2550000000000,"state":"active","ping":85},{"user_id":78,"name":"GOTTA BLAST","steam_id":76561198452727570,"connected_time":1906000000000,"state":"active","ping":55},{"user_id":90,"name":"XxBenShapiro420xX","steam_id":76561199229373972,"connected_time":559000000000,"state":"active","ping":61},{"user_id":92,"name":"Tom Cruise","steam_id":76561198871991529,"connected_time":431000000000,"state":"active","ping":63},{"user_id":61,"name":"WAY TO GO NERDTRON","steam_id":76561198206522056,"connected_time":2457000000000,"state":"active","ping":75},{"user_id":88,"name":"The Wanderers","steam_id":76561198419246129,"connected_time":882000000000,"state":"active","ping":156},{"user_id":76,"name":"FRIENDSHIP OVER","steam_id":76561198977666346,"connected_time":2089000000000,"state":"active","ping":63},{"user_id":93,"name":"TheAutisticGamer","steam_id":76561198137828769,"connected_time":427000000000,"state":"active","ping":77}]},{"server_id":22,"name":"Uncletopia | London | 6 | All Maps","name_short":"lon-6","host":"lon-1.uk.uncletopia.com","port":27065,"enabled":true,"region":"eu","cc":"gb","latitude":51.509865,"longitude":-0.118092,"reserved":0,"last_update":"0001-01-01T00:00:00Z","name_a2s":"Uncletopia | London | 6 | All Maps","protocol":17,"map":"koth_viaduct","folder":"tf","game":"Team Fortress","app_id":440,"player_count":0,"max_players":24,"Bots":0,"server_type":"Dedicated","server_os":"Linux","password":true,"vac":true,"version":"7961495","steam_id":85568392924742830,"keywords":["cp","nocrits","nodmgspread","uncletopia"],"game_id":440,"stv_port":27066,"stv_name":"Uncletopia | London | 6 | All Maps | STV","players":null},{"server_id":40,"name":"Uncletopia | London | 7 | Stopwatch","name_short":"lon-7","host":"lon-1.uk.uncletopia.com","port":27075,"enabled":true,"region":"eu","cc":"gb","latitude":51.509865,"longitude":-0.118092,"reserved":0,"last_update":"0001-01-01T00:00:00Z","name_a2s":"Uncletopia | London | 7 | Stopwatch","protocol":17,"map":"workshop/koth_bagel_rc6.ugc2514036946","folder":"tf","game":"Team Fortress","app_id":440,"player_count":0,"max_players":24,"Bots":0,"server_type":"Dedicated","server_os":"Linux","password":true,"vac":true,"version":"7961495","steam_id":85568392924964314,"keywords":["cp","nocrits","nodmgspread","uncletopia"],"game_id":440,"stv_port":27076,"stv_name":"Uncletopia | London | 7 | Stopwatch | STV","players":null},{"server_id":41,"name":"Uncletopia | London | 8 | Community","name_short":"lon-8","host":"lon-1.uk.uncletopia.com","port":27085,"enabled":true,"region":"eu","cc":"gb","latitude":51.509865,"longitude":-0.118092,"reserved":0,"last_update":"0001-01-01T00:00:00Z","name_a2s":"Uncletopia | London | 8 | Community","protocol":17,"map":"workshop/koth_ramjam_rc1.ugc459778887","folder":"tf","game":"Team Fortress","app_id":440,"player_count":0,"max_players":24,"Bots":0,"server_type":"Dedicated","server_os":"Linux","password":true,"vac":true,"version":"7961495","steam_id":85568392924964315,"keywords":["cp","nocrits","nodmgspread","uncletopia"],"game_id":440,"stv_port":27086,"stv_name":"Uncletopia | London | 8 | Community | STV","players":null},{"server_id":300,"name":"Uncletopia | Montréal | 1 | One Thousand Uncles","name_short":"mtl-1","host":"mtl-1.ca.uncletopia.com","port":27015,"enabled":true,"region":"us-east","cc":"ca","latitude":45.50889,"longitude":-73.56167,"reserved":0,"last_update":"0001-01-01T00:00:00Z","name_a2s":"","protocol":0,"map":"","folder":"","game":"","app_id":0,"player_count":7,"max_players":0,"Bots":0,"server_type":"","server_os":"","password":false,"vac":false,"version":"","steam_id":0,"keywords":null,"game_id":0,"stv_port":0,"stv_name":"","players":[{"user_id":94,"name":"JoeFalco","steam_id":76561198064005012,"connected_time":1544000000000,"state":"active","ping":85},{"user_id":95,"name":"bouncypear","steam_id":76561198199800094,"connected_time":718000000000,"state":"active","ping":66},{"user_id":46,"name":"puffy","steam_id":76561198411347037,"connected_time":5866000000000,"state":"active","ping":60},{"user_id":114,"name":"Bullet magnet (FIN)","steam_id":76561197975715220,"connected_time":627000000000,"state":"active","ping":150},{"user_id":116,"name":"FreonAddict9x19","steam_id":76561198060010824,"connected_time":399000000000,"state":"active","ping":56},{"user_id":49,"name":"Consolidated Fart","steam_id":76561198924101909,"connected_time":5497000000000,"state":"active","ping":274},{"user_id":50,"name":"Bobby Bigman","steam_id":76561198044679656,"connected_time":5406000000000,"state":"active","ping":275}]},{"server_id":301,"name":"Uncletopia | Montréal | 2 | One Thousand Uncles","name_short":"mtl-2","host":"mtl-1.ca.uncletopia.com","port":27025,"enabled":true,"region":"us-east","cc":"ca","latitude":45.50889,"longitude":-73.56167,"reserved":0,"last_update":"0001-01-01T00:00:00Z","name_a2s":"","protocol":0,"map":"","folder":"","game":"","app_id":0,"player_count":0,"max_players":0,"Bots":0,"server_type":"","server_os":"","password":false,"vac":false,"version":"","steam_id":0,"keywords":null,"game_id":0,"stv_port":0,"stv_name":"","players":null},{"server_id":302,"name":"Uncletopia | Montréal | 3 | One Thousand Uncles","name_short":"mtl-3","host":"mtl-1.ca.uncletopia.com","port":27035,"enabled":true,"region":"us-east","cc":"ca","latitude":45.50889,"longitude":-73.56167,"reserved":0,"last_update":"0001-01-01T00:00:00Z","name_a2s":"","protocol":0,"map":"","folder":"","game":"","app_id":0,"player_count":0,"max_players":0,"Bots":0,"server_type":"","server_os":"","password":false,"vac":false,"version":"","steam_id":0,"keywords":null,"game_id":0,"stv_port":0,"stv_name":"","players":null},{"server_id":13,"name":"Uncletopia | New York City | 1 | All Maps","name_short":"nyc-1","host":"nyc-1.us.uncletopia.com","port":27015,"enabled":true,"region":"us-east","cc":"us","latitude":40.73061,"longitude":-73.93524,"reserved":0,"last_update":"0001-01-01T00:00:00Z","name_a2s":"Uncletopia | New York City | 1 | All Maps","protocol":17,"map":"koth_lakeside_final","folder":"tf","game":"Team Fortress","app_id":440,"player_count":0,"max_players":24,"Bots":0,"server_type":"Dedicated","server_os":"Linux","password":true,"vac":true,"version":"7961495","steam_id":85568392924469993,"keywords":["cp","nocrits","nodmgspread","uncletopia"],"game_id":440,"stv_port":27016,"stv_name":"Uncletopia | New York City | 1 | All Maps | STV","players":null},{"server_id":14,"name":"Uncletopia | New York City | 2 | All Maps","name_short":"nyc-2","host":"nyc-1.us.uncletopia.com","port":27025,"enabled":true,"region":"us-east","cc":"us","latitude":40.73061,"longitude":-73.93524,"reserved":0,"last_update":"0001-01-01T00:00:00Z","name_a2s":"Uncletopia | New York City | 2 | All Maps","protocol":17,"map":"koth_viaduct","folder":"tf","game":"Team Fortress","app_id":440,"player_count":24,"max_players":24,"Bots":0,"server_type":"Dedicated","server_os":"Linux","password":true,"vac":true,"version":"7961495","steam_id":85568392924469994,"keywords":["cp","nocrits","nodmgspread","uncletopia"],"game_id":440,"stv_port":27026,"stv_name":"Uncletopia | New York City | 2 | All Maps | STV","players":[{"user_id":69,"name":"KYOTOTOKYO","steam_id":76561198013066317,"connected_time":327000000000,"state":"active","ping":130},{"user_id":46,"name":"YoshiGaming64","steam_id":76561199396299350,"connected_time":2822000000000,"state":"active","ping":183},{"user_id":50,"name":"Vegerot","steam_id":76561197997843710,"connected_time":2130000000000,"state":"active","ping":43},{"user_id":54,"name":"Kos, or some say Kosm","steam_id":76561197998833309,"connected_time":1961000000000,"state":"active","ping":76},{"user_id":10,"name":"vastrobotmax","steam_id":76561198417110724,"connected_time":4809000000000,"state":"active","ping":72},{"user_id":58,"name":"Frog","steam_id":76561199165825711,"connected_time":1442000000000,"state":"active","ping":86},{"user_id":51,"name":"Conscious Entity","steam_id":76561198079985773,"connected_time":2129000000000,"state":"active","ping":57},{"user_id":42,"name":"Gravity15","steam_id":76561198349863412,"connected_time":3347000000000,"state":"active","ping":54},{"user_id":70,"name":"he suckin on my rick til i mort","steam_id":76561198310711692,"connected_time":208000000000,"state":"active","ping":163},{"user_id":53,"name":"나무 먹는 사람","steam_id":76561198167893972,"connected_time":2077000000000,"state":"active","ping":85},{"user_id":39,"name":"Adrianchito","steam_id":76561198889613699,"connected_time":3939000000000,"state":"active","ping":166},{"user_id":57,"name":"PzVIIIMaus","steam_id":76561198346559365,"connected_time":1717000000000,"state":"active","ping":47},{"user_id":71,"name":"Cute Bulge","steam_id":76561198155494332,"connected_time":185000000000,"state":"active","ping":117},{"user_id":65,"name":"Blue Sea","steam_id":76561198156077339,"connected_time":561000000000,"state":"active","ping":114},{"user_id":63,"name":"AverageGloop","steam_id":76561198243395378,"connected_time":794000000000,"state":"active","ping":43},{"user_id":72,"name":"شوكة","steam_id":76561199046787861,"connected_time":174000000000,"state":"active","ping":64},{"user_id":49,"name":"Orange Triangle","steam_id":76561198320498182,"connected_time":2159000000000,"state":"active","ping":78},{"user_id":55,"name":"govermnet goevernm senat senat","steam_id":76561198353215270,"connected_time":1879000000000,"state":"active","ping":58},{"user_id":52,"name":"Sir Rimmington","steam_id":76561198019476636,"connected_time":2108000000000,"state":"active","ping":70},{"user_id":59,"name":"c tommy","steam_id":76561198094037582,"connected_time":1381000000000,"state":"active","ping":56},{"user_id":37,"name":"Shapeshiftertrue","steam_id":76561198440835095,"connected_time":4065000000000,"state":"active","ping":78},{"user_id":34,"name":"NavysealDemoman","steam_id":76561199048625312,"connected_time":4086000000000,"state":"active","ping":50},{"user_id":64,"name":"weed","steam_id":76561198426443067,"connected_time":732000000000,"state":"active","ping":47},{"user_id":40,"name":"trobin120","steam_id":76561199122420273,"connected_time":3836000000000,"state":"active","ping":55}]},{"server_id":15,"name":"Uncletopia | New York City | 3 | Stopwatch","name_short":"nyc-3","host":"nyc-1.us.uncletopia.com","port":27035,"enabled":true,"region":"us-east","cc":"us","latitude":40.73061,"longitude":-73.93524,"reserved":0,"last_update":"0001-01-01T00:00:00Z","name_a2s":"Uncletopia | New York City | 3 | Stopwatch","protocol":17,"map":"koth_lakeside_final","folder":"tf","game":"Team Fortress","app_id":440,"player_count":0,"max_players":24,"Bots":0,"server_type":"Dedicated","server_os":"Linux","password":true,"vac":true,"version":"7961495","steam_id":85568392924742820,"keywords":["cp","nocrits","nodmgspread","uncletopia"],"game_id":440,"stv_port":27036,"stv_name":"Uncletopia | New York City | 3 | Stopwatch | STV","players":null},{"server_id":16,"name":"Uncletopia | New York City | 4 | Community","name_short":"nyc-4","host":"nyc-1.us.uncletopia.com","port":27045,"enabled":true,"region":"us-east","cc":"us","latitude":40.73061,"longitude":-73.93524,"reserved":0,"last_update":"0001-01-01T00:00:00Z","name_a2s":"Uncletopia | New York City | 4 | Community","protocol":17,"map":"workshop/koth_synthetic_rc6a.ugc1549817316","folder":"tf","game":"Team Fortress","app_id":440,"player_count":0,"max_players":24,"Bots":0,"server_type":"Dedicated","server_os":"Linux","password":true,"vac":true,"version":"7961495","steam_id":85568392924742821,"keywords":["cp","nocrits","nodmgspread","uncletopia"],"game_id":440,"stv_port":27046,"stv_name":"Uncletopia | New York City | 4 | Community | STV","players":null},{"server_id":142,"name":"Uncletopia | São Paulo | 1 | All Maps","name_short":"sao-1","host":"sao-1.br.uncletopia.com","port":27015,"enabled":true,"region":"sa","cc":"br","latitude":-23.533773,"longitude":-46.62529,"reserved":0,"last_update":"0001-01-01T00:00:00Z","name_a2s":"Uncletopia | São Paulo | 1 | All Maps","protocol":17,"map":"cp_mountainlab","folder":"tf","game":"Team Fortress","app_id":440,"player_count":0,"max_players":24,"Bots":0,"server_type":"Dedicated","server_os":"Linux","password":true,"vac":true,"version":"7961495","steam_id":85568392924469996,"keywords":["cp","nocrits","nodmgspread","uncletopia"],"game_id":440,"stv_port":27016,"stv_name":"Uncletopia | São Paulo | 1 | All Maps | STV","players":null},{"server_id":143,"name":"Uncletopia | São Paulo | 2 | Community","name_short":"sao-2","host":"sao-2.br.uncletopia.com","port":27015,"enabled":true,"region":"sa","cc":"br","latitude":-23.533773,"longitude":-46.62529,"reserved":0,"last_update":"0001-01-01T00:00:00Z","name_a2s":"Uncletopia | São Paulo | 2 | Community","protocol":17,"map":"workshop/cp_croissant_final.ugc458840209","folder":"tf","game":"Team Fortress","app_id":440,"player_count":0,"max_players":24,"Bots":0,"server_type":"Dedicated","server_os":"Linux","password":true,"vac":true,"version":"7961495","steam_id":85568392924485349,"keywords":["cp","nocrits","nodmgspread","uncletopia"],"game_id":440,"stv_port":27016,"stv_name":"Uncletopia | São Paulo | 2 | Community | STV","players":null},{"server_id":7,"name":"Uncletopia | Seattle | 1 | All Maps","name_short":"sea-1","host":"sea-1.us.uncletopia.com","port":27015,"enabled":true,"region":"us-west","cc":"us","latitude":47.608013,"longitude":-122.33517,"reserved":0,"last_update":"0001-01-01T00:00:00Z","name_a2s":"Uncletopia | Seattle | 1 | All Maps","protocol":17,"map":"cp_sunshine","folder":"tf","game":"Team Fortress","app_id":440,"player_count":0,"max_players":24,"Bots":0,"server_type":"Dedicated","server_os":"Linux","password":true,"vac":true,"version":"7961495","steam_id":85568392924469997,"keywords":["cp","nocrits","nodmgspread","uncletopia"],"game_id":440,"stv_port":27016,"stv_name":"Uncletopia | Seattle | 1 | All Maps | STV","players":null},{"server_id":119,"name":"Uncletopia | Seattle | 2 | All Maps","name_short":"sea-2","host":"sea-1.us.uncletopia.com","port":27025,"enabled":true,"region":"us-west","cc":"us","latitude":47.608013,"longitude":-122.33517,"reserved":0,"last_update":"0001-01-01T00:00:00Z","name_a2s":"Uncletopia | Seattle | 2 | All Maps","protocol":17,"map":"pl_pier","folder":"tf","game":"Team Fortress","app_id":440,"player_count":0,"max_players":24,"Bots":0,"server_type":"Dedicated","server_os":"Linux","password":true,"vac":true,"version":"7961495","steam_id":85568392924469998,"keywords":["nocrits","nodmgspread","payload","uncletopia"],"game_id":440,"stv_port":27026,"stv_name":"Uncletopia | Seattle | 2 | All Maps | STV","players":null},{"server_id":406,"name":"Uncletopia | Seattle | 3 | Stopwatch","name_short":"sea-3","host":"sea-1.us.uncletopia.com","port":27035,"enabled":true,"region":"us-west","cc":"us","latitude":47.608013,"longitude":-122.33517,"reserved":0,"last_update":"0001-01-01T00:00:00Z","name_a2s":"Uncletopia | Seattle | 3 | Stopwatch","protocol":17,"map":"pl_pier","folder":"tf","game":"Team Fortress","app_id":440,"player_count":0,"max_players":24,"Bots":0,"server_type":"Dedicated","server_os":"Linux","password":true,"vac":true,"version":"7961495","steam_id":85568392924515217,"keywords":["nocrits","nodmgspread","payload","uncletopia"],"game_id":440,"stv_port":27036,"stv_name":"Uncletopia | Seattle | 3 | Stopwatch | STV","players":null},{"server_id":17,"name":"Uncletopia | San Francisco | 1 | All Maps","name_short":"sfo-1","host":"sfo-1.us.uncletopia.com","port":27015,"enabled":true,"region":"us-west","cc":"us","latitude":37.77397,"longitude":-122.4313,"reserved":0,"last_update":"0001-01-01T00:00:00Z","name_a2s":"Uncletopia | San Francisco | 1 | All Maps","protocol":17,"map":"koth_cascade","folder":"tf","game":"Team Fortress","app_id":440,"player_count":0,"max_players":24,"Bots":0,"server_type":"Dedicated","server_os":"Linux","password":true,"vac":true,"version":"7961495","steam_id":85568392924469999,"keywords":["cp","nocrits","nodmgspread","uncletopia"],"game_id":440,"stv_port":27016,"stv_name":"Uncletopia | San Francisco | 1 | All Maps | STV","players":null},{"server_id":18,"name":"Uncletopia | San Francisco | 2 | All Maps","name_short":"sfo-2","host":"sfo-1.us.uncletopia.com","port":27025,"enabled":true,"region":"us-west","cc":"us","latitude":37.77397,"longitude":-122.4313,"reserved":0,"last_update":"0001-01-01T00:00:00Z","name_a2s":"Uncletopia | San Francisco | 2 | All Maps","protocol":17,"map":"cp_dustbowl","folder":"tf","game":"Team Fortress","app_id":440,"player_count":0,"max_players":24,"Bots":0,"server_type":"Dedicated","server_os":"Linux","password":true,"vac":true,"version":"7961495","steam_id":85568392924470000,"keywords":["cp","nocrits","nodmgspread","uncletopia"],"game_id":440,"stv_port":27026,"stv_name":"Uncletopia | San Francisco | 2 | All Maps | STV","players":null},{"server_id":19,"name":"Uncletopia | San Francisco | 3 | Stopwatch","name_short":"sfo-3","host":"sfo-1.us.uncletopia.com","port":27035,"enabled":true,"region":"us-west","cc":"us","latitude":37.77397,"longitude":-122.4313,"reserved":0,"last_update":"0001-01-01T00:00:00Z","name_a2s":"Uncletopia | San Francisco | 3 | Stopwatch","protocol":17,"map":"pl_pier","folder":"tf","game":"Team Fortress","app_id":440,"player_count":0,"max_players":24,"Bots":0,"server_type":"Dedicated","server_os":"Linux","password":true,"vac":true,"version":"7961495","steam_id":85568392924742824,"keywords":["nocrits","nodmgspread","payload","uncletopia"],"game_id":440,"stv_port":27036,"stv_name":"Uncletopia | San Francisco | 3 | Stopwatch | STV","players":null},{"server_id":20,"name":"Uncletopia | San Francisco | 4 | Community","name_short":"sfo-4","host":"sfo-1.us.uncletopia.com","port":27045,"enabled":true,"region":"us-west","cc":"us","latitude":37.77397,"longitude":-122.4313,"reserved":0,"last_update":"0001-01-01T00:00:00Z","name_a2s":"Uncletopia | San Francisco | 4 | Community","protocol":17,"map":"pl_pier","folder":"tf","game":"Team Fortress","app_id":440,"player_count":0,"max_players":24,"Bots":0,"server_type":"Dedicated","server_os":"Linux","password":true,"vac":true,"version":"7961495","steam_id":85568392924742826,"keywords":["nocrits","nodmgspread","payload","uncletopia"],"game_id":440,"stv_port":27046,"stv_name":"Uncletopia | San Francisco | 4 | Community | STV","players":null},{"server_id":141,"name":"Uncletopia | Sydney | 1 | All Maps","name_short":"syd-1","host":"syd-1.au.uncletopia.com","port":27015,"enabled":true,"region":"au","cc":"au","latitude":-33.865143,"longitude":151.2099,"reserved":0,"last_update":"0001-01-01T00:00:00Z","name_a2s":"Uncletopia | Sydney | 1 | All Maps","protocol":17,"map":"koth_viaduct","folder":"tf","game":"Team Fortress","app_id":440,"player_count":0,"max_players":24,"Bots":0,"server_type":"Dedicated","server_os":"Linux","password":true,"vac":true,"version":"7961495","steam_id":85568392924470001,"keywords":["cp","nocrits","nodmgspread","uncletopia"],"game_id":440,"stv_port":27016,"stv_name":"Uncletopia | Sydney | 1 | All Maps | STV","players":null},{"server_id":123,"name":"Uncletopia | Sydney | 2 | All Maps","name_short":"syd-2","host":"syd-1.au.uncletopia.com","port":27025,"enabled":true,"region":"au","cc":"au","latitude":-33.865143,"longitude":151.2099,"reserved":0,"last_update":"0001-01-01T00:00:00Z","name_a2s":"Uncletopia | Sydney | 2 | All Maps","protocol":17,"map":"pl_badwater","folder":"tf","game":"Team Fortress","app_id":440,"player_count":0,"max_players":24,"Bots":0,"server_type":"Dedicated","server_os":"Linux","password":true,"vac":true,"version":"7961495","steam_id":85568392924470002,"keywords":["nocrits","nodmgspread","payload","uncletopia"],"game_id":440,"stv_port":27026,"stv_name":"Uncletopia | Sydney | 2 | All Maps | STV","players":null},{"server_id":395,"name":"Uncletopia | Sydney | 3 | All Maps","name_short":"syd-3","host":"syd-1.au.uncletopia.com","port":27035,"enabled":true,"region":"au","cc":"au","latitude":-33.865143,"longitude":151.2099,"reserved":0,"last_update":"0001-01-01T00:00:00Z","name_a2s":"Uncletopia | Sydney | 3 | All Maps","protocol":17,"map":"koth_lakeside_final","folder":"tf","game":"Team Fortress","app_id":440,"player_count":0,"max_players":24,"Bots":0,"server_type":"Dedicated","server_os":"Linux","password":true,"vac":true,"version":"7961495","steam_id":85568392925194467,"keywords":["cp","nocrits","nodmgspread","uncletopia"],"game_id":440,"stv_port":27036,"stv_name":"Uncletopia | Sydney | 3 | All Maps | STV","players":null},{"server_id":396,"name":"Uncletopia | Sydney | 4 | All Maps","name_short":"syd-4","host":"syd-1.au.uncletopia.com","port":27045,"enabled":true,"region":"au","cc":"au","latitude":-33.865143,"longitude":151.2099,"reserved":0,"last_update":"0001-01-01T00:00:00Z","name_a2s":"Uncletopia | Sydney | 4 | All Maps","protocol":17,"map":"koth_highpass","folder":"tf","game":"Team Fortress","app_id":440,"player_count":0,"max_players":24,"Bots":0,"server_type":"Dedicated","server_os":"Linux","password":true,"vac":true,"version":"7961495","steam_id":85568392925397958,"keywords":["cp","nocrits","nodmgspread","uncletopia"],"game_id":440,"stv_port":27046,"stv_name":"Uncletopia | Sydney | 4 | All Maps | STV","players":null},{"server_id":58,"name":"Uncletopia | Sydney | 5 | Stopwatch","name_short":"syd-5","host":"syd-1.au.uncletopia.com","port":27055,"enabled":true,"region":"au","cc":"au","latitude":-33.865143,"longitude":151.2099,"reserved":0,"last_update":"0001-01-01T00:00:00Z","name_a2s":"Uncletopia | Sydney | 5 | Stopwatch","protocol":17,"map":"koth_highpass","folder":"tf","game":"Team Fortress","app_id":440,"player_count":0,"max_players":24,"Bots":0,"server_type":"Dedicated","server_os":"Linux","password":true,"vac":true,"version":"7961495","steam_id":85568392925397959,"keywords":["cp","nocrits","nodmgspread","uncletopia"],"game_id":440,"stv_port":27056,"stv_name":"Uncletopia | Sydney | 5 | Stopwatch | STV","players":null},{"server_id":59,"name":"Uncletopia | Sydney | 6 | Community","name_short":"syd-6","host":"syd-1.au.uncletopia.com","port":27065,"enabled":true,"region":"au","cc":"au","latitude":-33.865143,"longitude":151.2099,"reserved":0,"last_update":"0001-01-01T00:00:00Z","name_a2s":"Uncletopia | Sydney | 6 | Community","protocol":17,"map":"workshop/pl_fifthcurve_rc1.ugc648227046","folder":"tf","game":"Team Fortress","app_id":440,"player_count":0,"max_players":24,"Bots":0,"server_type":"Dedicated","server_os":"Linux","password":true,"vac":true,"version":"7961495","steam_id":85568392925397960,"keywords":["nocrits","nodmgspread","payload","uncletopia"],"game_id":440,"stv_port":27066,"stv_name":"Uncletopia | Sydney | 6 | Community | STV","players":null},{"server_id":49,"name":"Uncletopia | Warsaw | 1 | One Thousand Uncles","name_short":"waw-1","host":"waw-1.pl.uncletopia.com","port":27015,"enabled":true,"region":"eu","cc":"pl","latitude":52.2297,"longitude":21.017532,"reserved":0,"last_update":"0001-01-01T00:00:00Z","name_a2s":"Uncletopia | Warsaw | 1 | One Thousand Uncles","protocol":17,"map":"pl_pier","folder":"tf","game":"Team Fortress","app_id":440,"player_count":28,"max_players":32,"Bots":16,"server_type":"Dedicated","server_os":"Linux","password":true,"vac":true,"version":"7961495","steam_id":85568392925397850,"keywords":["alltalk","bots","danepve","increased_maxplayers","nocrits","norespawntime","payload","uncletopia"],"game_id":440,"stv_port":0,"stv_name":"","players":[{"user_id":474,"name":"svyat.hodorov","steam_id":76561199230663060,"connected_time":2536000000000,"state":"active","ping":67},{"user_id":481,"name":"𝒯𝓇𝓊𝓈𝓁𝒶𝓋228","steam_id":76561199229195988,"connected_time":2126000000000,"state":"active","ping":99},{"user_id":489,"name":"NoLongerSwiming","steam_id":76561199408731222,"connected_time":1241000000000,"state":"active","ping":98},{"user_id":476,"name":"Mogwai","steam_id":76561198078832314,"connected_time":2486000000000,"state":"active","ping":94},{"user_id":450,"name":"Max Power","steam_id":76561198019269089,"connected_time":3538000000000,"state":"active","ping":63},{"user_id":480,"name":"The one True Mads","steam_id":76561197999204692,"connected_time":2163000000000,"state":"active","ping":69},{"user_id":499,"name":"Dosi","steam_id":76561199032025182,"connected_time":52000000000,"state":"active","ping":45},{"user_id":490,"name":"michalstrach13","steam_id":76561199004687217,"connected_time":1156000000000,"state":"active","ping":58},{"user_id":500,"name":"Rhen","steam_id":76561198280814136,"connected_time":31000000000,"state":"active","ping":102},{"user_id":492,"name":"Anton SRT","steam_id":76561198831008011,"connected_time":965000000000,"state":"active","ping":61},{"user_id":493,"name":"CurlyPaty - [YouTube]","steam_id":76561198125025171,"connected_time":926000000000,"state":"active","ping":27},{"user_id":495,"name":"Fialure5","steam_id":76561199204629124,"connected_time":837000000000,"state":"active","ping":182}]},{"server_id":50,"name":"Uncletopia | Warsaw | 2 | One Thousand Uncles","name_short":"waw-2","host":"waw-1.pl.uncletopia.com","port":27025,"enabled":true,"region":"eu","cc":"pl","latitude":52.2297,"longitude":21.017532,"reserved":0,"last_update":"0001-01-01T00:00:00Z","name_a2s":"Uncletopia | Warsaw | 2 | One Thousand Uncles","protocol":17,"map":"pl_chilly","folder":"tf","game":"Team Fortress","app_id":440,"player_count":0,"max_players":32,"Bots":0,"server_type":"Dedicated","server_os":"Linux","password":true,"vac":true,"version":"7961495","steam_id":85568392925397851,"keywords":["alltalk","danepve","increased_maxplayers","nocrits","norespawntime","payload","uncletopia"],"game_id":440,"stv_port":0,"stv_name":"","players":null},{"server_id":51,"name":"Uncletopia | Warsaw | 3 | All Maps","name_short":"waw-3","host":"waw-1.pl.uncletopia.com","port":27035,"enabled":true,"region":"eu","cc":"pl","latitude":52.2297,"longitude":21.017532,"reserved":0,"last_update":"0001-01-01T00:00:00Z","name_a2s":"Uncletopia | Warsaw | 3 | All Maps","protocol":17,"map":"pl_barnblitz","folder":"tf","game":"Team Fortress","app_id":440,"player_count":5,"max_players":24,"Bots":0,"server_type":"Dedicated","server_os":"Linux","password":true,"vac":true,"version":"7961495","steam_id":85568392925397852,"keywords":["nocrits","nodmgspread","payload","uncletopia"],"game_id":440,"stv_port":27036,"stv_name":"Uncletopia | Warsaw | 3 | All Maps | STV","players":[{"user_id":21,"name":"Sir Arnold of Coursen","steam_id":76561199386631939,"connected_time":415000000000,"state":"active","ping":53},{"user_id":16,"name":"Spyslenikov","steam_id":76561199500736278,"connected_time":1781000000000,"state":"active","ping":81},{"user_id":11,"name":"Mabert","steam_id":76561198436058407,"connected_time":2285000000000,"state":"active","ping":49},{"user_id":12,"name":"ashi","steam_id":76561198424646794,"connected_time":2275000000000,"state":"active","ping":79},{"user_id":19,"name":"Slowest hands in the west","steam_id":76561199286764992,"connected_time":1581000000000,"state":"active","ping":45}]},{"server_id":52,"name":"Uncletopia | Warsaw | 4 | All Maps","name_short":"waw-4","host":"waw-1.pl.uncletopia.com","port":27045,"enabled":true,"region":"eu","cc":"pl","latitude":52.2297,"longitude":21.017532,"reserved":0,"last_update":"0001-01-01T00:00:00Z","name_a2s":"Uncletopia | Warsaw | 4 | All Maps","protocol":17,"map":"koth_cascade","folder":"tf","game":"Team Fortress","app_id":440,"player_count":0,"max_players":24,"Bots":0,"server_type":"Dedicated","server_os":"Linux","password":true,"vac":true,"version":"7961495","steam_id":85568392925397853,"keywords":["cp","nocrits","nodmgspread","uncletopia"],"game_id":440,"stv_port":27046,"stv_name":"Uncletopia | Warsaw | 4 | All Maps | STV","players":null},{"server_id":53,"name":"Uncletopia | Warsaw | 5 | Stopwatch","name_short":"waw-5","host":"waw-1.pl.uncletopia.com","port":27055,"enabled":true,"region":"eu","cc":"pl","latitude":52.2297,"longitude":21.017532,"reserved":0,"last_update":"0001-01-01T00:00:00Z","name_a2s":"Uncletopia | Warsaw | 5 | Stopwatch","protocol":17,"map":"workshop/koth_ashville_final.ugc2130459942","folder":"tf","game":"Team Fortress","app_id":440,"player_count":0,"max_players":24,"Bots":0,"server_type":"Dedicated","server_os":"Linux","password":true,"vac":true,"version":"7961495","steam_id":85568392925397854,"keywords":["cp","nocrits","nodmgspread","uncletopia"],"game_id":440,"stv_port":27056,"stv_name":"Uncletopia | Warsaw | 5 | Stopwatch | STV","players":null},{"server_id":54,"name":"Uncletopia | Warsaw | 6 | Community","name_short":"waw-6","host":"waw-1.pl.uncletopia.com","port":27065,"enabled":true,"region":"eu","cc":"pl","latitude":52.2297,"longitude":21.017532,"reserved":0,"last_update":"0001-01-01T00:00:00Z","name_a2s":"Uncletopia | Warsaw | 6 | Community","protocol":17,"map":"workshop/cp_mannbase_rc2a.ugc1900737467","folder":"tf","game":"Team Fortress","app_id":440,"player_count":0,"max_players":24,"Bots":0,"server_type":"Dedicated","server_os":"Linux","password":true,"vac":true,"version":"7961495","steam_id":85568392925397856,"keywords":["cp","nocrits","nodmgspread","uncletopia"],"game_id":440,"stv_port":27066,"stv_name":"Uncletopia | Warsaw | 6 | Community | STV","players":null}]}