{"status":true,"message":"","result":[{"server_id":9,"name":"Uncletopia | Atlanta | 1 | All Maps","name_short":"atl-1","host":"atl-1.us.uncletopia.com","port":27015,"enabled":true,"region":"us-east","cc":"us","latitude":33.753746,"longitude":-84.38633,"reserved":0,"last_update":"0001-01-01T00:00:00Z","name_a2s":"Uncletopia | Atlanta | 1 | All Maps","protocol":17,"map":"pl_barnblitz","folder":"tf","game":"Team Fortress","app_id":440,"player_count":24,"max_players":24,"Bots":0,"server_type":"Dedicated","server_os":"Linux","password":true,"vac":true,"version":"7742253","steam_id":85568392924469982,"keywords":["nocrits","nodmgspread","payload","uncletopia"],"game_id":440,"stv_port":27016,"stv_name":"Uncletopia | Atlanta | 1 | All Maps | STV","players":[{"user_id":257,"name":"DuckKey","steam_id":76561198904477889,"connected_time":1566000000000,"state":"active","ping":58},{"user_id":169,"name":"bee gamer","steam_id":76561198092135570,"connected_time":7762000000000,"state":"active","ping":60},{"user_id":273,"name":"||:‚ô©‚ô©‚ô©‚ô™:|| Opplydead","steam_id":76561198028630334,"connected_time":870000000000,"state":"active","ping":105},{"user_id":259,"name":"TVmeem","steam_id":76561198384879041,"connected_time":1405000000000,"state":"active","ping":90},{"user_id":247,"name":"yomokha lft","steam_id":76561198063175935,"connected_time":2122000000000,"state":"active","ping":58},{"user_id":194,"name":"Assitins","steam_id":76561198041572892,"connected_time":5984000000000,"state":"active","ping":72},{"user_id":261,"name":"Kevin the Minion","steam_id":76561198052380794,"connected_time":1371000000000,"state":"active","ping":78},{"user_id":158,"name":"Lost (15)","steam_id":76561198093713427,"connected_time":8521000000000,"state":"active","ping":80},{"user_id":264,"name":"pungabot","steam_id":76561198009088243,"connected_time":1203000000000,"state":"active","ping":80},{"user_id":249,"name":"nnobi","steam_id":76561198878729277,"connected_time":2042000000000,"state":"active","ping":60},{"user_id":216,"name":"Crescent","steam_id":76561198095124633,"connected_time":3976000000000,"state":"active","ping":59},{"user_id":254,"name":"FemboyNate","steam_id":76561198146636410,"connected_time":1822000000000,"state":"active","ping":73},{"user_id":272,"name":"helloworldprogram","steam_id":76561198200927231,"connected_time":917000000000,"state":"active","ping":124},{"user_id":269,"name":"catgirl of the void","steam_id":76561198052542017,"connected_time":1139000000000,"state":"active","ping":52},{"user_id":232,"name":"duh polar","steam_id":76561198969764871,"connected_time":2891000000000,"state":"active","ping":61},{"user_id":142,"name":"‚òÖ‚òÖ‚òÜ‚òÜ‚òÜ","steam_id":76561198198984282,"connected_time":10999000000000,"state":"active","ping":76},{"user_id":275,"name":"Brian Earl Spilner","steam_id":76561199052436927,"connected_time":662000000000,"state":"active","ping":63},{"user_id":255,"name":"Rockhead","steam_id":76561197995196535,"connected_time":1765000000000,"state":"active","ping":63},{"user_id":227,"name":"Mage","steam_id":76561198285026879,"connected_time":3333000000000,"state":"active","ping":78},{"user_id":251,"name":"McDumDum","steam_id":76561198040738807,"connected_time":1939000000000,"state":"active","ping":68},{"user_id":256,"name":"straws","steam_id":76561199035698543,"connected_time":1636000000000,"state":"active","ping":70},{"user_id":263,"name":"Dog","steam_id":76561198450992953,"connected_time":1343000000000,"state":"active","ping":113},{"user_id":271,"name":"‚ô°Alyx‚ô°","steam_id":76561198024303978,"connected_time":956000000000,"state":"active","ping":60},{"user_id":252,"name":"Ventus","steam_id":76561198265767150,"connected_time":1929000000000,"state":"active","ping":83}]},{"server_id":400,"name":"Uncletopia | Atlanta | 3 | Stopwatch Beta","name_short":"atl-3","host":"atl-1.us.uncletopia.com","port":27035,"enabled":true,"region":"us-east","cc":"us","latitude":33.753746,"longitude":-84.38633,"reserved":0,"last_update":"0001-01-01T00:00:00Z","name_a2s":"Uncletopia | Atlanta | 3 | Stopwatch Beta","protocol":17,"map":"workshop/pl_badwater_pro_v12.ugc2142942074","folder":"tf","game":"Team Fortress","app_id":440,"player_count":0,"max_players":24,"Bots":0,"server_type":"Dedicated","server_os":"Linux","password":true,"vac":true,"version":"7742253","steam_id":85568392924515187,"keywords":["nocrits","nodmgspread","payload","uncletopia"],"game_id":440,"stv_port":27036,"stv_name":"Uncletopia | Atlanta | 3 | Stopwatch Beta | STV","players":null},{"server_id":401,"name":"Uncletopia | Atlanta | 4 | No Payload","name_short":"atl-4","host":"atl-1.us.uncletopia.com","port":27045,"enabled":true,"region":"us-east","cc":"us","latitude":33.753746,"longitude":-84.38633,"reserved":0,"last_update":"0001-01-01T00:00:00Z","name_a2s":"Uncletopia | Atlanta | 4 | No Payload","protocol":17,"map":"pl_pier","folder":"tf","game":"Team Fortress","app_id":440,"player_count":0,"max_players":24,"Bots":0,"server_type":"Dedicated","server_os":"Linux","password":true,"vac":true,"version":"7723704","steam_id":85568392924515188,"keywords":["nocrits","nodmgspread","payload","uncletopia"],"game_id":440,"stv_port":27046,"stv_name":"Uncletopia | Atlanta | 4 | No Payload | STV","players":null},{"server_id":2,"name":"Uncletopia | Chicago | 1 | All Maps","name_short":"chi-1","host":"chi-1.us.uncletopia.com","port":27015,"enabled":true,"region":"us-central","cc":"us","latitude":41.881832,"longitude":-87.62318,"reserved":0,"last_update":"0001-01-01T00:00:00Z","name_a2s":"Uncletopia | Chicago | 1 | All Maps","protocol":17,"map":"pl_badwater","folder":"tf","game":"Team Fortress","app_id":440,"player_count":24,"max_players":24,"Bots":0,"server_type":"Dedicated","server_os":"Linux","password":true,"vac":true,"version":"7742253","steam_id":85568392924469984,"keywords":["nocrits","nodmgspread","payload","uncletopia"],"game_id":440,"stv_port":27016,"stv_name":"Uncletopia | Chicago | 1 | All Maps | STV","players":[{"user_id":381,"name":"richard clock","steam_id":76561198048455671,"connected_time":2289000000000,"state":"active","ping":61},{"user_id":382,"name":"Cdesmondd","steam_id":76561198072774462,"connected_time":2011000000000,"state":"active","ping":56},{"user_id":392,"name":"PanPanPan111","steam_id":76561198197070906,"connected_time":1395000000000,"state":"active","ping":68},{"user_id":401,"name":"Dorkish","steam_id":76561199230885014,"connected_time":515000000000,"state":"active","ping":68},{"user_id":383,"name":"jrdoran","steam_id":76561197984753094,"connected_time":1924000000000,"state":"active","ping":54},{"user_id":398,"name":"god approaches","steam_id":76561198081617990,"connected_time":983000000000,"state":"active","ping":95},{"user_id":402,"name":"Fl4mingo","steam_id":76561198025601344,"connected_time":150000000000,"state":"active","ping":60},{"user_id":377,"name":"full mental alchemist","steam_id":76561198007187994,"connected_time":2566000000000,"state":"active","ping":60},{"user_id":315,"name":"Yimi","steam_id":76561198097984345,"connected_time":6918000000000,"state":"active","ping":87},{"user_id":385,"name":"Marcy2231","steam_id":76561198202323656,"connected_time":1831000000000,"state":"active","ping":74},{"user_id":394,"name":"TheJuiceCrew","steam_id":76561198109073254,"connected_time":1373000000000,"state":"active","ping":71},{"user_id":400,"name":"no","steam_id":76561198248853140,"connected_time":808000000000,"state":"active","ping":49},{"user_id":303,"name":"SomeCozyKid","steam_id":76561198086113234,"connected_time":7806000000000,"state":"active","ping":62},{"user_id":395,"name":"c64guy","steam_id":76561198023022744,"connected_time":1329000000000,"state":"active","ping":68},{"user_id":397,"name":"Brig.Gen.D_Dudepower","steam_id":76561198905510048,"connected_time":1147000000000,"state":"active","ping":59},{"user_id":373,"name":"kibble","steam_id":76561198077083011,"connected_time":2643000000000,"state":"active","ping":77},{"user_id":386,"name":"AmazingPlasma","steam_id":76561199005527586,"connected_time":1717000000000,"state":"active","ping":76},{"user_id":396,"name":"pim","steam_id":76561198095163441,"connected_time":1328000000000,"state":"active","ping":62},{"user_id":399,"name":"Nephs","steam_id":76561198136763403,"connected_time":945000000000,"state":"active","ping":76},{"user_id":376,"name":"king of bogers","steam_id":76561198045731295,"connected_time":2618000000000,"state":"active","ping":68},{"user_id":331,"name":"CAdaverOusPRophet","steam_id":76561198045304110,"connected_time":6316000000000,"state":"active","ping":51},{"user_id":391,"name":"Light","steam_id":76561198009169048,"connected_time":1573000000000,"state":"active","ping":73},{"user_id":389,"name":"Back with the milk","steam_id":76561199020105501,"connected_time":1656000000000,"state":"active","ping":82},{"user_id":338,"name":"[slug]","steam_id":76561197989592178,"connected_time":5799000000000,"state":"active","ping":71}]},{"server_id":106,"name":"Uncletopia | Chicago | 2 | All Maps","name_short":"chi-2","host":"chi-1.us.uncletopia.com","port":27025,"enabled":true,"region":"us-central","cc":"us","latitude":41.881832,"longitude":-87.62318,"reserved":0,"last_update":"0001-01-01T00:00:00Z","name_a2s":"Uncletopia | Chicago | 2 | All Maps","protocol":17,"map":"pl_frontier_final","folder":"tf","game":"Team Fortress","app_id":440,"player_count":24,"max_players":24,"Bots":0,"server_type":"Dedicated","server_os":"Linux","password":true,"vac":true,"version":"7742253","steam_id":85568392924469985,"keywords":["nocrits","nodmgspread","payload","uncletopia"],"game_id":440,"stv_port":27026,"stv_name":"Uncletopia | Chicago | 2 | All Maps | STV","players":[{"user_id":253,"name":"Reed","steam_id":76561198048226025,"connected_time":5222000000000,"state":"active","ping":48},{"user_id":314,"name":"Sink","steam_id":76561198192420249,"connected_time":1435000000000,"state":"active","ping":52},{"user_id":323,"name":"tanmantincan","steam_id":76561198105044427,"connected_time":732000000000,"state":"active","ping":85},{"user_id":298,"name":"uhooter","steam_id":76561198007829078,"connected_time":2560000000000,"state":"active","ping":53},{"user_id":299,"name":"Steggoman","steam_id":76561198202219235,"connected_time":2524000000000,"state":"active","ping":88},{"user_id":284,"name":"maS","steam_id":76561198033846407,"connected_time":3863000000000,"state":"active","ping":42},{"user_id":310,"name":"Bush.exe","steam_id":76561198124385307,"connected_time":1705000000000,"state":"active","ping":60},{"user_id":316,"name":"nhbiker","steam_id":76561198081277675,"connected_time":1352000000000,"state":"active","ping":60},{"user_id":317,"name":"hof","steam_id":76561199238923581,"connected_time":1228000000000,"state":"active","ping":119},{"user_id":306,"name":"infinite phantasm","steam_id":76561198050523437,"connected_time":1974000000000,"state":"active","ping":57},{"user_id":279,"name":"baguette","steam_id":76561198066048980,"connected_time":4258000000000,"state":"active","ping":45},{"user_id":286,"name":"Tingus Pingus","steam_id":76561198155412348,"connected_time":3839000000000,"state":"active","ping":54},{"user_id":305,"name":"primordialheath","steam_id":76561199386942638,"connected_time":2051000000000,"state":"active","ping":63},{"user_id":321,"name":"Nobody","steam_id":76561198286486517,"connected_time":964000000000,"state":"active","ping":75},{"user_id":322,"name":"shephard","steam_id":76561198043367011,"connected_time":809000000000,"state":"active","ping":62},{"user_id":280,"name":"ThatGuyFromClass","steam_id":76561198445601688,"connected_time":4245000000000,"state":"active","ping":65},{"user_id":250,"name":"Avel ‡∂û","steam_id":76561199245489816,"connected_time":5343000000000,"state":"active","ping":82},{"user_id":313,"name":"battle clown","steam_id":76561198045788371,"connected_time":1508000000000,"state":"active","ping":69},{"user_id":288,"name":"The cringefest ‚ô•","steam_id":76561198840872782,"connected_time":3701000000000,"state":"active","ping":65},{"user_id":292,"name":"The Hoagie Hero","steam_id":76561198057569298,"connected_time":3320000000000,"state":"active","ping":84},{"user_id":324,"name":"poey","steam_id":76561198865346767,"connected_time":563000000000,"state":"active","ping":92},{"user_id":325,"name":"Approved Lego","steam_id":76561199172189879,"connected_time":120000000000,"state":"active","ping":95},{"user_id":319,"name":"Mailman","steam_id":76561198090675970,"connected_time":995000000000,"state":"active","ping":49},{"user_id":304,"name":"Spyfall","steam_id":76561198081729993,"connected_time":2093000000000,"state":"active","ping":63}]},{"server_id":402,"name":"Uncletopia | Chicago | 3 | All Maps","name_short":"chi-3","host":"chi-1.us.uncletopia.com","port":27035,"enabled":true,"region":"us-central","cc":"us","latitude":41.881832,"longitude":-87.62318,"reserved":0,"last_update":"0001-01-01T00:00:00Z","name_a2s":"Uncletopia | Chicago | 3 | All Maps","protocol":17,"map":"pl_barnblitz","folder":"tf","game":"Team Fortress","app_id":440,"player_count":23,"max_players":24,"Bots":0,"server_type":"Dedicated","server_os":"Linux","password":true,"vac":true,"version":"7742253","steam_id":85568392924515191,"keywords":["nocrits","nodmgspread","payload","uncletopia"],"game_id":440,"stv_port":27036,"stv_name":"Uncletopia | Chicago | 3 | All Maps | STV","players":[{"user_id":251,"name":"three three","steam_id":76561198177354155,"connected_time":178000000000,"state":"active","ping":56},{"user_id":232,"name":"Arima","steam_id":76561198093711854,"connected_time":2212000000000,"state":"active","ping":76},{"user_id":229,"name":"Hariboz","steam_id":76561198244468102,"connected_time":2257000000000,"state":"active","ping":137},{"user_id":245,"name":"Would You Make Me A Sandwich?","steam_id":76561198152332211,"connected_time":915000000000,"state":"active","ping":45},{"user_id":221,"name":"Nikofreaker","steam_id":76561198320604061,"connected_time":2463000000000,"state":"active","ping":75},{"user_id":239,"name":"JetZ","steam_id":76561199122488957,"connected_time":1326000000000,"state":"active","ping":63},{"user_id":246,"name":"AAAAAAAAAAAAAAAAAAAAAAAAAAAAAAA","steam_id":76561198817866879,"connected_time":274000000000,"state":"active","ping":84},{"user_id":252,"name":"Rappitor","steam_id":76561198105613110,"connected_time":135000000000,"state":"active","ping":49},{"user_id":200,"name":"‚í∑‚ì™‚ì™‚ì£‚ì®‚ìí‚ìê‚ìö‚ìî‚ì¢","steam_id":76561198088776421,"connected_time":3554000000000,"state":"active","ping":62},{"user_id":250,"name":"Kipernicus","steam_id":76561197998180212,"connected_time":219000000000,"state":"active","ping":48},{"user_id":235,"name":"Bag of Chips","steam_id":76561198057374871,"connected_time":1952000000000,"state":"active","ping":60},{"user_id":226,"name":"The Anomaly TF2","steam_id":76561198834819021,"connected_time":2311000000000,"state":"active","ping":61},{"user_id":244,"name":"rlty","steam_id":76561198009395055,"connected_time":1000000000000,"state":"active","ping":61},{"user_id":253,"name":"Commodore_Perry","steam_id":76561197986675784,"connected_time":132000000000,"state":"active","ping":73},{"user_id":254,"name":"Filthy Acts at Reasonable Price","steam_id":76561198354615890,"connected_time":124000000000,"state":"active","ping":98},{"user_id":255,"name":"Vladikr1","steam_id":76561198401495362,"connected_time":89000000000,"state":"active","ping":50},{"user_id":225,"name":"Lone Dancer","steam_id":76561199096241116,"connected_time":2322000000000,"state":"active","ping":56},{"user_id":238,"name":"Cat Drone","steam_id":76561198088151251,"connected_time":1345000000000,"state":"active","ping":71},{"user_id":141,"name":"GuyGoom","steam_id":76561198254522178,"connected_time":6867000000000,"state":"active","ping":58},{"user_id":191,"name":"ly","steam_id":76561198062922146,"connected_time":4151000000000,"state":"active","ping":79},{"user_id":256,"name":"JayK","steam_id":76561198046277492,"connected_time":61000000000,"state":"active","ping":75},{"user_id":241,"name":"CapnKris22","steam_id":76561198049010994,"connected_time":1268000000000,"state":"active","ping":60},{"user_id":231,"name":"MasterJunk","steam_id":76561198126924678,"connected_time":2229000000000,"state":"active","ping":89}]},{"server_id":403,"name":"Uncletopia | Chicago | 4 | All Maps","name_short":"chi-4","host":"chi-1.us.uncletopia.com","port":27045,"enabled":true,"region":"us-central","cc":"us","latitude":41.881832,"longitude":-87.62318,"reserved":0,"last_update":"0001-01-01T00:00:00Z","name_a2s":"Uncletopia | Chicago | 4 | All Maps","protocol":17,"map":"pl_upward","folder":"tf","game":"Team Fortress","app_id":440,"player_count":24,"max_players":24,"Bots":0,"server_type":"Dedicated","server_os":"Linux","password":true,"vac":true,"version":"7742253","steam_id":85568392924515193,"keywords":["nocrits","nodmgspread","payload","uncletopia"],"game_id":440,"stv_port":27046,"stv_name":"Uncletopia | Chicago | 4 | All Maps | STV","players":[{"user_id":77,"name":"Adalwolfa","steam_id":76561198194671218,"connected_time":147000000000,"state":"active","ping":45},{"user_id":18,"name":"Claidhim","steam_id":76561198078139596,"connected_time":3191000000000,"state":"active","ping":64},{"user_id":35,"name":"Benito Mussolini","steam_id":76561198362801147,"connected_time":2549000000000,"state":"active","ping":148},{"user_id":20,"name":"Artemis","steam_id":76561198079751655,"connected_time":3056000000000,"state":"active","ping":60},{"user_id":21,"name":"Elsirk","steam_id":76561198055665464,"connected_time":3037000000000,"state":"active","ping":65},{"user_id":78,"name":"ÁÅ´Êòü | Marsy","steam_id":76561198014979892,"connected_time":108000000000,"state":"active","ping":76},{"user_id":56,"name":"void_star","steam_id":76561198035696014,"connected_time":1942000000000,"state":"active","ping":75},{"user_id":32,"name":"KevCraft","steam_id":76561199000622939,"connected_time":2623000000000,"state":"active","ping":67},{"user_id":48,"name":"Do not kill the friendly","steam_id":76561198084982609,"connected_time":2166000000000,"state":"active","ping":72},{"user_id":80,"name":"kametro4","steam_id":76561198835430429,"connected_time":69000000000,"state":"active","ping":89},{"user_id":65,"name":"GROOVYROOM","steam_id":76561199153684166,"connected_time":1293000000000,"state":"active","ping":107},{"user_id":57,"name":"autumn","steam_id":76561198036901822,"connected_time":1839000000000,"state":"active","ping":63},{"user_id":73,"name":"Invincible213","steam_id":76561198147392290,"connected_time":507000000000,"state":"active","ping":50},{"user_id":68,"name":"groond","steam_id":76561198309426720,"connected_time":826000000000,"state":"active","ping":62},{"user_id":76,"name":"doug2023","steam_id":76561198020534493,"connected_time":185000000000,"state":"active","ping":61},{"user_id":74,"name":"Konrad Vilulf","steam_id":76561198111124481,"connected_time":378000000000,"state":"active","ping":94},{"user_id":53,"name":"srv","steam_id":76561198026589960,"connected_time":2045000000000,"state":"active","ping":45},{"user_id":45,"name":"Shiny Dunsparce","steam_id":76561197999111354,"connected_time":2196000000000,"state":"active","ping":62},{"user_id":71,"name":"Uncle","steam_id":76561197988647705,"connected_time":642000000000,"state":"active","ping":63},{"user_id":49,"name":"Walter.J.Kovacs","steam_id":76561199034498380,"connected_time":2158000000000,"state":"active","ping":111},{"user_id":81,"name":"glumbo","steam_id":76561199023327176,"connected_time":65000000000,"state":"active","ping":76},{"user_id":51,"name":"Hedigo","steam_id":76561198415104808,"connected_time":2151000000000,"state":"active","ping":60},{"user_id":54,"name":"steakfarmasian","steam_id":76561198212754036,"connected_time":2032000000000,"state":"active","ping":61},{"user_id":82,"name":"Super Noob","steam_id":76561199179611350,"connected_time":64000000000,"state":"active","ping":60}]},{"server_id":36,"name":"Uncletopia | Chicago | 5 | All Maps","name_short":"chi-5","host":"chi-2.us.uncletopia.com","port":27015,"enabled":true,"region":"us-central","cc":"us","latitude":41.881832,"longitude":-87.62318,"reserved":0,"last_update":"0001-01-01T00:00:00Z","name_a2s":"Uncletopia | Chicago | 5 | All Maps","protocol":17,"map":"cp_altitude","folder":"tf","game":"Team Fortress","app_id":440,"player_count":3,"max_players":24,"Bots":0,"server_type":"Dedicated","server_os":"Linux","password":true,"vac":true,"version":"7742253","steam_id":85568392924866362,"keywords":["cp","nocrits","nodmgspread","uncletopia"],"game_id":440,"stv_port":27016,"stv_name":"Uncletopia | Chicago | 5 | All Maps | STV","players":[{"user_id":11,"name":"THE DONUT LORD","steam_id":76561198946117409,"connected_time":337000000000,"state":"active","ping":241},{"user_id":12,"name":"bean man","steam_id":76561198798516824,"connected_time":323000000000,"state":"active","ping":149},{"user_id":13,"name":"Elmo","steam_id":76561198838596371,"connected_time":273000000000,"state":"active","ping":45}]},{"server_id":37,"name":"Uncletopia | Chicago | 6 | All Maps","name_short":"chi-6","host":"chi-2.us.uncletopia.com","port":27025,"enabled":true,"region":"us-central","cc":"us","latitude":41.881832,"longitude":-87.62318,"reserved":0,"last_update":"0001-01-01T00:00:00Z","name_a2s":"Uncletopia | Chicago | 6 | All Maps","protocol":17,"map":"pl_barnblitz","folder":"tf","game":"Team Fortress","app_id":440,"player_count":24,"max_players":24,"Bots":0,"server_type":"Dedicated","server_os":"Linux","password":true,"vac":true,"version":"7742253","steam_id":85568392924866363,"keywords":["nocrits","nodmgspread","payload","uncletopia"],"game_id":440,"stv_port":27026,"stv_name":"Uncletopia | Chicago | 6 | All Maps | STV","players":[{"user_id":69,"name":"mintongryphon","steam_id":76561199427146067,"connected_time":4529000000000,"state":"active","ping":67},{"user_id":84,"name":"germba","steam_id":76561198421591995,"connected_time":2715000000000,"state":"active","ping":75},{"user_id":106,"name":"better off (dying)","steam_id":76561198066585785,"connected_time":869000000000,"state":"active","ping":80},{"user_id":13,"name":"Zin","steam_id":76561198079763004,"connected_time":9524000000000,"state":"active","ping":77},{"user_id":101,"name":"Lullaby","steam_id":76561198061103166,"connected_time":1936000000000,"state":"active","ping":57},{"user_id":115,"name":"DNG","steam_id":76561199467226556,"connected_time":491000000000,"state":"active","ping":107},{"user_id":114,"name":"Skag","steam_id":76561198812913145,"connected_time":524000000000,"state":"active","ping":75},{"user_id":116,"name":"NoShen","steam_id":76561198147434663,"connected_time":480000000000,"state":"active","ping":74},{"user_id":117,"name":"Twitch.tv/WhatsWater","steam_id":76561198036410259,"connected_time":288000000000,"state":"active","ping":66},{"user_id":109,"name":"potato pat","steam_id":76561198025489194,"connected_time":826000000000,"state":"active","ping":85},{"user_id":81,"name":"send dudes","steam_id":76561198084277762,"connected_time":2742000000000,"state":"active","ping":60},{"user_id":64,"name":"catboy phroliax","steam_id":76561198207075529,"connected_time":5234000000000,"state":"active","ping":85},{"user_id":89,"name":"Pancakes","steam_id":76561198143132640,"connected_time":2452000000000,"state":"active","ping":76},{"user_id":60,"name":"BirdsEatSeeds","steam_id":76561198216002355,"connected_time":5959000000000,"state":"active","ping":85},{"user_id":118,"name":"Jimmyjams1","steam_id":76561198869715324,"connected_time":191000000000,"state":"spawning","ping":73},{"user_id":110,"name":"Slayaplaya1998","steam_id":76561198168124191,"connected_time":740000000000,"state":"active","ping":65},{"user_id":105,"name":"basil","steam_id":76561198075758026,"connected_time":1038000000000,"state":"active","ping":97},{"user_id":83,"name":"Barry","steam_id":76561198371953939,"connected_time":2732000000000,"state":"active","ping":78},{"user_id":119,"name":"THUNDER","steam_id":76561198218815757,"connected_time":173000000000,"state":"active","ping":85},{"user_id":94,"name":"ebbaxter13","steam_id":76561198839647688,"connected_time":2246000000000,"state":"active","ping":81},{"user_id":75,"name":"tA.CHRONIC","steam_id":76561197960760990,"connected_time":4326000000000,"state":"active","ping":55},{"user_id":59,"name":"shadow6","steam_id":76561197979807910,"connected_time":6150000000000,"state":"active","ping":172},{"user_id":120,"name":"glitchy","steam_id":76561199009135766,"connected_time":159000000000,"state":"active","ping":42},{"user_id":102,"name":"stop","steam_id":76561198268686419,"connected_time":1896000000000,"state":"active","ping":64}]},{"server_id":38,"name":"Uncletopia | Chicago | 7 | Stopwatch Beta","name_short":"chi-7","host":"chi-2.us.uncletopia.com","port":27035,"enabled":true,"region":"us-central","cc":"us","latitude":41.881832,"longitude":-87.62318,"reserved":0,"last_update":"0001-01-01T00:00:00Z","name_a2s":"Uncletopia | Chicago | 7 | Stopwatch Beta","protocol":17,"map":"pl_upward","folder":"tf","game":"Team Fortress","app_id":440,"player_count":0,"max_players":24,"Bots":0,"server_type":"Dedicated","server_os":"Linux","password":true,"vac":true,"version":"7742253","steam_id":85568392924866364,"keywords":["nocrits","nodmgspread","payload","uncletopia"],"game_id":440,"stv_port":27036,"stv_name":"Uncletopia | Chicago | 7 | Stopwatch Beta | STV","players":null},{"server_id":39,"name":"Uncletopia | Chicago | 8 | Community","name_short":"chi-8","host":"chi-2.us.uncletopia.com","port":27045,"enabled":true,"region":"us-central","cc":"us","latitude":41.881832,"longitude":-87.62318,"reserved":0,"last_update":"0001-01-01T00:00:00Z","name_a2s":"Uncletopia | Chicago | 8 | Community","protocol":17,"map":"workshop/koth_bagel_rc5.ugc2514036946","folder":"tf","game":"Team Fortress","app_id":440,"player_count":24,"max_players":24,"Bots":0,"server_type":"Dedicated","server_os":"Linux","password":true,"vac":true,"version":"7742253","steam_id":85568392924866365,"keywords":["cp","nocrits","nodmgspread","uncletopia"],"game_id":440,"stv_port":27046,"stv_name":"Uncletopia | Chicago | 8 | Community | STV","players":[{"user_id":156,"name":"9. choking on apple","steam_id":76561198984612489,"connected_time":78000000000,"state":"active","ping":90},{"user_id":127,"name":"barker bill","steam_id":76561198018451994,"connected_time":1984000000000,"state":"active","ping":88},{"user_id":88,"name":"NUt","steam_id":76561198031007966,"connected_time":3695000000000,"state":"active","ping":59},{"user_id":73,"name":"Lil Spoook","steam_id":76561198115638936,"connected_time":4150000000000,"state":"active","ping":63},{"user_id":147,"name":"Isopentyl Ethanoate","steam_id":76561198116389072,"connected_time":1094000000000,"state":"active","ping":110},{"user_id":46,"name":"Kzjytsugn","steam_id":76561198130241974,"connected_time":5677000000000,"state":"active","ping":100},{"user_id":74,"name":"Ignited","steam_id":76561198385604391,"connected_time":4149000000000,"state":"active","ping":73},{"user_id":148,"name":"Ags","steam_id":76561198105798295,"connected_time":1081000000000,"state":"active","ping":174},{"user_id":132,"name":"Kiddo0","steam_id":76561198359596849,"connected_time":1770000000000,"state":"active","ping":72},{"user_id":144,"name":"Sharper Spoon","steam_id":76561198877130687,"connected_time":1357000000000,"state":"active","ping":65},{"user_id":122,"name":"Blitzy","steam_id":76561198149472890,"connected_time":2364000000000,"state":"active","ping":75},{"user_id":150,"name":"WarWulff","steam_id":76561198169922955,"connected_time":1022000000000,"state":"active","ping":85},{"user_id":108,"name":"Shep","steam_id":76561198129854182,"connected_time":2750000000000,"state":"active","ping":111},{"user_id":151,"name":"jamalbob33","steam_id":76561198410281331,"connected_time":879000000000,"state":"active","ping":93},{"user_id":154,"name":"sasharudzik","steam_id":76561199126617781,"connected_time":516000000000,"state":"active","ping":77},{"user_id":138,"name":"Dr. FeelGoose","steam_id":76561198029496191,"connected_time":1682000000000,"state":"active","ping":96},{"user_id":137,"name":"Le Meilleur","steam_id":76561198054581325,"connected_time":1692000000000,"state":"active","ping":53},{"user_id":121,"name":"Chafn","steam_id":76561197969386702,"connected_time":2420000000000,"state":"active","ping":102},{"user_id":139,"name":"Grouch","steam_id":76561198080790944,"connected_time":1632000000000,"state":"active","ping":68},{"user_id":40,"name":"üÖúüÖîüÖîüÖöüÖ¢üÖ£üÖî\ufffd\ufffd\ufffd","steam_id":76561197999748343,"connected_time":5810000000000,"state":"active","ping":61},{"user_id":153,"name":"Mirari","steam_id":76561198126889358,"connected_time":756000000000,"state":"active","ping":83},{"user_id":86,"name":"sebjzy","steam_id":76561198009959034,"connected_time":3879000000000,"state":"active","ping":83},{"user_id":141,"name":"Jolteo_","steam_id":76561198118018703,"connected_time":1623000000000,"state":"active","ping":81}]},{"server_id":8,"name":"Uncletopia | Dallas | 1 | All Maps","name_short":"dal-1","host":"dal-1.us.uncletopia.com","port":27015,"enabled":true,"region":"us-central","cc":"us","latitude":32.779167,"longitude":-96.80889,"reserved":0,"last_update":"0001-01-01T00:00:00Z","name_a2s":"Uncletopia | Dallas | 1 | All Maps","protocol":17,"map":"pl_upward","folder":"tf","game":"Team Fortress","app_id":440,"player_count":24,"max_players":24,"Bots":0,"server_type":"Dedicated","server_os":"Linux","password":true,"vac":true,"version":"7742253","steam_id":85568392924469986,"keywords":["nocrits","nodmgspread","payload","uncletopia"],"game_id":440,"stv_port":27016,"stv_name":"Uncletopia | Dallas | 1 | All Maps | STV","players":[{"user_id":264,"name":"Kosmo","steam_id":76561198079015843,"connected_time":2362000000000,"state":"active","ping":59},{"user_id":290,"name":"Big McThankies From McSpankies","steam_id":76561198020516880,"connected_time":438000000000,"state":"active","ping":77},{"user_id":275,"name":"Wayside","steam_id":76561198999627870,"connected_time":997000000000,"state":"active","ping":69},{"user_id":291,"name":"Adam","steam_id":76561198039247081,"connected_time":333000000000,"state":"active","ping":44},{"user_id":278,"name":"Strang","steam_id":76561198046936399,"connected_time":981000000000,"state":"active","ping":90},{"user_id":287,"name":"plink","steam_id":76561198057829889,"connected_time":740000000000,"state":"active","ping":109},{"user_id":194,"name":"mbell1199","steam_id":76561198827517736,"connected_time":6185000000000,"state":"active","ping":49},{"user_id":240,"name":"Mitty","steam_id":76561198014177684,"connected_time":3925000000000,"state":"active","ping":77},{"user_id":281,"name":"survivalist keeda","steam_id":76561198277979851,"connected_time":935000000000,"state":"active","ping":96},{"user_id":237,"name":"gluechugger369","steam_id":76561198164037160,"connected_time":4262000000000,"state":"active","ping":88},{"user_id":184,"name":"deech","steam_id":76561198066429444,"connected_time":6424000000000,"state":"active","ping":87},{"user_id":211,"name":"The Robot Menace","steam_id":76561198043390413,"connected_time":5293000000000,"state":"active","ping":56},{"user_id":276,"name":"Grinski","steam_id":76561198054787727,"connected_time":997000000000,"state":"active","ping":98},{"user_id":279,"name":"The Caretaker","steam_id":76561198125241411,"connected_time":977000000000,"state":"active","ping":101},{"user_id":284,"name":"HOG RIDER","steam_id":76561198298589502,"connected_time":886000000000,"state":"active","ping":86},{"user_id":292,"name":"refrigerator","steam_id":76561198034385095,"connected_time":70000000000,"state":"active","ping":62},{"user_id":282,"name":"Zoro01","steam_id":76561198407989540,"connected_time":928000000000,"state":"active","ping":92},{"user_id":169,"name":"G. Howard Dee","steam_id":76561198058382812,"connected_time":7306000000000,"state":"active","ping":68},{"user_id":263,"name":"„ÄåJimbo Reference„Äç","steam_id":76561198016078541,"connected_time":2576000000000,"state":"active","ping":82},{"user_id":283,"name":"Detective obvious (f2p)","steam_id":76561198977045933,"connected_time":913000000000,"state":"active","ping":94},{"user_id":289,"name":"Wolverine Fingerblaster","steam_id":76561198095394582,"connected_time":524000000000,"state":"active","ping":63},{"user_id":265,"name":"Ret","steam_id":76561198272398545,"connected_time":2199000000000,"state":"active","ping":113},{"user_id":267,"name":"CalebDOTexe","steam_id":76561198042071293,"connected_time":2162000000000,"state":"active","ping":64},{"user_id":210,"name":"flexer_2000","steam_id":76561198084422657,"connected_time":5360000000000,"state":"active","ping":76}]},{"server_id":108,"name":"Uncletopia | Dallas | 2 | All Maps","name_short":"dal-2","host":"dal-1.us.uncletopia.com","port":27025,"enabled":true,"region":"us-central","cc":"us","latitude":32.779167,"longitude":-96.80889,"reserved":0,"last_update":"0001-01-01T00:00:00Z","name_a2s":"Uncletopia | Dallas | 2 | All Maps","protocol":17,"map":"pl_frontier_final","folder":"tf","game":"Team Fortress","app_id":440,"player_count":24,"max_players":24,"Bots":0,"server_type":"Dedicated","server_os":"Linux","password":true,"vac":true,"version":"7742253","steam_id":85568392924469988,"keywords":["nocrits","nodmgspread","payload","uncletopia"],"game_id":440,"stv_port":27026,"stv_name":"Uncletopia | Dallas | 2 | All Maps | STV","players":[{"user_id":207,"name":"plastiquemonk","steam_id":76561198126035719,"connected_time":3366000000000,"state":"active","ping":87},{"user_id":239,"name":"A Pair of Candy Canes","steam_id":76561198052239472,"connected_time":1598000000000,"state":"active","ping":76},{"user_id":208,"name":"SodaKid_7","steam_id":76561198079419485,"connected_time":3351000000000,"state":"active","ping":75},{"user_id":240,"name":"SKINGRAPH","steam_id":76561198082933650,"connected_time":1542000000000,"state":"active","ping":80},{"user_id":231,"name":"Rin \"Hindwing\" Redtail","steam_id":76561199074865638,"connected_time":2447000000000,"state":"active","ping":52},{"user_id":253,"name":"StatTrak‚Ñ¢ Apple (Factory New)","steam_id":76561199062601243,"connected_time":439000000000,"state":"active","ping":93},{"user_id":254,"name":"Qliphoth dweller","steam_id":76561198195517770,"connected_time":423000000000,"state":"active","ping":47},{"user_id":241,"name":"Lingus Loopus","steam_id":76561198041426868,"connected_time":1529000000000,"state":"active","ping":50},{"user_id":256,"name":"blizzard","steam_id":76561198066056920,"connected_time":406000000000,"state":"active","ping":40},{"user_id":242,"name":"William1X","steam_id":76561198987884043,"connected_time":1513000000000,"state":"active","ping":78},{"user_id":250,"name":"[LINUX] F2P=S*(M/B)+H || Spy!","steam_id":76561198093538786,"connected_time":953000000000,"state":"active","ping":45},{"user_id":261,"name":"name","steam_id":76561198173293207,"connected_time":288000000000,"state":"active","ping":143},{"user_id":257,"name":"Iron","steam_id":76561198247918478,"connected_time":386000000000,"state":"active","ping":64},{"user_id":258,"name":"FunGi","steam_id":76561198881418662,"connected_time":377000000000,"state":"active","ping":71},{"user_id":245,"name":"Todouw","steam_id":76561199197628378,"connected_time":1488000000000,"state":"active","ping":152},{"user_id":260,"name":"IxMic88","steam_id":76561198018552479,"connected_time":324000000000,"state":"active","ping":53},{"user_id":179,"name":"Maximussergio","steam_id":76561198437220428,"connected_time":5059000000000,"state":"active","ping":151},{"user_id":238,"name":"btcbuster","steam_id":76561198861503305,"connected_time":1614000000000,"state":"active","ping":56},{"user_id":175,"name":"(Edited)","steam_id":76561198201657342,"connected_time":5225000000000,"state":"active","ping":81},{"user_id":194,"name":"Fossil0303","steam_id":76561197981161303,"connected_time":4504000000000,"state":"active","ping":45},{"user_id":252,"name":"Vestuvian","steam_id":76561199007823355,"connected_time":446000000000,"state":"active","ping":69},{"user_id":259,"name":"Gwando","steam_id":76561198294629124,"connected_time":355000000000,"state":"active","ping":54},{"user_id":246,"name":"Sploosh","steam_id":76561198160544636,"connected_time":1481000000000,"state":"active","ping":73},{"user_id":223,"name":"civilian","steam_id":76561198289811981,"connected_time":3023000000000,"state":"active","ping":67}]},{"server_id":5,"name":"Uncletopia | Frankfurt | 1 | All Maps","name_short":"frk-1","host":"frk-1.de.uncletopia.com","port":27015,"enabled":true,"region":"eu","cc":"de","latitude":50.110924,"longitude":8.682127,"reserved":0,"last_update":"0001-01-01T00:00:00Z","name_a2s":"Uncletopia | Frankfurt | 1 | All Maps","protocol":17,"map":"pl_snowycoast","folder":"tf","game":"Team Fortress","app_id":440,"player_count":24,"max_players":24,"Bots":0,"server_type":"Dedicated","server_os":"Linux","password":true,"vac":true,"version":"7742253","steam_id":85568392924469989,"keywords":["nocrits","nodmgspread","payload","uncletopia"],"game_id":440,"stv_port":27016,"stv_name":"Uncletopia | Frankfurt | 1 | All Maps | STV","players":[{"user_id":577,"name":"Zelmor","steam_id":76561197997708311,"connected_time":4064000000000,"state":"active","ping":69},{"user_id":612,"name":"lucy","steam_id":76561198261852808,"connected_time":2902000000000,"state":"active","ping":43},{"user_id":607,"name":"r06u3","steam_id":76561198254099253,"connected_time":2918000000000,"state":"active","ping":172},{"user_id":579,"name":"salmonander","steam_id":76561198104577052,"connected_time":4055000000000,"state":"active","ping":99},{"user_id":608,"name":".4b","steam_id":76561198249832770,"connected_time":2917000000000,"state":"active","ping":60},{"user_id":609,"name":"pepsi enjoyer","steam_id":76561198087734745,"connected_time":2912000000000,"state":"active","ping":74},{"user_id":646,"name":"weSt","steam_id":76561198000913325,"connected_time":830000000000,"state":"active","ping":60},{"user_id":610,"name":"ohm","steam_id":76561198817414001,"connected_time":2910000000000,"state":"active","ping":74},{"user_id":626,"name":"jaMie","steam_id":76561198170148783,"connected_time":2063000000000,"state":"active","ping":56},{"user_id":533,"name":"LordTrap.exe","steam_id":76561198318089716,"connected_time":7659000000000,"state":"active","ping":60},{"user_id":624,"name":"gfjhsdf","steam_id":76561198136736426,"connected_time":2485000000000,"state":"active","ping":56},{"user_id":652,"name":"trite","steam_id":76561197983765323,"connected_time":281000000000,"state":"active","ping":61},{"user_id":642,"name":"HeloOo_per The Communist","steam_id":76561199099995357,"connected_time":978000000000,"state":"active","ping":78},{"user_id":636,"name":"yuh","steam_id":76561199005555839,"connected_time":1368000000000,"state":"active","ping":66},{"user_id":621,"name":"Cukros Szar","steam_id":76561198236304832,"connected_time":2768000000000,"state":"active","ping":59},{"user_id":644,"name":"Barack Obama from Fortnite","steam_id":76561198207393945,"connected_time":881000000000,"state":"active","ping":53},{"user_id":656,"name":"finger","steam_id":76561198032101031,"connected_time":52000000000,"state":"active","ping":129},{"user_id":634,"name":"Nex","steam_id":76561199223747483,"connected_time":1384000000000,"state":"active","ping":70},{"user_id":647,"name":"Krios","steam_id":76561199198145670,"connected_time":829000000000,"state":"active","ping":39},{"user_id":590,"name":"Tohtori gerhard (official)","steam_id":76561198835081622,"connected_time":3914000000000,"state":"active","ping":103},{"user_id":648,"name":"Skullflesh","steam_id":76561198286722734,"connected_time":818000000000,"state":"active","ping":61},{"user_id":618,"name":"d√∂g√∂s robi","steam_id":76561198171587978,"connected_time":2859000000000,"state":"active","ping":68},{"user_id":653,"name":"Dummy","steam_id":76561198349741126,"connected_time":95000000000,"state":"active","ping":75},{"user_id":649,"name":"rummy","steam_id":76561197997573379,"connected_time":810000000000,"state":"active","ping":59}]},{"server_id":110,"name":"Uncletopia | Frankfurt | 2 | All Maps","name_short":"frk-2","host":"frk-1.de.uncletopia.com","port":27025,"enabled":true,"region":"eu","cc":"de","latitude":50.110924,"longitude":8.682127,"reserved":0,"last_update":"0001-01-01T00:00:00Z","name_a2s":"Uncletopia | Frankfurt | 2 | All Maps","protocol":17,"map":"pl_badwater","folder":"tf","game":"Team Fortress","app_id":440,"player_count":23,"max_players":24,"Bots":0,"server_type":"Dedicated","server_os":"Linux","password":true,"vac":true,"version":"7742253","steam_id":85568392924469990,"keywords":["nocrits","nodmgspread","payload","uncletopia"],"game_id":440,"stv_port":27026,"stv_name":"Uncletopia | Frankfurt | 2 | All Maps | STV","players":[{"user_id":503,"name":"SirVitek","steam_id":76561198142961758,"connected_time":3812000000000,"state":"active","ping":66},{"user_id":528,"name":"Tom","steam_id":76561198126800063,"connected_time":1890000000000,"state":"active","ping":55},{"user_id":546,"name":"zdX","steam_id":76561198163735277,"connected_time":721000000000,"state":"active","ping":45},{"user_id":553,"name":"Acucutl","steam_id":76561198133867096,"connected_time":458000000000,"state":"active","ping":95},{"user_id":517,"name":"snake9544","steam_id":76561198083076205,"connected_time":2926000000000,"state":"active","ping":63},{"user_id":538,"name":"Ducky","steam_id":76561198203043307,"connected_time":1680000000000,"state":"active","ping":105},{"user_id":505,"name":"Blyatwork","steam_id":76561198825379598,"connected_time":3784000000000,"state":"active","ping":39},{"user_id":554,"name":"Xiter","steam_id":76561198009362258,"connected_time":425000000000,"state":"active","ping":68},{"user_id":544,"name":"20BB Raxor","steam_id":76561198239927434,"connected_time":794000000000,"state":"active","ping":81},{"user_id":548,"name":"Prison Mike","steam_id":76561198014221596,"connected_time":672000000000,"state":"active","ping":71},{"user_id":520,"name":"Zateske","steam_id":76561198047446276,"connected_time":2583000000000,"state":"active","ping":55},{"user_id":545,"name":"thebananabomb00","steam_id":76561198296409283,"connected_time":783000000000,"state":"active","ping":75},{"user_id":508,"name":"Jonas Destark","steam_id":76561198030327441,"connected_time":3737000000000,"state":"active","ping":59},{"user_id":552,"name":"jelle.de.alternatief","steam_id":76561199405861337,"connected_time":516000000000,"state":"active","ping":70},{"user_id":555,"name":"Pissblaster","steam_id":76561198063104196,"connected_time":295000000000,"state":"active","ping":64},{"user_id":558,"name":"Valle (Valdemar)","steam_id":76561198184554894,"connected_time":4000000000,"state":"spawning","ping":55},{"user_id":513,"name":"TonTon","steam_id":76561198145468895,"connected_time":3506000000000,"state":"active","ping":48},{"user_id":534,"name":"Lux","steam_id":76561198060417740,"connected_time":1798000000000,"state":"active","ping":59},{"user_id":475,"name":"‚òÖpoyo‚òÖ","steam_id":76561198150078959,"connected_time":5248000000000,"state":"active","ping":69},{"user_id":557,"name":"Geile Flamme","steam_id":76561199206159814,"connected_time":71000000000,"state":"active","ping":50},{"user_id":536,"name":"ff:ff:ff:ff:ff:ff","steam_id":76561198072122983,"connected_time":1764000000000,"state":"active","ping":61},{"user_id":537,"name":"‡∂ûbominasus 2137  #SaveTF2","steam_id":76561198030062981,"connected_time":1741000000000,"state":"active","ping":58},{"user_id":522,"name":"Tafrum","steam_id":76561198053868147,"connected_time":2349000000000,"state":"active","ping":80}]},{"server_id":308,"name":"Uncletopia | Frankfurt | 3 | All Maps","name_short":"frk-3","host":"frk-1.de.uncletopia.com","port":27035,"enabled":true,"region":"eu","cc":"de","latitude":50.110924,"longitude":8.682127,"reserved":0,"last_update":"0001-01-01T00:00:00Z","name_a2s":"Uncletopia | Frankfurt | 3 | All Maps","protocol":17,"map":"pl_swiftwater_final1","folder":"tf","game":"Team Fortress","app_id":440,"player_count":24,"max_players":24,"Bots":0,"server_type":"Dedicated","server_os":"Linux","password":true,"vac":true,"version":"7742253","steam_id":85568392924504274,"keywords":["nocrits","nodmgspread","payload","uncletopia"],"game_id":440,"stv_port":27036,"stv_name":"Uncletopia | Frankfurt | 3 | All Maps | STV","players":[{"user_id":269,"name":"Dieu-Sama","steam_id":76561198002075862,"connected_time":3742000000000,"state":"active","ping":59},{"user_id":308,"name":"Micha≈Ç","steam_id":76561198320346362,"connected_time":1038000000000,"state":"active","ping":59},{"user_id":216,"name":"manliest tf2 player","steam_id":76561198209360887,"connected_time":8247000000000,"state":"active","ping":60},{"user_id":306,"name":"the joy of recycling","steam_id":76561198415564349,"connected_time":1088000000000,"state":"active","ping":62},{"user_id":268,"name":"AWP Bodyshot :) ‚ù§","steam_id":76561198029928533,"connected_time":3915000000000,"state":"active","ping":45},{"user_id":183,"name":"Allmathaur","steam_id":76561199405602290,"connected_time":10382000000000,"state":"active","ping":94},{"user_id":182,"name":"Gempooh","steam_id":76561198098463950,"connected_time":10409000000000,"state":"active","ping":89},{"user_id":284,"name":"ProMate","steam_id":76561198277138236,"connected_time":2650000000000,"state":"active","ping":135},{"user_id":292,"name":"Matthew Jefferson","steam_id":76561198134256921,"connected_time":1955000000000,"state":"active","ping":62},{"user_id":300,"name":"Ryba Piecia","steam_id":76561198149413048,"connected_time":1516000000000,"state":"active","ping":107},{"user_id":278,"name":"donk","steam_id":76561198162676648,"connected_time":2994000000000,"state":"active","ping":75},{"user_id":246,"name":"Coolboi02496","steam_id":76561199382243093,"connected_time":6430000000000,"state":"active","ping":44},{"user_id":298,"name":"FJADL","steam_id":76561198237008214,"connected_time":1672000000000,"state":"active","ping":59},{"user_id":288,"name":"ItsFinnishDaniel","steam_id":76561199078675974,"connected_time":2110000000000,"state":"active","ping":64},{"user_id":312,"name":"lanzer","steam_id":76561198049983016,"connected_time":225000000000,"state":"active","ping":91},{"user_id":303,"name":"hungry little man","steam_id":76561199229110612,"connected_time":1209000000000,"state":"active","ping":78},{"user_id":313,"name":"jovi_","steam_id":76561198449280552,"connected_time":219000000000,"state":"active","ping":65},{"user_id":305,"name":"yourtruemedic","steam_id":76561198826881879,"connected_time":1104000000000,"state":"active","ping":68},{"user_id":296,"name":"Frylock","steam_id":76561198050292560,"connected_time":1818000000000,"state":"active","ping":50},{"user_id":311,"name":"sigma female","steam_id":76561198298576765,"connected_time":258000000000,"state":"active","ping":81},{"user_id":314,"name":"Scipionemiliano","steam_id":76561198027646559,"connected_time":216000000000,"state":"active","ping":113},{"user_id":309,"name":"the meta","steam_id":76561199071495058,"connected_time":1034000000000,"state":"active","ping":141},{"user_id":317,"name":"eple","steam_id":76561198017686306,"connected_time":184000000000,"state":"active","ping":60},{"user_id":294,"name":"cactus varo","steam_id":76561198968770670,"connected_time":1901000000000,"state":"active","ping":84}]},{"server_id":309,"name":"Uncletopia | Frankfurt | 4 | All Maps","name_short":"frk-4","host":"frk-1.de.uncletopia.com","port":27045,"enabled":true,"region":"eu","cc":"de","latitude":50.110924,"longitude":8.682127,"reserved":0,"last_update":"0001-01-01T00:00:00Z","name_a2s":"Uncletopia | Frankfurt | 4 | All Maps","protocol":17,"map":"pl_upward","folder":"tf","game":"Team Fortress","app_id":440,"player_count":24,"max_players":24,"Bots":0,"server_type":"Dedicated","server_os":"Linux","password":true,"vac":true,"version":"7742253","steam_id":85568392924504275,"keywords":["nocrits","nodmgspread","payload","uncletopia"],"game_id":440,"stv_port":27046,"stv_name":"Uncletopia | Frankfurt | 4 | All Maps | STV","players":[{"user_id":370,"name":"√°rv√≠zt≈±r≈ë t√ºk√∂rf√∫r√≥g√©p","steam_id":76561198296643061,"connected_time":2357000000000,"state":"active","ping":63},{"user_id":378,"name":"Miloleopard (bad at TF2)","steam_id":76561199196616680,"connected_time":1571000000000,"state":"active","ping":67},{"user_id":379,"name":"Hunnington","steam_id":76561198052219699,"connected_time":1570000000000,"state":"active","ping":59},{"user_id":384,"name":"lupe.-","steam_id":76561198079813788,"connected_time":1445000000000,"state":"active","ping":60},{"user_id":319,"name":"Duck_gaming","steam_id":76561198841587079,"connected_time":5678000000000,"state":"active","ping":61},{"user_id":391,"name":"Eimantas","steam_id":76561198041701187,"connected_time":894000000000,"state":"active","ping":57},{"user_id":392,"name":"Kodutah","steam_id":76561198203405574,"connected_time":795000000000,"state":"active","ping":82},{"user_id":399,"name":"Shaoul","steam_id":76561197993479881,"connected_time":461000000000,"state":"active","ping":49},{"user_id":396,"name":"ohemgee","steam_id":76561198043873119,"connected_time":650000000000,"state":"active","ping":136},{"user_id":363,"name":"nvmHastee","steam_id":76561199371458295,"connected_time":2445000000000,"state":"active","ping":72},{"user_id":357,"name":"homestuck on main","steam_id":76561198820197253,"connected_time":2664000000000,"state":"active","ping":75},{"user_id":371,"name":"juni","steam_id":76561198036504214,"connected_time":2352000000000,"state":"active","ping":51},{"user_id":367,"name":"YEEET","steam_id":76561198914938199,"connected_time":2407000000000,"state":"active","ping":78},{"user_id":400,"name":"festry","steam_id":76561198873296090,"connected_time":58000000000,"state":"active","ping":73},{"user_id":365,"name":"scut 686","steam_id":76561199189018923,"connected_time":2435000000000,"state":"active","ping":76},{"user_id":388,"name":"Tywhip","steam_id":76561199207545191,"connected_time":1071000000000,"state":"active","ping":60},{"user_id":368,"name":"loveless","steam_id":76561198142256651,"connected_time":2401000000000,"state":"active","ping":88},{"user_id":389,"name":"Ott","steam_id":76561198276464481,"connected_time":1055000000000,"state":"active","ping":68},{"user_id":394,"name":"Jarate Man","steam_id":76561198122801176,"connected_time":762000000000,"state":"active","ping":41},{"user_id":338,"name":"Florua","steam_id":76561198182297846,"connected_time":3859000000000,"state":"active","ping":58},{"user_id":374,"name":"The Fellow Feller","steam_id":76561198188864306,"connected_time":2311000000000,"state":"active","ping":65},{"user_id":386,"name":"Goldy","steam_id":76561198386274766,"connected_time":1153000000000,"state":"active","ping":172},{"user_id":376,"name":"The Ghost of Rizz-mas Past","steam_id":76561198119547399,"connected_time":2188000000000,"state":"active","ping":47},{"user_id":395,"name":"Prim","steam_id":76561198043191342,"connected_time":748000000000,"state":"active","ping":70}]},{"server_id":310,"name":"Uncletopia | Frankfurt | 5 | All Maps","name_short":"frk-5","host":"frk-1.de.uncletopia.com","port":27055,"enabled":true,"region":"eu","cc":"de","latitude":50.110924,"longitude":8.682127,"reserved":0,"last_update":"0001-01-01T00:00:00Z","name_a2s":"Uncletopia | Frankfurt | 5 | All Maps","protocol":17,"map":"pl_coal_event","folder":"tf","game":"Team Fortress","app_id":440,"player_count":24,"max_players":24,"Bots":0,"server_type":"Dedicated","server_os":"Linux","password":true,"vac":true,"version":"7742253","steam_id":85568392924504277,"keywords":["nocrits","nodmgspread","payload","uncletopia"],"game_id":440,"stv_port":27056,"stv_name":"Uncletopia | Frankfurt | 5 | All Maps | STV","players":[{"user_id":498,"name":"GregerUlander","steam_id":76561198152375055,"connected_time":1323000000000,"state":"active","ping":75},{"user_id":499,"name":"saarfaarsik","steam_id":76561198043684537,"connected_time":1295000000000,"state":"active","ping":46},{"user_id":529,"name":"Kotlet schabowy","steam_id":76561198048983509,"connected_time":339000000000,"state":"active","ping":73},{"user_id":512,"name":"Wasyl","steam_id":76561198097427305,"connected_time":789000000000,"state":"active","ping":79},{"user_id":410,"name":"MAJAX","steam_id":76561198254828632,"connected_time":6969000000000,"state":"active","ping":50},{"user_id":518,"name":"Baki „ÉÑ","steam_id":76561198193615529,"connected_time":714000000000,"state":"active","ping":60},{"user_id":521,"name":"LiquidSoft","steam_id":76561198377979111,"connected_time":605000000000,"state":"active","ping":67},{"user_id":476,"name":"Meltryllis","steam_id":76561198157773041,"connected_time":2855000000000,"state":"active","ping":89},{"user_id":481,"name":"jeff honky","steam_id":76561198204209071,"connected_time":2179000000000,"state":"active","ping":44},{"user_id":501,"name":"Birdman","steam_id":76561198418536638,"connected_time":1246000000000,"state":"active","ping":100},{"user_id":508,"name":"LordWoodpecker","steam_id":76561198031647387,"connected_time":1027000000000,"state":"active","ping":60},{"user_id":503,"name":"Mutch_Time","steam_id":76561198256512093,"connected_time":1109000000000,"state":"active","ping":105},{"user_id":513,"name":"st√≥≈Ç z powy≈Çamywanymi nogami","steam_id":76561198095134889,"connected_time":782000000000,"state":"active","ping":78},{"user_id":526,"name":"sefabrother51 W","steam_id":76561198310506363,"connected_time":533000000000,"state":"active","ping":86},{"user_id":505,"name":"ZyZ 2.0","steam_id":76561199178204775,"connected_time":1097000000000,"state":"active","ping":118},{"user_id":528,"name":"Garlic","steam_id":76561198169843213,"connected_time":363000000000,"state":"active","ping":66},{"user_id":506,"name":"typicalcrimson","steam_id":76561198295439747,"connected_time":1092000000000,"state":"active","ping":78},{"user_id":509,"name":"SuperMiro107","steam_id":76561198806447155,"connected_time":995000000000,"state":"active","ping":124},{"user_id":527,"name":"Tactical Flatulence","steam_id":76561197999581730,"connected_time":510000000000,"state":"active","ping":68},{"user_id":495,"name":"Good Ol' Frank","steam_id":76561198118490202,"connected_time":1517000000000,"state":"active","ping":62},{"user_id":522,"name":"Pepsi","steam_id":76561199150485603,"connected_time":587000000000,"state":"active","ping":53},{"user_id":515,"name":"PISSINMYPUSSY","steam_id":76561198191129538,"connected_time":766000000000,"state":"active","ping":77},{"user_id":530,"name":"Laura ‚ù§","steam_id":76561198975652501,"connected_time":176000000000,"state":"active","ping":96},{"user_id":524,"name":"BigBreakfast","steam_id":76561198857827160,"connected_time":568000000000,"state":"active","ping":76}]},{"server_id":311,"name":"Uncletopia | Frankfurt | 6 | All Maps","name_short":"frk-6","host":"frk-1.de.uncletopia.com","port":27065,"enabled":true,"region":"eu","cc":"de","latitude":50.110924,"longitude":8.682127,"reserved":0,"last_update":"0001-01-01T00:00:00Z","name_a2s":"Uncletopia | Frankfurt | 6 | All Maps","protocol":17,"map":"pl_swiftwater_final1","folder":"tf","game":"Team Fortress","app_id":440,"player_count":0,"max_players":24,"Bots":0,"server_type":"Dedicated","server_os":"Linux","password":true,"vac":true,"version":"7742253","steam_id":85568392924504278,"keywords":["nocrits","nodmgspread","payload","uncletopia"],"game_id":440,"stv_port":27066,"stv_name":"Uncletopia | Frankfurt | 6 | All Maps | STV","players":null},{"server_id":23,"name":"Uncletopia | Frankfurt | 7 | Stopwatch Beta","name_short":"frk-7","host":"frk-1.de.uncletopia.com","port":27075,"enabled":true,"region":"eu","cc":"de","latitude":50.110924,"longitude":8.682127,"reserved":0,"last_update":"0001-01-01T00:00:00Z","name_a2s":"Uncletopia | Frankfurt | 7 | Stopwatch Beta","protocol":17,"map":"workshop/pl_barnblitz_pro7.ugc582280235","folder":"tf","game":"Team Fortress","app_id":440,"player_count":0,"max_players":24,"Bots":0,"server_type":"Dedicated","server_os":"Linux","password":true,"vac":true,"version":"7742253","steam_id":85568392924742827,"keywords":["nocrits","nodmgspread","payload","uncletopia"],"game_id":440,"stv_port":27076,"stv_name":"Uncletopia | Frankfurt | 7 | Stopwatch Beta | STV","players":null},{"server_id":24,"name":"Uncletopia | Frankfurt | 8 | Community","name_short":"frk-8","host":"frk-1.de.uncletopia.com","port":27085,"enabled":true,"region":"eu","cc":"de","latitude":50.110924,"longitude":8.682127,"reserved":0,"last_update":"0001-01-01T00:00:00Z","name_a2s":"Uncletopia | Frankfurt | 8 | Community","protocol":17,"map":"workshop/cp_caldera_rc2.ugc2834196889","folder":"tf","game":"Team Fortress","app_id":440,"player_count":24,"max_players":24,"Bots":0,"server_type":"Dedicated","server_os":"Linux","password":true,"vac":true,"version":"7742253","steam_id":85568392924742828,"keywords":["cp","nocrits","nodmgspread","uncletopia"],"game_id":440,"stv_port":27086,"stv_name":"Uncletopia | Frankfurt | 8 | Community | STV","players":[{"user_id":305,"name":"shrrrrrrekkkkk","steam_id":76561198347241576,"connected_time":2012000000000,"state":"active","ping":155},{"user_id":236,"name":"YO MAMA(CZ)","steam_id":76561198057308825,"connected_time":6445000000000,"state":"active","ping":59},{"user_id":172,"name":"Fat Pigeon","steam_id":76561198817940142,"connected_time":9654000000000,"state":"active","ping":53},{"user_id":321,"name":"cum inhaler","steam_id":76561198081767500,"connected_time":624000000000,"state":"active","ping":52},{"user_id":327,"name":"chocolate flavoured femboy","steam_id":76561198819353867,"connected_time":101000000000,"state":"active","ping":51},{"user_id":326,"name":"JustACoomer","steam_id":76561198151433181,"connected_time":112000000000,"state":"active","ping":52},{"user_id":328,"name":"Peepee Jar Man","steam_id":76561198334042273,"connected_time":62000000000,"state":"spawning","ping":249},{"user_id":322,"name":"Zambezi the Boss of Thornz","steam_id":76561198183186069,"connected_time":530000000000,"state":"active","ping":82},{"user_id":319,"name":"0vtis","steam_id":76561198056673592,"connected_time":833000000000,"state":"active","ping":92},{"user_id":279,"name":"Baklava Enjoyer","steam_id":76561198990679631,"connected_time":3769000000000,"state":"active","ping":77},{"user_id":315,"name":"DoctorTopLeL","steam_id":76561198088533595,"connected_time":1286000000000,"state":"active","ping":109},{"user_id":303,"name":"Sweetcheesus","steam_id":76561198022299033,"connected_time":2174000000000,"state":"active","ping":60},{"user_id":229,"name":"Avoonix","steam_id":76561198186954897,"connected_time":7266000000000,"state":"active","ping":74},{"user_id":285,"name":"Sappin'","steam_id":76561198107054587,"connected_time":3443000000000,"state":"active","ping":56},{"user_id":325,"name":"The Bean Man","steam_id":76561198046932811,"connected_time":491000000000,"state":"active","ping":84},{"user_id":287,"name":"Zero (Orbital Gear Mastermind)","steam_id":76561198017416816,"connected_time":2949000000000,"state":"active","ping":64},{"user_id":318,"name":"Ôº¨ÔΩïÔΩÉÔΩÅ ÔºÆÔΩÖÔΩíÔΩñÔΩâ","steam_id":76561198015871883,"connected_time":964000000000,"state":"active","ping":64},{"user_id":231,"name":"brokenphilip","steam_id":76561198080960604,"connected_time":7102000000000,"state":"active","ping":97},{"user_id":313,"name":"Sammy","steam_id":76561198303329392,"connected_time":1455000000000,"state":"active","ping":41},{"user_id":290,"name":"Welder","steam_id":76561198355300561,"connected_time":2827000000000,"state":"active","ping":72},{"user_id":311,"name":"quack","steam_id":76561198121003465,"connected_time":1543000000000,"state":"active","ping":67},{"user_id":320,"name":"foolproof","steam_id":76561198115801132,"connected_time":743000000000,"state":"active","ping":47},{"user_id":329,"name":"LasagnaLarry22","steam_id":76561198089478290,"connected_time":19000000000,"state":"active","ping":67},{"user_id":324,"name":"Hotgamerdad","steam_id":76561198085940613,"connected_time":497000000000,"state":"active","ping":71}]},{"server_id":202,"name":"Uncletopia | Hong Kong | 1 | All Maps","name_short":"hgk-1","host":"hgk-1.hk.uncletopia.com","port":27015,"enabled":true,"region":"asia","cc":"hk","latitude":22.302711,"longitude":114.177216,"reserved":0,"last_update":"0001-01-01T00:00:00Z","name_a2s":"Uncletopia | Hong Kong | 1 | All Maps","protocol":17,"map":"plr_hightower","folder":"tf","game":"Team Fortress","app_id":440,"player_count":1,"max_players":24,"Bots":0,"server_type":"Dedicated","server_os":"Linux","password":true,"vac":true,"version":"7742253","steam_id":85568392924494504,"keywords":["nocrits","nodmgspread","payload","uncletopia"],"game_id":440,"stv_port":27016,"stv_name":"Uncletopia | Hong Kong | 1 | All Maps | STV","players":[{"user_id":690,"name":"DioOvaHeaven","steam_id":76561199023330685,"connected_time":17000000000,"state":"active","ping":277}]},{"server_id":1,"name":"Uncletopia | Los Angeles | 1 | All Maps","name_short":"lax-1","host":"lax-1.us.uncletopia.com","port":27015,"enabled":true,"region":"us-west","cc":"us","latitude":33.94279,"longitude":-118.41004,"reserved":0,"last_update":"0001-01-01T00:00:00Z","name_a2s":"Uncletopia | Los Angeles | 1 | All Maps","protocol":17,"map":"cp_mountainlab","folder":"tf","game":"Team Fortress","app_id":440,"player_count":14,"max_players":24,"Bots":0,"server_type":"Dedicated","server_os":"Linux","password":true,"vac":true,"version":"7742253","steam_id":85568392924469991,"keywords":["cp","nocrits","nodmgspread","uncletopia"],"game_id":440,"stv_port":27016,"stv_name":"Uncletopia | Los Angeles | 1 | All Maps | STV","players":[{"user_id":70,"name":"MasterGeek.MX","steam_id":76561198063355220,"connected_time":338000000000,"state":"active","ping":111},{"user_id":67,"name":"BorstchBag","steam_id":76561198155294045,"connected_time":410000000000,"state":"active","ping":91},{"user_id":59,"name":"Kira","steam_id":76561198021582061,"connected_time":864000000000,"state":"active","ping":68},{"user_id":68,"name":"berserker_tf2 ttv","steam_id":76561198303464488,"connected_time":398000000000,"state":"active","ping":61},{"user_id":69,"name":"young thug weaponry","steam_id":76561198363821364,"connected_time":395000000000,"state":"active","ping":48},{"user_id":71,"name":"Gucci Shades","steam_id":76561198059537262,"connected_time":231000000000,"state":"active","ping":78},{"user_id":14,"name":"laggy mcstab","steam_id":76561198106379962,"connected_time":3409000000000,"state":"active","ping":109},{"user_id":52,"name":"Grzegorz Brzƒôczyszczykiewicz","steam_id":76561198229010452,"connected_time":1667000000000,"state":"active","ping":61},{"user_id":72,"name":"R4wbeef","steam_id":76561198178072673,"connected_time":216000000000,"state":"active","ping":88},{"user_id":73,"name":"grove","steam_id":76561198797049119,"connected_time":138000000000,"state":"active","ping":110},{"user_id":74,"name":"Feel the bern","steam_id":76561198078824519,"connected_time":65000000000,"state":"active","ping":44},{"user_id":75,"name":"Void","steam_id":76561198308290211,"connected_time":49000000000,"state":"spawning","ping":65},{"user_id":33,"name":"DoctorHa","steam_id":76561198044026008,"connected_time":2893000000000,"state":"active","ping":50},{"user_id":65,"name":"ThatEmoEmu","steam_id":76561198272304706,"connected_time":497000000000,"state":"active","ping":75}]},{"server_id":112,"name":"Uncletopia | Los Angeles | 2 | All Maps","name_short":"lax-2","host":"lax-1.us.uncletopia.com","port":27025,"enabled":true,"region":"us-west","cc":"us","latitude":33.94279,"longitude":-118.41004,"reserved":0,"last_update":"0001-01-01T00:00:00Z","name_a2s":"Uncletopia | Los Angeles | 2 | All Maps","protocol":17,"map":"pl_borneo","folder":"tf","game":"Team Fortress","app_id":440,"player_count":0,"max_players":24,"Bots":0,"server_type":"Dedicated","server_os":"Linux","password":true,"vac":true,"version":"7742253","steam_id":85568392924469992,"keywords":["nocrits","nodmgspread","payload","uncletopia"],"game_id":440,"stv_port":27026,"stv_name":"Uncletopia | Los Angeles | 2 | All Maps | STV","players":null},{"server_id":324,"name":"Uncletopia | Los Angeles | 3 | All Maps","name_short":"lax-3","host":"lax-1.us.uncletopia.com","port":27035,"enabled":true,"region":"us-west","cc":"us","latitude":33.94279,"longitude":-118.41004,"reserved":0,"last_update":"0001-01-01T00:00:00Z","name_a2s":"Uncletopia | Los Angeles | 3 | All Maps","protocol":17,"map":"pl_barnblitz","folder":"tf","game":"Team Fortress","app_id":440,"player_count":0,"max_players":24,"Bots":0,"server_type":"Dedicated","server_os":"Linux","password":true,"vac":true,"version":"7742253","steam_id":85568392924510198,"keywords":["nocrits","nodmgspread","payload","uncletopia"],"game_id":440,"stv_port":27036,"stv_name":"Uncletopia | Los Angeles | 3 | All Maps | STV","players":null},{"server_id":25,"name":"Uncletopia | Los Angeles | 4 | Stopwatch Beta","name_short":"lax-4","host":"lax-1.us.uncletopia.com","port":27045,"enabled":true,"region":"us-west","cc":"us","latitude":33.94279,"longitude":-118.41004,"reserved":0,"last_update":"0001-01-01T00:00:00Z","name_a2s":"Uncletopia | Los Angeles | 4 | Stopwatch Beta","protocol":17,"map":"workshop/koth_product_final.ugc454272353","folder":"tf","game":"Team Fortress","app_id":440,"player_count":0,"max_players":24,"Bots":0,"server_type":"Dedicated","server_os":"Linux","password":true,"vac":true,"version":"7742253","steam_id":85568392924510199,"keywords":["cp","nocrits","nodmgspread","uncletopia"],"game_id":440,"stv_port":27046,"stv_name":"Uncletopia | Los Angeles | 4 | Stopwatch Beta | STV","players":null},{"server_id":11,"name":"Uncletopia | London | 1 | All Maps","name_short":"lon-1","host":"lon-1.uk.uncletopia.com","port":27015,"enabled":true,"region":"eu","cc":"gb","latitude":51.509865,"longitude":-0.118092,"reserved":0,"last_update":"0001-01-01T00:00:00Z","name_a2s":"Uncletopia | London | 1 | All Maps","protocol":17,"map":"pl_barnblitz","folder":"tf","game":"Team Fortress","app_id":440,"player_count":24,"max_players":24,"Bots":0,"server_type":"Dedicated","server_os":"Linux","password":true,"vac":true,"version":"7742253","steam_id":85568392924367362,"keywords":["nocrits","nodmgspread","payload","uncletopia"],"game_id":440,"stv_port":27016,"stv_name":"Uncletopia | London | 1 | All Maps | STV","players":[{"user_id":690,"name":"Slex_","steam_id":76561198118483396,"connected_time":76000000000,"state":"active","ping":50},{"user_id":671,"name":"Mancomb Seepgood","steam_id":76561197974116369,"connected_time":2886000000000,"state":"active","ping":39},{"user_id":655,"name":"Dominus.","steam_id":76561199065917088,"connected_time":3517000000000,"state":"active","ping":60},{"user_id":633,"name":"Xiqui","steam_id":76561198818386611,"connected_time":4825000000000,"state":"active","ping":79},{"user_id":688,"name":"Fred","steam_id":76561198107137362,"connected_time":1112000000000,"state":"active","ping":51},{"user_id":646,"name":"gnarly business","steam_id":76561198832688767,"connected_time":4185000000000,"state":"active","ping":46},{"user_id":684,"name":"etc","steam_id":76561197998394797,"connected_time":1787000000000,"state":"active","ping":59},{"user_id":679,"name":"Hedj","steam_id":76561198108369687,"connected_time":2402000000000,"state":"active","ping":47},{"user_id":637,"name":"dripstein","steam_id":76561198059598696,"connected_time":4728000000000,"state":"active","ping":73},{"user_id":681,"name":"PuregoldSTF","steam_id":76561198220182655,"connected_time":2377000000000,"state":"active","ping":47},{"user_id":654,"name":"ShoobyDooby","steam_id":76561198118473910,"connected_time":3530000000000,"state":"active","ping":51},{"user_id":635,"name":"Milca_11","steam_id":76561198848650365,"connected_time":4804000000000,"state":"active","ping":84},{"user_id":691,"name":"teddy","steam_id":76561198007436837,"connected_time":76000000000,"state":"active","ping":31},{"user_id":639,"name":"MrXtr","steam_id":76561198966247397,"connected_time":4554000000000,"state":"active","ping":68},{"user_id":687,"name":"Bouncing Bullet","steam_id":76561197973653171,"connected_time":1145000000000,"state":"active","ping":51},{"user_id":689,"name":"Chloemew | TFConnect 2022!","steam_id":76561198042071762,"connected_time":1066000000000,"state":"active","ping":45},{"user_id":666,"name":"Tort","steam_id":76561198329646769,"connected_time":3072000000000,"state":"active","ping":51},{"user_id":682,"name":"panakid","steam_id":76561198364121077,"connected_time":2167000000000,"state":"active","ping":90},{"user_id":659,"name":"Adopted?","steam_id":76561198118667043,"connected_time":3450000000000,"state":"active","ping":46},{"user_id":641,"name":"tamz","steam_id":76561198146873972,"connected_time":4359000000000,"state":"active","ping":30},{"user_id":675,"name":"Pinroe","steam_id":76561198968160899,"connected_time":2758000000000,"state":"active","ping":65},{"user_id":685,"name":"SOPHIIEE","steam_id":76561198443798981,"connected_time":1179000000000,"state":"active","ping":56},{"user_id":686,"name":"MF DOOM FAN","steam_id":76561198799092327,"connected_time":1179000000000,"state":"active","ping":51},{"user_id":678,"name":"BrownBreadMan","steam_id":76561199092834214,"connected_time":2634000000000,"state":"active","ping":53}]},{"server_id":114,"name":"Uncletopia | London | 2 | All Maps","name_short":"lon-2","host":"lon-1.uk.uncletopia.com","port":27025,"enabled":true,"region":"eu","cc":"gb","latitude":51.509865,"longitude":-0.118092,"reserved":0,"last_update":"0001-01-01T00:00:00Z","name_a2s":"Uncletopia | London | 2 | All Maps","protocol":17,"map":"pl_upward","folder":"tf","game":"Team Fortress","app_id":440,"player_count":24,"max_players":24,"Bots":0,"server_type":"Dedicated","server_os":"Linux","password":true,"vac":true,"version":"7742253","steam_id":85568392924470941,"keywords":["nocrits","nodmgspread","payload","uncletopia"],"game_id":440,"stv_port":27026,"stv_name":"Uncletopia | London | 2 | All Maps | STV","players":[{"user_id":370,"name":"Penis Contortionist","steam_id":76561198073663784,"connected_time":6193000000000,"state":"active","ping":67},{"user_id":492,"name":"manKe","steam_id":76561198008564860,"connected_time":19000000000,"state":"active","ping":58},{"user_id":483,"name":"python","steam_id":76561198822897799,"connected_time":814000000000,"state":"active","ping":123},{"user_id":484,"name":"Pyrolander","steam_id":76561198050785450,"connected_time":769000000000,"state":"active","ping":52},{"user_id":473,"name":"jd","steam_id":76561198071502515,"connected_time":1357000000000,"state":"active","ping":76},{"user_id":490,"name":"Mandel","steam_id":76561199183213205,"connected_time":364000000000,"state":"active","ping":91},{"user_id":485,"name":"‚ùÄsnorlax","steam_id":76561198051629288,"connected_time":745000000000,"state":"active","ping":165},{"user_id":465,"name":"Ser≈æant R≈Ø≈æen√≠nov√© Avok√°d","steam_id":76561198140404998,"connected_time":1976000000000,"state":"active","ping":71},{"user_id":436,"name":"Jainpeur","steam_id":76561198037938833,"connected_time":2820000000000,"state":"active","ping":52},{"user_id":430,"name":"Nuuskis","steam_id":76561198084042012,"connected_time":3100000000000,"state":"active","ping":90},{"user_id":474,"name":"Spycrab101","steam_id":76561198141836805,"connected_time":1341000000000,"state":"active","ping":48},{"user_id":392,"name":"Spyoru","steam_id":76561199422949621,"connected_time":5622000000000,"state":"active","ping":71},{"user_id":446,"name":"Buddy","steam_id":76561198050185582,"connected_time":2459000000000,"state":"active","ping":61},{"user_id":494,"name":"spy amongus","steam_id":76561199129509545,"connected_time":14000000000,"state":"spawning","ping":162},{"user_id":489,"name":"Aaron","steam_id":76561197990046953,"connected_time":563000000000,"state":"active","ping":74},{"user_id":477,"name":"Dolphin2011","steam_id":76561197997323419,"connected_time":1139000000000,"state":"active","ping":85},{"user_id":460,"name":"Yoinky Spoinky Do'er","steam_id":76561198120949216,"connected_time":2094000000000,"state":"active","ping":36},{"user_id":487,"name":"General Antifascista","steam_id":76561198194714570,"connected_time":718000000000,"state":"active","ping":52},{"user_id":481,"name":"Sir Skyber","steam_id":76561198064440004,"connected_time":978000000000,"state":"active","ping":92},{"user_id":464,"name":"Windows Vista Cruiser","steam_id":76561198064102233,"connected_time":2032000000000,"state":"active","ping":65},{"user_id":466,"name":"Robreto","steam_id":76561198145367795,"connected_time":1673000000000,"state":"active","ping":94},{"user_id":468,"name":"Thesis","steam_id":76561199308784371,"connected_time":1512000000000,"state":"active","ping":58},{"user_id":458,"name":"Los Pollos Hermanos","steam_id":76561198146425583,"connected_time":2166000000000,"state":"active","ping":79},{"user_id":488,"name":"RIFT","steam_id":76561198991622379,"connected_time":628000000000,"state":"active","ping":42}]},{"server_id":320,"name":"Uncletopia | London | 3 | All Maps","name_short":"lon-3","host":"lon-1.uk.uncletopia.com","port":27035,"enabled":true,"region":"eu","cc":"gb","latitude":51.509865,"longitude":-0.118092,"reserved":0,"last_update":"0001-01-01T00:00:00Z","name_a2s":"Uncletopia | London | 3 | All Maps","protocol":17,"map":"pl_pier","folder":"tf","game":"Team Fortress","app_id":440,"player_count":24,"max_players":24,"Bots":0,"server_type":"Dedicated","server_os":"Linux","password":true,"vac":true,"version":"7742253","steam_id":85568392924510192,"keywords":["nocrits","nodmgspread","payload","uncletopia"],"game_id":440,"stv_port":27036,"stv_name":"Uncletopia | London | 3 | All Maps | STV","players":[{"user_id":604,"name":"Hot._.Chocopops","steam_id":76561199025668594,"connected_time":1333000000000,"state":"active","ping":80},{"user_id":619,"name":"StabbyKnife","steam_id":76561198094010004,"connected_time":526000000000,"state":"active","ping":88},{"user_id":595,"name":"Sipsu","steam_id":76561198059424107,"connected_time":1685000000000,"state":"active","ping":86},{"user_id":615,"name":"Bentley","steam_id":76561197978252169,"connected_time":613000000000,"state":"active","ping":59},{"user_id":597,"name":"Murt678","steam_id":76561199207213375,"connected_time":1628000000000,"state":"active","ping":104},{"user_id":629,"name":"kbbq","steam_id":76561198346638308,"connected_time":370000000000,"state":"active","ping":57},{"user_id":584,"name":"nem≈õs","steam_id":76561198134203031,"connected_time":2237000000000,"state":"active","ping":69},{"user_id":585,"name":"Starach","steam_id":76561198084530972,"connected_time":2159000000000,"state":"active","ping":61},{"user_id":620,"name":"Sneaky boi","steam_id":76561199195985387,"connected_time":499000000000,"state":"active","ping":100},{"user_id":631,"name":"Explosive Poptart","steam_id":76561198023918830,"connected_time":310000000000,"state":"active","ping":43},{"user_id":577,"name":"Doogie","steam_id":76561198846924693,"connected_time":2824000000000,"state":"active","ping":50},{"user_id":614,"name":"Getrkod","steam_id":76561198986560793,"connected_time":666000000000,"state":"active","ping":51},{"user_id":622,"name":"Cosmetic brain","steam_id":76561198055936410,"connected_time":490000000000,"state":"active","ping":78},{"user_id":562,"name":"Lewylow","steam_id":76561198005425686,"connected_time":4024000000000,"state":"active","ping":54},{"user_id":616,"name":"Axord","steam_id":76561199289652176,"connected_time":612000000000,"state":"active","ping":59},{"user_id":621,"name":"Swayer","steam_id":76561198056192460,"connected_time":496000000000,"state":"active","ping":60},{"user_id":551,"name":"Samus","steam_id":76561198045943019,"connected_time":5094000000000,"state":"active","ping":59},{"user_id":554,"name":"TurboTabs","steam_id":76561198009785131,"connected_time":4501000000000,"state":"active","ping":54},{"user_id":624,"name":"FROYO domando","steam_id":76561199150367705,"connected_time":443000000000,"state":"active","ping":137},{"user_id":611,"name":"Lewee","steam_id":76561198058828018,"connected_time":786000000000,"state":"active","ping":45},{"user_id":565,"name":"Caesium_R4","steam_id":76561198432410602,"connected_time":3925000000000,"state":"active","ping":59},{"user_id":590,"name":"Accident","steam_id":76561198115160396,"connected_time":1987000000000,"state":"active","ping":79},{"user_id":618,"name":"gagalak","steam_id":76561198089979108,"connected_time":566000000000,"state":"active","ping":104},{"user_id":625,"name":"Pence","steam_id":76561198124994550,"connected_time":443000000000,"state":"active","ping":50}]},{"server_id":321,"name":"Uncletopia | London | 4 | All Maps","name_short":"lon-4","host":"lon-1.uk.uncletopia.com","port":27045,"enabled":true,"region":"eu","cc":"gb","latitude":51.509865,"longitude":-0.118092,"reserved":0,"last_update":"0001-01-01T00:00:00Z","name_a2s":"Uncletopia | London | 4 | All Maps","protocol":17,"map":"pl_swiftwater_final1","folder":"tf","game":"Team Fortress","app_id":440,"player_count":24,"max_players":24,"Bots":0,"server_type":"Dedicated","server_os":"Linux","password":true,"vac":true,"version":"7742253","steam_id":85568392924510193,"keywords":["nocrits","nodmgspread","payload","uncletopia"],"game_id":440,"stv_port":27046,"stv_name":"Uncletopia | London | 4 | All Maps | STV","players":[{"user_id":420,"name":"Kyeel_Smeel","steam_id":76561199164471622,"connected_time":2618000000000,"state":"active","ping":54},{"user_id":429,"name":"xfolo","steam_id":76561198219022400,"connected_time":1837000000000,"state":"active","ping":39},{"user_id":436,"name":"s–™rbog–™z","steam_id":76561198973921054,"connected_time":1611000000000,"state":"active","ping":70},{"user_id":418,"name":"Falconetti","steam_id":76561198029930580,"connected_time":2900000000000,"state":"active","ping":66},{"user_id":415,"name":"C Y R I L","steam_id":76561198044081687,"connected_time":3127000000000,"state":"active","ping":48},{"user_id":409,"name":"Sonny","steam_id":76561198042064091,"connected_time":3258000000000,"state":"active","ping":58},{"user_id":438,"name":"Dakeyras","steam_id":76561198057069564,"connected_time":1436000000000,"state":"active","ping":93},{"user_id":443,"name":"Sir Sammie","steam_id":76561198329808137,"connected_time":725000000000,"state":"active","ping":39},{"user_id":426,"name":"EGirl | Klarra","steam_id":76561198077745407,"connected_time":2060000000000,"state":"active","ping":72},{"user_id":431,"name":"pl_badwater","steam_id":76561198152184280,"connected_time":1808000000000,"state":"active","ping":60},{"user_id":432,"name":"pl_z≈Çawoda","steam_id":76561198040588109,"connected_time":1739000000000,"state":"active","ping":83},{"user_id":433,"name":"emerge","steam_id":76561198186882891,"connected_time":1714000000000,"state":"active","ping":134},{"user_id":435,"name":"Psychicpie","steam_id":76561198126065206,"connected_time":1657000000000,"state":"active","ping":59},{"user_id":428,"name":"Obvi","steam_id":76561198088735927,"connected_time":2058000000000,"state":"active","ping":55},{"user_id":345,"name":"TylowStar","steam_id":76561198357107806,"connected_time":6906000000000,"state":"active","ping":75},{"user_id":410,"name":"kuiperc","steam_id":76561198169511570,"connected_time":3250000000000,"state":"active","ping":36},{"user_id":437,"name":"Coac","steam_id":76561198085265740,"connected_time":1602000000000,"state":"active","ping":68},{"user_id":444,"name":"‚ô• Cirno ‚ô•","steam_id":76561198834982738,"connected_time":695000000000,"state":"active","ping":61},{"user_id":453,"name":"Echo of Abyss","steam_id":76561198981841782,"connected_time":216000000000,"state":"active","ping":76},{"user_id":454,"name":"toothpaste vaper","steam_id":76561198078458780,"connected_time":122000000000,"state":"active","ping":43},{"user_id":449,"name":"Samwise","steam_id":76561198160115838,"connected_time":466000000000,"state":"active","ping":54},{"user_id":448,"name":"obi","steam_id":76561198040154461,"connected_time":636000000000,"state":"active","ping":73},{"user_id":446,"name":"Akubpl","steam_id":76561198453017176,"connected_time":665000000000,"state":"active","ping":81},{"user_id":450,"name":"Random Cap","steam_id":76561198129271321,"connected_time":433000000000,"state":"active","ping":63}]},{"server_id":21,"name":"Uncletopia | London | 5 | All Maps","name_short":"lon-5","host":"lon-1.uk.uncletopia.com","port":27055,"enabled":true,"region":"eu","cc":"gb","latitude":51.509865,"longitude":-0.118092,"reserved":0,"last_update":"0001-01-01T00:00:00Z","name_a2s":"Uncletopia | London | 5 | All Maps","protocol":17,"map":"koth_viaduct","folder":"tf","game":"Team Fortress","app_id":440,"player_count":0,"max_players":24,"Bots":0,"server_type":"Dedicated","server_os":"Linux","password":true,"vac":true,"version":"7742253","steam_id":85568392924742829,"keywords":["cp","nocrits","nodmgspread","uncletopia"],"game_id":440,"stv_port":27056,"stv_name":"Uncletopia | London | 5 | All Maps | STV","players":null},{"server_id":22,"name":"Uncletopia | London | 6 | All Maps","name_short":"lon-6","host":"lon-1.uk.uncletopia.com","port":27065,"enabled":true,"region":"eu","cc":"gb","latitude":51.509865,"longitude":-0.118092,"reserved":0,"last_update":"0001-01-01T00:00:00Z","name_a2s":"Uncletopia | London | 6 | All Maps","protocol":17,"map":"koth_suijin","folder":"tf","game":"Team Fortress","app_id":440,"player_count":23,"max_players":24,"Bots":0,"server_type":"Dedicated","server_os":"Linux","password":true,"vac":true,"version":"7742253","steam_id":85568392924742830,"keywords":["cp","nocrits","nodmgspread","uncletopia"],"game_id":440,"stv_port":27066,"stv_name":"Uncletopia | London | 6 | All Maps | STV","players":[{"user_id":140,"name":"‚ò© Knightz ‚ò©","steam_id":76561198040936414,"connected_time":12000000000,"state":"active","ping":256},{"user_id":120,"name":"the ebic gamner","steam_id":76561199220801849,"connected_time":1219000000000,"state":"active","ping":50},{"user_id":97,"name":"PierraNova","steam_id":76561198145686102,"connected_time":1873000000000,"state":"active","ping":49},{"user_id":124,"name":"Kelo","steam_id":76561199104785209,"connected_time":1129000000000,"state":"active","ping":69},{"user_id":113,"name":"pizzahawaiiEnjoyerwithbigdick","steam_id":76561198079752629,"connected_time":1397000000000,"state":"active","ping":62},{"user_id":69,"name":"beag√°n","steam_id":76561198051966142,"connected_time":3149000000000,"state":"active","ping":122},{"user_id":20,"name":"Cossack","steam_id":76561198076661772,"connected_time":5261000000000,"state":"active","ping":81},{"user_id":137,"name":"Ok","steam_id":76561198356826506,"connected_time":27000000000,"state":"active","ping":125},{"user_id":110,"name":"randompixel","steam_id":76561198003941207,"connected_time":1519000000000,"state":"active","ping":39},{"user_id":61,"name":"Great recession of 2008","steam_id":76561198881151562,"connected_time":3864000000000,"state":"active","ping":76},{"user_id":100,"name":"Vatuu","steam_id":76561198086935964,"connected_time":1772000000000,"state":"active","ping":57},{"user_id":122,"name":"Belgorodec","steam_id":76561199383879505,"connected_time":1190000000000,"state":"active","ping":102},{"user_id":138,"name":"Cak3","steam_id":76561198012633295,"connected_time":25000000000,"state":"active","ping":70},{"user_id":67,"name":"Cirox","steam_id":76561198383142404,"connected_time":3361000000000,"state":"active","ping":84},{"user_id":128,"name":"Minimi","steam_id":76561198873850443,"connected_time":654000000000,"state":"active","ping":44},{"user_id":104,"name":"Gardvord","steam_id":76561198120715753,"connected_time":1645000000000,"state":"active","ping":67},{"user_id":129,"name":"conniptions","steam_id":76561198117967902,"connected_time":603000000000,"state":"active","ping":31},{"user_id":130,"name":"lofi hip hop beats","steam_id":76561198348048790,"connected_time":558000000000,"state":"active","ping":51},{"user_id":121,"name":"P00tis","steam_id":76561199121999261,"connected_time":1206000000000,"state":"active","ping":103},{"user_id":115,"name":"Lenny McLennington","steam_id":76561198263543388,"connected_time":1332000000000,"state":"active","ping":49},{"user_id":139,"name":"tom","steam_id":76561198202442602,"connected_time":23000000000,"state":"active","ping":83},{"user_id":54,"name":"Regan","steam_id":76561198100631086,"connected_time":4115000000000,"state":"active","ping":50},{"user_id":134,"name":"I am the one who donks","steam_id":76561198419583460,"connected_time":332000000000,"state":"active","ping":62}]},{"server_id":40,"name":"Uncletopia | London | 7 | No Payload","name_short":"lon-7","host":"lon-1.uk.uncletopia.com","port":27075,"enabled":true,"region":"eu","cc":"gb","latitude":51.509865,"longitude":-0.118092,"reserved":0,"last_update":"0001-01-01T00:00:00Z","name_a2s":"Uncletopia | London | 7 | No Payload","protocol":17,"map":"koth_badlands","folder":"tf","game":"Team Fortress","app_id":440,"player_count":0,"max_players":24,"Bots":0,"server_type":"Dedicated","server_os":"Linux","password":true,"vac":true,"version":"7742253","steam_id":85568392924964314,"keywords":["cp","nocrits","nodmgspread","uncletopia"],"game_id":440,"stv_port":27076,"stv_name":"Uncletopia | London | 7 | No Payload | STV","players":null},{"server_id":41,"name":"Uncletopia | London | 8 | Community","name_short":"lon-8","host":"lon-1.uk.uncletopia.com","port":27085,"enabled":true,"region":"eu","cc":"gb","latitude":51.509865,"longitude":-0.118092,"reserved":0,"last_update":"0001-01-01T00:00:00Z","name_a2s":"Uncletopia | London | 8 | Community","protocol":17,"map":"workshop/pl_vigil_rc9.ugc1266210012","folder":"tf","game":"Team Fortress","app_id":440,"player_count":0,"max_players":24,"Bots":0,"server_type":"Dedicated","server_os":"Linux","password":true,"vac":true,"version":"7742253","steam_id":85568392924964315,"keywords":["nocrits","nodmgspread","payload","uncletopia"],"game_id":440,"stv_port":27086,"stv_name":"Uncletopia | London | 8 | Community | STV","players":null},{"server_id":300,"name":"Uncletopia | Montr√©al | 1 | All Maps","name_short":"mtl-1","host":"mtl-1.ca.uncletopia.com","port":27015,"enabled":true,"region":"us-east","cc":"ca","latitude":45.50889,"longitude":-73.56167,"reserved":0,"last_update":"0001-01-01T00:00:00Z","name_a2s":"Uncletopia | Montr√©al | 1 | All Maps","protocol":17,"map":"pl_badwater","folder":"tf","game":"Team Fortress","app_id":440,"player_count":23,"max_players":24,"Bots":0,"server_type":"Dedicated","server_os":"Linux","password":true,"vac":true,"version":"7742253","steam_id":85568392924500087,"keywords":["nocrits","nodmgspread","payload","uncletopia"],"game_id":440,"stv_port":27016,"stv_name":"Uncletopia | Montr√©al | 1 | All Maps | STV","players":[{"user_id":92,"name":"bobbyreinman2009","steam_id":76561198804763186,"connected_time":477000000000,"state":"active","ping":47},{"user_id":82,"name":"pablo","steam_id":76561198395577807,"connected_time":898000000000,"state":"active","ping":43},{"user_id":89,"name":"indi","steam_id":76561198045917538,"connected_time":613000000000,"state":"active","ping":61},{"user_id":65,"name":"Zakareya Alatoli","steam_id":76561199082561774,"connected_time":2246000000000,"state":"active","ping":47},{"user_id":17,"name":"starfungus","steam_id":76561198158312789,"connected_time":5809000000000,"state":"active","ping":58},{"user_id":80,"name":"Yonn","steam_id":76561198274242643,"connected_time":955000000000,"state":"active","ping":60},{"user_id":19,"name":"[Scout_Training] SNOW_TRAINING","steam_id":76561198026701863,"connected_time":5706000000000,"state":"active","ping":67},{"user_id":38,"name":"Barack OBidoof","steam_id":76561198035142993,"connected_time":4166000000000,"state":"active","ping":64},{"user_id":62,"name":"Inherentchaos","steam_id":76561198050443296,"connected_time":2526000000000,"state":"active","ping":58},{"user_id":26,"name":"c/\\rbine","steam_id":76561198294739913,"connected_time":4861000000000,"state":"active","ping":74},{"user_id":23,"name":"Stormartillery","steam_id":76561198408982577,"connected_time":5336000000000,"state":"active","ping":63},{"user_id":61,"name":"Milk Lord","steam_id":76561198058937862,"connected_time":2828000000000,"state":"active","ping":62},{"user_id":81,"name":"N0T@TR@P","steam_id":76561198323432636,"connected_time":942000000000,"state":"active","ping":57},{"user_id":93,"name":"Soggy.burrito14","steam_id":76561198066249669,"connected_time":384000000000,"state":"active","ping":62},{"user_id":86,"name":"KrashBoomBang","steam_id":76561199002978777,"connected_time":819000000000,"state":"active","ping":59},{"user_id":74,"name":"ok","steam_id":76561198445140249,"connected_time":1807000000000,"state":"active","ping":82},{"user_id":57,"name":"who ate the cheese","steam_id":76561198275408467,"connected_time":3014000000000,"state":"active","ping":58},{"user_id":71,"name":"Gitgudgame","steam_id":76561198354761942,"connected_time":2073000000000,"state":"active","ping":87},{"user_id":94,"name":"Johnny Lawrence #JohnnyMaxxing","steam_id":76561199367141671,"connected_time":191000000000,"state":"active","ping":59},{"user_id":59,"name":"Glue Sniffer","steam_id":76561198976624870,"connected_time":2853000000000,"state":"active","ping":88},{"user_id":91,"name":"the moniter","steam_id":76561198271869503,"connected_time":599000000000,"state":"active","ping":70},{"user_id":88,"name":"Sheppy","steam_id":76561198295126940,"connected_time":712000000000,"state":"active","ping":47},{"user_id":87,"name":"Anhkrehg","steam_id":76561197963201684,"connected_time":742000000000,"state":"active","ping":61}]},{"server_id":301,"name":"Uncletopia | Montr√©al | 2 | All Maps","name_short":"mtl-2","host":"mtl-1.ca.uncletopia.com","port":27025,"enabled":true,"region":"us-east","cc":"ca","latitude":45.50889,"longitude":-73.56167,"reserved":0,"last_update":"0001-01-01T00:00:00Z","name_a2s":"Uncletopia | Montr√©al | 2 | All Maps","protocol":17,"map":"koth_highpass","folder":"tf","game":"Team Fortress","app_id":440,"player_count":0,"max_players":24,"Bots":0,"server_type":"Dedicated","server_os":"Linux","password":true,"vac":true,"version":"7742253","steam_id":85568392924500088,"keywords":["cp","nocrits","nodmgspread","uncletopia"],"game_id":440,"stv_port":27026,"stv_name":"Uncletopia | Montr√©al | 2 | All Maps | STV","players":null},{"server_id":302,"name":"Uncletopia | Montr√©al | 3 | All Maps","name_short":"mtl-3","host":"mtl-1.ca.uncletopia.com","port":27035,"enabled":true,"region":"us-east","cc":"ca","latitude":45.50889,"longitude":-73.56167,"reserved":0,"last_update":"0001-01-01T00:00:00Z","name_a2s":"Uncletopia | Montr√©al | 3 | All Maps","protocol":17,"map":"pl_swiftwater_final1","folder":"tf","game":"Team Fortress","app_id":440,"player_count":0,"max_players":24,"Bots":0,"server_type":"Dedicated","server_os":"Linux","password":true,"vac":true,"version":"7742253","steam_id":85568392924500089,"keywords":["nocrits","nodmgspread","payload","uncletopia"],"game_id":440,"stv_port":27036,"stv_name":"Uncletopia | Montr√©al | 3 | All Maps | STV","players":null},{"server_id":303,"name":"Uncletopia | Montr√©al | 4 | No Payload","name_short":"mtl-4","host":"mtl-1.ca.uncletopia.com","port":27045,"enabled":true,"region":"us-east","cc":"ca","latitude":45.50889,"longitude":-73.56167,"reserved":0,"last_update":"0001-01-01T00:00:00Z","name_a2s":"Uncletopia | Montr√©al | 4 | No Payload","protocol":17,"map":"koth_lazarus","folder":"tf","game":"Team Fortress","app_id":440,"player_count":0,"max_players":24,"Bots":0,"server_type":"Dedicated","server_os":"Linux","password":true,"vac":true,"version":"7742253","steam_id":85568392924500090,"keywords":["cp","nocrits","nodmgspread","uncletopia"],"game_id":440,"stv_port":27046,"stv_name":"Uncletopia | Montr√©al | 4 | No Payload | STV","players":null},{"server_id":13,"name":"Uncletopia | New York City | 1 | All Maps","name_short":"nyc-1","host":"nyc-1.us.uncletopia.com","port":27015,"enabled":true,"region":"us-east","cc":"us","latitude":40.73061,"longitude":-73.93524,"reserved":0,"last_update":"0001-01-01T00:00:00Z","name_a2s":"Uncletopia | New York City | 1 | All Maps","protocol":17,"map":"pl_borneo","folder":"tf","game":"Team Fortress","app_id":440,"player_count":23,"max_players":24,"Bots":0,"server_type":"Dedicated","server_os":"Linux","password":true,"vac":true,"version":"7742253","steam_id":85568392924469993,"keywords":["nocrits","nodmgspread","payload","uncletopia"],"game_id":440,"stv_port":27016,"stv_name":"Uncletopia | New York City | 1 | All Maps | STV","players":[{"user_id":249,"name":"God's Strongest FoW Scout","steam_id":76561198053046161,"connected_time":1293000000000,"state":"active","ping":43},{"user_id":265,"name":"lyanide","steam_id":76561198311704368,"connected_time":465000000000,"state":"active","ping":58},{"user_id":266,"name":"DeathToCats","steam_id":76561198092238353,"connected_time":451000000000,"state":"active","ping":77},{"user_id":234,"name":"Seele","steam_id":76561198067833803,"connected_time":2382000000000,"state":"active","ping":51},{"user_id":248,"name":"Necron","steam_id":76561197970864818,"connected_time":1391000000000,"state":"active","ping":80},{"user_id":262,"name":"Motorol¬™","steam_id":76561198358119669,"connected_time":773000000000,"state":"active","ping":129},{"user_id":252,"name":"leumas","steam_id":76561198240408540,"connected_time":1134000000000,"state":"active","ping":63},{"user_id":268,"name":"comet sooicidy","steam_id":76561198025173479,"connected_time":351000000000,"state":"active","ping":78},{"user_id":267,"name":"Portaldude626","steam_id":76561198954610452,"connected_time":420000000000,"state":"active","ping":82},{"user_id":256,"name":"PenjaminVT","steam_id":76561198058874021,"connected_time":1018000000000,"state":"active","ping":65},{"user_id":242,"name":"DeepDive","steam_id":76561198140542184,"connected_time":1758000000000,"state":"active","ping":36},{"user_id":215,"name":"alopez","steam_id":76561199070225059,"connected_time":4090000000000,"state":"active","ping":36},{"user_id":277,"name":"Dovid65","steam_id":76561199277530814,"connected_time":28000000000,"state":"active","ping":139},{"user_id":275,"name":"CheeseCake488","steam_id":76561199407617942,"connected_time":49000000000,"state":"active","ping":168},{"user_id":196,"name":"CRAZY engineer","steam_id":76561198887937902,"connected_time":5075000000000,"state":"active","ping":50},{"user_id":270,"name":"matchstick","steam_id":76561198190100027,"connected_time":262000000000,"state":"active","ping":55},{"user_id":276,"name":"Bigby","steam_id":76561199056842761,"connected_time":43000000000,"state":"active","ping":119},{"user_id":258,"name":"Slazzer","steam_id":76561198404351844,"connected_time":975000000000,"state":"active","ping":56},{"user_id":259,"name":"Chicken but","steam_id":76561198257872736,"connected_time":975000000000,"state":"active","ping":45},{"user_id":131,"name":"PizzaPasta","steam_id":76561199125109082,"connected_time":9752000000000,"state":"active","ping":55},{"user_id":208,"name":"Killroy NQP ‚ù§","steam_id":76561198006983771,"connected_time":4522000000000,"state":"active","ping":66},{"user_id":274,"name":"Chase McCain","steam_id":76561198314538469,"connected_time":121000000000,"state":"active","ping":57},{"user_id":240,"name":"Chaotic Rushu","steam_id":76561198170054407,"connected_time":2089000000000,"state":"active","ping":62}]},{"server_id":14,"name":"Uncletopia | New York City | 2 | All Maps","name_short":"nyc-2","host":"nyc-1.us.uncletopia.com","port":27025,"enabled":true,"region":"us-east","cc":"us","latitude":40.73061,"longitude":-73.93524,"reserved":0,"last_update":"0001-01-01T00:00:00Z","name_a2s":"Uncletopia | New York City | 2 | All Maps","protocol":17,"map":"pl_badwater","folder":"tf","game":"Team Fortress","app_id":440,"player_count":24,"max_players":24,"Bots":0,"server_type":"Dedicated","server_os":"Linux","password":true,"vac":true,"version":"7742253","steam_id":85568392924469994,"keywords":["nocrits","nodmgspread","payload","uncletopia"],"game_id":440,"stv_port":27026,"stv_name":"Uncletopia | New York City | 2 | All Maps | STV","players":[{"user_id":212,"name":"Servitz #savetf2","steam_id":76561198194446835,"connected_time":445000000000,"state":"active","ping":107},{"user_id":182,"name":"guyinatophat51","steam_id":76561198180230694,"connected_time":1866000000000,"state":"active","ping":79},{"user_id":205,"name":"Im totally a hacker","steam_id":76561198888005736,"connected_time":927000000000,"state":"active","ping":61},{"user_id":222,"name":"Rocket","steam_id":76561199466909630,"connected_time":56000000000,"state":"active","ping":57},{"user_id":196,"name":"$200 Shirt","steam_id":76561197977329534,"connected_time":1608000000000,"state":"active","ping":50},{"user_id":213,"name":"uniwu - BUFF THE SPEED","steam_id":76561198864421290,"connected_time":429000000000,"state":"active","ping":64},{"user_id":218,"name":"Venstiko","steam_id":76561199130318818,"connected_time":265000000000,"state":"active","ping":64},{"user_id":219,"name":"Ironfyn","steam_id":76561198256850182,"connected_time":219000000000,"state":"active","ping":50},{"user_id":189,"name":"Typical Gentleman","steam_id":76561199229771413,"connected_time":1722000000000,"state":"active","ping":77},{"user_id":220,"name":"ItsRoy","steam_id":76561198119525485,"connected_time":208000000000,"state":"active","ping":38},{"user_id":221,"name":"Xaildon","steam_id":76561198034667937,"connected_time":151000000000,"state":"active","ping":57},{"user_id":210,"name":"Meep","steam_id":76561198000304772,"connected_time":600000000000,"state":"active","ping":51},{"user_id":223,"name":"Idiot on his Keyboard","steam_id":76561198217662787,"connected_time":45000000000,"state":"active","ping":96},{"user_id":224,"name":"mammott toy","steam_id":76561199148512586,"connected_time":38000000000,"state":"spawning","ping":59},{"user_id":225,"name":"FallenSage","steam_id":76561199226240159,"connected_time":36000000000,"state":"active","ping":68},{"user_id":217,"name":"LE√ìN","steam_id":76561198257559257,"connected_time":382000000000,"state":"active","ping":113},{"user_id":195,"name":"St√¶ming_Hot_Potato","steam_id":76561199041077201,"connected_time":1620000000000,"state":"active","ping":49},{"user_id":226,"name":"simpmaster hustledaddy","steam_id":76561198034624737,"connected_time":22000000000,"state":"active","ping":68},{"user_id":169,"name":"Laelaps","steam_id":76561198100061416,"connected_time":3060000000000,"state":"active","ping":47},{"user_id":202,"name":"INKED!","steam_id":76561198208926572,"connected_time":1373000000000,"state":"active","ping":45},{"user_id":198,"name":"Âä†Ê≤πÁ´ôÊùÇËçâ","steam_id":76561198400959313,"connected_time":1594000000000,"state":"active","ping":84},{"user_id":53,"name":"NotAChanceLmao","steam_id":76561199466717297,"connected_time":10980000000000,"state":"active","ping":76},{"user_id":227,"name":"Totally not a tf2 smurf","steam_id":76561199195934142,"connected_time":20000000000,"state":"active","ping":74},{"user_id":200,"name":"CBTgaeming","steam_id":76561199089290128,"connected_time":1556000000000,"state":"active","ping":148}]},{"server_id":15,"name":"Uncletopia | New York City | 3 | Stopwatch Beta","name_short":"nyc-3","host":"nyc-1.us.uncletopia.com","port":27035,"enabled":true,"region":"us-east","cc":"us","latitude":40.73061,"longitude":-73.93524,"reserved":0,"last_update":"0001-01-01T00:00:00Z","name_a2s":"Uncletopia | New York City | 3 | Stopwatch Beta","protocol":17,"map":"workshop/pl_badwater_pro_v12.ugc2142942074","folder":"tf","game":"Team Fortress","app_id":440,"player_count":0,"max_players":24,"Bots":0,"server_type":"Dedicated","server_os":"Linux","password":true,"vac":true,"version":"7742253","steam_id":85568392924742820,"keywords":["nocrits","nodmgspread","payload","uncletopia"],"game_id":440,"stv_port":27036,"stv_name":"Uncletopia | New York City | 3 | Stopwatch Beta | STV","players":null},{"server_id":16,"name":"Uncletopia | New York City | 4 | Community","name_short":"nyc-4","host":"nyc-1.us.uncletopia.com","port":27045,"enabled":true,"region":"us-east","cc":"us","latitude":40.73061,"longitude":-73.93524,"reserved":0,"last_update":"0001-01-01T00:00:00Z","name_a2s":"Uncletopia | New York City | 4 | Community","protocol":17,"map":"workshop/pl_eruption_b9a.ugc2807898013","folder":"tf","game":"Team Fortress","app_id":440,"player_count":9,"max_players":24,"Bots":0,"server_type":"Dedicated","server_os":"Linux","password":true,"vac":true,"version":"7742253","steam_id":85568392924742821,"keywords":["nocrits","nodmgspread","payload","uncletopia"],"game_id":440,"stv_port":27046,"stv_name":"Uncletopia | New York City | 4 | Community | STV","players":[{"user_id":27,"name":"autogynocelia","steam_id":76561198038995286,"connected_time":578000000000,"state":"active","ping":79},{"user_id":16,"name":"Turboconoco","steam_id":76561199123741609,"connected_time":2606000000000,"state":"active","ping":52},{"user_id":17,"name":"Mad Masks","steam_id":76561198165944911,"connected_time":2604000000000,"state":"active","ping":75},{"user_id":26,"name":"King Sans","steam_id":76561198294198517,"connected_time":881000000000,"state":"active","ping":39},{"user_id":28,"name":"glert","steam_id":76561198808378733,"connected_time":405000000000,"state":"active","ping":55},{"user_id":29,"name":"friendly brap","steam_id":76561199102540393,"connected_time":379000000000,"state":"active","ping":33},{"user_id":30,"name":"MR.meeseeks","steam_id":76561198294943420,"connected_time":373000000000,"state":"active","ping":91},{"user_id":31,"name":"Cypher_Analyst","steam_id":76561199019803821,"connected_time":363000000000,"state":"active","ping":80},{"user_id":32,"name":"PACKED_420","steam_id":76561199199932446,"connected_time":344000000000,"state":"active","ping":69}]},{"server_id":142,"name":"Uncletopia | S√£o Paulo | 1 | All Maps","name_short":"sao-1","host":"sao-1.br.uncletopia.com","port":27015,"enabled":true,"region":"sa","cc":"br","latitude":-23.533773,"longitude":-46.62529,"reserved":0,"last_update":"0001-01-01T00:00:00Z","name_a2s":"Uncletopia | S√£o Paulo | 1 | All Maps","protocol":17,"map":"cp_snakewater_final1","folder":"tf","game":"Team Fortress","app_id":440,"player_count":0,"max_players":24,"Bots":0,"server_type":"Dedicated","server_os":"Linux","password":true,"vac":true,"version":"7742253","steam_id":85568392924469996,"keywords":["cp","nocrits","nodmgspread","uncletopia"],"game_id":440,"stv_port":27016,"stv_name":"Uncletopia | S√£o Paulo | 1 | All Maps | STV","players":null},{"server_id":143,"name":"Uncletopia | S√£o Paulo | 2 | All Maps","name_short":"sao-2","host":"sao-2.br.uncletopia.com","port":27015,"enabled":true,"region":"sa","cc":"br","latitude":-23.533773,"longitude":-46.62529,"reserved":0,"last_update":"0001-01-01T00:00:00Z","name_a2s":"Uncletopia | S√£o Paulo | 2 | All Maps","protocol":17,"map":"koth_viaduct","folder":"tf","game":"Team Fortress","app_id":440,"player_count":0,"max_players":24,"Bots":0,"server_type":"Dedicated","server_os":"Linux","password":true,"vac":true,"version":"7742253","steam_id":85568392924485349,"keywords":["cp","nocrits","nodmgspread","uncletopia"],"game_id":440,"stv_port":27016,"stv_name":"Uncletopia | S√£o Paulo | 2 | All Maps | STV","players":null},{"server_id":7,"name":"Uncletopia | Seattle | 1 | All Maps","name_short":"sea-1","host":"sea-1.us.uncletopia.com","port":27015,"enabled":true,"region":"us-west","cc":"us","latitude":47.608013,"longitude":-122.33517,"reserved":0,"last_update":"0001-01-01T00:00:00Z","name_a2s":"Uncletopia | Seattle | 1 | All Maps","protocol":17,"map":"cp_freight_final1","folder":"tf","game":"Team Fortress","app_id":440,"player_count":21,"max_players":24,"Bots":0,"server_type":"Dedicated","server_os":"Linux","password":true,"vac":true,"version":"7742253","steam_id":85568392924469997,"keywords":["cp","nocrits","nodmgspread","uncletopia"],"game_id":440,"stv_port":27016,"stv_name":"Uncletopia | Seattle | 1 | All Maps | STV","players":[{"user_id":216,"name":"Agent","steam_id":76561199389584938,"connected_time":1141000000000,"state":"active","ping":45},{"user_id":215,"name":"help","steam_id":76561199056338917,"connected_time":1304000000000,"state":"active","ping":118},{"user_id":176,"name":"Pneumo.","steam_id":76561197987911883,"connected_time":5273000000000,"state":"active","ping":64},{"user_id":223,"name":"dearender","steam_id":76561199427644498,"connected_time":52000000000,"state":"active","ping":59},{"user_id":224,"name":"jiorjo","steam_id":76561198265180802,"connected_time":27000000000,"state":"active","ping":79},{"user_id":221,"name":"finniboys","steam_id":76561198333287995,"connected_time":69000000000,"state":"active","ping":50},{"user_id":222,"name":"SesataPomang","steam_id":76561198145133059,"connected_time":58000000000,"state":"active","ping":98},{"user_id":194,"name":"squid game","steam_id":76561199248960166,"connected_time":2919000000000,"state":"active","ping":38},{"user_id":225,"name":"B U L B U S 4K","steam_id":76561198095103255,"connected_time":16000000000,"state":"spawning","ping":142},{"user_id":145,"name":"rat gets the cheese","steam_id":76561198031234032,"connected_time":6852000000000,"state":"active","ping":93},{"user_id":120,"name":"alice's adventures in pyroland","steam_id":76561198325306660,"connected_time":8795000000000,"state":"active","ping":54},{"user_id":189,"name":"BEASTxGODx420","steam_id":76561198184814466,"connected_time":3529000000000,"state":"active","ping":30},{"user_id":161,"name":"oo","steam_id":76561198119626492,"connected_time":5799000000000,"state":"active","ping":81},{"user_id":207,"name":"John Smith","steam_id":76561198185776555,"connected_time":2285000000000,"state":"active","ping":38},{"user_id":160,"name":"Nolan","steam_id":76561198169648081,"connected_time":5898000000000,"state":"active","ping":98},{"user_id":220,"name":"lavender","steam_id":76561199069518286,"connected_time":86000000000,"state":"active","ping":75},{"user_id":211,"name":"doomshroom","steam_id":76561198092827250,"connected_time":1648000000000,"state":"active","ping":56},{"user_id":154,"name":"Fh","steam_id":76561198000903511,"connected_time":6290000000000,"state":"active","ping":62},{"user_id":205,"name":"Former US President Barack Obam","steam_id":76561198014215937,"connected_time":2376000000000,"state":"active","ping":120},{"user_id":179,"name":"Aardappel","steam_id":76561198030894676,"connected_time":4723000000000,"state":"active","ping":61},{"user_id":185,"name":"Im Tired and Laggy","steam_id":76561198851536991,"connected_time":3990000000000,"state":"active","ping":88}]},{"server_id":119,"name":"Uncletopia | Seattle | 2 | All Maps","name_short":"sea-2","host":"sea-1.us.uncletopia.com","port":27025,"enabled":true,"region":"us-west","cc":"us","latitude":47.608013,"longitude":-122.33517,"reserved":0,"last_update":"0001-01-01T00:00:00Z","name_a2s":"Uncletopia | Seattle | 2 | All Maps","protocol":17,"map":"cp_steel","folder":"tf","game":"Team Fortress","app_id":440,"player_count":23,"max_players":24,"Bots":0,"server_type":"Dedicated","server_os":"Linux","password":true,"vac":true,"version":"7742253","steam_id":85568392924469998,"keywords":["cp","nocrits","nodmgspread","uncletopia"],"game_id":440,"stv_port":27026,"stv_name":"Uncletopia | Seattle | 2 | All Maps | STV","players":[{"user_id":82,"name":"SilentScott","steam_id":76561198236688652,"connected_time":713000000000,"state":"active","ping":50},{"user_id":94,"name":"Phantom_03","steam_id":76561198217929829,"connected_time":281000000000,"state":"active","ping":76},{"user_id":83,"name":"dust","steam_id":76561198045218909,"connected_time":677000000000,"state":"active","ping":38},{"user_id":90,"name":"Trash Man","steam_id":76561198874518834,"connected_time":517000000000,"state":"active","ping":84},{"user_id":56,"name":"eraser cat","steam_id":76561199045570463,"connected_time":3792000000000,"state":"active","ping":41},{"user_id":76,"name":"fng","steam_id":76561197986015240,"connected_time":1250000000000,"state":"active","ping":78},{"user_id":74,"name":"Glanderson booper","steam_id":76561198021223747,"connected_time":1941000000000,"state":"active","ping":61},{"user_id":85,"name":"Buckethead","steam_id":76561198210181296,"connected_time":660000000000,"state":"active","ping":94},{"user_id":58,"name":"Greskrendtregk","steam_id":76561197969553142,"connected_time":2838000000000,"state":"active","ping":51},{"user_id":95,"name":"The Super Mario Bros. Movie","steam_id":76561198871692156,"connected_time":215000000000,"state":"active","ping":46},{"user_id":81,"name":"MoreTick8097032","steam_id":76561198987889233,"connected_time":763000000000,"state":"active","ping":55},{"user_id":96,"name":"BYS ShadowFenix","steam_id":76561198186807115,"connected_time":208000000000,"state":"active","ping":59},{"user_id":31,"name":"LAzar M0Nke","steam_id":76561199083035892,"connected_time":6199000000000,"state":"active","ping":66},{"user_id":71,"name":"Ghostninja","steam_id":76561199122290794,"connected_time":2349000000000,"state":"active","ping":88},{"user_id":102,"name":"reinstalled my steering wheel","steam_id":76561198243802280,"connected_time":84000000000,"state":"active","ping":53},{"user_id":97,"name":"Captain Barrel","steam_id":76561199061470542,"connected_time":195000000000,"state":"active","ping":109},{"user_id":98,"name":"LAB8","steam_id":76561198047743526,"connected_time":186000000000,"state":"active","ping":44},{"user_id":89,"name":"chad","steam_id":76561198216109017,"connected_time":521000000000,"state":"active","ping":121},{"user_id":87,"name":"DrD","steam_id":76561198067266383,"connected_time":605000000000,"state":"active","ping":37},{"user_id":99,"name":"Room","steam_id":76561199174579733,"connected_time":180000000000,"state":"active","ping":121},{"user_id":79,"name":"nfseskimo","steam_id":76561198078745666,"connected_time":896000000000,"state":"active","ping":45},{"user_id":100,"name":"SketchyEtchaSketch","steam_id":76561198143747486,"connected_time":138000000000,"state":"active","ping":156},{"user_id":44,"name":"KingTinkerer","steam_id":76561198226856548,"connected_time":5681000000000,"state":"active","ping":79}]},{"server_id":406,"name":"Uncletopia | Seattle | 3 | Stopwatch Beta","name_short":"sea-3","host":"sea-1.us.uncletopia.com","port":27035,"enabled":true,"region":"us-west","cc":"us","latitude":47.608013,"longitude":-122.33517,"reserved":0,"last_update":"0001-01-01T00:00:00Z","name_a2s":"Uncletopia | Seattle | 3 | Stopwatch Beta","protocol":17,"map":"workshop/koth_ramjam_rc1.ugc459778887","folder":"tf","game":"Team Fortress","app_id":440,"player_count":0,"max_players":24,"Bots":0,"server_type":"Dedicated","server_os":"Linux","password":true,"vac":true,"version":"7742253","steam_id":85568392924515217,"keywords":["cp","nocrits","nodmgspread","uncletopia"],"game_id":440,"stv_port":27036,"stv_name":"Uncletopia | Seattle | 3 | Stopwatch Beta | STV","players":null},{"server_id":17,"name":"Uncletopia | San Francisco | 1 | All Maps","name_short":"sfo-1","host":"sfo-1.us.uncletopia.com","port":27015,"enabled":true,"region":"us-west","cc":"us","latitude":37.77397,"longitude":-122.4313,"reserved":0,"last_update":"0001-01-01T00:00:00Z","name_a2s":"Uncletopia | San Francisco | 1 | All Maps","protocol":17,"map":"cp_mountainlab","folder":"tf","game":"Team Fortress","app_id":440,"player_count":0,"max_players":24,"Bots":0,"server_type":"Dedicated","server_os":"Linux","password":true,"vac":true,"version":"7742253","steam_id":85568392924469999,"keywords":["cp","nocrits","nodmgspread","uncletopia"],"game_id":440,"stv_port":27016,"stv_name":"Uncletopia | San Francisco | 1 | All Maps | STV","players":null},{"server_id":18,"name":"Uncletopia | San Francisco | 2 | All Maps","name_short":"sfo-2","host":"sfo-1.us.uncletopia.com","port":27025,"enabled":true,"region":"us-west","cc":"us","latitude":37.77397,"longitude":-122.4313,"reserved":0,"last_update":"0001-01-01T00:00:00Z","name_a2s":"Uncletopia | San Francisco | 2 | All Maps","protocol":17,"map":"pl_borneo","folder":"tf","game":"Team Fortress","app_id":440,"player_count":0,"max_players":24,"Bots":0,"server_type":"Dedicated","server_os":"Linux","password":true,"vac":true,"version":"7742253","steam_id":85568392924470000,"keywords":["nocrits","nodmgspread","payload","uncletopia"],"game_id":440,"stv_port":27026,"stv_name":"Uncletopia | San Francisco | 2 | All Maps | STV","players":null},{"server_id":19,"name":"Uncletopia | San Francisco | 3 | Stopwatch Beta","name_short":"sfo-3","host":"sfo-1.us.uncletopia.com","port":27035,"enabled":true,"region":"us-west","cc":"us","latitude":37.77397,"longitude":-122.4313,"reserved":0,"last_update":"0001-01-01T00:00:00Z","name_a2s":"Uncletopia | San Francisco | 3 | Stopwatch Beta","protocol":17,"map":"cp_snakewater_final1","folder":"tf","game":"Team Fortress","app_id":440,"player_count":0,"max_players":24,"Bots":0,"server_type":"Dedicated","server_os":"Linux","password":true,"vac":true,"version":"7742253","steam_id":85568392924742824,"keywords":["cp","nocrits","nodmgspread","uncletopia"],"game_id":440,"stv_port":27036,"stv_name":"Uncletopia | San Francisco | 3 | Stopwatch Beta | STV","players":null},{"server_id":20,"name":"Uncletopia | San Francisco | 4 | Community","name_short":"sfo-4","host":"sfo-1.us.uncletopia.com","port":27045,"enabled":true,"region":"us-west","cc":"us","latitude":37.77397,"longitude":-122.4313,"reserved":0,"last_update":"0001-01-01T00:00:00Z","name_a2s":"Uncletopia | San Francisco | 4 | Community","protocol":17,"map":"workshop/koth_bagel_rc5.ugc2514036946","folder":"tf","game":"Team Fortress","app_id":440,"player_count":0,"max_players":24,"Bots":0,"server_type":"Dedicated","server_os":"Linux","password":true,"vac":true,"version":"7742253","steam_id":85568392924742826,"keywords":["cp","nocrits","nodmgspread","uncletopia"],"game_id":440,"stv_port":27046,"stv_name":"Uncletopia | San Francisco | 4 | Community | STV","players":null},{"server_id":141,"name":"Uncletopia | Sydney | 1 | All Maps","name_short":"syd-1","host":"syd-1.au.uncletopia.com","port":27015,"enabled":true,"region":"au","cc":"au","latitude":-33.865143,"longitude":151.2099,"reserved":0,"last_update":"0001-01-01T00:00:00Z","name_a2s":"Uncletopia | Sydney | 1 | All Maps","protocol":17,"map":"koth_lakeside_final","folder":"tf","game":"Team Fortress","app_id":440,"player_count":0,"max_players":24,"Bots":0,"server_type":"Dedicated","server_os":"Linux","password":true,"vac":true,"version":"7742253","steam_id":85568392924470001,"keywords":["cp","nocrits","nodmgspread","uncletopia"],"game_id":440,"stv_port":27016,"stv_name":"Uncletopia | Sydney | 1 | All Maps | STV","players":null},{"server_id":123,"name":"Uncletopia | Sydney | 2 | All Maps","name_short":"syd-2","host":"syd-1.au.uncletopia.com","port":27025,"enabled":true,"region":"au","cc":"au","latitude":-33.865143,"longitude":151.2099,"reserved":0,"last_update":"0001-01-01T00:00:00Z","name_a2s":"Uncletopia | Sydney | 2 | All Maps","protocol":17,"map":"pl_badwater","folder":"tf","game":"Team Fortress","app_id":440,"player_count":0,"max_players":24,"Bots":0,"server_type":"Dedicated","server_os":"Linux","password":true,"vac":true,"version":"7742253","steam_id":85568392924470002,"keywords":["nocrits","nodmgspread","payload","uncletopia"],"game_id":440,"stv_port":27026,"stv_name":"Uncletopia | Sydney | 2 | All Maps | STV","players":null},{"server_id":395,"name":"Uncletopia | Sydney | 3 | All Maps","name_short":"syd-3","host":"syd-1.au.uncletopia.com","port":27035,"enabled":true,"region":"au","cc":"au","latitude":-33.865143,"longitude":151.2099,"reserved":0,"last_update":"0001-01-01T00:00:00Z","name_a2s":"Uncletopia | Sydney | 3 | All Maps","protocol":17,"map":"koth_viaduct","folder":"tf","game":"Team Fortress","app_id":440,"player_count":0,"max_players":24,"Bots":0,"server_type":"Dedicated","server_os":"Linux","password":true,"vac":true,"version":"7742253","steam_id":85568392925194467,"keywords":["cp","nocrits","nodmgspread","uncletopia"],"game_id":440,"stv_port":27036,"stv_name":"Uncletopia | Sydney | 3 | All Maps | STV","players":null},{"server_id":396,"name":"Uncletopia | Sydney | 4 | All Maps","name_short":"syd-4","host":"syd-1.au.uncletopia.com","port":27045,"enabled":true,"region":"au","cc":"au","latitude":-33.865143,"longitude":151.2099,"reserved":0,"last_update":"0001-01-01T00:00:00Z","name_a2s":"Uncletopia | Sydney | 4 | All Maps","protocol":17,"map":"pl_frontier_final","folder":"tf","game":"Team Fortress","app_id":440,"player_count":0,"max_players":24,"Bots":0,"server_type":"Dedicated","server_os":"Linux","password":true,"vac":true,"version":"7742253","steam_id":85568392925397958,"keywords":["nocrits","nodmgspread","payload","uncletopia"],"game_id":440,"stv_port":27046,"stv_name":"Uncletopia | Sydney | 4 | All Maps | STV","players":null},{"server_id":58,"name":"Uncletopia | Sydney | 5 | Stopwatch Beta","name_short":"syd-5","host":"syd-1.au.uncletopia.com","port":27055,"enabled":true,"region":"au","cc":"au","latitude":-33.865143,"longitude":151.2099,"reserved":0,"last_update":"0001-01-01T00:00:00Z","name_a2s":"Uncletopia | Sydney | 5 | Stopwatch Beta","protocol":17,"map":"cp_granary","folder":"tf","game":"Team Fortress","app_id":440,"player_count":0,"max_players":24,"Bots":0,"server_type":"Dedicated","server_os":"Linux","password":true,"vac":true,"version":"7742253","steam_id":85568392925397959,"keywords":["cp","nocrits","nodmgspread","uncletopia"],"game_id":440,"stv_port":27056,"stv_name":"Uncletopia | Sydney | 5 | Stopwatch Beta | STV","players":null},{"server_id":59,"name":"Uncletopia | Sydney | 6 | Community","name_short":"syd-6","host":"syd-1.au.uncletopia.com","port":27065,"enabled":true,"region":"au","cc":"au","latitude":-33.865143,"longitude":151.2099,"reserved":0,"last_update":"0001-01-01T00:00:00Z","name_a2s":"Uncletopia | Sydney | 6 | Community","protocol":17,"map":"cp_dustbowl","folder":"tf","game":"Team Fortress","app_id":440,"player_count":0,"max_players":24,"Bots":0,"server_type":"Dedicated","server_os":"Linux","password":true,"vac":true,"version":"7742253","steam_id":85568392925397960,"keywords":["cp","nocrits","nodmgspread","uncletopia"],"game_id":440,"stv_port":27066,"stv_name":"Uncletopia | Sydney | 6 | Community | STV","players":null},{"server_id":49,"name":"Uncletopia | Warsaw | 1 | All Maps","name_short":"waw-1","host":"waw-1.pl.uncletopia.com","port":27015,"enabled":true,"region":"eu","cc":"pl","latitude":52.2297,"longitude":21.017532,"reserved":0,"last_update":"0001-01-01T00:00:00Z","name_a2s":"","protocol":0,"map":"","folder":"","game":"","app_id":0,"player_count":0,"max_players":0,"Bots":0,"server_type":"","server_os":"","password":false,"vac":false,"version":"","steam_id":0,"keywords":null,"game_id":0,"stv_port":0,"stv_name":"","players":null},{"server_id":50,"name":"Uncletopia | Warsaw | 2 | All Maps","name_short":"waw-2","host":"waw-1.pl.uncletopia.com","port":27025,"enabled":true,"region":"eu","cc":"pl","latitude":52.2297,"longitude":21.017532,"reserved":0,"last_update":"0001-01-01T00:00:00Z","name_a2s":"Uncletopia | Warsaw | 2 | All Maps","protocol":17,"map":"koth_lakeside_final","folder":"tf","game":"Team Fortress","app_id":440,"player_count":0,"max_players":24,"Bots":0,"server_type":"Dedicated","server_os":"Linux","password":true,"vac":true,"version":"7742253","steam_id":85568392925397851,"keywords":["cp","nocrits","nodmgspread","uncletopia"],"game_id":440,"stv_port":27026,"stv_name":"Uncletopia | Warsaw | 2 | All Maps | STV","players":null},{"server_id":51,"name":"Uncletopia | Warsaw | 3 | All Maps","name_short":"waw-3","host":"waw-1.pl.uncletopia.com","port":27035,"enabled":true,"region":"eu","cc":"pl","latitude":52.2297,"longitude":21.017532,"reserved":0,"last_update":"0001-01-01T00:00:00Z","name_a2s":"Uncletopia | Warsaw | 3 | All Maps","protocol":17,"map":"koth_lakeside_final","folder":"tf","game":"Team Fortress","app_id":440,"player_count":0,"max_players":24,"Bots":0,"server_type":"Dedicated","server_os":"Linux","password":true,"vac":true,"version":"7742253","steam_id":85568392925397852,"keywords":["cp","nocrits","nodmgspread","uncletopia"],"game_id":440,"stv_port":27036,"stv_name":"Uncletopia | Warsaw | 3 | All Maps | STV","players":null},{"server_id":52,"name":"Uncletopia | Warsaw | 4 | All Maps","name_short":"waw-4","host":"waw-1.pl.uncletopia.com","port":27045,"enabled":true,"region":"eu","cc":"pl","latitude":52.2297,"longitude":21.017532,"reserved":0,"last_update":"0001-01-01T00:00:00Z","name_a2s":"Uncletopia | Warsaw | 4 | All Maps","protocol":17,"map":"cp_sunshine","folder":"tf","game":"Team Fortress","app_id":440,"player_count":0,"max_players":24,"Bots":0,"server_type":"Dedicated","server_os":"Linux","password":true,"vac":true,"version":"7742253","steam_id":85568392925397853,"keywords":["cp","nocrits","nodmgspread","uncletopia"],"game_id":440,"stv_port":27046,"stv_name":"Uncletopia | Warsaw | 4 | All Maps | STV","players":null},{"server_id":53,"name":"Uncletopia | Warsaw | 5 | Stopwatch Beta","name_short":"waw-5","host":"waw-1.pl.uncletopia.com","port":27055,"enabled":true,"region":"eu","cc":"pl","latitude":52.2297,"longitude":21.017532,"reserved":0,"last_update":"0001-01-01T00:00:00Z","name_a2s":"Uncletopia | Warsaw | 5 | Stopwatch Beta","protocol":17,"map":"pl_swiftwater_final1","folder":"tf","game":"Team Fortress","app_id":440,"player_count":0,"max_players":24,"Bots":0,"server_type":"Dedicated","server_os":"Linux","password":true,"vac":true,"version":"7742253","steam_id":85568392925397854,"keywords":["nocrits","nodmgspread","payload","uncletopia"],"game_id":440,"stv_port":27056,"stv_name":"Uncletopia | Warsaw | 5 | Stopwatch Beta | STV","players":null},{"server_id":54,"name":"Uncletopia | Warsaw | 6 | Community","name_short":"waw-6","host":"waw-1.pl.uncletopia.com","port":27065,"enabled":true,"region":"eu","cc":"pl","latitude":52.2297,"longitude":21.017532,"reserved":0,"last_update":"0001-01-01T00:00:00Z","name_a2s":"Uncletopia | Warsaw | 6 | Community","protocol":17,"map":"workshop/koth_slaughter_rc1.ugc1712845210","folder":"tf","game":"Team Fortress","app_id":440,"player_count":8,"max_players":24,"Bots":0,"server_type":"Dedicated","server_os":"Linux","password":true,"vac":true,"version":"7742253","steam_id":85568392925397856,"keywords":["cp","nocrits","nodmgspread","uncletopia"],"game_id":440,"stv_port":27066,"stv_name":"Uncletopia | Warsaw | 6 | Community | STV","players":[{"user_id":36,"name":"Shocker","steam_id":76561199028232556,"connected_time":2763000000000,"state":"active","ping":179},{"user_id":31,"name":"SilentStorm27","steam_id":76561199037242199,"connected_time":3285000000000,"state":"active","ping":169},{"user_id":37,"name":"shinji","steam_id":76561198099696876,"connected_time":246000000000,"state":"active","ping":75},{"user_id":38,"name":"¬øŒª Yuri","steam_id":76561198019829178,"connected_time":235000000000,"state":"active","ping":75},{"user_id":39,"name":"Chen","steam_id":76561198440363619,"connected_time":202000000000,"state":"active","ping":70},{"user_id":41,"name":"boglin","steam_id":76561198101977091,"connected_time":131000000000,"state":"active","ping":96},{"user_id":42,"name":"logan.dykins09","steam_id":76561199143456682,"connected_time":126000000000,"state":"active","ping":211},{"user_id":43,"name":"Braderzzz009","steam_id":76561198815895618,"connected_time":79000000000,"state":"spawning","ping":89}]}]}