{"status":true,"message":"","result":[{"server_id":9,"name":"Uncletopia | Atlanta | 1 | All Maps","name_short":"atl-1","host":"atl-1.us.uncletopia.com","port":27015,"enabled":true,"region":"us-east","cc":"us","latitude":33.753746,"longitude":-84.38633,"reserved":0,"last_update":"0001-01-01T00:00:00Z","name_a2s":"Uncletopia | Atlanta | 1 | All Maps","protocol":17,"map":"cp_snakewater_final1","folder":"tf","game":"Team Fortress","app_id":440,"player_count":0,"max_players":24,"Bots":0,"server_type":"Dedicated","server_os":"Linux","password":false,"vac":true,"version":"7961495","steam_id":85568392924469982,"keywords":["cp","nocrits","nodmgspread","uncletopia"],"game_id":440,"stv_port":27016,"stv_name":"Uncletopia | Atlanta | 1 | All Maps | STV","players":null},{"server_id":104,"name":"Uncletopia | Atlanta | 2 | All Maps","name_short":"atl-2","host":"atl-1.us.uncletopia.com","port":27025,"enabled":true,"region":"us-east","cc":"us","latitude":33.753746,"longitude":-84.38633,"reserved":0,"last_update":"0001-01-01T00:00:00Z","name_a2s":"Uncletopia | Atlanta | 2 | All Maps","protocol":17,"map":"cp_mountainlab","folder":"tf","game":"Team Fortress","app_id":440,"player_count":0,"max_players":24,"Bots":0,"server_type":"Dedicated","server_os":"Linux","password":false,"vac":true,"version":"7961495","steam_id":85568392924469983,"keywords":["cp","nocrits","nodmgspread","uncletopia"],"game_id":440,"stv_port":27026,"stv_name":"Uncletopia | Atlanta | 2 | All Maps | STV","players":null},{"server_id":400,"name":"Uncletopia | Atlanta | 3 | All Maps","name_short":"atl-3","host":"atl-1.us.uncletopia.com","port":27035,"enabled":true,"region":"us-east","cc":"us","latitude":33.753746,"longitude":-84.38633,"reserved":0,"last_update":"0001-01-01T00:00:00Z","name_a2s":"Uncletopia | Atlanta | 3 | All Maps","protocol":17,"map":"cp_process_final","folder":"tf","game":"Team Fortress","app_id":440,"player_count":0,"max_players":24,"Bots":0,"server_type":"Dedicated","server_os":"Linux","password":false,"vac":true,"version":"7961495","steam_id":85568392924515187,"keywords":["cp","nocrits","nodmgspread","uncletopia"],"game_id":440,"stv_port":27036,"stv_name":"Uncletopia | Atlanta | 3 | All Maps | STV","players":null},{"server_id":401,"name":"Uncletopia | Atlanta | 4 | Community","name_short":"atl-4","host":"atl-1.us.uncletopia.com","port":27045,"enabled":true,"region":"us-east","cc":"us","latitude":33.753746,"longitude":-84.38633,"reserved":0,"last_update":"0001-01-01T00:00:00Z","name_a2s":"Uncletopia | Atlanta | 4 | Community","protocol":17,"map":"koth_lakeside_final","folder":"tf","game":"Team Fortress","app_id":440,"player_count":0,"max_players":24,"Bots":0,"server_type":"Dedicated","server_os":"Linux","password":false,"vac":true,"version":"7961495","steam_id":85568392924515188,"keywords":["cp","nocrits","nodmgspread","uncletopia"],"game_id":440,"stv_port":27046,"stv_name":"Uncletopia | Atlanta | 4 | Community | STV","players":null},{"server_id":2,"name":"Uncletopia | Chicago | 1 | All Maps","name_short":"chi-1","host":"chi-1.us.uncletopia.com","port":27015,"enabled":true,"region":"us-central","cc":"us","latitude":41.881832,"longitude":-87.62318,"reserved":0,"last_update":"0001-01-01T00:00:00Z","name_a2s":"Uncletopia | Chicago | 1 | All Maps","protocol":17,"map":"cp_dustbowl","folder":"tf","game":"Team Fortress","app_id":440,"player_count":0,"max_players":24,"Bots":0,"server_type":"Dedicated","server_os":"Linux","password":true,"vac":true,"version":"7961495","steam_id":85568392924469984,"keywords":["cp","nocrits","nodmgspread","uncletopia"],"game_id":440,"stv_port":27016,"stv_name":"Uncletopia | Chicago | 1 | All Maps | STV","players":null},{"server_id":106,"name":"Uncletopia | Chicago | 2 | All Maps","name_short":"chi-2","host":"chi-1.us.uncletopia.com","port":27025,"enabled":true,"region":"us-central","cc":"us","latitude":41.881832,"longitude":-87.62318,"reserved":0,"last_update":"0001-01-01T00:00:00Z","name_a2s":"Uncletopia | Chicago | 2 | All Maps","protocol":17,"map":"koth_harvest_final","folder":"tf","game":"Team Fortress","app_id":440,"player_count":24,"max_players":24,"Bots":0,"server_type":"Dedicated","server_os":"Linux","password":true,"vac":true,"version":"7961495","steam_id":85568392924469985,"keywords":["cp","nocrits","nodmgspread","uncletopia"],"game_id":440,"stv_port":27026,"stv_name":"Uncletopia | Chicago | 2 | All Maps | STV","players":[{"user_id":123,"name":"exlhk7","steam_id":76561199468136783,"connected_time":1342000000000,"state":"active","ping":71},{"user_id":134,"name":"Christian Bonnie","steam_id":76561199194702127,"connected_time":628000000000,"state":"active","ping":76},{"user_id":143,"name":"Kaluka","steam_id":76561198036861445,"connected_time":73000000000,"state":"active","ping":62},{"user_id":114,"name":"Ghoulenoir","steam_id":76561198074314573,"connected_time":1589000000000,"state":"active","ping":46},{"user_id":121,"name":"Norman","steam_id":76561198154715990,"connected_time":1497000000000,"state":"active","ping":107},{"user_id":137,"name":"HalfGuest","steam_id":76561199045682328,"connected_time":212000000000,"state":"active","ping":142},{"user_id":97,"name":"ungr8t „ÅÜ„Çì„Åê„Çå„ÅÑ„Å®","steam_id":76561198063521721,"connected_time":2640000000000,"state":"active","ping":74},{"user_id":90,"name":"gaming unit","steam_id":76561198148059714,"connected_time":3288000000000,"state":"active","ping":59},{"user_id":126,"name":"Pipo","steam_id":76561198171466414,"connected_time":1153000000000,"state":"active","ping":63},{"user_id":142,"name":"Swifgz","steam_id":76561198162875756,"connected_time":115000000000,"state":"active","ping":61},{"user_id":138,"name":"magickxanadu","steam_id":76561199117360103,"connected_time":208000000000,"state":"active","ping":79},{"user_id":101,"name":"Braspooky","steam_id":76561198275170070,"connected_time":2234000000000,"state":"active","ping":68},{"user_id":125,"name":"gender cowboy","steam_id":76561198097175164,"connected_time":1287000000000,"state":"active","ping":77},{"user_id":68,"name":".JIFF","steam_id":76561198045181760,"connected_time":4160000000000,"state":"active","ping":60},{"user_id":144,"name":"dude","steam_id":76561198323384949,"connected_time":19000000000,"state":"active","ping":123},{"user_id":131,"name":"shadow6","steam_id":76561197979807910,"connected_time":816000000000,"state":"active","ping":80},{"user_id":139,"name":"Smokey Ian","steam_id":76561199128786637,"connected_time":182000000000,"state":"active","ping":101},{"user_id":141,"name":"westward (was/were)","steam_id":76561198805512350,"connected_time":145000000000,"state":"active","ping":117},{"user_id":133,"name":"RIP John Pork","steam_id":76561198241948526,"connected_time":637000000000,"state":"active","ping":60},{"user_id":135,"name":"Tyco","steam_id":76561197978414167,"connected_time":317000000000,"state":"active","ping":74},{"user_id":128,"name":"[SK] Punish ‚ô• ÁâßÊøëÁ∫¢ËéâÊ†ñ","steam_id":76561198207987376,"connected_time":898000000000,"state":"active","ping":46},{"user_id":145,"name":"Thunder","steam_id":76561199434110716,"connected_time":16000000000,"state":"active","ping":62},{"user_id":130,"name":"Kapu1178","steam_id":76561198107212766,"connected_time":856000000000,"state":"active","ping":79},{"user_id":146,"name":"dinkolaw","steam_id":76561198154072948,"connected_time":15000000000,"state":"active","ping":173}]},{"server_id":402,"name":"Uncletopia | Chicago | 3 | All Maps","name_short":"chi-3","host":"chi-1.us.uncletopia.com","port":27035,"enabled":true,"region":"us-central","cc":"us","latitude":41.881832,"longitude":-87.62318,"reserved":0,"last_update":"0001-01-01T00:00:00Z","name_a2s":"Uncletopia | Chicago | 3 | All Maps","protocol":17,"map":"pl_snowycoast","folder":"tf","game":"Team Fortress","app_id":440,"player_count":24,"max_players":24,"Bots":0,"server_type":"Dedicated","server_os":"Linux","password":true,"vac":true,"version":"7961495","steam_id":85568392924515191,"keywords":["nocrits","nodmgspread","payload","uncletopia"],"game_id":440,"stv_port":27036,"stv_name":"Uncletopia | Chicago | 3 | All Maps | STV","players":[{"user_id":355,"name":"viagra addict","steam_id":76561198017705248,"connected_time":983000000000,"state":"active","ping":45},{"user_id":337,"name":"a bullet","steam_id":76561198809248362,"connected_time":2285000000000,"state":"active","ping":166},{"user_id":257,"name":"Ashes!","steam_id":76561197998475441,"connected_time":9890000000000,"state":"active","ping":86},{"user_id":250,"name":"PackingPeanutt :]","steam_id":76561199053229413,"connected_time":10185000000000,"state":"active","ping":87},{"user_id":354,"name":"i46","steam_id":76561198031675881,"connected_time":1065000000000,"state":"active","ping":43},{"user_id":341,"name":"Bigjon300","steam_id":76561198137902441,"connected_time":2033000000000,"state":"active","ping":83},{"user_id":309,"name":"Lylith","steam_id":76561198386687546,"connected_time":5241000000000,"state":"active","ping":64},{"user_id":305,"name":"Jerry Bondle","steam_id":76561198337512213,"connected_time":5251000000000,"state":"active","ping":70},{"user_id":315,"name":"swat","steam_id":76561198803159110,"connected_time":4446000000000,"state":"active","ping":74},{"user_id":356,"name":"Skinny pete","steam_id":76561198801608576,"connected_time":674000000000,"state":"active","ping":77},{"user_id":334,"name":"Pyrovision Distributor","steam_id":76561198242118240,"connected_time":2486000000000,"state":"active","ping":57},{"user_id":358,"name":"Dr Oshawott","steam_id":76561198042021629,"connected_time":340000000000,"state":"active","ping":66},{"user_id":313,"name":"dak","steam_id":76561198076596506,"connected_time":4630000000000,"state":"active","ping":59},{"user_id":335,"name":"b","steam_id":76561198118211523,"connected_time":2439000000000,"state":"active","ping":59},{"user_id":320,"name":"FoxyTheFish","steam_id":76561199074190919,"connected_time":3632000000000,"state":"active","ping":714},{"user_id":359,"name":"i love digging shit out my ass","steam_id":76561198159339442,"connected_time":319000000000,"state":"active","ping":73},{"user_id":322,"name":"bushy472","steam_id":76561198259074051,"connected_time":3052000000000,"state":"active","ping":67},{"user_id":321,"name":"sand","steam_id":76561198086193212,"connected_time":3527000000000,"state":"active","ping":61},{"user_id":296,"name":"hank","steam_id":76561197977182378,"connected_time":5784000000000,"state":"active","ping":47},{"user_id":362,"name":"„ÄåDaws_Dudeguy„Äç","steam_id":76561198205838645,"connected_time":84000000000,"state":"active","ping":70},{"user_id":264,"name":"Cloud","steam_id":76561198954987128,"connected_time":9123000000000,"state":"active","ping":74},{"user_id":348,"name":"pumpkin patch","steam_id":76561198381020239,"connected_time":1222000000000,"state":"active","ping":88},{"user_id":349,"name":"Wilhelmktx","steam_id":76561198158102295,"connected_time":1205000000000,"state":"active","ping":45},{"user_id":360,"name":"Shady Businessman","steam_id":76561198143855968,"connected_time":170000000000,"state":"active","ping":95}]},{"server_id":403,"name":"Uncletopia | Chicago | 4 | All Maps","name_short":"chi-4","host":"chi-1.us.uncletopia.com","port":27045,"enabled":true,"region":"us-central","cc":"us","latitude":41.881832,"longitude":-87.62318,"reserved":0,"last_update":"0001-01-01T00:00:00Z","name_a2s":"Uncletopia | Chicago | 4 | All Maps","protocol":17,"map":"cp_dustbowl","folder":"tf","game":"Team Fortress","app_id":440,"player_count":24,"max_players":24,"Bots":0,"server_type":"Dedicated","server_os":"Linux","password":true,"vac":true,"version":"7961495","steam_id":85568392924515193,"keywords":["cp","nocrits","nodmgspread","uncletopia"],"game_id":440,"stv_port":27046,"stv_name":"Uncletopia | Chicago | 4 | All Maps | STV","players":[{"user_id":383,"name":"SamTheSlav_#3557","steam_id":76561198117480630,"connected_time":13000000000,"state":"active","ping":96},{"user_id":239,"name":"Thotimus Begonimus","steam_id":76561197970275938,"connected_time":2898000000000,"state":"active","ping":51},{"user_id":379,"name":"Da Big Bumby","steam_id":76561198044511738,"connected_time":659000000000,"state":"active","ping":78},{"user_id":236,"name":"Dr. Freeday, E.I.M.B","steam_id":76561198046870291,"connected_time":2924000000000,"state":"active","ping":63},{"user_id":371,"name":"josh","steam_id":76561198111565081,"connected_time":945000000000,"state":"active","ping":109},{"user_id":330,"name":"that one","steam_id":76561199088969462,"connected_time":1747000000000,"state":"active","ping":57},{"user_id":380,"name":"caption cool","steam_id":76561197990612056,"connected_time":443000000000,"state":"active","ping":45},{"user_id":124,"name":"Rornir","steam_id":76561198081829615,"connected_time":5392000000000,"state":"active","ping":38},{"user_id":226,"name":"earthbound393","steam_id":76561199444276547,"connected_time":3137000000000,"state":"active","ping":108},{"user_id":188,"name":"Pussy Slambasket","steam_id":76561198093694322,"connected_time":3774000000000,"state":"active","ping":55},{"user_id":271,"name":"some tree","steam_id":76561198166093346,"connected_time":2633000000000,"state":"active","ping":54},{"user_id":374,"name":"steakfarmasian","steam_id":76561198212754036,"connected_time":891000000000,"state":"active","ping":52},{"user_id":231,"name":"Epifiny","steam_id":76561198027958086,"connected_time":3067000000000,"state":"active","ping":67},{"user_id":339,"name":"Space Lizard","steam_id":76561198056798193,"connected_time":1469000000000,"state":"active","ping":71},{"user_id":372,"name":"Biggest birrrd","steam_id":76561198069066522,"connected_time":929000000000,"state":"active","ping":160},{"user_id":373,"name":"Punsequence64","steam_id":76561199201885917,"connected_time":910000000000,"state":"active","ping":63},{"user_id":381,"name":"Candy Sparkles","steam_id":76561198126871264,"connected_time":391000000000,"state":"active","ping":81},{"user_id":333,"name":"Dillo","steam_id":76561198131497687,"connected_time":1662000000000,"state":"active","ping":71},{"user_id":375,"name":"JopsyJop","steam_id":76561198165542681,"connected_time":868000000000,"state":"active","ping":49},{"user_id":382,"name":"ÿ®ÿßŸáÿ∏son","steam_id":76561198070635731,"connected_time":160000000000,"state":"active","ping":64},{"user_id":377,"name":"Ozer","steam_id":76561198390694422,"connected_time":746000000000,"state":"active","ping":59},{"user_id":328,"name":"Saggy Haggis Balls","steam_id":76561198047845399,"connected_time":1763000000000,"state":"active","ping":72},{"user_id":309,"name":"Admiral Catradora","steam_id":76561198017271944,"connected_time":1957000000000,"state":"active","ping":72},{"user_id":378,"name":"0100101101100001011100100110110","steam_id":76561198034028769,"connected_time":746000000000,"state":"active","ping":66}]},{"server_id":36,"name":"Uncletopia | Chicago | 5 | All Maps","name_short":"chi-5","host":"chi-2.us.uncletopia.com","port":27015,"enabled":true,"region":"us-central","cc":"us","latitude":41.881832,"longitude":-87.62318,"reserved":0,"last_update":"0001-01-01T00:00:00Z","name_a2s":"Uncletopia | Chicago | 5 | All Maps","protocol":17,"map":"koth_cascade","folder":"tf","game":"Team Fortress","app_id":440,"player_count":0,"max_players":24,"Bots":0,"server_type":"Dedicated","server_os":"Linux","password":true,"vac":true,"version":"7961495","steam_id":85568392924866362,"keywords":["cp","nocrits","nodmgspread","uncletopia"],"game_id":440,"stv_port":27016,"stv_name":"Uncletopia | Chicago | 5 | All Maps | STV","players":null},{"server_id":37,"name":"Uncletopia | Chicago | 6 | All Maps","name_short":"chi-6","host":"chi-2.us.uncletopia.com","port":27025,"enabled":true,"region":"us-central","cc":"us","latitude":41.881832,"longitude":-87.62318,"reserved":0,"last_update":"0001-01-01T00:00:00Z","name_a2s":"Uncletopia | Chicago | 6 | All Maps","protocol":17,"map":"pl_borneo","folder":"tf","game":"Team Fortress","app_id":440,"player_count":0,"max_players":24,"Bots":0,"server_type":"Dedicated","server_os":"Linux","password":true,"vac":true,"version":"7961495","steam_id":85568392924866363,"keywords":["nocrits","nodmgspread","payload","uncletopia"],"game_id":440,"stv_port":27026,"stv_name":"Uncletopia | Chicago | 6 | All Maps | STV","players":null},{"server_id":38,"name":"Uncletopia | Chicago | 7 | Stopwatch Beta","name_short":"chi-7","host":"chi-2.us.uncletopia.com","port":27035,"enabled":true,"region":"us-central","cc":"us","latitude":41.881832,"longitude":-87.62318,"reserved":0,"last_update":"0001-01-01T00:00:00Z","name_a2s":"Uncletopia | Chicago | 7 | Stopwatch Beta","protocol":17,"map":"pl_badwater","folder":"tf","game":"Team Fortress","app_id":440,"player_count":0,"max_players":24,"Bots":0,"server_type":"Dedicated","server_os":"Linux","password":true,"vac":true,"version":"7961495","steam_id":85568392924866364,"keywords":["nocrits","nodmgspread","payload","uncletopia"],"game_id":440,"stv_port":27036,"stv_name":"Uncletopia | Chicago | 7 | Stopwatch Beta | STV","players":null},{"server_id":39,"name":"Uncletopia | Chicago | 8 | Community","name_short":"chi-8","host":"chi-2.us.uncletopia.com","port":27045,"enabled":true,"region":"us-central","cc":"us","latitude":41.881832,"longitude":-87.62318,"reserved":0,"last_update":"0001-01-01T00:00:00Z","name_a2s":"Uncletopia | Chicago | 8 | Community","protocol":17,"map":"koth_cascade","folder":"tf","game":"Team Fortress","app_id":440,"player_count":0,"max_players":24,"Bots":0,"server_type":"Dedicated","server_os":"Linux","password":true,"vac":true,"version":"7961495","steam_id":85568392924866365,"keywords":["cp","nocrits","nodmgspread","uncletopia"],"game_id":440,"stv_port":27046,"stv_name":"Uncletopia | Chicago | 8 | Community | STV","players":null},{"server_id":8,"name":"Uncletopia | Dallas | 1 | All Maps","name_short":"dal-1","host":"dal-1.us.uncletopia.com","port":27015,"enabled":true,"region":"us-central","cc":"us","latitude":32.779167,"longitude":-96.80889,"reserved":0,"last_update":"0001-01-01T00:00:00Z","name_a2s":"Uncletopia | Dallas | 1 | All Maps","protocol":17,"map":"koth_harvest_final","folder":"tf","game":"Team Fortress","app_id":440,"player_count":20,"max_players":24,"Bots":0,"server_type":"Dedicated","server_os":"Linux","password":true,"vac":true,"version":"7961495","steam_id":85568392924469986,"keywords":["cp","nocrits","nodmgspread","uncletopia"],"game_id":440,"stv_port":27016,"stv_name":"Uncletopia | Dallas | 1 | All Maps | STV","players":[{"user_id":268,"name":"JoeFalco","steam_id":76561198064005012,"connected_time":1872000000000,"state":"active","ping":82},{"user_id":287,"name":"Alkimia","steam_id":76561198385763137,"connected_time":876000000000,"state":"active","ping":123},{"user_id":297,"name":"Duende Enthusiast","steam_id":76561198354359094,"connected_time":135000000000,"state":"active","ping":72},{"user_id":217,"name":"The Second Jimmy","steam_id":76561198409907417,"connected_time":6210000000000,"state":"active","ping":85},{"user_id":281,"name":"ATL1 | on my hunting trip","steam_id":76561198315341646,"connected_time":1226000000000,"state":"active","ping":86},{"user_id":252,"name":"socializedCryptid","steam_id":76561198991665007,"connected_time":3352000000000,"state":"active","ping":79},{"user_id":296,"name":"Legendairy Products","steam_id":76561198059775008,"connected_time":192000000000,"state":"active","ping":65},{"user_id":298,"name":"milk man","steam_id":76561198271623457,"connected_time":126000000000,"state":"active","ping":65},{"user_id":274,"name":"Lock'd","steam_id":76561198170108230,"connected_time":1604000000000,"state":"active","ping":60},{"user_id":300,"name":"honeycrisp","steam_id":76561198215442741,"connected_time":95000000000,"state":"active","ping":93},{"user_id":284,"name":"SuperCeleste‚ù§Ô∏èTrans Rights","steam_id":76561198167207053,"connected_time":989000000000,"state":"active","ping":86},{"user_id":263,"name":"Jango","steam_id":76561198084589742,"connected_time":2291000000000,"state":"active","ping":74},{"user_id":301,"name":"chaffy","steam_id":76561198021754567,"connected_time":93000000000,"state":"active","ping":60},{"user_id":293,"name":"im ultrakill (official)","steam_id":76561198415528114,"connected_time":404000000000,"state":"active","ping":185},{"user_id":291,"name":"Willem Dafoe","steam_id":76561198037453253,"connected_time":514000000000,"state":"active","ping":74},{"user_id":256,"name":"poopshitter9000","steam_id":76561198074624639,"connected_time":3061000000000,"state":"active","ping":85},{"user_id":283,"name":"Hindmost","steam_id":76561199081837220,"connected_time":1052000000000,"state":"active","ping":70},{"user_id":267,"name":"Quomples","steam_id":76561198140996628,"connected_time":1913000000000,"state":"active","ping":54},{"user_id":277,"name":"yaldabaoth","steam_id":76561198084606869,"connected_time":1534000000000,"state":"active","ping":83},{"user_id":286,"name":"Rose","steam_id":76561198955581861,"connected_time":963000000000,"state":"active","ping":81}]},{"server_id":108,"name":"Uncletopia | Dallas | 2 | All Maps","name_short":"dal-2","host":"dal-1.us.uncletopia.com","port":27025,"enabled":true,"region":"us-central","cc":"us","latitude":32.779167,"longitude":-96.80889,"reserved":0,"last_update":"0001-01-01T00:00:00Z","name_a2s":"Uncletopia | Dallas | 2 | All Maps","protocol":17,"map":"pl_snowycoast","folder":"tf","game":"Team Fortress","app_id":440,"player_count":23,"max_players":24,"Bots":0,"server_type":"Dedicated","server_os":"Linux","password":true,"vac":true,"version":"7961495","steam_id":85568392924469988,"keywords":["nocrits","nodmgspread","payload","uncletopia"],"game_id":440,"stv_port":27026,"stv_name":"Uncletopia | Dallas | 2 | All Maps | STV","players":[{"user_id":269,"name":"ScottMorris","steam_id":76561198169320203,"connected_time":657000000000,"state":"active","ping":126},{"user_id":257,"name":"carrotcake","steam_id":76561198030997761,"connected_time":871000000000,"state":"active","ping":45},{"user_id":264,"name":"Barbatruc","steam_id":76561198119019916,"connected_time":762000000000,"state":"active","ping":176},{"user_id":268,"name":"What Is The Meaning Of Life Of ","steam_id":76561199210782731,"connected_time":713000000000,"state":"active","ping":79},{"user_id":260,"name":"IMYS","steam_id":76561198096223200,"connected_time":817000000000,"state":"active","ping":65},{"user_id":282,"name":"Chirp","steam_id":76561198240780230,"connected_time":13000000000,"state":"spawning","ping":84},{"user_id":226,"name":"MeMyBongusAndTheGreatOutdoors","steam_id":76561198097708978,"connected_time":4044000000000,"state":"active","ping":46},{"user_id":265,"name":"Tlaloc","steam_id":76561198375215983,"connected_time":739000000000,"state":"active","ping":123},{"user_id":279,"name":"Hey","steam_id":76561198447517893,"connected_time":418000000000,"state":"active","ping":74},{"user_id":262,"name":"Zanzibar","steam_id":76561199220718789,"connected_time":778000000000,"state":"active","ping":99},{"user_id":263,"name":"hard cement with handprint","steam_id":76561198066566813,"connected_time":778000000000,"state":"active","ping":105},{"user_id":190,"name":"Doctor Emerald(real)","steam_id":76561199123003872,"connected_time":7210000000000,"state":"active","ping":88},{"user_id":278,"name":"ian","steam_id":76561198119616750,"connected_time":448000000000,"state":"active","ping":66},{"user_id":266,"name":"TJGSASQUATCH","steam_id":76561198077806921,"connected_time":733000000000,"state":"active","ping":101},{"user_id":255,"name":"james may","steam_id":76561198043857339,"connected_time":981000000000,"state":"active","ping":83},{"user_id":270,"name":"BigNugs","steam_id":76561198056402610,"connected_time":627000000000,"state":"active","ping":102},{"user_id":230,"name":"Jesse Bear","steam_id":76561198217075305,"connected_time":3998000000000,"state":"active","ping":102},{"user_id":271,"name":"statutoryalpaca3843","steam_id":76561199484093982,"connected_time":620000000000,"state":"active","ping":157},{"user_id":272,"name":"Wolbey","steam_id":76561198042148095,"connected_time":607000000000,"state":"active","ping":82},{"user_id":245,"name":"Acro","steam_id":76561198092451804,"connected_time":2094000000000,"state":"active","ping":72},{"user_id":273,"name":"A Quiet Fartwell","steam_id":76561198397009880,"connected_time":606000000000,"state":"active","ping":81},{"user_id":280,"name":"3xotic","steam_id":76561199052319732,"connected_time":344000000000,"state":"active","ping":112},{"user_id":277,"name":"Fireblade425","steam_id":76561199278401592,"connected_time":547000000000,"state":"active","ping":98}]},{"server_id":404,"name":"Uncletopia | Dallas | 3 | All Maps","name_short":"dal-3","host":"dal-1.us.uncletopia.com","port":27035,"enabled":true,"region":"us-central","cc":"us","latitude":32.779167,"longitude":-96.80889,"reserved":0,"last_update":"0001-01-01T00:00:00Z","name_a2s":"Uncletopia | Dallas | 3 | All Maps","protocol":17,"map":"pl_snowycoast","folder":"tf","game":"Team Fortress","app_id":440,"player_count":22,"max_players":24,"Bots":0,"server_type":"Dedicated","server_os":"Linux","password":true,"vac":true,"version":"7961495","steam_id":85568392924515219,"keywords":["nocrits","nodmgspread","payload","uncletopia"],"game_id":440,"stv_port":27036,"stv_name":"Uncletopia | Dallas | 3 | All Maps | STV","players":[{"user_id":6,"name":"shitass | troutsupply.net","steam_id":76561198210572481,"connected_time":4765000000000,"state":"active","ping":60},{"user_id":77,"name":"Snake Handler","steam_id":76561198027198306,"connected_time":280000000000,"state":"active","ping":75},{"user_id":84,"name":"barney","steam_id":76561198166433332,"connected_time":125000000000,"state":"active","ping":75},{"user_id":75,"name":"CoralBlue","steam_id":76561199085138970,"connected_time":299000000000,"state":"active","ping":96},{"user_id":11,"name":"Lolxdloldx","steam_id":76561198136887125,"connected_time":4184000000000,"state":"active","ping":98},{"user_id":71,"name":"Chunk Stuffer","steam_id":76561198856508573,"connected_time":393000000000,"state":"active","ping":42},{"user_id":69,"name":"License","steam_id":76561197967501494,"connected_time":715000000000,"state":"active","ping":76},{"user_id":70,"name":"Superman123389","steam_id":76561198267472539,"connected_time":713000000000,"state":"active","ping":86},{"user_id":76,"name":"lili","steam_id":76561199391478575,"connected_time":286000000000,"state":"active","ping":99},{"user_id":62,"name":"TG_16","steam_id":76561199109196768,"connected_time":1286000000000,"state":"active","ping":50},{"user_id":65,"name":"Not a \"Real\" Cop","steam_id":76561198064108447,"connected_time":968000000000,"state":"active","ping":107},{"user_id":78,"name":"Tskuno","steam_id":76561198129291597,"connected_time":278000000000,"state":"active","ping":77},{"user_id":85,"name":"test gamer please ignore","steam_id":76561198007464245,"connected_time":2000000000,"state":"spawning","ping":89},{"user_id":58,"name":"thai tea","steam_id":76561198308290211,"connected_time":1354000000000,"state":"active","ping":92},{"user_id":73,"name":"Some F.O.O.L.","steam_id":76561197971954064,"connected_time":355000000000,"state":"active","ping":96},{"user_id":52,"name":"nayonhaha","steam_id":76561198066507360,"connected_time":1849000000000,"state":"active","ping":69},{"user_id":50,"name":"Cold shoulder","steam_id":76561198453824178,"connected_time":2300000000000,"state":"active","ping":132},{"user_id":45,"name":"OldRavensFan","steam_id":76561198043919562,"connected_time":2357000000000,"state":"active","ping":80},{"user_id":68,"name":"Varveer","steam_id":76561198218897383,"connected_time":900000000000,"state":"active","ping":90},{"user_id":82,"name":"Phos","steam_id":76561198122339506,"connected_time":233000000000,"state":"active","ping":65},{"user_id":60,"name":"Mephistopheles","steam_id":76561198253731826,"connected_time":1343000000000,"state":"active","ping":91},{"user_id":53,"name":"Ockulus","steam_id":76561199069638460,"connected_time":1848000000000,"state":"active","ping":87}]},{"server_id":405,"name":"Uncletopia | Dallas | 4 | Community","name_short":"dal-4","host":"dal-1.us.uncletopia.com","port":27045,"enabled":true,"region":"us-central","cc":"us","latitude":32.779167,"longitude":-96.80889,"reserved":0,"last_update":"0001-01-01T00:00:00Z","name_a2s":"Uncletopia | Dallas | 4 | Community","protocol":17,"map":"workshop/pl_boundary_final1.ugc456799153","folder":"tf","game":"Team Fortress","app_id":440,"player_count":6,"max_players":24,"Bots":0,"server_type":"Dedicated","server_os":"Linux","password":true,"vac":true,"version":"7961495","steam_id":85568392924515220,"keywords":["nocrits","nodmgspread","payload","uncletopia"],"game_id":440,"stv_port":27046,"stv_name":"Uncletopia | Dallas | 4 | Community | STV","players":[{"user_id":21,"name":"jairo","steam_id":76561199006124613,"connected_time":1310000000000,"state":"active","ping":104},{"user_id":18,"name":"Wajliii","steam_id":76561199002865510,"connected_time":1941000000000,"state":"active","ping":190},{"user_id":19,"name":"GibbusGod","steam_id":76561199232436690,"connected_time":1407000000000,"state":"active","ping":71},{"user_id":22,"name":"Ajsa CFBI","steam_id":76561199235907971,"connected_time":1284000000000,"state":"active","ping":105},{"user_id":24,"name":"Funky 3GG","steam_id":76561199181214507,"connected_time":953000000000,"state":"active","ping":98},{"user_id":26,"name":"purpledrake08","steam_id":76561199155657280,"connected_time":800000000000,"state":"active","ping":150}]},{"server_id":5,"name":"Uncletopia | Frankfurt | 1 | All Maps","name_short":"frk-1","host":"frk-1.de.uncletopia.com","port":27015,"enabled":true,"region":"eu","cc":"de","latitude":50.110924,"longitude":8.682127,"reserved":0,"last_update":"0001-01-01T00:00:00Z","name_a2s":"Uncletopia | Frankfurt | 1 | All Maps","protocol":17,"map":"pl_frontier_final","folder":"tf","game":"Team Fortress","app_id":440,"player_count":24,"max_players":24,"Bots":0,"server_type":"Dedicated","server_os":"Linux","password":true,"vac":true,"version":"7961495","steam_id":85568392924469989,"keywords":["nocrits","nodmgspread","payload","uncletopia"],"game_id":440,"stv_port":27016,"stv_name":"Uncletopia | Frankfurt | 1 | All Maps | STV","players":[{"user_id":8,"name":"Falcon","steam_id":76561198211463916,"connected_time":2776000000000,"state":"active","ping":100},{"user_id":11,"name":"Savv","steam_id":76561197992892379,"connected_time":2728000000000,"state":"active","ping":92},{"user_id":10,"name":"SoulSeek","steam_id":76561198023805987,"connected_time":2741000000000,"state":"active","ping":73},{"user_id":12,"name":"[IVe/LO]Jadore_les_Currywurst","steam_id":76561198005084382,"connected_time":2694000000000,"state":"active","ping":90},{"user_id":39,"name":"‚ôâ LEIGULAS ‚ôâ","steam_id":76561198006815007,"connected_time":2063000000000,"state":"active","ping":85},{"user_id":14,"name":"Barry Bee Benson","steam_id":76561198115199225,"connected_time":2646000000000,"state":"active","ping":60},{"user_id":47,"name":"flave","steam_id":76561198056372101,"connected_time":1077000000000,"state":"active","ping":66},{"user_id":44,"name":"alpha","steam_id":76561198250491640,"connected_time":1093000000000,"state":"active","ping":58},{"user_id":41,"name":"fgustav","steam_id":76561197996939661,"connected_time":1947000000000,"state":"active","ping":83},{"user_id":54,"name":"Toasty5050","steam_id":76561198073540881,"connected_time":153000000000,"state":"active","ping":45},{"user_id":28,"name":"puuksu_mees7","steam_id":76561198022616643,"connected_time":2441000000000,"state":"active","ping":76},{"user_id":45,"name":"Strangerdanger","steam_id":76561198206728500,"connected_time":1090000000000,"state":"active","ping":75},{"user_id":21,"name":"randompixel","steam_id":76561198003941207,"connected_time":2519000000000,"state":"active","ping":74},{"user_id":49,"name":"nky!","steam_id":76561198086229832,"connected_time":517000000000,"state":"active","ping":54},{"user_id":55,"name":"leminsc8","steam_id":76561198825084995,"connected_time":117000000000,"state":"active","ping":42},{"user_id":56,"name":"glyph","steam_id":76561197980736364,"connected_time":30000000000,"state":"active","ping":78},{"user_id":50,"name":"Rimx","steam_id":76561198053034840,"connected_time":508000000000,"state":"active","ping":89},{"user_id":26,"name":"vurtun","steam_id":76561198857395274,"connected_time":2446000000000,"state":"active","ping":54},{"user_id":27,"name":"‚àí‚Ä¢‚àí‚Ä¢ ‚Ä¢‚àí ‚àí","steam_id":76561198139398425,"connected_time":2443000000000,"state":"active","ping":83},{"user_id":30,"name":"FoOzTV","steam_id":76561197998636728,"connected_time":2404000000000,"state":"active","ping":71},{"user_id":46,"name":"quarks and stuff","steam_id":76561198137869662,"connected_time":1090000000000,"state":"active","ping":59},{"user_id":42,"name":"2BCD","steam_id":76561198178254946,"connected_time":1885000000000,"state":"active","ping":71},{"user_id":51,"name":"Artificial.Ignorance","steam_id":76561198453090180,"connected_time":379000000000,"state":"active","ping":157},{"user_id":53,"name":"skippy","steam_id":76561198171958773,"connected_time":212000000000,"state":"active","ping":70}]},{"server_id":110,"name":"Uncletopia | Frankfurt | 2 | All Maps","name_short":"frk-2","host":"frk-1.de.uncletopia.com","port":27025,"enabled":true,"region":"eu","cc":"de","latitude":50.110924,"longitude":8.682127,"reserved":0,"last_update":"0001-01-01T00:00:00Z","name_a2s":"Uncletopia | Frankfurt | 2 | All Maps","protocol":17,"map":"pl_barnblitz","folder":"tf","game":"Team Fortress","app_id":440,"player_count":24,"max_players":24,"Bots":0,"server_type":"Dedicated","server_os":"Linux","password":true,"vac":true,"version":"7961495","steam_id":85568392924469990,"keywords":["nocrits","nodmgspread","payload","uncletopia"],"game_id":440,"stv_port":27026,"stv_name":"Uncletopia | Frankfurt | 2 | All Maps | STV","players":[{"user_id":55,"name":"glue","steam_id":76561198205501279,"connected_time":449000000000,"state":"active","ping":99},{"user_id":7,"name":"Chainfire","steam_id":76561198120774329,"connected_time":2310000000000,"state":"active","ping":118},{"user_id":10,"name":"Rocadinis","steam_id":76561198095910616,"connected_time":2069000000000,"state":"active","ping":92},{"user_id":57,"name":"Mayor Wank from Wanker Town","steam_id":76561197998253588,"connected_time":179000000000,"state":"active","ping":50},{"user_id":49,"name":"Favi","steam_id":76561198013236935,"connected_time":570000000000,"state":"active","ping":62},{"user_id":59,"name":"Lowb","steam_id":76561198137424821,"connected_time":68000000000,"state":"active","ping":63},{"user_id":20,"name":"Doriian","steam_id":76561198071438810,"connected_time":1516000000000,"state":"active","ping":75},{"user_id":17,"name":"Minimi","steam_id":76561198873850443,"connected_time":1680000000000,"state":"active","ping":89},{"user_id":25,"name":"antlionguard","steam_id":76561198072747143,"connected_time":1432000000000,"state":"active","ping":127},{"user_id":29,"name":"willem dafoe fan","steam_id":76561198795590054,"connected_time":1392000000000,"state":"active","ping":83},{"user_id":40,"name":"Pinkchup","steam_id":76561198106802803,"connected_time":1124000000000,"state":"active","ping":75},{"user_id":58,"name":"Dkz","steam_id":76561197970673402,"connected_time":178000000000,"state":"active","ping":50},{"user_id":41,"name":"Magiccomplex","steam_id":76561199203555188,"connected_time":1074000000000,"state":"active","ping":41},{"user_id":26,"name":"Remyie","steam_id":76561198131031404,"connected_time":1429000000000,"state":"active","ping":104},{"user_id":56,"name":"Rigby","steam_id":76561198021552128,"connected_time":409000000000,"state":"active","ping":99},{"user_id":28,"name":"Ronix97","steam_id":76561198880996434,"connected_time":1406000000000,"state":"active","ping":49},{"user_id":30,"name":"mucaak","steam_id":76561198938589296,"connected_time":1374000000000,"state":"active","ping":70},{"user_id":48,"name":"The Manager of Sex","steam_id":76561198385989487,"connected_time":580000000000,"state":"active","ping":109},{"user_id":46,"name":"You","steam_id":76561198382668057,"connected_time":661000000000,"state":"active","ping":67},{"user_id":51,"name":"dylu","steam_id":76561199127788008,"connected_time":550000000000,"state":"active","ping":70},{"user_id":34,"name":"Genesis","steam_id":76561198999652040,"connected_time":1301000000000,"state":"active","ping":38},{"user_id":52,"name":"Ouzei","steam_id":76561198025949624,"connected_time":546000000000,"state":"active","ping":61},{"user_id":38,"name":"Benzo Fury","steam_id":76561198025259336,"connected_time":1261000000000,"state":"active","ping":60},{"user_id":54,"name":"Tuc√â","steam_id":76561197995266205,"connected_time":530000000000,"state":"active","ping":71}]},{"server_id":308,"name":"Uncletopia | Frankfurt | 3 | All Maps","name_short":"frk-3","host":"frk-1.de.uncletopia.com","port":27035,"enabled":true,"region":"eu","cc":"de","latitude":50.110924,"longitude":8.682127,"reserved":0,"last_update":"0001-01-01T00:00:00Z","name_a2s":"Uncletopia | Frankfurt | 3 | All Maps","protocol":17,"map":"koth_viaduct","folder":"tf","game":"Team Fortress","app_id":440,"player_count":25,"max_players":24,"Bots":0,"server_type":"Dedicated","server_os":"Linux","password":true,"vac":true,"version":"7961495","steam_id":85568392924504274,"keywords":["cp","nocrits","nodmgspread","uncletopia"],"game_id":440,"stv_port":27036,"stv_name":"Uncletopia | Frankfurt | 3 | All Maps | STV","players":[{"user_id":125,"name":"raspy","steam_id":76561198027298961,"connected_time":960000000000,"state":"active","ping":134},{"user_id":161,"name":"Happy Cat","steam_id":76561198405359788,"connected_time":292000000000,"state":"active","ping":102},{"user_id":49,"name":"Shlyk","steam_id":76561198333387103,"connected_time":2104000000000,"state":"active","ping":94},{"user_id":50,"name":"Maddox","steam_id":76561198026419869,"connected_time":2101000000000,"state":"active","ping":68},{"user_id":167,"name":"Rusty","steam_id":76561198126266557,"connected_time":239000000000,"state":"active","ping":51},{"user_id":93,"name":"yuck","steam_id":76561197987249568,"connected_time":1487000000000,"state":"active","ping":90},{"user_id":52,"name":"GorkaMorka","steam_id":76561198323830346,"connected_time":1988000000000,"state":"active","ping":80},{"user_id":13,"name":"the one who grips","steam_id":76561198381106289,"connected_time":3604000000000,"state":"active","ping":70},{"user_id":138,"name":"Sarinya","steam_id":76561198079919172,"connected_time":731000000000,"state":"active","ping":63},{"user_id":155,"name":"Mak≈Çowicz","steam_id":76561198281831506,"connected_time":440000000000,"state":"active","ping":83},{"user_id":159,"name":"Toxic_Cicity","steam_id":76561198165753440,"connected_time":329000000000,"state":"active","ping":101},{"user_id":18,"name":"Rengii76","steam_id":76561198869802076,"connected_time":3290000000000,"state":"active","ping":71},{"user_id":166,"name":"glorbus","steam_id":76561198969544894,"connected_time":250000000000,"state":"active","ping":48},{"user_id":96,"name":"Haine-Kun","steam_id":76561198033843814,"connected_time":1456000000000,"state":"active","ping":56},{"user_id":110,"name":"Twink Destroyer","steam_id":76561198397024973,"connected_time":1243000000000,"state":"active","ping":56},{"user_id":60,"name":"Pohnut","steam_id":76561198087831690,"connected_time":1873000000000,"state":"active","ping":61},{"user_id":26,"name":"gaming gamer","steam_id":76561198212488780,"connected_time":3101000000000,"state":"active","ping":53},{"user_id":48,"name":"fish","steam_id":76561198092096689,"connected_time":2147000000000,"state":"active","ping":48},{"user_id":170,"name":"Thors","steam_id":76561197968739075,"connected_time":149000000000,"state":"active","ping":45},{"user_id":30,"name":"Coja","steam_id":76561198083974982,"connected_time":3054000000000,"state":"active","ping":76},{"user_id":62,"name":"Jobless and Angry","steam_id":76561198160523608,"connected_time":1849000000000,"state":"active","ping":71},{"user_id":173,"name":"Bebok","steam_id":76561198068775340,"connected_time":8000000000,"state":"spawning","ping":59},{"user_id":174,"name":"jojonoob6566","steam_id":76561199246134583,"connected_time":3000000000,"state":"spawning","ping":80},{"user_id":163,"name":"snsmac","steam_id":76561198082821185,"connected_time":280000000000,"state":"active","ping":50},{"user_id":86,"name":"Petros","steam_id":76561198088906975,"connected_time":1544000000000,"state":"active","ping":81}]},{"server_id":309,"name":"Uncletopia | Frankfurt | 4 | All Maps","name_short":"frk-4","host":"frk-1.de.uncletopia.com","port":27045,"enabled":true,"region":"eu","cc":"de","latitude":50.110924,"longitude":8.682127,"reserved":0,"last_update":"0001-01-01T00:00:00Z","name_a2s":"Uncletopia | Frankfurt | 4 | All Maps","protocol":17,"map":"pl_badwater","folder":"tf","game":"Team Fortress","app_id":440,"player_count":9,"max_players":24,"Bots":0,"server_type":"Dedicated","server_os":"Linux","password":true,"vac":true,"version":"7961495","steam_id":85568392924504275,"keywords":["nocrits","nodmgspread","payload","uncletopia"],"game_id":440,"stv_port":27046,"stv_name":"Uncletopia | Frankfurt | 4 | All Maps | STV","players":[{"user_id":8,"name":"Yoshikage Kira","steam_id":76561199051752886,"connected_time":354000000000,"state":"active","ping":61},{"user_id":6,"name":"Pero","steam_id":76561198260464083,"connected_time":457000000000,"state":"active","ping":84},{"user_id":7,"name":"Traylie","steam_id":76561198050797796,"connected_time":377000000000,"state":"active","ping":78},{"user_id":9,"name":"Dane_","steam_id":76561198088448077,"connected_time":339000000000,"state":"active","ping":70},{"user_id":10,"name":"Driver's drunkest God","steam_id":76561198969373800,"connected_time":312000000000,"state":"active","ping":67},{"user_id":11,"name":"ran is running","steam_id":76561199443185667,"connected_time":296000000000,"state":"active","ping":130},{"user_id":13,"name":"Fizik","steam_id":76561198065548086,"connected_time":171000000000,"state":"active","ping":52},{"user_id":15,"name":"Rob A Lob","steam_id":76561198071869486,"connected_time":117000000000,"state":"active","ping":72},{"user_id":16,"name":"Blenderman179","steam_id":76561198091096668,"connected_time":13000000000,"state":"active","ping":70}]},{"server_id":310,"name":"Uncletopia | Frankfurt | 5 | All Maps","name_short":"frk-5","host":"frk-1.de.uncletopia.com","port":27055,"enabled":true,"region":"eu","cc":"de","latitude":50.110924,"longitude":8.682127,"reserved":0,"last_update":"0001-01-01T00:00:00Z","name_a2s":"Uncletopia | Frankfurt | 5 | All Maps","protocol":17,"map":"koth_highpass","folder":"tf","game":"Team Fortress","app_id":440,"player_count":0,"max_players":24,"Bots":0,"server_type":"Dedicated","server_os":"Linux","password":true,"vac":true,"version":"7961495","steam_id":85568392924504277,"keywords":["cp","nocrits","nodmgspread","uncletopia"],"game_id":440,"stv_port":27056,"stv_name":"Uncletopia | Frankfurt | 5 | All Maps | STV","players":null},{"server_id":311,"name":"Uncletopia | Frankfurt | 6 | All Maps","name_short":"frk-6","host":"frk-1.de.uncletopia.com","port":27065,"enabled":true,"region":"eu","cc":"de","latitude":50.110924,"longitude":8.682127,"reserved":0,"last_update":"0001-01-01T00:00:00Z","name_a2s":"Uncletopia | Frankfurt | 6 | All Maps","protocol":17,"map":"ctf_2fort","folder":"tf","game":"Team Fortress","app_id":440,"player_count":18,"max_players":24,"Bots":0,"server_type":"Dedicated","server_os":"Linux","password":true,"vac":true,"version":"7961495","steam_id":85568392924504278,"keywords":["ctf","nocrits","nodmgspread","uncletopia"],"game_id":440,"stv_port":27066,"stv_name":"Uncletopia | Frankfurt | 6 | All Maps | STV","players":[{"user_id":51,"name":"D√•vid","steam_id":76561198184135755,"connected_time":23000000000,"state":"active","ping":55},{"user_id":48,"name":"ùïåùïñùïüùï§ùïïùïñùï™","steam_id":76561198171630222,"connected_time":93000000000,"state":"active","ping":88},{"user_id":14,"name":"papaja","steam_id":76561199216208960,"connected_time":1711000000000,"state":"active","ping":78},{"user_id":49,"name":"SODA!!!!!!!","steam_id":76561198107362485,"connected_time":81000000000,"state":"active","ping":56},{"user_id":16,"name":"–î–∂–µ–∫–µ—Ç","steam_id":76561198327897125,"connected_time":1515000000000,"state":"active","ping":84},{"user_id":43,"name":"mashete","steam_id":76561198151829282,"connected_time":355000000000,"state":"active","ping":80},{"user_id":50,"name":"THE Grosser","steam_id":76561197995530666,"connected_time":48000000000,"state":"active","ping":50},{"user_id":20,"name":"God's Hungriest PitBull","steam_id":76561198069518492,"connected_time":1243000000000,"state":"active","ping":89},{"user_id":21,"name":"r0la","steam_id":76561198128315340,"connected_time":1169000000000,"state":"active","ping":86},{"user_id":23,"name":"·∂¶À¢ ≥·µÉ·µâÀ°","steam_id":76561198051832269,"connected_time":1078000000000,"state":"active","ping":68},{"user_id":25,"name":"SelfBurn","steam_id":76561199121219076,"connected_time":1055000000000,"state":"active","ping":55},{"user_id":26,"name":"s a i","steam_id":76561197970379754,"connected_time":1036000000000,"state":"active","ping":48},{"user_id":28,"name":"Kokas","steam_id":76561197996786353,"connected_time":994000000000,"state":"active","ping":54},{"user_id":29,"name":"dankor","steam_id":76561199487403036,"connected_time":921000000000,"state":"active","ping":67},{"user_id":31,"name":"Vivi The VVitch","steam_id":76561198199110998,"connected_time":901000000000,"state":"active","ping":72},{"user_id":32,"name":"Smoking problem","steam_id":76561198361351449,"connected_time":882000000000,"state":"active","ping":53},{"user_id":38,"name":"Michael","steam_id":76561198003146906,"connected_time":832000000000,"state":"active","ping":61},{"user_id":45,"name":"M√©bh √ìg MacT√≠re","steam_id":76561198346399624,"connected_time":196000000000,"state":"active","ping":73}]},{"server_id":23,"name":"Uncletopia | Frankfurt | 7 | Stopwatch Beta","name_short":"frk-7","host":"frk-1.de.uncletopia.com","port":27075,"enabled":true,"region":"eu","cc":"de","latitude":50.110924,"longitude":8.682127,"reserved":0,"last_update":"0001-01-01T00:00:00Z","name_a2s":"Uncletopia | Frankfurt | 7 | Stopwatch Beta","protocol":17,"map":"koth_cascade","folder":"tf","game":"Team Fortress","app_id":440,"player_count":0,"max_players":24,"Bots":0,"server_type":"Dedicated","server_os":"Linux","password":true,"vac":true,"version":"7961495","steam_id":85568392924742827,"keywords":["cp","nocrits","nodmgspread","uncletopia"],"game_id":440,"stv_port":27076,"stv_name":"Uncletopia | Frankfurt | 7 | Stopwatch Beta | STV","players":null},{"server_id":24,"name":"Uncletopia | Frankfurt | 8 | Community","name_short":"frk-8","host":"frk-1.de.uncletopia.com","port":27085,"enabled":true,"region":"eu","cc":"de","latitude":50.110924,"longitude":8.682127,"reserved":0,"last_update":"0001-01-01T00:00:00Z","name_a2s":"Uncletopia | Frankfurt | 8 | Community","protocol":17,"map":"cp_dustbowl","folder":"tf","game":"Team Fortress","app_id":440,"player_count":0,"max_players":24,"Bots":0,"server_type":"Dedicated","server_os":"Linux","password":true,"vac":true,"version":"7961495","steam_id":85568392924742828,"keywords":["cp","nocrits","nodmgspread","uncletopia"],"game_id":440,"stv_port":27086,"stv_name":"Uncletopia | Frankfurt | 8 | Community | STV","players":null},{"server_id":202,"name":"Uncletopia | Hong Kong | 1 | All Maps","name_short":"hgk-1","host":"hgk-1.hk.uncletopia.com","port":27015,"enabled":true,"region":"asia","cc":"hk","latitude":22.302711,"longitude":114.177216,"reserved":0,"last_update":"0001-01-01T00:00:00Z","name_a2s":"Uncletopia | Hong Kong | 1 | All Maps","protocol":17,"map":"koth_highpass","folder":"tf","game":"Team Fortress","app_id":440,"player_count":0,"max_players":24,"Bots":0,"server_type":"Dedicated","server_os":"Linux","password":true,"vac":true,"version":"7961495","steam_id":85568392924494504,"keywords":["cp","nocrits","nodmgspread","uncletopia"],"game_id":440,"stv_port":27016,"stv_name":"Uncletopia | Hong Kong | 1 | All Maps | STV","players":null},{"server_id":1,"name":"Uncletopia | Los Angeles | 1 | All Maps","name_short":"lax-1","host":"lax-1.us.uncletopia.com","port":27015,"enabled":true,"region":"us-west","cc":"us","latitude":33.94279,"longitude":-118.41004,"reserved":0,"last_update":"0001-01-01T00:00:00Z","name_a2s":"Uncletopia | Los Angeles | 1 | All Maps","protocol":17,"map":"cp_mountainlab","folder":"tf","game":"Team Fortress","app_id":440,"player_count":0,"max_players":24,"Bots":0,"server_type":"Dedicated","server_os":"Linux","password":true,"vac":true,"version":"7961495","steam_id":85568392924469991,"keywords":["cp","nocrits","nodmgspread","uncletopia"],"game_id":440,"stv_port":27016,"stv_name":"Uncletopia | Los Angeles | 1 | All Maps | STV","players":null},{"server_id":112,"name":"Uncletopia | Los Angeles | 2 | All Maps","name_short":"lax-2","host":"lax-1.us.uncletopia.com","port":27025,"enabled":true,"region":"us-west","cc":"us","latitude":33.94279,"longitude":-118.41004,"reserved":0,"last_update":"0001-01-01T00:00:00Z","name_a2s":"Uncletopia | Los Angeles | 2 | All Maps","protocol":17,"map":"pl_borneo","folder":"tf","game":"Team Fortress","app_id":440,"player_count":1,"max_players":24,"Bots":0,"server_type":"Dedicated","server_os":"Linux","password":true,"vac":true,"version":"7961495","steam_id":85568392924469992,"keywords":["nocrits","nodmgspread","payload","uncletopia"],"game_id":440,"stv_port":27026,"stv_name":"Uncletopia | Los Angeles | 2 | All Maps | STV","players":[{"user_id":4,"name":"confused","steam_id":76561199391930993,"connected_time":251000000000,"state":"active","ping":50}]},{"server_id":324,"name":"Uncletopia | Los Angeles | 3 | All Maps","name_short":"lax-3","host":"lax-1.us.uncletopia.com","port":27035,"enabled":true,"region":"us-west","cc":"us","latitude":33.94279,"longitude":-118.41004,"reserved":0,"last_update":"0001-01-01T00:00:00Z","name_a2s":"Uncletopia | Los Angeles | 3 | All Maps","protocol":17,"map":"cp_process_final","folder":"tf","game":"Team Fortress","app_id":440,"player_count":0,"max_players":24,"Bots":0,"server_type":"Dedicated","server_os":"Linux","password":true,"vac":true,"version":"7961495","steam_id":85568392924510198,"keywords":["cp","nocrits","nodmgspread","uncletopia"],"game_id":440,"stv_port":27036,"stv_name":"Uncletopia | Los Angeles | 3 | All Maps | STV","players":null},{"server_id":25,"name":"Uncletopia | Los Angeles | 4 | Stopwatch Beta","name_short":"lax-4","host":"lax-1.us.uncletopia.com","port":27045,"enabled":true,"region":"us-west","cc":"us","latitude":33.94279,"longitude":-118.41004,"reserved":0,"last_update":"0001-01-01T00:00:00Z","name_a2s":"Uncletopia | Los Angeles | 4 | Stopwatch Beta","protocol":17,"map":"pl_upward","folder":"tf","game":"Team Fortress","app_id":440,"player_count":0,"max_players":24,"Bots":0,"server_type":"Dedicated","server_os":"Linux","password":true,"vac":true,"version":"7961495","steam_id":85568392924510199,"keywords":["nocrits","nodmgspread","payload","uncletopia"],"game_id":440,"stv_port":27046,"stv_name":"Uncletopia | Los Angeles | 4 | Stopwatch Beta | STV","players":null},{"server_id":11,"name":"Uncletopia | London | 1 | All Maps","name_short":"lon-1","host":"lon-1.uk.uncletopia.com","port":27015,"enabled":true,"region":"eu","cc":"gb","latitude":51.509865,"longitude":-0.118092,"reserved":0,"last_update":"0001-01-01T00:00:00Z","name_a2s":"Uncletopia | London | 1 | All Maps","protocol":17,"map":"pl_swiftwater_final1","folder":"tf","game":"Team Fortress","app_id":440,"player_count":20,"max_players":24,"Bots":0,"server_type":"Dedicated","server_os":"Linux","password":true,"vac":true,"version":"7961495","steam_id":85568392924367362,"keywords":["nocrits","nodmgspread","payload","uncletopia"],"game_id":440,"stv_port":27016,"stv_name":"Uncletopia | London | 1 | All Maps | STV","players":[{"user_id":319,"name":"ambiwalentna","steam_id":76561199010825303,"connected_time":4338000000000,"state":"spawning","ping":92},{"user_id":394,"name":"Son Goku","steam_id":76561199383437138,"connected_time":471000000000,"state":"active","ping":121},{"user_id":356,"name":"png.png","steam_id":76561198444446521,"connected_time":2766000000000,"state":"active","ping":111},{"user_id":397,"name":"trite","steam_id":76561197983765323,"connected_time":183000000000,"state":"active","ping":50},{"user_id":379,"name":"Croy","steam_id":76561197972552579,"connected_time":1640000000000,"state":"active","ping":45},{"user_id":393,"name":"Clitorina","steam_id":76561198077570815,"connected_time":525000000000,"state":"active","ping":39},{"user_id":372,"name":"FlukeY","steam_id":76561198026137327,"connected_time":2046000000000,"state":"active","ping":62},{"user_id":377,"name":"Malai","steam_id":76561198062537014,"connected_time":1685000000000,"state":"active","ping":76},{"user_id":350,"name":"ein'd","steam_id":76561198152162834,"connected_time":2965000000000,"state":"active","ping":103},{"user_id":399,"name":"Arminius","steam_id":76561198047681820,"connected_time":108000000000,"state":"active","ping":72},{"user_id":388,"name":"YARrICk.¬´+¬ª","steam_id":76561197990126485,"connected_time":974000000000,"state":"active","ping":58},{"user_id":374,"name":"Asfreild","steam_id":76561198055901120,"connected_time":1855000000000,"state":"active","ping":75},{"user_id":392,"name":"Pantroglodytestherapy","steam_id":76561198236015392,"connected_time":741000000000,"state":"active","ping":121},{"user_id":324,"name":"rosepinkyfuzz","steam_id":76561198018546334,"connected_time":4251000000000,"state":"active","ping":79},{"user_id":351,"name":"Atomiccorn","steam_id":76561198298316720,"connected_time":2946000000000,"state":"active","ping":67},{"user_id":375,"name":"Worm","steam_id":76561198296497176,"connected_time":1769000000000,"state":"active","ping":46},{"user_id":389,"name":"Explosive Poptart","steam_id":76561198023918830,"connected_time":933000000000,"state":"active","ping":45},{"user_id":314,"name":"halow","steam_id":76561198061505163,"connected_time":4561000000000,"state":"active","ping":101},{"user_id":382,"name":"schmick h_stt 0","steam_id":76561198039537958,"connected_time":1560000000000,"state":"active","ping":45},{"user_id":398,"name":"Koli","steam_id":76561197992428783,"connected_time":171000000000,"state":"active","ping":60}]},{"server_id":114,"name":"Uncletopia | London | 2 | All Maps","name_short":"lon-2","host":"lon-1.uk.uncletopia.com","port":27025,"enabled":true,"region":"eu","cc":"gb","latitude":51.509865,"longitude":-0.118092,"reserved":0,"last_update":"0001-01-01T00:00:00Z","name_a2s":"Uncletopia | London | 2 | All Maps","protocol":17,"map":"pl_swiftwater_final1","folder":"tf","game":"Team Fortress","app_id":440,"player_count":24,"max_players":24,"Bots":0,"server_type":"Dedicated","server_os":"Linux","password":true,"vac":true,"version":"7961495","steam_id":85568392924470941,"keywords":["nocrits","nodmgspread","payload","uncletopia"],"game_id":440,"stv_port":27026,"stv_name":"Uncletopia | London | 2 | All Maps | STV","players":[{"user_id":250,"name":"Spotmonkey","steam_id":76561198003994092,"connected_time":1036000000000,"state":"active","ping":60},{"user_id":264,"name":"Civil Melon","steam_id":76561198988309618,"connected_time":182000000000,"state":"active","ping":77},{"user_id":195,"name":"Solus","steam_id":76561199486493777,"connected_time":4498000000000,"state":"active","ping":55},{"user_id":231,"name":"F4.exe","steam_id":76561198278822807,"connected_time":2907000000000,"state":"active","ping":72},{"user_id":266,"name":"Eterneon","steam_id":76561198354080949,"connected_time":13000000000,"state":"spawning","ping":59},{"user_id":261,"name":"Lozah G","steam_id":76561198071084080,"connected_time":523000000000,"state":"active","ping":40},{"user_id":179,"name":"Mr.Duck","steam_id":76561197983710667,"connected_time":5051000000000,"state":"active","ping":91},{"user_id":265,"name":"Grocery","steam_id":76561198065597861,"connected_time":95000000000,"state":"active","ping":91},{"user_id":248,"name":"DwoaC","steam_id":76561198005686118,"connected_time":1355000000000,"state":"active","ping":69},{"user_id":160,"name":"A Javelin Pro Tank missile","steam_id":76561198133780954,"connected_time":5543000000000,"state":"active","ping":64},{"user_id":245,"name":"neophyte78","steam_id":76561198010009076,"connected_time":1424000000000,"state":"active","ping":55},{"user_id":259,"name":"SpeedJack27","steam_id":76561199419629152,"connected_time":649000000000,"state":"active","ping":167},{"user_id":260,"name":"shankz","steam_id":76561198128803260,"connected_time":633000000000,"state":"active","ping":48},{"user_id":183,"name":"ROX","steam_id":76561198272289320,"connected_time":4898000000000,"state":"active","ping":61},{"user_id":167,"name":"xTheDarkLight","steam_id":76561198239128298,"connected_time":5359000000000,"state":"active","ping":61},{"user_id":234,"name":"Zrazik","steam_id":76561198084112189,"connected_time":2607000000000,"state":"active","ping":86},{"user_id":252,"name":"Urfangonultasadana","steam_id":76561199389286151,"connected_time":1014000000000,"state":"active","ping":99},{"user_id":190,"name":"Zerfesh","steam_id":76561198117534358,"connected_time":4772000000000,"state":"active","ping":106},{"user_id":232,"name":"elmstJP ‚Ç™ F4.exe","steam_id":76561197997909480,"connected_time":2901000000000,"state":"active","ping":85},{"user_id":243,"name":"Foo.","steam_id":76561198000013666,"connected_time":1473000000000,"state":"active","ping":65},{"user_id":224,"name":"BD[PL]","steam_id":76561198115995871,"connected_time":3590000000000,"state":"active","ping":79},{"user_id":256,"name":"Mega Saturn","steam_id":76561198024750500,"connected_time":953000000000,"state":"active","ping":87},{"user_id":258,"name":"Gnarville","steam_id":76561198006373329,"connected_time":853000000000,"state":"active","ping":55},{"user_id":244,"name":"Bottle O' Scrumpy","steam_id":76561199244250562,"connected_time":1453000000000,"state":"active","ping":107}]},{"server_id":320,"name":"Uncletopia | London | 3 | All Maps","name_short":"lon-3","host":"lon-1.uk.uncletopia.com","port":27035,"enabled":true,"region":"eu","cc":"gb","latitude":51.509865,"longitude":-0.118092,"reserved":0,"last_update":"0001-01-01T00:00:00Z","name_a2s":"Uncletopia | London | 3 | All Maps","protocol":17,"map":"pl_thundermountain","folder":"tf","game":"Team Fortress","app_id":440,"player_count":24,"max_players":24,"Bots":0,"server_type":"Dedicated","server_os":"Linux","password":true,"vac":true,"version":"7961495","steam_id":85568392924510192,"keywords":["nocrits","nodmgspread","payload","uncletopia"],"game_id":440,"stv_port":27036,"stv_name":"Uncletopia | London | 3 | All Maps | STV","players":[{"user_id":250,"name":"Boop","steam_id":76561198042167559,"connected_time":2375000000000,"state":"active","ping":47},{"user_id":243,"name":"Woman (Real)","steam_id":76561199151823932,"connected_time":3343000000000,"state":"active","ping":92},{"user_id":279,"name":"Flashback","steam_id":76561197973978552,"connected_time":454000000000,"state":"active","ping":54},{"user_id":273,"name":"IMFEELINGGOODIMFEELINGGREAT","steam_id":76561198118695769,"connected_time":700000000000,"state":"active","ping":52},{"user_id":251,"name":"static","steam_id":76561198836825741,"connected_time":2362000000000,"state":"active","ping":39},{"user_id":242,"name":"Ricey","steam_id":76561198832961307,"connected_time":3381000000000,"state":"active","ping":45},{"user_id":188,"name":"Twiggu","steam_id":76561198070853128,"connected_time":6696000000000,"state":"active","ping":85},{"user_id":142,"name":"mateusz","steam_id":76561198111599735,"connected_time":8798000000000,"state":"active","ping":68},{"user_id":272,"name":"Joes","steam_id":76561198068293330,"connected_time":704000000000,"state":"active","ping":57},{"user_id":269,"name":"SlwoF√∏","steam_id":76561198049663931,"connected_time":717000000000,"state":"active","ping":60},{"user_id":270,"name":"howabe","steam_id":76561197996486818,"connected_time":715000000000,"state":"active","ping":64},{"user_id":280,"name":"Hildreth","steam_id":76561197995254867,"connected_time":434000000000,"state":"active","ping":47},{"user_id":278,"name":"G.R.E","steam_id":76561197979806514,"connected_time":605000000000,"state":"active","ping":45},{"user_id":282,"name":"Wdfrodo","steam_id":76561198985647263,"connected_time":378000000000,"state":"active","ping":57},{"user_id":265,"name":"khan","steam_id":76561198099245500,"connected_time":1409000000000,"state":"active","ping":63},{"user_id":252,"name":"Plep","steam_id":76561198840259819,"connected_time":2250000000000,"state":"active","ping":66},{"user_id":268,"name":"Patch","steam_id":76561198217360709,"connected_time":737000000000,"state":"active","ping":77},{"user_id":274,"name":"no thoughts       head empty","steam_id":76561199080440876,"connected_time":697000000000,"state":"active","ping":125},{"user_id":254,"name":"quickfast","steam_id":76561199438900919,"connected_time":2244000000000,"state":"active","ping":48},{"user_id":275,"name":"Popop","steam_id":76561198004793795,"connected_time":690000000000,"state":"active","ping":46},{"user_id":276,"name":"Lisa","steam_id":76561198361723475,"connected_time":685000000000,"state":"active","ping":65},{"user_id":277,"name":"petr.kadera","steam_id":76561198310852145,"connected_time":675000000000,"state":"active","ping":87},{"user_id":150,"name":"douio","steam_id":76561199070344811,"connected_time":8665000000000,"state":"active","ping":91},{"user_id":259,"name":"Bun","steam_id":76561197989239999,"connected_time":2161000000000,"state":"active","ping":63}]},{"server_id":321,"name":"Uncletopia | London | 4 | All Maps","name_short":"lon-4","host":"lon-1.uk.uncletopia.com","port":27045,"enabled":true,"region":"eu","cc":"gb","latitude":51.509865,"longitude":-0.118092,"reserved":0,"last_update":"0001-01-01T00:00:00Z","name_a2s":"Uncletopia | London | 4 | All Maps","protocol":17,"map":"pl_upward","folder":"tf","game":"Team Fortress","app_id":440,"player_count":23,"max_players":24,"Bots":0,"server_type":"Dedicated","server_os":"Linux","password":true,"vac":true,"version":"7961495","steam_id":85568392924510193,"keywords":["nocrits","nodmgspread","payload","uncletopia"],"game_id":440,"stv_port":27046,"stv_name":"Uncletopia | London | 4 | All Maps | STV","players":[{"user_id":278,"name":"Estamie","steam_id":76561198058527691,"connected_time":4121000000000,"state":"active","ping":78},{"user_id":227,"name":"hyvakii705","steam_id":76561198086630552,"connected_time":7487000000000,"state":"active","ping":89},{"user_id":312,"name":"lulu","steam_id":76561199147764133,"connected_time":1767000000000,"state":"active","ping":78},{"user_id":328,"name":"im a cool guy","steam_id":76561199062288809,"connected_time":131000000000,"state":"active","ping":72},{"user_id":294,"name":"nobodyy","steam_id":76561198027735766,"connected_time":2934000000000,"state":"active","ping":73},{"user_id":329,"name":"alexable","steam_id":76561198381310350,"connected_time":130000000000,"state":"active","ping":74},{"user_id":324,"name":"lim√£o","steam_id":76561198033695429,"connected_time":919000000000,"state":"active","ping":42},{"user_id":282,"name":"Kamanie","steam_id":76561198135448255,"connected_time":4055000000000,"state":"active","ping":65},{"user_id":325,"name":"kanka","steam_id":76561198116530769,"connected_time":610000000000,"state":"active","ping":97},{"user_id":330,"name":"Hans","steam_id":76561198030061999,"connected_time":117000000000,"state":"active","ping":87},{"user_id":333,"name":"Romultra","steam_id":76561198354105082,"connected_time":40000000000,"state":"active","ping":47},{"user_id":327,"name":"DutchRoller","steam_id":76561198084585813,"connected_time":374000000000,"state":"active","ping":77},{"user_id":298,"name":"WinRAR‚Ñ¢","steam_id":76561198056522270,"connected_time":2747000000000,"state":"active","ping":70},{"user_id":307,"name":"lore","steam_id":76561198120984188,"connected_time":2217000000000,"state":"active","ping":85},{"user_id":314,"name":"Greasus (The Shockingly Obese)","steam_id":76561198027738546,"connected_time":1729000000000,"state":"active","ping":45},{"user_id":322,"name":"hotmom","steam_id":76561198081264588,"connected_time":1076000000000,"state":"active","ping":78},{"user_id":292,"name":"Emir","steam_id":76561198113089831,"connected_time":3000000000000,"state":"active","ping":100},{"user_id":293,"name":"Jimmi Amareno","steam_id":76561198327750625,"connected_time":2951000000000,"state":"active","ping":40},{"user_id":331,"name":"Quill","steam_id":76561198843773162,"connected_time":111000000000,"state":"active","ping":137},{"user_id":295,"name":"Lukas","steam_id":76561198009118452,"connected_time":2920000000000,"state":"active","ping":78},{"user_id":334,"name":"Burgoo_King","steam_id":76561198133572225,"connected_time":40000000000,"state":"active","ping":86},{"user_id":332,"name":"di_ry","steam_id":76561198031762324,"connected_time":83000000000,"state":"active","ping":102},{"user_id":306,"name":"azzy","steam_id":76561198061293740,"connected_time":2242000000000,"state":"active","ping":78}]},{"server_id":21,"name":"Uncletopia | London | 5 | All Maps","name_short":"lon-5","host":"lon-1.uk.uncletopia.com","port":27055,"enabled":true,"region":"eu","cc":"gb","latitude":51.509865,"longitude":-0.118092,"reserved":0,"last_update":"0001-01-01T00:00:00Z","name_a2s":"Uncletopia | London | 5 | All Maps","protocol":17,"map":"koth_harvest_final","folder":"tf","game":"Team Fortress","app_id":440,"player_count":24,"max_players":24,"Bots":0,"server_type":"Dedicated","server_os":"Linux","password":true,"vac":true,"version":"7961495","steam_id":85568392924742829,"keywords":["cp","nocrits","nodmgspread","uncletopia"],"game_id":440,"stv_port":27056,"stv_name":"Uncletopia | London | 5 | All Maps | STV","players":[{"user_id":78,"name":"Fbafroguy","steam_id":76561199113010473,"connected_time":1442000000000,"state":"active","ping":56},{"user_id":98,"name":"stoneflower","steam_id":76561198046250873,"connected_time":160000000000,"state":"active","ping":80},{"user_id":12,"name":"DeterminedXD[HUN]","steam_id":76561199469006453,"connected_time":5747000000000,"state":"active","ping":101},{"user_id":96,"name":"armadillo","steam_id":76561198324656652,"connected_time":191000000000,"state":"active","ping":47},{"user_id":95,"name":"soar","steam_id":76561198010662796,"connected_time":256000000000,"state":"active","ping":53},{"user_id":84,"name":"El Mosquito","steam_id":76561198065347907,"connected_time":624000000000,"state":"active","ping":79},{"user_id":58,"name":"concussion gaming","steam_id":76561198425494530,"connected_time":2938000000000,"state":"active","ping":130},{"user_id":18,"name":"Lola bunny","steam_id":76561198214149431,"connected_time":4614000000000,"state":"active","ping":46},{"user_id":20,"name":"LainBizkit","steam_id":76561199200708626,"connected_time":4526000000000,"state":"active","ping":100},{"user_id":91,"name":"PASTAMAN!!!","steam_id":76561198995641765,"connected_time":574000000000,"state":"active","ping":61},{"user_id":59,"name":"O B S E R V E R","steam_id":76561198397143311,"connected_time":2890000000000,"state":"active","ping":67},{"user_id":97,"name":"Ozzie","steam_id":76561197992915315,"connected_time":181000000000,"state":"active","ping":62},{"user_id":24,"name":"Ledo","steam_id":76561198845775668,"connected_time":4470000000000,"state":"active","ping":127},{"user_id":82,"name":"Federal Republic of Yugoslavia","steam_id":76561198883033062,"connected_time":1220000000000,"state":"active","ping":118},{"user_id":26,"name":"Windy Windo","steam_id":76561199222931747,"connected_time":4452000000000,"state":"active","ping":172},{"user_id":74,"name":"Mobster Tortoise","steam_id":76561199036837091,"connected_time":1823000000000,"state":"active","ping":98},{"user_id":67,"name":"‚ù§G a n K","steam_id":76561199125995565,"connected_time":2570000000000,"state":"active","ping":65},{"user_id":85,"name":"lunaire","steam_id":76561198163344452,"connected_time":616000000000,"state":"active","ping":102},{"user_id":75,"name":"Farmercy","steam_id":76561198000038039,"connected_time":1786000000000,"state":"active","ping":62},{"user_id":80,"name":"Rockfrenzy","steam_id":76561198005428050,"connected_time":1319000000000,"state":"active","ping":81},{"user_id":93,"name":"Nacht_Wraith","steam_id":76561198971368364,"connected_time":305000000000,"state":"active","ping":67},{"user_id":94,"name":"Bird On Your Window","steam_id":76561198081933130,"connected_time":272000000000,"state":"active","ping":56},{"user_id":90,"name":"Lorenzo Lovers","steam_id":76561198073973581,"connected_time":592000000000,"state":"active","ping":93},{"user_id":37,"name":"emag live","steam_id":76561198047164140,"connected_time":4178000000000,"state":"active","ping":59}]},{"server_id":22,"name":"Uncletopia | London | 6 | All Maps","name_short":"lon-6","host":"lon-1.uk.uncletopia.com","port":27065,"enabled":true,"region":"eu","cc":"gb","latitude":51.509865,"longitude":-0.118092,"reserved":0,"last_update":"0001-01-01T00:00:00Z","name_a2s":"Uncletopia | London | 6 | All Maps","protocol":17,"map":"cp_sunshine","folder":"tf","game":"Team Fortress","app_id":440,"player_count":24,"max_players":24,"Bots":0,"server_type":"Dedicated","server_os":"Linux","password":true,"vac":true,"version":"7961495","steam_id":85568392924742830,"keywords":["cp","nocrits","nodmgspread","uncletopia"],"game_id":440,"stv_port":27066,"stv_name":"Uncletopia | London | 6 | All Maps | STV","players":[{"user_id":80,"name":"‰Ω†ÂñúÊ¨¢ÂÆÉ?","steam_id":76561198201424726,"connected_time":1286000000000,"state":"active","ping":177},{"user_id":73,"name":"N . E . „äâ . N","steam_id":76561198074131777,"connected_time":1915000000000,"state":"active","ping":64},{"user_id":65,"name":"fence_","steam_id":76561198150386379,"connected_time":2353000000000,"state":"active","ping":38},{"user_id":30,"name":"Pan Pan","steam_id":76561199074670515,"connected_time":3824000000000,"state":"active","ping":96},{"user_id":55,"name":"RLCrazyCat3","steam_id":76561197983757878,"connected_time":3446000000000,"state":"active","ping":69},{"user_id":32,"name":"?TheEnd","steam_id":76561198055280327,"connected_time":3796000000000,"state":"active","ping":67},{"user_id":95,"name":"Mommy O.","steam_id":76561198122933193,"connected_time":351000000000,"state":"active","ping":94},{"user_id":34,"name":"Bob Sacamano","steam_id":76561198085610701,"connected_time":3768000000000,"state":"active","ping":99},{"user_id":64,"name":"Dr. Funkenstein","steam_id":76561197977816210,"connected_time":2471000000000,"state":"active","ping":66},{"user_id":81,"name":"jj","steam_id":76561198079200985,"connected_time":1278000000000,"state":"active","ping":54},{"user_id":58,"name":"The Builder","steam_id":76561198403959663,"connected_time":2930000000000,"state":"active","ping":104},{"user_id":92,"name":"cora","steam_id":76561199474154775,"connected_time":527000000000,"state":"active","ping":59},{"user_id":79,"name":"Lord Lem0ns!","steam_id":76561198323174893,"connected_time":1310000000000,"state":"active","ping":85},{"user_id":96,"name":"( ¬¥ÔΩ•œâÔΩ• `)","steam_id":76561198118412910,"connected_time":168000000000,"state":"active","ping":79},{"user_id":84,"name":"m909","steam_id":76561198279621400,"connected_time":1227000000000,"state":"active","ping":101},{"user_id":67,"name":"jerf(portal 3)","steam_id":76561199213901239,"connected_time":2302000000000,"state":"active","ping":46},{"user_id":85,"name":"kluri","steam_id":76561198084518962,"connected_time":1197000000000,"state":"active","ping":81},{"user_id":72,"name":"blazeeight","steam_id":76561198159456502,"connected_time":2047000000000,"state":"active","ping":55},{"user_id":47,"name":"Silvestro","steam_id":76561198021660066,"connected_time":3548000000000,"state":"active","ping":93},{"user_id":93,"name":"demon","steam_id":76561198192080711,"connected_time":484000000000,"state":"active","ping":69},{"user_id":89,"name":"cpfitz","steam_id":76561198123461515,"connected_time":849000000000,"state":"active","ping":73},{"user_id":94,"name":"noot","steam_id":76561198148074472,"connected_time":483000000000,"state":"active","ping":59},{"user_id":53,"name":"Grym","steam_id":76561198119397460,"connected_time":3495000000000,"state":"active","ping":56},{"user_id":69,"name":"GlueTasty {she/her}","steam_id":76561199086480891,"connected_time":2289000000000,"state":"active","ping":90}]},{"server_id":40,"name":"Uncletopia | London | 7 | No Payload","name_short":"lon-7","host":"lon-1.uk.uncletopia.com","port":27075,"enabled":true,"region":"eu","cc":"gb","latitude":51.509865,"longitude":-0.118092,"reserved":0,"last_update":"0001-01-01T00:00:00Z","name_a2s":"Uncletopia | London | 7 | No Payload","protocol":17,"map":"ctf_well","folder":"tf","game":"Team Fortress","app_id":440,"player_count":0,"max_players":24,"Bots":0,"server_type":"Dedicated","server_os":"Linux","password":true,"vac":true,"version":"7961495","steam_id":85568392924964314,"keywords":["ctf","nocrits","nodmgspread","uncletopia"],"game_id":440,"stv_port":27076,"stv_name":"Uncletopia | London | 7 | No Payload | STV","players":null},{"server_id":41,"name":"Uncletopia | London | 8 | Community","name_short":"lon-8","host":"lon-1.uk.uncletopia.com","port":27085,"enabled":true,"region":"eu","cc":"gb","latitude":51.509865,"longitude":-0.118092,"reserved":0,"last_update":"0001-01-01T00:00:00Z","name_a2s":"Uncletopia | London | 8 | Community","protocol":17,"map":"workshop/koth_bagel_rc6.ugc2514036946","folder":"tf","game":"Team Fortress","app_id":440,"player_count":23,"max_players":24,"Bots":0,"server_type":"Dedicated","server_os":"Linux","password":true,"vac":true,"version":"7961495","steam_id":85568392924964315,"keywords":["cp","nocrits","nodmgspread","uncletopia"],"game_id":440,"stv_port":27086,"stv_name":"Uncletopia | London | 8 | Community | STV","players":[{"user_id":297,"name":"AftiksPL","steam_id":76561198875182686,"connected_time":443000000000,"state":"spawning","ping":802},{"user_id":284,"name":"God's Goofiest Goober","steam_id":76561198103175187,"connected_time":2683000000000,"state":"active","ping":73},{"user_id":243,"name":"he just like me fr fr","steam_id":76561198119372509,"connected_time":4754000000000,"state":"active","ping":83},{"user_id":275,"name":"Plop_","steam_id":76561198112567921,"connected_time":3293000000000,"state":"active","ping":42},{"user_id":296,"name":"Settraph","steam_id":76561198134844574,"connected_time":489000000000,"state":"active","ping":69},{"user_id":298,"name":"Puhaur","steam_id":76561198404557509,"connected_time":410000000000,"state":"active","ping":64},{"user_id":270,"name":"Mc Cheezy","steam_id":76561198834780242,"connected_time":3662000000000,"state":"active","ping":108},{"user_id":304,"name":"lodginghook47","steam_id":76561199183525103,"connected_time":316000000000,"state":"active","ping":68},{"user_id":293,"name":"TriR–ò–å","steam_id":76561198119622375,"connected_time":886000000000,"state":"active","ping":90},{"user_id":299,"name":"gfjhsdf","steam_id":76561198136736426,"connected_time":400000000000,"state":"active","ping":65},{"user_id":261,"name":"pakin157","steam_id":76561198035125667,"connected_time":3909000000000,"state":"active","ping":88},{"user_id":300,"name":"TJ1212","steam_id":76561199013575313,"connected_time":398000000000,"state":"active","ping":76},{"user_id":286,"name":"Penis Contortionist","steam_id":76561198073663784,"connected_time":2497000000000,"state":"active","ping":41},{"user_id":301,"name":"BGH1009","steam_id":76561198894761820,"connected_time":367000000000,"state":"active","ping":69},{"user_id":306,"name":"generic alias","steam_id":76561198271607226,"connected_time":58000000000,"state":"active","ping":91},{"user_id":237,"name":"PEEPEEPOOPOOGOOBER JR","steam_id":76561198049687408,"connected_time":4926000000000,"state":"active","ping":47},{"user_id":302,"name":"AidenQG","steam_id":76561198864678536,"connected_time":361000000000,"state":"active","ping":63},{"user_id":295,"name":"Lyncurion","steam_id":76561199260022725,"connected_time":623000000000,"state":"active","ping":87},{"user_id":292,"name":"DragonLord","steam_id":76561198074279225,"connected_time":1881000000000,"state":"active","ping":47},{"user_id":272,"name":"Sergeant_cross","steam_id":76561198148270425,"connected_time":3498000000000,"state":"active","ping":64},{"user_id":273,"name":"joachym","steam_id":76561198428579761,"connected_time":3490000000000,"state":"active","ping":73},{"user_id":290,"name":"Voxel","steam_id":76561199225333422,"connected_time":2332000000000,"state":"active","ping":112},{"user_id":283,"name":"Shark","steam_id":76561198205226501,"connected_time":3032000000000,"state":"active","ping":154}]},{"server_id":300,"name":"Uncletopia | Montr√©al | 1 | All Maps","name_short":"mtl-1","host":"mtl-1.ca.uncletopia.com","port":27015,"enabled":true,"region":"us-east","cc":"ca","latitude":45.50889,"longitude":-73.56167,"reserved":0,"last_update":"0001-01-01T00:00:00Z","name_a2s":"Uncletopia | Montr√©al | 1 | All Maps","protocol":17,"map":"pl_pier","folder":"tf","game":"Team Fortress","app_id":440,"player_count":0,"max_players":24,"Bots":0,"server_type":"Dedicated","server_os":"Linux","password":true,"vac":true,"version":"7961495","steam_id":85568392924500087,"keywords":["nocrits","nodmgspread","payload","uncletopia"],"game_id":440,"stv_port":27016,"stv_name":"Uncletopia | Montr√©al | 1 | All Maps | STV","players":null},{"server_id":301,"name":"Uncletopia | Montr√©al | 2 | All Maps","name_short":"mtl-2","host":"mtl-1.ca.uncletopia.com","port":27025,"enabled":true,"region":"us-east","cc":"ca","latitude":45.50889,"longitude":-73.56167,"reserved":0,"last_update":"0001-01-01T00:00:00Z","name_a2s":"Uncletopia | Montr√©al | 2 | All Maps","protocol":17,"map":"pl_upward","folder":"tf","game":"Team Fortress","app_id":440,"player_count":14,"max_players":24,"Bots":0,"server_type":"Dedicated","server_os":"Linux","password":true,"vac":true,"version":"7961495","steam_id":85568392924500088,"keywords":["nocrits","nodmgspread","payload","uncletopia"],"game_id":440,"stv_port":27026,"stv_name":"Uncletopia | Montr√©al | 2 | All Maps | STV","players":[{"user_id":17,"name":"Mrs Moth\u003c3","steam_id":76561198356567287,"connected_time":1011000000000,"state":"active","ping":45},{"user_id":18,"name":"tasty","steam_id":76561198083839061,"connected_time":873000000000,"state":"active","ping":45},{"user_id":19,"name":"TheLuzinator","steam_id":76561198377144604,"connected_time":819000000000,"state":"active","ping":65},{"user_id":9,"name":"Bee_Pirate","steam_id":76561199000599111,"connected_time":2139000000000,"state":"active","ping":51},{"user_id":20,"name":"BIGGEST MAC","steam_id":76561198847517098,"connected_time":474000000000,"state":"active","ping":81},{"user_id":11,"name":"peppino","steam_id":76561198389398163,"connected_time":2042000000000,"state":"active","ping":72},{"user_id":12,"name":"Spamton Plush [At half price!]","steam_id":76561198799704762,"connected_time":2008000000000,"state":"active","ping":60},{"user_id":21,"name":"Lawtumn","steam_id":76561198347286009,"connected_time":460000000000,"state":"active","ping":61},{"user_id":22,"name":"Yankee_Pirate","steam_id":76561198260667117,"connected_time":244000000000,"state":"active","ping":62},{"user_id":23,"name":"WhiteChris11","steam_id":76561198125731708,"connected_time":240000000000,"state":"active","ping":163},{"user_id":24,"name":"(‚óî) Neville","steam_id":76561198025637970,"connected_time":150000000000,"state":"active","ping":75},{"user_id":25,"name":"saffyboi","steam_id":76561199097453160,"connected_time":120000000000,"state":"active","ping":56},{"user_id":26,"name":"CrusadingComrade","steam_id":76561198286511203,"connected_time":88000000000,"state":"active","ping":59},{"user_id":27,"name":"Blueberry Bum","steam_id":76561198079949632,"connected_time":55000000000,"state":"active","ping":75}]},{"server_id":302,"name":"Uncletopia | Montr√©al | 3 | All Maps","name_short":"mtl-3","host":"mtl-1.ca.uncletopia.com","port":27035,"enabled":true,"region":"us-east","cc":"ca","latitude":45.50889,"longitude":-73.56167,"reserved":0,"last_update":"0001-01-01T00:00:00Z","name_a2s":"Uncletopia | Montr√©al | 3 | All Maps","protocol":17,"map":"koth_cascade","folder":"tf","game":"Team Fortress","app_id":440,"player_count":0,"max_players":24,"Bots":0,"server_type":"Dedicated","server_os":"Linux","password":true,"vac":true,"version":"7961495","steam_id":85568392924500089,"keywords":["cp","nocrits","nodmgspread","uncletopia"],"game_id":440,"stv_port":27036,"stv_name":"Uncletopia | Montr√©al | 3 | All Maps | STV","players":null},{"server_id":303,"name":"Uncletopia | Montr√©al | 4 | No Payload","name_short":"mtl-4","host":"mtl-1.ca.uncletopia.com","port":27045,"enabled":true,"region":"us-east","cc":"ca","latitude":45.50889,"longitude":-73.56167,"reserved":0,"last_update":"0001-01-01T00:00:00Z","name_a2s":"Uncletopia | Montr√©al | 4 | No Payload","protocol":17,"map":"koth_lakeside_final","folder":"tf","game":"Team Fortress","app_id":440,"player_count":0,"max_players":24,"Bots":0,"server_type":"Dedicated","server_os":"Linux","password":true,"vac":true,"version":"7961495","steam_id":85568392924500090,"keywords":["cp","nocrits","nodmgspread","uncletopia"],"game_id":440,"stv_port":27046,"stv_name":"Uncletopia | Montr√©al | 4 | No Payload | STV","players":null},{"server_id":13,"name":"Uncletopia | New York City | 1 | All Maps","name_short":"nyc-1","host":"nyc-1.us.uncletopia.com","port":27015,"enabled":true,"region":"us-east","cc":"us","latitude":40.73061,"longitude":-73.93524,"reserved":0,"last_update":"0001-01-01T00:00:00Z","name_a2s":"Uncletopia | New York City | 1 | All Maps","protocol":17,"map":"pl_badwater","folder":"tf","game":"Team Fortress","app_id":440,"player_count":0,"max_players":24,"Bots":0,"server_type":"Dedicated","server_os":"Linux","password":true,"vac":true,"version":"7961495","steam_id":85568392924469993,"keywords":["nocrits","nodmgspread","payload","uncletopia"],"game_id":440,"stv_port":27016,"stv_name":"Uncletopia | New York City | 1 | All Maps | STV","players":null},{"server_id":14,"name":"Uncletopia | New York City | 2 | All Maps","name_short":"nyc-2","host":"nyc-1.us.uncletopia.com","port":27025,"enabled":true,"region":"us-east","cc":"us","latitude":40.73061,"longitude":-73.93524,"reserved":0,"last_update":"0001-01-01T00:00:00Z","name_a2s":"Uncletopia | New York City | 2 | All Maps","protocol":17,"map":"cp_dustbowl","folder":"tf","game":"Team Fortress","app_id":440,"player_count":24,"max_players":24,"Bots":0,"server_type":"Dedicated","server_os":"Linux","password":true,"vac":true,"version":"7961495","steam_id":85568392924469994,"keywords":["cp","nocrits","nodmgspread","uncletopia"],"game_id":440,"stv_port":27026,"stv_name":"Uncletopia | New York City | 2 | All Maps | STV","players":[{"user_id":222,"name":"turd ferguson","steam_id":76561198071620782,"connected_time":1245000000000,"state":"active","ping":70},{"user_id":224,"name":"Bother","steam_id":76561198336750909,"connected_time":1095000000000,"state":"active","ping":47},{"user_id":227,"name":"[T]aKer","steam_id":76561198001778013,"connected_time":642000000000,"state":"active","ping":127},{"user_id":186,"name":"fred durst (real)","steam_id":76561198202436474,"connected_time":3386000000000,"state":"active","ping":90},{"user_id":167,"name":"Brenda Delam","steam_id":76561198006983771,"connected_time":5013000000000,"state":"active","ping":68},{"user_id":225,"name":"Miro","steam_id":76561198936412406,"connected_time":1095000000000,"state":"active","ping":92},{"user_id":178,"name":"GaiBerd","steam_id":76561198177100634,"connected_time":3898000000000,"state":"active","ping":50},{"user_id":236,"name":"Boomerish","steam_id":76561198083946878,"connected_time":78000000000,"state":"active","ping":88},{"user_id":237,"name":"Penrose42","steam_id":76561198288577396,"connected_time":76000000000,"state":"active","ping":71},{"user_id":208,"name":"cppie","steam_id":76561198418564403,"connected_time":1830000000000,"state":"active","ping":71},{"user_id":193,"name":"Blobbyfish","steam_id":76561198822962650,"connected_time":2747000000000,"state":"active","ping":55},{"user_id":235,"name":"Rachi0995TTV","steam_id":76561198083826053,"connected_time":168000000000,"state":"active","ping":62},{"user_id":226,"name":"Minus 8","steam_id":76561198812090491,"connected_time":995000000000,"state":"active","ping":121},{"user_id":220,"name":"Plieop","steam_id":76561198199493917,"connected_time":1314000000000,"state":"active","ping":45},{"user_id":211,"name":"engiqueer69","steam_id":76561199153261850,"connected_time":1778000000000,"state":"active","ping":126},{"user_id":223,"name":"sub_infinite_","steam_id":76561199090299296,"connected_time":1218000000000,"state":"active","ping":76},{"user_id":213,"name":"doctorbowl","steam_id":76561198398475350,"connected_time":1759000000000,"state":"active","ping":52},{"user_id":230,"name":"Spandi","steam_id":76561198121023118,"connected_time":552000000000,"state":"active","ping":161},{"user_id":216,"name":"Wash bucket","steam_id":76561198104177419,"connected_time":1675000000000,"state":"active","ping":70},{"user_id":233,"name":"Vollly","steam_id":76561198073206108,"connected_time":307000000000,"state":"active","ping":80},{"user_id":228,"name":"What's My Age Again?","steam_id":76561198035304483,"connected_time":622000000000,"state":"active","ping":62},{"user_id":217,"name":"Sire Salty","steam_id":76561198079639072,"connected_time":1667000000000,"state":"active","ping":62},{"user_id":195,"name":"tydogzilla","steam_id":76561198054254518,"connected_time":2653000000000,"state":"active","ping":47},{"user_id":219,"name":"Nephi","steam_id":76561198031525122,"connected_time":1373000000000,"state":"active","ping":85}]},{"server_id":15,"name":"Uncletopia | New York City | 3 | Stopwatch Beta","name_short":"nyc-3","host":"nyc-1.us.uncletopia.com","port":27035,"enabled":true,"region":"us-east","cc":"us","latitude":40.73061,"longitude":-73.93524,"reserved":0,"last_update":"0001-01-01T00:00:00Z","name_a2s":"Uncletopia | New York City | 3 | Stopwatch Beta","protocol":17,"map":"workshop/koth_product_final.ugc454272353","folder":"tf","game":"Team Fortress","app_id":440,"player_count":23,"max_players":24,"Bots":0,"server_type":"Dedicated","server_os":"Linux","password":true,"vac":true,"version":"7961495","steam_id":85568392924742820,"keywords":["cp","nocrits","nodmgspread","uncletopia"],"game_id":440,"stv_port":27036,"stv_name":"Uncletopia | New York City | 3 | Stopwatch Beta | STV","players":[{"user_id":81,"name":"Young-OG","steam_id":76561198058800479,"connected_time":503000000000,"state":"active","ping":51},{"user_id":72,"name":"„Éê„Çø„Éº","steam_id":76561198307596120,"connected_time":858000000000,"state":"active","ping":54},{"user_id":85,"name":"Gustavo_Banana","steam_id":76561198387866587,"connected_time":190000000000,"state":"active","ping":160},{"user_id":64,"name":"Post nut clarity","steam_id":76561198060246831,"connected_time":1266000000000,"state":"active","ping":70},{"user_id":56,"name":"the.land.of.avalon","steam_id":76561198245431668,"connected_time":2222000000000,"state":"active","ping":87},{"user_id":10,"name":"Muffn","steam_id":76561198797691753,"connected_time":4777000000000,"state":"active","ping":73},{"user_id":18,"name":"Make u rage","steam_id":76561198262094900,"connected_time":4146000000000,"state":"active","ping":61},{"user_id":80,"name":"fakeness","steam_id":76561198018811206,"connected_time":599000000000,"state":"active","ping":89},{"user_id":53,"name":"Scrux","steam_id":76561198129763115,"connected_time":2360000000000,"state":"active","ping":129},{"user_id":60,"name":"Caboose","steam_id":76561198119221840,"connected_time":1677000000000,"state":"active","ping":85},{"user_id":68,"name":"Phillazer","steam_id":76561198396714987,"connected_time":1121000000000,"state":"active","ping":109},{"user_id":69,"name":"Timothy Grunclebottoms","steam_id":76561198871450477,"connected_time":961000000000,"state":"active","ping":70},{"user_id":23,"name":"Shattered Glass","steam_id":76561198116835391,"connected_time":3996000000000,"state":"active","ping":92},{"user_id":84,"name":"cardboardwarrior1","steam_id":76561199145044693,"connected_time":224000000000,"state":"active","ping":440},{"user_id":77,"name":"floppy muppet","steam_id":76561198003076261,"connected_time":729000000000,"state":"active","ping":88},{"user_id":86,"name":"Random","steam_id":76561199116602799,"connected_time":181000000000,"state":"active","ping":117},{"user_id":45,"name":"jAIRO","steam_id":76561198317518864,"connected_time":2716000000000,"state":"active","ping":64},{"user_id":33,"name":"Anonymous_Cletus_TTV","steam_id":76561198243740340,"connected_time":3659000000000,"state":"active","ping":73},{"user_id":78,"name":"Ripheart","steam_id":76561198089661561,"connected_time":709000000000,"state":"active","ping":66},{"user_id":71,"name":"pedro64m","steam_id":76561199049838300,"connected_time":938000000000,"state":"active","ping":124},{"user_id":55,"name":"GuyGoom","steam_id":76561198254522178,"connected_time":2264000000000,"state":"active","ping":79},{"user_id":47,"name":"IanTheAwsm","steam_id":76561198093031738,"connected_time":2694000000000,"state":"active","ping":92},{"user_id":82,"name":"That Guy","steam_id":76561198074138740,"connected_time":493000000000,"state":"active","ping":81}]},{"server_id":16,"name":"Uncletopia | New York City | 4 | Community","name_short":"nyc-4","host":"nyc-1.us.uncletopia.com","port":27045,"enabled":true,"region":"us-east","cc":"us","latitude":40.73061,"longitude":-73.93524,"reserved":0,"last_update":"0001-01-01T00:00:00Z","name_a2s":"Uncletopia | New York City | 4 | Community","protocol":17,"map":"koth_lakeside_final","folder":"tf","game":"Team Fortress","app_id":440,"player_count":0,"max_players":24,"Bots":0,"server_type":"Dedicated","server_os":"Linux","password":true,"vac":true,"version":"7961495","steam_id":85568392924742821,"keywords":["cp","nocrits","nodmgspread","uncletopia"],"game_id":440,"stv_port":27046,"stv_name":"Uncletopia | New York City | 4 | Community | STV","players":null},{"server_id":142,"name":"Uncletopia | S√£o Paulo | 1 | All Maps","name_short":"sao-1","host":"sao-1.br.uncletopia.com","port":27015,"enabled":true,"region":"sa","cc":"br","latitude":-23.533773,"longitude":-46.62529,"reserved":0,"last_update":"0001-01-01T00:00:00Z","name_a2s":"Uncletopia | S√£o Paulo | 1 | All Maps","protocol":17,"map":"koth_highpass","folder":"tf","game":"Team Fortress","app_id":440,"player_count":0,"max_players":24,"Bots":0,"server_type":"Dedicated","server_os":"Linux","password":true,"vac":true,"version":"7961495","steam_id":85568392924469996,"keywords":["cp","nocrits","nodmgspread","uncletopia"],"game_id":440,"stv_port":27016,"stv_name":"Uncletopia | S√£o Paulo | 1 | All Maps | STV","players":null},{"server_id":143,"name":"Uncletopia | S√£o Paulo | 2 | Community","name_short":"sao-2","host":"sao-2.br.uncletopia.com","port":27015,"enabled":true,"region":"sa","cc":"br","latitude":-23.533773,"longitude":-46.62529,"reserved":0,"last_update":"0001-01-01T00:00:00Z","name_a2s":"Uncletopia | S√£o Paulo | 2 | Community","protocol":17,"map":"workshop/pl_barnblitz_pro7.ugc582280235","folder":"tf","game":"Team Fortress","app_id":440,"player_count":0,"max_players":24,"Bots":0,"server_type":"Dedicated","server_os":"Linux","password":true,"vac":true,"version":"7961495","steam_id":85568392924485349,"keywords":["nocrits","nodmgspread","payload","uncletopia"],"game_id":440,"stv_port":27016,"stv_name":"Uncletopia | S√£o Paulo | 2 | Community | STV","players":null},{"server_id":7,"name":"Uncletopia | Seattle | 1 | All Maps","name_short":"sea-1","host":"sea-1.us.uncletopia.com","port":27015,"enabled":true,"region":"us-west","cc":"us","latitude":47.608013,"longitude":-122.33517,"reserved":0,"last_update":"0001-01-01T00:00:00Z","name_a2s":"Uncletopia | Seattle | 1 | All Maps","protocol":17,"map":"pl_frontier_final","folder":"tf","game":"Team Fortress","app_id":440,"player_count":24,"max_players":24,"Bots":0,"server_type":"Dedicated","server_os":"Linux","password":true,"vac":true,"version":"7961495","steam_id":85568392924469997,"keywords":["nocrits","nodmgspread","payload","uncletopia"],"game_id":440,"stv_port":27016,"stv_name":"Uncletopia | Seattle | 1 | All Maps | STV","players":[{"user_id":181,"name":"Unnamed Extra","steam_id":76561198818211536,"connected_time":780000000000,"state":"active","ping":66},{"user_id":178,"name":"Noodle","steam_id":76561198040872617,"connected_time":866000000000,"state":"active","ping":64},{"user_id":137,"name":"cthonic cvnt","steam_id":76561198039604491,"connected_time":4580000000000,"state":"active","ping":53},{"user_id":150,"name":"Starkiller","steam_id":76561198101643120,"connected_time":3633000000000,"state":"active","ping":56},{"user_id":182,"name":"Mr. DeLarge","steam_id":76561198336820066,"connected_time":723000000000,"state":"active","ping":60},{"user_id":180,"name":"Lovedaddy","steam_id":76561198006569710,"connected_time":790000000000,"state":"active","ping":133},{"user_id":99,"name":"Daz","steam_id":76561198041431938,"connected_time":5849000000000,"state":"active","ping":51},{"user_id":185,"name":"Gabe","steam_id":76561198081153719,"connected_time":237000000000,"state":"active","ping":74},{"user_id":165,"name":"Emily50AE","steam_id":76561198088619665,"connected_time":2490000000000,"state":"active","ping":87},{"user_id":156,"name":"Dreamzapp","steam_id":76561199084936632,"connected_time":3206000000000,"state":"active","ping":92},{"user_id":149,"name":"De Monki","steam_id":76561198964210411,"connected_time":3693000000000,"state":"active","ping":88},{"user_id":158,"name":"Meet The Kazoo","steam_id":76561199229748300,"connected_time":3108000000000,"state":"active","ping":96},{"user_id":171,"name":"TheMagicMrWaffle","steam_id":76561198104357256,"connected_time":1857000000000,"state":"active","ping":71},{"user_id":153,"name":"Meso","steam_id":76561199088153190,"connected_time":3587000000000,"state":"active","ping":59},{"user_id":173,"name":"Mr_Web (He/They)","steam_id":76561198815562258,"connected_time":1629000000000,"state":"active","ping":120},{"user_id":183,"name":"Keamy","steam_id":76561199471434875,"connected_time":698000000000,"state":"active","ping":38},{"user_id":167,"name":"e doctor","steam_id":76561198081851446,"connected_time":2445000000000,"state":"active","ping":105},{"user_id":96,"name":"Skoad","steam_id":76561198104650528,"connected_time":6502000000000,"state":"active","ping":67},{"user_id":175,"name":"meow_the_cat","steam_id":76561198294347721,"connected_time":1249000000000,"state":"active","ping":75},{"user_id":125,"name":"Laney","steam_id":76561199048555878,"connected_time":4790000000000,"state":"active","ping":55},{"user_id":172,"name":"ms. anthrope","steam_id":76561198063533082,"connected_time":1835000000000,"state":"active","ping":41},{"user_id":176,"name":"Ash Of Ruins","steam_id":76561198017744507,"connected_time":1052000000000,"state":"active","ping":55},{"user_id":184,"name":"Kamin","steam_id":76561198255299559,"connected_time":656000000000,"state":"active","ping":143},{"user_id":157,"name":"‚ô• President Shitfart ‚ô•","steam_id":76561198141819053,"connected_time":3141000000000,"state":"active","ping":67}]},{"server_id":119,"name":"Uncletopia | Seattle | 2 | All Maps","name_short":"sea-2","host":"sea-1.us.uncletopia.com","port":27025,"enabled":true,"region":"us-west","cc":"us","latitude":47.608013,"longitude":-122.33517,"reserved":0,"last_update":"0001-01-01T00:00:00Z","name_a2s":"Uncletopia | Seattle | 2 | All Maps","protocol":17,"map":"cp_process_final","folder":"tf","game":"Team Fortress","app_id":440,"player_count":0,"max_players":24,"Bots":0,"server_type":"Dedicated","server_os":"Linux","password":true,"vac":true,"version":"7961495","steam_id":85568392924469998,"keywords":["cp","nocrits","nodmgspread","uncletopia"],"game_id":440,"stv_port":27026,"stv_name":"Uncletopia | Seattle | 2 | All Maps | STV","players":null},{"server_id":406,"name":"Uncletopia | Seattle | 3 | Stopwatch Beta","name_short":"sea-3","host":"sea-1.us.uncletopia.com","port":27035,"enabled":true,"region":"us-west","cc":"us","latitude":47.608013,"longitude":-122.33517,"reserved":0,"last_update":"0001-01-01T00:00:00Z","name_a2s":"Uncletopia | Seattle | 3 | Stopwatch Beta","protocol":17,"map":"koth_lakeside_final","folder":"tf","game":"Team Fortress","app_id":440,"player_count":0,"max_players":24,"Bots":0,"server_type":"Dedicated","server_os":"Linux","password":true,"vac":true,"version":"7961495","steam_id":85568392924515217,"keywords":["cp","nocrits","nodmgspread","uncletopia"],"game_id":440,"stv_port":27036,"stv_name":"Uncletopia | Seattle | 3 | Stopwatch Beta | STV","players":null},{"server_id":17,"name":"Uncletopia | San Francisco | 1 | All Maps","name_short":"sfo-1","host":"sfo-1.us.uncletopia.com","port":27015,"enabled":true,"region":"us-west","cc":"us","latitude":37.77397,"longitude":-122.4313,"reserved":0,"last_update":"0001-01-01T00:00:00Z","name_a2s":"Uncletopia | San Francisco | 1 | All Maps","protocol":17,"map":"koth_viaduct","folder":"tf","game":"Team Fortress","app_id":440,"player_count":0,"max_players":24,"Bots":0,"server_type":"Dedicated","server_os":"Linux","password":true,"vac":true,"version":"7961495","steam_id":85568392924469999,"keywords":["cp","nocrits","nodmgspread","uncletopia"],"game_id":440,"stv_port":27016,"stv_name":"Uncletopia | San Francisco | 1 | All Maps | STV","players":null},{"server_id":18,"name":"Uncletopia | San Francisco | 2 | All Maps","name_short":"sfo-2","host":"sfo-1.us.uncletopia.com","port":27025,"enabled":true,"region":"us-west","cc":"us","latitude":37.77397,"longitude":-122.4313,"reserved":0,"last_update":"0001-01-01T00:00:00Z","name_a2s":"Uncletopia | San Francisco | 2 | All Maps","protocol":17,"map":"pl_pier","folder":"tf","game":"Team Fortress","app_id":440,"player_count":0,"max_players":24,"Bots":0,"server_type":"Dedicated","server_os":"Linux","password":true,"vac":true,"version":"7961495","steam_id":85568392924470000,"keywords":["nocrits","nodmgspread","payload","uncletopia"],"game_id":440,"stv_port":27026,"stv_name":"Uncletopia | San Francisco | 2 | All Maps | STV","players":null},{"server_id":19,"name":"Uncletopia | San Francisco | 3 | Stopwatch Beta","name_short":"sfo-3","host":"sfo-1.us.uncletopia.com","port":27035,"enabled":true,"region":"us-west","cc":"us","latitude":37.77397,"longitude":-122.4313,"reserved":0,"last_update":"0001-01-01T00:00:00Z","name_a2s":"Uncletopia | San Francisco | 3 | Stopwatch Beta","protocol":17,"map":"pl_borneo","folder":"tf","game":"Team Fortress","app_id":440,"player_count":0,"max_players":24,"Bots":0,"server_type":"Dedicated","server_os":"Linux","password":true,"vac":true,"version":"7961495","steam_id":85568392924742824,"keywords":["nocrits","nodmgspread","payload","uncletopia"],"game_id":440,"stv_port":27036,"stv_name":"Uncletopia | San Francisco | 3 | Stopwatch Beta | STV","players":null},{"server_id":20,"name":"Uncletopia | San Francisco | 4 | Community","name_short":"sfo-4","host":"sfo-1.us.uncletopia.com","port":27045,"enabled":true,"region":"us-west","cc":"us","latitude":37.77397,"longitude":-122.4313,"reserved":0,"last_update":"0001-01-01T00:00:00Z","name_a2s":"Uncletopia | San Francisco | 4 | Community","protocol":17,"map":"koth_viaduct","folder":"tf","game":"Team Fortress","app_id":440,"player_count":0,"max_players":24,"Bots":0,"server_type":"Dedicated","server_os":"Linux","password":true,"vac":true,"version":"7961495","steam_id":85568392924742826,"keywords":["cp","nocrits","nodmgspread","uncletopia"],"game_id":440,"stv_port":27046,"stv_name":"Uncletopia | San Francisco | 4 | Community | STV","players":null},{"server_id":141,"name":"Uncletopia | Sydney | 1 | All Maps","name_short":"syd-1","host":"syd-1.au.uncletopia.com","port":27015,"enabled":true,"region":"au","cc":"au","latitude":-33.865143,"longitude":151.2099,"reserved":0,"last_update":"0001-01-01T00:00:00Z","name_a2s":"Uncletopia | Sydney | 1 | All Maps","protocol":17,"map":"plr_hightower","folder":"tf","game":"Team Fortress","app_id":440,"player_count":0,"max_players":24,"Bots":0,"server_type":"Dedicated","server_os":"Linux","password":true,"vac":true,"version":"7961495","steam_id":85568392924470001,"keywords":["nocrits","nodmgspread","payload","uncletopia"],"game_id":440,"stv_port":27016,"stv_name":"Uncletopia | Sydney | 1 | All Maps | STV","players":null},{"server_id":123,"name":"Uncletopia | Sydney | 2 | All Maps","name_short":"syd-2","host":"syd-1.au.uncletopia.com","port":27025,"enabled":true,"region":"au","cc":"au","latitude":-33.865143,"longitude":151.2099,"reserved":0,"last_update":"0001-01-01T00:00:00Z","name_a2s":"Uncletopia | Sydney | 2 | All Maps","protocol":17,"map":"pl_swiftwater_final1","folder":"tf","game":"Team Fortress","app_id":440,"player_count":0,"max_players":24,"Bots":0,"server_type":"Dedicated","server_os":"Linux","password":true,"vac":true,"version":"7961495","steam_id":85568392924470002,"keywords":["nocrits","nodmgspread","payload","uncletopia"],"game_id":440,"stv_port":27026,"stv_name":"Uncletopia | Sydney | 2 | All Maps | STV","players":null},{"server_id":395,"name":"Uncletopia | Sydney | 3 | All Maps","name_short":"syd-3","host":"syd-1.au.uncletopia.com","port":27035,"enabled":true,"region":"au","cc":"au","latitude":-33.865143,"longitude":151.2099,"reserved":0,"last_update":"0001-01-01T00:00:00Z","name_a2s":"Uncletopia | Sydney | 3 | All Maps","protocol":17,"map":"cp_dustbowl","folder":"tf","game":"Team Fortress","app_id":440,"player_count":0,"max_players":24,"Bots":0,"server_type":"Dedicated","server_os":"Linux","password":true,"vac":true,"version":"7961495","steam_id":85568392925194467,"keywords":["cp","nocrits","nodmgspread","uncletopia"],"game_id":440,"stv_port":27036,"stv_name":"Uncletopia | Sydney | 3 | All Maps | STV","players":null},{"server_id":396,"name":"Uncletopia | Sydney | 4 | All Maps","name_short":"syd-4","host":"syd-1.au.uncletopia.com","port":27045,"enabled":true,"region":"au","cc":"au","latitude":-33.865143,"longitude":151.2099,"reserved":0,"last_update":"0001-01-01T00:00:00Z","name_a2s":"Uncletopia | Sydney | 4 | All Maps","protocol":17,"map":"cp_mountainlab","folder":"tf","game":"Team Fortress","app_id":440,"player_count":0,"max_players":24,"Bots":0,"server_type":"Dedicated","server_os":"Linux","password":true,"vac":true,"version":"7961495","steam_id":85568392925397958,"keywords":["cp","nocrits","nodmgspread","uncletopia"],"game_id":440,"stv_port":27046,"stv_name":"Uncletopia | Sydney | 4 | All Maps | STV","players":null},{"server_id":58,"name":"Uncletopia | Sydney | 5 | Stopwatch Beta","name_short":"syd-5","host":"syd-1.au.uncletopia.com","port":27055,"enabled":true,"region":"au","cc":"au","latitude":-33.865143,"longitude":151.2099,"reserved":0,"last_update":"0001-01-01T00:00:00Z","name_a2s":"Uncletopia | Sydney | 5 | Stopwatch Beta","protocol":17,"map":"koth_viaduct","folder":"tf","game":"Team Fortress","app_id":440,"player_count":0,"max_players":24,"Bots":0,"server_type":"Dedicated","server_os":"Linux","password":true,"vac":true,"version":"7961495","steam_id":85568392925397959,"keywords":["cp","nocrits","nodmgspread","uncletopia"],"game_id":440,"stv_port":27056,"stv_name":"Uncletopia | Sydney | 5 | Stopwatch Beta | STV","players":null},{"server_id":59,"name":"Uncletopia | Sydney | 6 | Community","name_short":"syd-6","host":"syd-1.au.uncletopia.com","port":27065,"enabled":true,"region":"au","cc":"au","latitude":-33.865143,"longitude":151.2099,"reserved":0,"last_update":"0001-01-01T00:00:00Z","name_a2s":"Uncletopia | Sydney | 6 | Community","protocol":17,"map":"koth_cascade","folder":"tf","game":"Team Fortress","app_id":440,"player_count":0,"max_players":24,"Bots":0,"server_type":"Dedicated","server_os":"Linux","password":true,"vac":true,"version":"7961495","steam_id":85568392925397960,"keywords":["cp","nocrits","nodmgspread","uncletopia"],"game_id":440,"stv_port":27066,"stv_name":"Uncletopia | Sydney | 6 | Community | STV","players":null},{"server_id":49,"name":"Uncletopia | Warsaw | 1 | All Maps","name_short":"waw-1","host":"waw-1.pl.uncletopia.com","port":27015,"enabled":true,"region":"eu","cc":"pl","latitude":52.2297,"longitude":21.017532,"reserved":0,"last_update":"0001-01-01T00:00:00Z","name_a2s":"Uncletopia | Warsaw | 1 | All Maps","protocol":17,"map":"koth_highpass","folder":"tf","game":"Team Fortress","app_id":440,"player_count":0,"max_players":24,"Bots":0,"server_type":"Dedicated","server_os":"Linux","password":true,"vac":true,"version":"7961495","steam_id":85568392925397850,"keywords":["cp","nocrits","nodmgspread","uncletopia"],"game_id":440,"stv_port":27016,"stv_name":"Uncletopia | Warsaw | 1 | All Maps | STV","players":null},{"server_id":50,"name":"Uncletopia | Warsaw | 2 | All Maps","name_short":"waw-2","host":"waw-1.pl.uncletopia.com","port":27025,"enabled":true,"region":"eu","cc":"pl","latitude":52.2297,"longitude":21.017532,"reserved":0,"last_update":"0001-01-01T00:00:00Z","name_a2s":"Uncletopia | Warsaw | 2 | All Maps","protocol":17,"map":"cp_dustbowl","folder":"tf","game":"Team Fortress","app_id":440,"player_count":23,"max_players":24,"Bots":0,"server_type":"Dedicated","server_os":"Linux","password":true,"vac":true,"version":"7961495","steam_id":85568392925397851,"keywords":["cp","nocrits","nodmgspread","uncletopia"],"game_id":440,"stv_port":27026,"stv_name":"Uncletopia | Warsaw | 2 | All Maps | STV","players":[{"user_id":431,"name":"McMonty","steam_id":76561198028973788,"connected_time":2422000000000,"state":"active","ping":83},{"user_id":461,"name":"ja","steam_id":76561199228540618,"connected_time":778000000000,"state":"active","ping":55},{"user_id":450,"name":"Even R√º√ºd","steam_id":76561197981144291,"connected_time":1811000000000,"state":"active","ping":103},{"user_id":458,"name":"tired","steam_id":76561198046838168,"connected_time":921000000000,"state":"active","ping":60},{"user_id":448,"name":"‚ô• Cirno ‚ô•","steam_id":76561198834982738,"connected_time":1869000000000,"state":"active","ping":74},{"user_id":439,"name":"gup","steam_id":76561198311044984,"connected_time":2039000000000,"state":"active","ping":73},{"user_id":451,"name":"hhhhhh","steam_id":76561198031982574,"connected_time":1741000000000,"state":"active","ping":76},{"user_id":252,"name":"Baiterz","steam_id":76561198030815786,"connected_time":14090000000000,"state":"active","ping":75},{"user_id":466,"name":"‚òÅ Lou1smeister ‚òÅ","steam_id":76561198004032968,"connected_time":47000000000,"state":"active","ping":104},{"user_id":463,"name":"07towers8","steam_id":76561198025453215,"connected_time":669000000000,"state":"active","ping":99},{"user_id":455,"name":"Amon Gus","steam_id":76561199094540960,"connected_time":1180000000000,"state":"active","ping":82},{"user_id":387,"name":"tjeeena gubbbnnn","steam_id":76561199163884827,"connected_time":5748000000000,"state":"active","ping":111},{"user_id":464,"name":"Greenosk","steam_id":76561198206610084,"connected_time":426000000000,"state":"active","ping":92},{"user_id":443,"name":"Irme","steam_id":76561198161590299,"connected_time":2012000000000,"state":"active","ping":86},{"user_id":364,"name":"‚ôÇ Animan ‚ôÇ Studios ‚ôÇ","steam_id":76561198308302932,"connected_time":7078000000000,"state":"active","ping":77},{"user_id":452,"name":"Average meme enjoyer","steam_id":76561199087566663,"connected_time":1579000000000,"state":"active","ping":64},{"user_id":446,"name":"RandoART","steam_id":76561198818165503,"connected_time":1986000000000,"state":"active","ping":128},{"user_id":293,"name":"Ixsus\u003c3","steam_id":76561198094756869,"connected_time":11317000000000,"state":"active","ping":75},{"user_id":405,"name":"The Daniella","steam_id":76561198023075547,"connected_time":4604000000000,"state":"active","ping":75},{"user_id":465,"name":"Szegi","steam_id":76561198992437112,"connected_time":418000000000,"state":"active","ping":59},{"user_id":419,"name":"domek","steam_id":76561198048447632,"connected_time":3910000000000,"state":"active","ping":42},{"user_id":417,"name":"Cookies and Bakies","steam_id":76561198017442928,"connected_time":3931000000000,"state":"active","ping":81},{"user_id":423,"name":"jeezource 2","steam_id":76561198123592400,"connected_time":3870000000000,"state":"active","ping":86}]},{"server_id":51,"name":"Uncletopia | Warsaw | 3 | All Maps","name_short":"waw-3","host":"waw-1.pl.uncletopia.com","port":27035,"enabled":true,"region":"eu","cc":"pl","latitude":52.2297,"longitude":21.017532,"reserved":0,"last_update":"0001-01-01T00:00:00Z","name_a2s":"Uncletopia | Warsaw | 3 | All Maps","protocol":17,"map":"koth_viaduct","folder":"tf","game":"Team Fortress","app_id":440,"player_count":0,"max_players":24,"Bots":0,"server_type":"Dedicated","server_os":"Linux","password":true,"vac":true,"version":"7961495","steam_id":85568392925397852,"keywords":["cp","nocrits","nodmgspread","uncletopia"],"game_id":440,"stv_port":27036,"stv_name":"Uncletopia | Warsaw | 3 | All Maps | STV","players":null},{"server_id":52,"name":"Uncletopia | Warsaw | 4 | All Maps","name_short":"waw-4","host":"waw-1.pl.uncletopia.com","port":27045,"enabled":true,"region":"eu","cc":"pl","latitude":52.2297,"longitude":21.017532,"reserved":0,"last_update":"0001-01-01T00:00:00Z","name_a2s":"Uncletopia | Warsaw | 4 | All Maps","protocol":17,"map":"koth_highpass","folder":"tf","game":"Team Fortress","app_id":440,"player_count":0,"max_players":24,"Bots":0,"server_type":"Dedicated","server_os":"Linux","password":true,"vac":true,"version":"7961495","steam_id":85568392925397853,"keywords":["cp","nocrits","nodmgspread","uncletopia"],"game_id":440,"stv_port":27046,"stv_name":"Uncletopia | Warsaw | 4 | All Maps | STV","players":null},{"server_id":53,"name":"Uncletopia | Warsaw | 5 | Stopwatch Beta","name_short":"waw-5","host":"waw-1.pl.uncletopia.com","port":27055,"enabled":true,"region":"eu","cc":"pl","latitude":52.2297,"longitude":21.017532,"reserved":0,"last_update":"0001-01-01T00:00:00Z","name_a2s":"Uncletopia | Warsaw | 5 | Stopwatch Beta","protocol":17,"map":"workshop/pl_barnblitz_pro7.ugc582280235","folder":"tf","game":"Team Fortress","app_id":440,"player_count":0,"max_players":24,"Bots":0,"server_type":"Dedicated","server_os":"Linux","password":true,"vac":true,"version":"7961495","steam_id":85568392925397854,"keywords":["nocrits","nodmgspread","payload","uncletopia"],"game_id":440,"stv_port":27056,"stv_name":"Uncletopia | Warsaw | 5 | Stopwatch Beta | STV","players":null},{"server_id":54,"name":"Uncletopia | Warsaw | 6 | Community","name_short":"waw-6","host":"waw-1.pl.uncletopia.com","port":27065,"enabled":true,"region":"eu","cc":"pl","latitude":52.2297,"longitude":21.017532,"reserved":0,"last_update":"0001-01-01T00:00:00Z","name_a2s":"Uncletopia | Warsaw | 6 | Community","protocol":17,"map":"workshop/pl_fifthcurve_rc1.ugc648227046","folder":"tf","game":"Team Fortress","app_id":440,"player_count":0,"max_players":24,"Bots":0,"server_type":"Dedicated","server_os":"Linux","password":true,"vac":true,"version":"7961495","steam_id":85568392925397856,"keywords":["nocrits","nodmgspread","payload","uncletopia"],"game_id":440,"stv_port":27066,"stv_name":"Uncletopia | Warsaw | 6 | Community | STV","players":null}]}