{"status":true,"message":"","result":[{"server_id":9,"name":"Uncletopia | Atlanta | 1 | All Maps","name_short":"atl-1","host":"atl-1.us.uncletopia.com","port":27015,"enabled":true,"region":"us-east","cc":"us","latitude":33.753746,"longitude":-84.38633,"reserved":0,"last_update":"0001-01-01T00:00:00Z","name_a2s":"Uncletopia | Atlanta | 1 | All Maps","protocol":17,"map":"koth_lakeside_final","folder":"tf","game":"Team Fortress","app_id":440,"player_count":1,"max_players":24,"Bots":0,"server_type":"Dedicated","server_os":"Linux","password":true,"vac":true,"version":"7757534","steam_id":85568392924469982,"keywords":["cp","nocrits","nodmgspread","uncletopia"],"game_id":440,"stv_port":27016,"stv_name":"Uncletopia | Atlanta | 1 | All Maps | STV","players":[{"user_id":20,"name":"Khailby","steam_id":76561198811728410,"connected_time":334000000000,"state":"active","ping":35}]},{"server_id":104,"name":"Uncletopia | Atlanta | 2 | All Maps","name_short":"atl-2","host":"atl-1.us.uncletopia.com","port":27025,"enabled":true,"region":"us-east","cc":"us","latitude":33.753746,"longitude":-84.38633,"reserved":0,"last_update":"0001-01-01T00:00:00Z","name_a2s":"Uncletopia | Atlanta | 2 | All Maps","protocol":17,"map":"pl_pier","folder":"tf","game":"Team Fortress","app_id":440,"player_count":0,"max_players":24,"Bots":0,"server_type":"Dedicated","server_os":"Linux","password":true,"vac":true,"version":"7757534","steam_id":85568392924469983,"keywords":["nocrits","nodmgspread","payload","uncletopia"],"game_id":440,"stv_port":27026,"stv_name":"Uncletopia | Atlanta | 2 | All Maps | STV","players":null},{"server_id":400,"name":"Uncletopia | Atlanta | 3 | Community","name_short":"atl-3","host":"atl-1.us.uncletopia.com","port":27035,"enabled":true,"region":"us-east","cc":"us","latitude":33.753746,"longitude":-84.38633,"reserved":0,"last_update":"0001-01-01T00:00:00Z","name_a2s":"Uncletopia | Atlanta | 3 | Community","protocol":17,"map":"cp_mountainlab","folder":"tf","game":"Team Fortress","app_id":440,"player_count":0,"max_players":24,"Bots":0,"server_type":"Dedicated","server_os":"Linux","password":true,"vac":true,"version":"7757534","steam_id":85568392924515187,"keywords":["cp","nocrits","nodmgspread","uncletopia"],"game_id":440,"stv_port":27036,"stv_name":"Uncletopia | Atlanta | 3 | Community | STV","players":null},{"server_id":401,"name":"Uncletopia | Atlanta | 4 | No Payload","name_short":"atl-4","host":"atl-1.us.uncletopia.com","port":27045,"enabled":true,"region":"us-east","cc":"us","latitude":33.753746,"longitude":-84.38633,"reserved":0,"last_update":"0001-01-01T00:00:00Z","name_a2s":"","protocol":0,"map":"","folder":"","game":"","app_id":0,"player_count":0,"max_players":0,"Bots":0,"server_type":"","server_os":"","password":false,"vac":false,"version":"","steam_id":0,"keywords":null,"game_id":0,"stv_port":0,"stv_name":"","players":null},{"server_id":2,"name":"Uncletopia | Chicago | 1 | All Maps","name_short":"chi-1","host":"chi-1.us.uncletopia.com","port":27015,"enabled":true,"region":"us-central","cc":"us","latitude":41.881832,"longitude":-87.62318,"reserved":0,"last_update":"0001-01-01T00:00:00Z","name_a2s":"Uncletopia | Chicago | 1 | All Maps","protocol":17,"map":"pl_barnblitz","folder":"tf","game":"Team Fortress","app_id":440,"player_count":24,"max_players":24,"Bots":0,"server_type":"Dedicated","server_os":"Linux","password":true,"vac":true,"version":"7757534","steam_id":85568392924469984,"keywords":["nocrits","nodmgspread","payload","uncletopia"],"game_id":440,"stv_port":27016,"stv_name":"Uncletopia | Chicago | 1 | All Maps | STV","players":[{"user_id":170,"name":"Tweedlefame","steam_id":76561198066867150,"connected_time":2526000000000,"state":"active","ping":67},{"user_id":52,"name":"ark","steam_id":76561198041066271,"connected_time":11673000000000,"state":"active","ping":75},{"user_id":175,"name":"TheGrassMan (He/Him)","steam_id":76561198118984048,"connected_time":2258000000000,"state":"active","ping":57},{"user_id":186,"name":"Violet42","steam_id":76561198072927887,"connected_time":875000000000,"state":"active","ping":64},{"user_id":166,"name":"Towns","steam_id":76561198984662863,"connected_time":2974000000000,"state":"active","ping":72},{"user_id":171,"name":"Ojen","steam_id":76561197998414482,"connected_time":2520000000000,"state":"active","ping":78},{"user_id":167,"name":"loudpisser","steam_id":76561198078802110,"connected_time":2713000000000,"state":"active","ping":73},{"user_id":174,"name":"NOTWALTER","steam_id":76561198125464744,"connected_time":2286000000000,"state":"active","ping":82},{"user_id":183,"name":"Walter White","steam_id":76561198875469297,"connected_time":1001000000000,"state":"active","ping":67},{"user_id":209,"name":"Veir≈´ Viseris","steam_id":76561197989857176,"connected_time":230000000000,"state":"active","ping":168},{"user_id":187,"name":"theheckromancer","steam_id":76561198069988935,"connected_time":874000000000,"state":"active","ping":68},{"user_id":191,"name":"DiscoTraveler","steam_id":76561199240168088,"connected_time":771000000000,"state":"active","ping":48},{"user_id":203,"name":"Traffic Cone Collector","steam_id":76561199021463213,"connected_time":472000000000,"state":"active","ping":152},{"user_id":177,"name":"donatello „ÉÑ","steam_id":76561198091157081,"connected_time":2045000000000,"state":"active","ping":59},{"user_id":155,"name":"chikin.sauce","steam_id":76561198042464635,"connected_time":3840000000000,"state":"active","ping":77},{"user_id":189,"name":"Duncle Frazzle","steam_id":76561198145596626,"connected_time":846000000000,"state":"active","ping":107},{"user_id":63,"name":"kitsu ‚ô•","steam_id":76561198091741658,"connected_time":11275000000000,"state":"active","ping":74},{"user_id":205,"name":"[DEEP] Fitts1099","steam_id":76561198044986906,"connected_time":410000000000,"state":"active","ping":51},{"user_id":193,"name":"trobin120","steam_id":76561199122420273,"connected_time":735000000000,"state":"active","ping":64},{"user_id":194,"name":"Alchemist","steam_id":76561198072447444,"connected_time":700000000000,"state":"active","ping":60},{"user_id":196,"name":"Legit_Jaxer","steam_id":76561198172234053,"connected_time":658000000000,"state":"active","ping":127},{"user_id":198,"name":"RoyDJ„ÉÑ","steam_id":76561198184851991,"connected_time":642000000000,"state":"active","ping":76},{"user_id":208,"name":"Admiral Crumbs","steam_id":76561198108791583,"connected_time":254000000000,"state":"active","ping":63},{"user_id":150,"name":"Daz","steam_id":76561198041431938,"connected_time":4282000000000,"state":"active","ping":76}]},{"server_id":106,"name":"Uncletopia | Chicago | 2 | All Maps","name_short":"chi-2","host":"chi-1.us.uncletopia.com","port":27025,"enabled":true,"region":"us-central","cc":"us","latitude":41.881832,"longitude":-87.62318,"reserved":0,"last_update":"0001-01-01T00:00:00Z","name_a2s":"Uncletopia | Chicago | 2 | All Maps","protocol":17,"map":"cp_dustbowl","folder":"tf","game":"Team Fortress","app_id":440,"player_count":22,"max_players":24,"Bots":0,"server_type":"Dedicated","server_os":"Linux","password":true,"vac":true,"version":"7757534","steam_id":85568392924469985,"keywords":["cp","nocrits","nodmgspread","uncletopia"],"game_id":440,"stv_port":27026,"stv_name":"Uncletopia | Chicago | 2 | All Maps | STV","players":[{"user_id":61,"name":"Rumpelforeskin","steam_id":76561198022105119,"connected_time":478000000000,"state":"active","ping":68},{"user_id":67,"name":"Large Charles","steam_id":76561197999663001,"connected_time":9000000000,"state":"spawning","ping":125},{"user_id":14,"name":"Hitlinemoss","steam_id":76561198155435669,"connected_time":3527000000000,"state":"active","ping":65},{"user_id":69,"name":"morbissey","steam_id":76561198072592880,"connected_time":3000000000,"state":"spawning","ping":41},{"user_id":50,"name":"matyjasikmel","steam_id":76561198376947828,"connected_time":1495000000000,"state":"active","ping":114},{"user_id":62,"name":"arse77","steam_id":76561198169613105,"connected_time":428000000000,"state":"active","ping":70},{"user_id":64,"name":"GirlsHateMe","steam_id":76561198839208855,"connected_time":245000000000,"state":"active","ping":69},{"user_id":55,"name":"Demilious","steam_id":76561198090525010,"connected_time":1096000000000,"state":"active","ping":84},{"user_id":30,"name":"augs","steam_id":76561199120607417,"connected_time":2026000000000,"state":"active","ping":64},{"user_id":32,"name":"Alc-do","steam_id":76561198277363726,"connected_time":1944000000000,"state":"active","ping":147},{"user_id":45,"name":"pink","steam_id":76561198143290835,"connected_time":1682000000000,"state":"active","ping":59},{"user_id":58,"name":"Jordyn","steam_id":76561198196220635,"connected_time":833000000000,"state":"active","ping":102},{"user_id":35,"name":"you have no swag!!!!!!!!","steam_id":76561198143132686,"connected_time":1842000000000,"state":"active","ping":76},{"user_id":36,"name":"Mcstuffer","steam_id":76561198033974816,"connected_time":1822000000000,"state":"active","ping":75},{"user_id":37,"name":"bruh2","steam_id":76561198046055673,"connected_time":1814000000000,"state":"active","ping":76},{"user_id":60,"name":"big if true","steam_id":76561198155403131,"connected_time":744000000000,"state":"active","ping":67},{"user_id":49,"name":"PyroManiac","steam_id":76561198005988491,"connected_time":1580000000000,"state":"active","ping":117},{"user_id":59,"name":"cow","steam_id":76561198117331762,"connected_time":790000000000,"state":"active","ping":49},{"user_id":42,"name":"Bush.exe","steam_id":76561198124385307,"connected_time":1765000000000,"state":"active","ping":72},{"user_id":43,"name":"Dr.Ludwig","steam_id":76561199221271922,"connected_time":1734000000000,"state":"active","ping":180},{"user_id":47,"name":"typical_human","steam_id":76561198060914982,"connected_time":1675000000000,"state":"active","ping":104},{"user_id":48,"name":"The Foolish Samurai","steam_id":76561198094494945,"connected_time":1597000000000,"state":"active","ping":112}]},{"server_id":402,"name":"Uncletopia | Chicago | 3 | All Maps","name_short":"chi-3","host":"chi-1.us.uncletopia.com","port":27035,"enabled":true,"region":"us-central","cc":"us","latitude":41.881832,"longitude":-87.62318,"reserved":0,"last_update":"0001-01-01T00:00:00Z","name_a2s":"Uncletopia | Chicago | 3 | All Maps","protocol":17,"map":"koth_highpass","folder":"tf","game":"Team Fortress","app_id":440,"player_count":0,"max_players":24,"Bots":0,"server_type":"Dedicated","server_os":"Linux","password":true,"vac":true,"version":"7757534","steam_id":85568392924515191,"keywords":["cp","nocrits","nodmgspread","uncletopia"],"game_id":440,"stv_port":27036,"stv_name":"Uncletopia | Chicago | 3 | All Maps | STV","players":null},{"server_id":403,"name":"Uncletopia | Chicago | 4 | All Maps","name_short":"chi-4","host":"chi-1.us.uncletopia.com","port":27045,"enabled":true,"region":"us-central","cc":"us","latitude":41.881832,"longitude":-87.62318,"reserved":0,"last_update":"0001-01-01T00:00:00Z","name_a2s":"Uncletopia | Chicago | 4 | All Maps","protocol":17,"map":"pl_thundermountain","folder":"tf","game":"Team Fortress","app_id":440,"player_count":24,"max_players":24,"Bots":0,"server_type":"Dedicated","server_os":"Linux","password":true,"vac":true,"version":"7757534","steam_id":85568392924515193,"keywords":["nocrits","nodmgspread","payload","uncletopia"],"game_id":440,"stv_port":27046,"stv_name":"Uncletopia | Chicago | 4 | All Maps | STV","players":[{"user_id":105,"name":"Porsy","steam_id":76561198041850843,"connected_time":2950000000000,"state":"active","ping":44},{"user_id":142,"name":"Claw Finger","steam_id":76561198116408865,"connected_time":863000000000,"state":"active","ping":75},{"user_id":116,"name":"Konrad Vilulf","steam_id":76561198111124481,"connected_time":2634000000000,"state":"active","ping":91},{"user_id":135,"name":"Oopsie Daisy ‚ùã","steam_id":76561198042144492,"connected_time":1943000000000,"state":"active","ping":76},{"user_id":107,"name":"BasicPeaches","steam_id":76561198190890150,"connected_time":2838000000000,"state":"active","ping":76},{"user_id":144,"name":"Large Joseph","steam_id":76561198847525487,"connected_time":623000000000,"state":"active","ping":54},{"user_id":108,"name":"neet","steam_id":76561197968115168,"connected_time":2814000000000,"state":"active","ping":59},{"user_id":121,"name":"Rornir","steam_id":76561198081829615,"connected_time":2145000000000,"state":"active","ping":39},{"user_id":86,"name":"deech","steam_id":76561198066429444,"connected_time":4020000000000,"state":"active","ping":73},{"user_id":145,"name":"ADHDking","steam_id":76561198116099017,"connected_time":560000000000,"state":"active","ping":60},{"user_id":148,"name":"RedSock","steam_id":76561198161243404,"connected_time":478000000000,"state":"active","ping":45},{"user_id":118,"name":"Ejaculation Zach","steam_id":76561198203765200,"connected_time":2454000000000,"state":"active","ping":65},{"user_id":125,"name":"Dabbledornk","steam_id":76561198065241300,"connected_time":2066000000000,"state":"active","ping":60},{"user_id":151,"name":"one tricked","steam_id":76561198165230503,"connected_time":230000000000,"state":"active","ping":74},{"user_id":84,"name":"I can't heal","steam_id":76561198039763676,"connected_time":4215000000000,"state":"active","ping":69},{"user_id":149,"name":"Carson","steam_id":76561198076771071,"connected_time":390000000000,"state":"active","ping":51},{"user_id":127,"name":"Duckywinner","steam_id":76561198254828139,"connected_time":2048000000000,"state":"active","ping":93},{"user_id":104,"name":"Ringo x Seiran","steam_id":76561198357437908,"connected_time":3039000000000,"state":"active","ping":63},{"user_id":128,"name":"Manganese","steam_id":76561198117480134,"connected_time":2046000000000,"state":"active","ping":68},{"user_id":131,"name":"Mug Moment Gaming","steam_id":76561198233098136,"connected_time":2016000000000,"state":"active","ping":57},{"user_id":132,"name":"AL SPUGNAR","steam_id":76561199020253203,"connected_time":2013000000000,"state":"active","ping":119},{"user_id":137,"name":"dednaught","steam_id":76561198128780622,"connected_time":1865000000000,"state":"active","ping":87},{"user_id":152,"name":"Yukko Aioi TF2","steam_id":76561198889857835,"connected_time":92000000000,"state":"active","ping":147},{"user_id":97,"name":"Baby gaming","steam_id":76561198867319323,"connected_time":3669000000000,"state":"active","ping":65}]},{"server_id":36,"name":"Uncletopia | Chicago | 5 | All Maps","name_short":"chi-5","host":"chi-2.us.uncletopia.com","port":27015,"enabled":true,"region":"us-central","cc":"us","latitude":41.881832,"longitude":-87.62318,"reserved":0,"last_update":"0001-01-01T00:00:00Z","name_a2s":"Uncletopia | Chicago | 5 | All Maps","protocol":17,"map":"koth_lakeside_final","folder":"tf","game":"Team Fortress","app_id":440,"player_count":1,"max_players":24,"Bots":0,"server_type":"Dedicated","server_os":"Linux","password":true,"vac":true,"version":"7757534","steam_id":85568392924866362,"keywords":["cp","nocrits","nodmgspread","uncletopia"],"game_id":440,"stv_port":27016,"stv_name":"Uncletopia | Chicago | 5 | All Maps | STV","players":[{"user_id":7,"name":"i am deeeeeeeeead","steam_id":76561199072907445,"connected_time":107000000000,"state":"active","ping":98}]},{"server_id":37,"name":"Uncletopia | Chicago | 6 | All Maps","name_short":"chi-6","host":"chi-2.us.uncletopia.com","port":27025,"enabled":true,"region":"us-central","cc":"us","latitude":41.881832,"longitude":-87.62318,"reserved":0,"last_update":"0001-01-01T00:00:00Z","name_a2s":"Uncletopia | Chicago | 6 | All Maps","protocol":17,"map":"pl_borneo","folder":"tf","game":"Team Fortress","app_id":440,"player_count":0,"max_players":24,"Bots":0,"server_type":"Dedicated","server_os":"Linux","password":true,"vac":true,"version":"7757534","steam_id":85568392924866363,"keywords":["nocrits","nodmgspread","payload","uncletopia"],"game_id":440,"stv_port":27026,"stv_name":"Uncletopia | Chicago | 6 | All Maps | STV","players":null},{"server_id":38,"name":"Uncletopia | Chicago | 7 | Stopwatch Beta","name_short":"chi-7","host":"chi-2.us.uncletopia.com","port":27035,"enabled":true,"region":"us-central","cc":"us","latitude":41.881832,"longitude":-87.62318,"reserved":0,"last_update":"0001-01-01T00:00:00Z","name_a2s":"Uncletopia | Chicago | 7 | Stopwatch Beta","protocol":17,"map":"koth_viaduct","folder":"tf","game":"Team Fortress","app_id":440,"player_count":0,"max_players":24,"Bots":0,"server_type":"Dedicated","server_os":"Linux","password":true,"vac":true,"version":"7757534","steam_id":85568392924866364,"keywords":["cp","nocrits","nodmgspread","uncletopia"],"game_id":440,"stv_port":27036,"stv_name":"Uncletopia | Chicago | 7 | Stopwatch Beta | STV","players":null},{"server_id":39,"name":"Uncletopia | Chicago | 8 | Community","name_short":"chi-8","host":"chi-2.us.uncletopia.com","port":27045,"enabled":true,"region":"us-central","cc":"us","latitude":41.881832,"longitude":-87.62318,"reserved":0,"last_update":"0001-01-01T00:00:00Z","name_a2s":"Uncletopia | Chicago | 8 | Community","protocol":17,"map":"koth_lakeside_final","folder":"tf","game":"Team Fortress","app_id":440,"player_count":0,"max_players":24,"Bots":0,"server_type":"Dedicated","server_os":"Linux","password":true,"vac":true,"version":"7757534","steam_id":85568392924866365,"keywords":["cp","nocrits","nodmgspread","uncletopia"],"game_id":440,"stv_port":27046,"stv_name":"Uncletopia | Chicago | 8 | Community | STV","players":null},{"server_id":8,"name":"Uncletopia | Dallas | 1 | All Maps","name_short":"dal-1","host":"dal-1.us.uncletopia.com","port":27015,"enabled":true,"region":"us-central","cc":"us","latitude":32.779167,"longitude":-96.80889,"reserved":0,"last_update":"0001-01-01T00:00:00Z","name_a2s":"Uncletopia | Dallas | 1 | All Maps","protocol":17,"map":"pl_pier","folder":"tf","game":"Team Fortress","app_id":440,"player_count":0,"max_players":24,"Bots":0,"server_type":"Dedicated","server_os":"Linux","password":true,"vac":true,"version":"7757534","steam_id":85568392924469986,"keywords":["nocrits","nodmgspread","payload","uncletopia"],"game_id":440,"stv_port":27016,"stv_name":"Uncletopia | Dallas | 1 | All Maps | STV","players":null},{"server_id":108,"name":"Uncletopia | Dallas | 2 | All Maps","name_short":"dal-2","host":"dal-1.us.uncletopia.com","port":27025,"enabled":true,"region":"us-central","cc":"us","latitude":32.779167,"longitude":-96.80889,"reserved":0,"last_update":"0001-01-01T00:00:00Z","name_a2s":"Uncletopia | Dallas | 2 | All Maps","protocol":17,"map":"cp_altitude","folder":"tf","game":"Team Fortress","app_id":440,"player_count":0,"max_players":24,"Bots":0,"server_type":"Dedicated","server_os":"Linux","password":true,"vac":true,"version":"7757534","steam_id":85568392924469988,"keywords":["cp","nocrits","nodmgspread","uncletopia"],"game_id":440,"stv_port":27026,"stv_name":"Uncletopia | Dallas | 2 | All Maps | STV","players":null},{"server_id":5,"name":"Uncletopia | Frankfurt | 1 | All Maps","name_short":"frk-1","host":"frk-1.de.uncletopia.com","port":27015,"enabled":true,"region":"eu","cc":"de","latitude":50.110924,"longitude":8.682127,"reserved":0,"last_update":"0001-01-01T00:00:00Z","name_a2s":"Uncletopia | Frankfurt | 1 | All Maps","protocol":17,"map":"pl_pier","folder":"tf","game":"Team Fortress","app_id":440,"player_count":24,"max_players":24,"Bots":0,"server_type":"Dedicated","server_os":"Linux","password":true,"vac":true,"version":"7757534","steam_id":85568392924469989,"keywords":["nocrits","nodmgspread","payload","uncletopia"],"game_id":440,"stv_port":27016,"stv_name":"Uncletopia | Frankfurt | 1 | All Maps | STV","players":[{"user_id":440,"name":"i am the spy","steam_id":76561198368783937,"connected_time":2150000000000,"state":"active","ping":105},{"user_id":456,"name":"be gay do crime","steam_id":76561198254450468,"connected_time":1050000000000,"state":"active","ping":69},{"user_id":449,"name":"Rodia","steam_id":76561197968293161,"connected_time":1529000000000,"state":"active","ping":65},{"user_id":450,"name":"Big Sploinki","steam_id":76561198049546932,"connected_time":1526000000000,"state":"active","ping":68},{"user_id":415,"name":"Trebox78","steam_id":76561198071963357,"connected_time":3969000000000,"state":"active","ping":85},{"user_id":399,"name":"Anonymous47007","steam_id":76561199005211417,"connected_time":5214000000000,"state":"active","ping":66},{"user_id":436,"name":"Skuld","steam_id":76561198064734905,"connected_time":2567000000000,"state":"active","ping":89},{"user_id":468,"name":"midlpsyzl47","steam_id":76561199475972637,"connected_time":335000000000,"state":"active","ping":71},{"user_id":421,"name":"cracker","steam_id":76561198062107879,"connected_time":3570000000000,"state":"active","ping":75},{"user_id":446,"name":"mesoni","steam_id":76561199141290973,"connected_time":1564000000000,"state":"active","ping":97},{"user_id":430,"name":"Luuk","steam_id":76561198088266026,"connected_time":2700000000000,"state":"active","ping":58},{"user_id":427,"name":"(wm) Das Fleisch","steam_id":76561198001250715,"connected_time":3126000000000,"state":"active","ping":54},{"user_id":451,"name":"Bruh","steam_id":76561198269997109,"connected_time":1518000000000,"state":"active","ping":82},{"user_id":463,"name":"Mr.TEA","steam_id":76561198014381591,"connected_time":795000000000,"state":"active","ping":67},{"user_id":457,"name":"PKBlizzard","steam_id":76561198039836567,"connected_time":1036000000000,"state":"active","ping":59},{"user_id":467,"name":"a dollop of bird","steam_id":76561198089003514,"connected_time":365000000000,"state":"active","ping":45},{"user_id":432,"name":"chssdk","steam_id":76561198262231733,"connected_time":2688000000000,"state":"active","ping":60},{"user_id":441,"name":"Shruk","steam_id":76561198126398022,"connected_time":2011000000000,"state":"active","ping":76},{"user_id":425,"name":"hourglass","steam_id":76561198166613799,"connected_time":3244000000000,"state":"active","ping":87},{"user_id":454,"name":"SantiTzePug","steam_id":76561199049615996,"connected_time":1460000000000,"state":"active","ping":78},{"user_id":439,"name":"Smith","steam_id":76561198132589784,"connected_time":2240000000000,"state":"active","ping":73},{"user_id":465,"name":"beer thief","steam_id":76561198126524735,"connected_time":563000000000,"state":"active","ping":73},{"user_id":410,"name":"I'm past the point of insanity","steam_id":76561198800954471,"connected_time":4899000000000,"state":"active","ping":80},{"user_id":458,"name":"Mr.Schnittlauch","steam_id":76561198295868113,"connected_time":865000000000,"state":"active","ping":61}]},{"server_id":110,"name":"Uncletopia | Frankfurt | 2 | All Maps","name_short":"frk-2","host":"frk-1.de.uncletopia.com","port":27025,"enabled":true,"region":"eu","cc":"de","latitude":50.110924,"longitude":8.682127,"reserved":0,"last_update":"0001-01-01T00:00:00Z","name_a2s":"Uncletopia | Frankfurt | 2 | All Maps","protocol":17,"map":"pl_upward","folder":"tf","game":"Team Fortress","app_id":440,"player_count":24,"max_players":24,"Bots":0,"server_type":"Dedicated","server_os":"Linux","password":true,"vac":true,"version":"7757534","steam_id":85568392924469990,"keywords":["nocrits","nodmgspread","payload","uncletopia"],"game_id":440,"stv_port":27026,"stv_name":"Uncletopia | Frankfurt | 2 | All Maps | STV","players":[{"user_id":70,"name":"√ÉNVS DR√ÉNVS","steam_id":76561198138733015,"connected_time":4959000000000,"state":"active","ping":111},{"user_id":101,"name":"Faxter","steam_id":76561198011771605,"connected_time":3543000000000,"state":"active","ping":65},{"user_id":119,"name":"tzeentch enjoyer","steam_id":76561199147345765,"connected_time":1446000000000,"state":"active","ping":87},{"user_id":118,"name":"player","steam_id":76561198142890210,"connected_time":1458000000000,"state":"active","ping":75},{"user_id":120,"name":"subway vergil","steam_id":76561199110064166,"connected_time":1440000000000,"state":"active","ping":101},{"user_id":127,"name":"Kaomr","steam_id":76561198055900955,"connected_time":1190000000000,"state":"active","ping":65},{"user_id":132,"name":"rigel_","steam_id":76561198148640847,"connected_time":936000000000,"state":"active","ping":83},{"user_id":116,"name":"Kretur","steam_id":76561198161086266,"connected_time":1488000000000,"state":"active","ping":96},{"user_id":87,"name":"Dolcelatte","steam_id":76561198038501770,"connected_time":4509000000000,"state":"active","ping":46},{"user_id":97,"name":"Deacon Dracul","steam_id":76561198046880663,"connected_time":3697000000000,"state":"active","ping":106},{"user_id":122,"name":"obicham malki momicheta","steam_id":76561198241237544,"connected_time":1382000000000,"state":"active","ping":76},{"user_id":108,"name":"Leibeigener","steam_id":76561199275478305,"connected_time":2977000000000,"state":"active","ping":43},{"user_id":138,"name":"ALPHATRONIC","steam_id":76561199477056141,"connected_time":409000000000,"state":"active","ping":84},{"user_id":80,"name":"Reezgo","steam_id":76561198111235373,"connected_time":4745000000000,"state":"active","ping":63},{"user_id":123,"name":"PixelHyde","steam_id":76561198040878617,"connected_time":1350000000000,"state":"active","ping":75},{"user_id":125,"name":"CumbustiblePunda","steam_id":76561197974274677,"connected_time":1311000000000,"state":"active","ping":54},{"user_id":103,"name":"TKN_Paps997","steam_id":76561198419868465,"connected_time":3097000000000,"state":"active","ping":84},{"user_id":134,"name":"Syll","steam_id":76561198040736202,"connected_time":755000000000,"state":"active","ping":91},{"user_id":130,"name":"ldshwt","steam_id":76561198090364357,"connected_time":998000000000,"state":"active","ping":51},{"user_id":128,"name":"dirty","steam_id":76561197995572935,"connected_time":1143000000000,"state":"active","ping":77},{"user_id":133,"name":"Big Trader","steam_id":76561197992364667,"connected_time":861000000000,"state":"active","ping":76},{"user_id":95,"name":"Cheers Mate!","steam_id":76561198265192382,"connected_time":3728000000000,"state":"active","ping":66},{"user_id":140,"name":"Negan Smith","steam_id":76561198153488940,"connected_time":49000000000,"state":"active","ping":69},{"user_id":114,"name":"Cloudberry","steam_id":76561198035612538,"connected_time":1916000000000,"state":"active","ping":84}]},{"server_id":308,"name":"Uncletopia | Frankfurt | 3 | All Maps","name_short":"frk-3","host":"frk-1.de.uncletopia.com","port":27035,"enabled":true,"region":"eu","cc":"de","latitude":50.110924,"longitude":8.682127,"reserved":0,"last_update":"0001-01-01T00:00:00Z","name_a2s":"Uncletopia | Frankfurt | 3 | All Maps","protocol":17,"map":"koth_cascade","folder":"tf","game":"Team Fortress","app_id":440,"player_count":0,"max_players":24,"Bots":0,"server_type":"Dedicated","server_os":"Linux","password":true,"vac":true,"version":"7757534","steam_id":85568392924504274,"keywords":["cp","nocrits","nodmgspread","uncletopia"],"game_id":440,"stv_port":27036,"stv_name":"Uncletopia | Frankfurt | 3 | All Maps | STV","players":null},{"server_id":309,"name":"Uncletopia | Frankfurt | 4 | All Maps","name_short":"frk-4","host":"frk-1.de.uncletopia.com","port":27045,"enabled":true,"region":"eu","cc":"de","latitude":50.110924,"longitude":8.682127,"reserved":0,"last_update":"0001-01-01T00:00:00Z","name_a2s":"Uncletopia | Frankfurt | 4 | All Maps","protocol":17,"map":"cp_altitude","folder":"tf","game":"Team Fortress","app_id":440,"player_count":0,"max_players":24,"Bots":0,"server_type":"Dedicated","server_os":"Linux","password":true,"vac":true,"version":"7757534","steam_id":85568392924504275,"keywords":["cp","nocrits","nodmgspread","uncletopia"],"game_id":440,"stv_port":27046,"stv_name":"Uncletopia | Frankfurt | 4 | All Maps | STV","players":null},{"server_id":310,"name":"Uncletopia | Frankfurt | 5 | All Maps","name_short":"frk-5","host":"frk-1.de.uncletopia.com","port":27055,"enabled":true,"region":"eu","cc":"de","latitude":50.110924,"longitude":8.682127,"reserved":0,"last_update":"0001-01-01T00:00:00Z","name_a2s":"Uncletopia | Frankfurt | 5 | All Maps","protocol":17,"map":"koth_cascade","folder":"tf","game":"Team Fortress","app_id":440,"player_count":24,"max_players":24,"Bots":0,"server_type":"Dedicated","server_os":"Linux","password":true,"vac":true,"version":"7757534","steam_id":85568392924504277,"keywords":["cp","nocrits","nodmgspread","uncletopia"],"game_id":440,"stv_port":27056,"stv_name":"Uncletopia | Frankfurt | 5 | All Maps | STV","players":[{"user_id":113,"name":"Panda","steam_id":76561198176342325,"connected_time":542000000000,"state":"active","ping":100},{"user_id":96,"name":"Edgy Name","steam_id":76561198378270820,"connected_time":1180000000000,"state":"active","ping":61},{"user_id":103,"name":"Drekad√≥ttir","steam_id":76561198119979169,"connected_time":844000000000,"state":"active","ping":69},{"user_id":118,"name":"Magic","steam_id":76561198401602586,"connected_time":284000000000,"state":"active","ping":85},{"user_id":121,"name":"syndenz","steam_id":76561198176063813,"connected_time":232000000000,"state":"active","ping":63},{"user_id":102,"name":"Slim3rs","steam_id":76561199088010585,"connected_time":859000000000,"state":"active","ping":197},{"user_id":105,"name":"TJ1212","steam_id":76561199013575313,"connected_time":744000000000,"state":"active","ping":62},{"user_id":120,"name":"K.V. #RemoveRandomCrits","steam_id":76561197994832993,"connected_time":254000000000,"state":"active","ping":75},{"user_id":122,"name":"‚ô•Stormii‚ô•","steam_id":76561199441703051,"connected_time":166000000000,"state":"active","ping":108},{"user_id":107,"name":"speedyboy","steam_id":76561199222795521,"connected_time":725000000000,"state":"active","ping":90},{"user_id":89,"name":"Clamor_","steam_id":76561198104368295,"connected_time":1919000000000,"state":"active","ping":75},{"user_id":119,"name":"poliakov.noam","steam_id":76561199259322961,"connected_time":282000000000,"state":"active","ping":105},{"user_id":86,"name":"Matea12","steam_id":76561199170332622,"connected_time":2225000000000,"state":"active","ping":72},{"user_id":114,"name":"shaumu","steam_id":76561199050348057,"connected_time":505000000000,"state":"active","ping":174},{"user_id":78,"name":"Garden Freeman","steam_id":76561199073314677,"connected_time":2862000000000,"state":"active","ping":79},{"user_id":110,"name":"Balls","steam_id":76561198086400484,"connected_time":615000000000,"state":"active","ping":87},{"user_id":97,"name":"Spaenny","steam_id":76561198035850165,"connected_time":1094000000000,"state":"active","ping":76},{"user_id":63,"name":"CEO of SNEKS üêç","steam_id":76561198244148206,"connected_time":3350000000000,"state":"active","ping":105},{"user_id":88,"name":"Malik794","steam_id":76561198967164437,"connected_time":2032000000000,"state":"active","ping":96},{"user_id":111,"name":"Mendo","steam_id":76561198068884273,"connected_time":611000000000,"state":"active","ping":145},{"user_id":115,"name":"‚òÅ Lou1smeister ‚òÅ","steam_id":76561198004032968,"connected_time":499000000000,"state":"active","ping":75},{"user_id":123,"name":"duchess abigail","steam_id":76561198166953966,"connected_time":147000000000,"state":"active","ping":75},{"user_id":117,"name":"MrBanana","steam_id":76561198116021623,"connected_time":469000000000,"state":"active","ping":59},{"user_id":93,"name":"Johnny","steam_id":76561198880265246,"connected_time":1492000000000,"state":"active","ping":85}]},{"server_id":311,"name":"Uncletopia | Frankfurt | 6 | All Maps","name_short":"frk-6","host":"frk-1.de.uncletopia.com","port":27065,"enabled":true,"region":"eu","cc":"de","latitude":50.110924,"longitude":8.682127,"reserved":0,"last_update":"0001-01-01T00:00:00Z","name_a2s":"Uncletopia | Frankfurt | 6 | All Maps","protocol":17,"map":"cp_sunshine","folder":"tf","game":"Team Fortress","app_id":440,"player_count":23,"max_players":24,"Bots":0,"server_type":"Dedicated","server_os":"Linux","password":true,"vac":true,"version":"7757534","steam_id":85568392924504278,"keywords":["cp","nocrits","nodmgspread","uncletopia"],"game_id":440,"stv_port":27066,"stv_name":"Uncletopia | Frankfurt | 6 | All Maps | STV","players":[{"user_id":254,"name":"Lordware","steam_id":76561198022011299,"connected_time":1243000000000,"state":"active","ping":72},{"user_id":248,"name":"Discipline.","steam_id":76561198060012688,"connected_time":1463000000000,"state":"active","ping":67},{"user_id":249,"name":"ashsbhop","steam_id":76561199155075476,"connected_time":1394000000000,"state":"active","ping":84},{"user_id":251,"name":"ztrs6","steam_id":76561198314853803,"connected_time":1321000000000,"state":"active","ping":94},{"user_id":268,"name":"Panic attack enjoyer","steam_id":76561199093237102,"connected_time":734000000000,"state":"active","ping":74},{"user_id":265,"name":"M0rph","steam_id":76561198127339176,"connected_time":848000000000,"state":"active","ping":53},{"user_id":277,"name":"Corpus Christi","steam_id":76561198417999443,"connected_time":197000000000,"state":"active","ping":100},{"user_id":266,"name":"AVol","steam_id":76561198217589544,"connected_time":772000000000,"state":"active","ping":104},{"user_id":229,"name":"PanPatrik","steam_id":76561198293331527,"connected_time":3333000000000,"state":"active","ping":55},{"user_id":278,"name":"JeanCorben","steam_id":76561197965133561,"connected_time":181000000000,"state":"active","ping":46},{"user_id":276,"name":"$n√òw","steam_id":76561198238781028,"connected_time":308000000000,"state":"active","ping":97},{"user_id":279,"name":"murderwow","steam_id":76561198024566944,"connected_time":96000000000,"state":"active","ping":104},{"user_id":267,"name":"chuumin","steam_id":76561198993127867,"connected_time":763000000000,"state":"active","ping":102},{"user_id":246,"name":"Eing","steam_id":76561198253125820,"connected_time":1850000000000,"state":"active","ping":81},{"user_id":260,"name":"Mr.Kevin120","steam_id":76561199186919096,"connected_time":1009000000000,"state":"active","ping":193},{"user_id":269,"name":"Setter Ball Gaul","steam_id":76561198130427881,"connected_time":688000000000,"state":"active","ping":166},{"user_id":233,"name":"Your local defective","steam_id":76561198072950522,"connected_time":2967000000000,"state":"active","ping":78},{"user_id":234,"name":"Raymus","steam_id":76561198021330407,"connected_time":2898000000000,"state":"active","ping":45},{"user_id":242,"name":"Spetse","steam_id":76561197990649972,"connected_time":2221000000000,"state":"active","ping":94},{"user_id":237,"name":"Remyie","steam_id":76561198131031404,"connected_time":2876000000000,"state":"active","ping":94},{"user_id":270,"name":"Gamlader","steam_id":76561198306177608,"connected_time":684000000000,"state":"active","ping":74},{"user_id":272,"name":"BeauSiFut","steam_id":76561198209566851,"connected_time":663000000000,"state":"active","ping":81},{"user_id":273,"name":"Caliban","steam_id":76561197999696839,"connected_time":648000000000,"state":"active","ping":102}]},{"server_id":23,"name":"Uncletopia | Frankfurt | 7 | Stopwatch Beta","name_short":"frk-7","host":"frk-1.de.uncletopia.com","port":27075,"enabled":true,"region":"eu","cc":"de","latitude":50.110924,"longitude":8.682127,"reserved":0,"last_update":"0001-01-01T00:00:00Z","name_a2s":"Uncletopia | Frankfurt | 7 | Stopwatch Beta","protocol":17,"map":"pl_borneo","folder":"tf","game":"Team Fortress","app_id":440,"player_count":0,"max_players":24,"Bots":0,"server_type":"Dedicated","server_os":"Linux","password":true,"vac":true,"version":"7757534","steam_id":85568392924742827,"keywords":["nocrits","nodmgspread","payload","uncletopia"],"game_id":440,"stv_port":27076,"stv_name":"Uncletopia | Frankfurt | 7 | Stopwatch Beta | STV","players":null},{"server_id":24,"name":"Uncletopia | Frankfurt | 8 | Community","name_short":"frk-8","host":"frk-1.de.uncletopia.com","port":27085,"enabled":true,"region":"eu","cc":"de","latitude":50.110924,"longitude":8.682127,"reserved":0,"last_update":"0001-01-01T00:00:00Z","name_a2s":"Uncletopia | Frankfurt | 8 | Community","protocol":17,"map":"workshop/cp_kalinka_rc6a.ugc1272700588","folder":"tf","game":"Team Fortress","app_id":440,"player_count":0,"max_players":24,"Bots":0,"server_type":"Dedicated","server_os":"Linux","password":true,"vac":true,"version":"7757534","steam_id":85568392924742828,"keywords":["cp","nocrits","nodmgspread","uncletopia"],"game_id":440,"stv_port":27086,"stv_name":"Uncletopia | Frankfurt | 8 | Community | STV","players":null},{"server_id":202,"name":"Uncletopia | Hong Kong | 1 | All Maps","name_short":"hgk-1","host":"hgk-1.hk.uncletopia.com","port":27015,"enabled":true,"region":"asia","cc":"hk","latitude":22.302711,"longitude":114.177216,"reserved":0,"last_update":"0001-01-01T00:00:00Z","name_a2s":"Uncletopia | Hong Kong | 1 | All Maps","protocol":17,"map":"pl_frontier_final","folder":"tf","game":"Team Fortress","app_id":440,"player_count":0,"max_players":24,"Bots":0,"server_type":"Dedicated","server_os":"Linux","password":true,"vac":true,"version":"7757534","steam_id":85568392924494504,"keywords":["nocrits","nodmgspread","payload","uncletopia"],"game_id":440,"stv_port":27016,"stv_name":"Uncletopia | Hong Kong | 1 | All Maps | STV","players":null},{"server_id":1,"name":"Uncletopia | Los Angeles | 1 | All Maps","name_short":"lax-1","host":"lax-1.us.uncletopia.com","port":27015,"enabled":true,"region":"us-west","cc":"us","latitude":33.94279,"longitude":-118.41004,"reserved":0,"last_update":"0001-01-01T00:00:00Z","name_a2s":"Uncletopia | Los Angeles | 1 | All Maps","protocol":17,"map":"cp_process_final","folder":"tf","game":"Team Fortress","app_id":440,"player_count":0,"max_players":24,"Bots":0,"server_type":"Dedicated","server_os":"Linux","password":true,"vac":true,"version":"7757534","steam_id":85568392924469991,"keywords":["cp","nocrits","nodmgspread","uncletopia"],"game_id":440,"stv_port":27016,"stv_name":"Uncletopia | Los Angeles | 1 | All Maps | STV","players":null},{"server_id":112,"name":"Uncletopia | Los Angeles | 2 | All Maps","name_short":"lax-2","host":"lax-1.us.uncletopia.com","port":27025,"enabled":true,"region":"us-west","cc":"us","latitude":33.94279,"longitude":-118.41004,"reserved":0,"last_update":"0001-01-01T00:00:00Z","name_a2s":"Uncletopia | Los Angeles | 2 | All Maps","protocol":17,"map":"koth_viaduct","folder":"tf","game":"Team Fortress","app_id":440,"player_count":0,"max_players":24,"Bots":0,"server_type":"Dedicated","server_os":"Linux","password":true,"vac":true,"version":"7757534","steam_id":85568392924469992,"keywords":["cp","nocrits","nodmgspread","uncletopia"],"game_id":440,"stv_port":27026,"stv_name":"Uncletopia | Los Angeles | 2 | All Maps | STV","players":null},{"server_id":324,"name":"Uncletopia | Los Angeles | 3 | All Maps","name_short":"lax-3","host":"lax-1.us.uncletopia.com","port":27035,"enabled":true,"region":"us-west","cc":"us","latitude":33.94279,"longitude":-118.41004,"reserved":0,"last_update":"0001-01-01T00:00:00Z","name_a2s":"Uncletopia | Los Angeles | 3 | All Maps","protocol":17,"map":"cp_altitude","folder":"tf","game":"Team Fortress","app_id":440,"player_count":0,"max_players":24,"Bots":0,"server_type":"Dedicated","server_os":"Linux","password":true,"vac":true,"version":"7757534","steam_id":85568392924510198,"keywords":["cp","nocrits","nodmgspread","uncletopia"],"game_id":440,"stv_port":27036,"stv_name":"Uncletopia | Los Angeles | 3 | All Maps | STV","players":null},{"server_id":25,"name":"Uncletopia | Los Angeles | 4 | Stopwatch Beta","name_short":"lax-4","host":"lax-1.us.uncletopia.com","port":27045,"enabled":true,"region":"us-west","cc":"us","latitude":33.94279,"longitude":-118.41004,"reserved":0,"last_update":"0001-01-01T00:00:00Z","name_a2s":"Uncletopia | Los Angeles | 4 | Stopwatch Beta","protocol":17,"map":"cp_dustbowl","folder":"tf","game":"Team Fortress","app_id":440,"player_count":0,"max_players":24,"Bots":0,"server_type":"Dedicated","server_os":"Linux","password":true,"vac":true,"version":"7757534","steam_id":85568392924510199,"keywords":["cp","nocrits","nodmgspread","uncletopia"],"game_id":440,"stv_port":27046,"stv_name":"Uncletopia | Los Angeles | 4 | Stopwatch Beta | STV","players":null},{"server_id":11,"name":"Uncletopia | London | 1 | All Maps","name_short":"lon-1","host":"lon-1.uk.uncletopia.com","port":27015,"enabled":true,"region":"eu","cc":"gb","latitude":51.509865,"longitude":-0.118092,"reserved":0,"last_update":"0001-01-01T00:00:00Z","name_a2s":"Uncletopia | London | 1 | All Maps","protocol":17,"map":"pl_frontier_final","folder":"tf","game":"Team Fortress","app_id":440,"player_count":24,"max_players":24,"Bots":0,"server_type":"Dedicated","server_os":"Linux","password":true,"vac":true,"version":"7757534","steam_id":85568392924367362,"keywords":["nocrits","nodmgspread","payload","uncletopia"],"game_id":440,"stv_port":27016,"stv_name":"Uncletopia | London | 1 | All Maps | STV","players":[{"user_id":203,"name":"Princess Fuzz","steam_id":76561198025783000,"connected_time":2593000000000,"state":"active","ping":45},{"user_id":208,"name":"Jag √§r ett anka","steam_id":76561198059978438,"connected_time":2167000000000,"state":"active","ping":76},{"user_id":238,"name":"homeinvasion$","steam_id":76561199111905021,"connected_time":68000000000,"state":"active","ping":110},{"user_id":225,"name":"Cave","steam_id":76561198423147900,"connected_time":850000000000,"state":"active","ping":58},{"user_id":220,"name":"Mapavri","steam_id":76561198370196400,"connected_time":1430000000000,"state":"active","ping":87},{"user_id":210,"name":"hades","steam_id":76561199435854673,"connected_time":1861000000000,"state":"active","ping":50},{"user_id":213,"name":"The_Drippy_bacteria69","steam_id":76561199461851882,"connected_time":1716000000000,"state":"active","ping":57},{"user_id":231,"name":"Yelowchy","steam_id":76561198199416121,"connected_time":330000000000,"state":"active","ping":74},{"user_id":237,"name":"il","steam_id":76561198122662610,"connected_time":127000000000,"state":"active","ping":89},{"user_id":200,"name":"Rezkey","steam_id":76561198206079048,"connected_time":3332000000000,"state":"active","ping":47},{"user_id":228,"name":"MichaelTheSlav","steam_id":76561198151626040,"connected_time":455000000000,"state":"active","ping":85},{"user_id":178,"name":"LuCroGi","steam_id":76561198057283891,"connected_time":4392000000000,"state":"active","ping":56},{"user_id":164,"name":"Spajro","steam_id":76561198257383813,"connected_time":5237000000000,"state":"active","ping":56},{"user_id":233,"name":"anti","steam_id":76561198313440475,"connected_time":308000000000,"state":"active","ping":82},{"user_id":235,"name":"Gaem Geck","steam_id":76561198057966907,"connected_time":292000000000,"state":"active","ping":49},{"user_id":181,"name":"ZANNABLUKE","steam_id":76561198013534336,"connected_time":4258000000000,"state":"active","ping":58},{"user_id":204,"name":"[Sheep] Tomco","steam_id":76561198388549261,"connected_time":2479000000000,"state":"active","ping":59},{"user_id":216,"name":"E","steam_id":76561198166340115,"connected_time":1638000000000,"state":"active","ping":73},{"user_id":187,"name":"Fran","steam_id":76561199070516960,"connected_time":3826000000000,"state":"active","ping":75},{"user_id":236,"name":"Dingus","steam_id":76561198140514058,"connected_time":271000000000,"state":"active","ping":44},{"user_id":224,"name":"on1on (roughly chopped)","steam_id":76561197995304137,"connected_time":919000000000,"state":"active","ping":72},{"user_id":227,"name":"fart inside :(","steam_id":76561198020802213,"connected_time":647000000000,"state":"active","ping":97},{"user_id":215,"name":"EagleFire","steam_id":76561198352938403,"connected_time":1701000000000,"state":"active","ping":48},{"user_id":86,"name":"meow","steam_id":76561198289343488,"connected_time":9985000000000,"state":"active","ping":61}]},{"server_id":114,"name":"Uncletopia | London | 2 | All Maps","name_short":"lon-2","host":"lon-1.uk.uncletopia.com","port":27025,"enabled":true,"region":"eu","cc":"gb","latitude":51.509865,"longitude":-0.118092,"reserved":0,"last_update":"0001-01-01T00:00:00Z","name_a2s":"Uncletopia | London | 2 | All Maps","protocol":17,"map":"cp_mountainlab","folder":"tf","game":"Team Fortress","app_id":440,"player_count":0,"max_players":24,"Bots":0,"server_type":"Dedicated","server_os":"Linux","password":true,"vac":true,"version":"7757534","steam_id":85568392924470941,"keywords":["cp","nocrits","nodmgspread","uncletopia"],"game_id":440,"stv_port":27026,"stv_name":"Uncletopia | London | 2 | All Maps | STV","players":null},{"server_id":320,"name":"Uncletopia | London | 3 | All Maps","name_short":"lon-3","host":"lon-1.uk.uncletopia.com","port":27035,"enabled":true,"region":"eu","cc":"gb","latitude":51.509865,"longitude":-0.118092,"reserved":0,"last_update":"0001-01-01T00:00:00Z","name_a2s":"Uncletopia | London | 3 | All Maps","protocol":17,"map":"pl_hoodoo_final","folder":"tf","game":"Team Fortress","app_id":440,"player_count":24,"max_players":24,"Bots":0,"server_type":"Dedicated","server_os":"Linux","password":true,"vac":true,"version":"7757534","steam_id":85568392924510192,"keywords":["nocrits","nodmgspread","payload","uncletopia"],"game_id":440,"stv_port":27036,"stv_name":"Uncletopia | London | 3 | All Maps | STV","players":[{"user_id":546,"name":"SaltyCupcakes","steam_id":76561198256386417,"connected_time":417000000000,"state":"active","ping":61},{"user_id":536,"name":"sv_opor 13123","steam_id":76561198002229612,"connected_time":1203000000000,"state":"active","ping":71},{"user_id":541,"name":"I Love Creamed Corn","steam_id":76561198846784757,"connected_time":1003000000000,"state":"active","ping":64},{"user_id":396,"name":"jonny derp","steam_id":76561198066287297,"connected_time":3252000000000,"state":"active","ping":44},{"user_id":547,"name":"Teamtrevien","steam_id":76561198085513932,"connected_time":415000000000,"state":"active","ping":55},{"user_id":548,"name":"PieceOfPork","steam_id":76561198061895450,"connected_time":411000000000,"state":"active","ping":56},{"user_id":549,"name":"oh my god he's LOADED","steam_id":76561198263236403,"connected_time":395000000000,"state":"active","ping":57},{"user_id":543,"name":"foursixsixseven","steam_id":76561199123727043,"connected_time":705000000000,"state":"active","ping":45},{"user_id":537,"name":"TheFirstGlueBender","steam_id":76561199387319886,"connected_time":1149000000000,"state":"active","ping":59},{"user_id":414,"name":"kbbq","steam_id":76561198346638308,"connected_time":1972000000000,"state":"active","ping":47},{"user_id":542,"name":"Uncle Terry","steam_id":76561198396415736,"connected_time":917000000000,"state":"active","ping":54},{"user_id":387,"name":"ozhmium","steam_id":76561198060762216,"connected_time":3403000000000,"state":"active","ping":94},{"user_id":538,"name":"the hamburglar","steam_id":76561198810194062,"connected_time":1145000000000,"state":"active","ping":71},{"user_id":530,"name":"Qwerty","steam_id":76561198023525894,"connected_time":1610000000000,"state":"active","ping":83},{"user_id":391,"name":"Quack!","steam_id":76561198172455974,"connected_time":3373000000000,"state":"active","ping":39},{"user_id":544,"name":"Relix18144","steam_id":76561199202454318,"connected_time":635000000000,"state":"active","ping":100},{"user_id":450,"name":"KFC Enjoyer","steam_id":76561198840259819,"connected_time":1892000000000,"state":"active","ping":57},{"user_id":402,"name":"AB.defender","steam_id":76561199070851841,"connected_time":3151000000000,"state":"active","ping":53},{"user_id":550,"name":"The Works","steam_id":76561198941255987,"connected_time":390000000000,"state":"active","ping":74},{"user_id":551,"name":"bean","steam_id":76561198161013815,"connected_time":389000000000,"state":"active","ping":52},{"user_id":556,"name":"Wardruna96","steam_id":76561199057083828,"connected_time":157000000000,"state":"active","ping":75},{"user_id":554,"name":"Chicker","steam_id":76561198809697283,"connected_time":358000000000,"state":"active","ping":54},{"user_id":445,"name":"Amoru","steam_id":76561198798161817,"connected_time":1914000000000,"state":"active","ping":90},{"user_id":282,"name":"AleXandriX","steam_id":76561198035203950,"connected_time":11252000000000,"state":"active","ping":67}]},{"server_id":321,"name":"Uncletopia | London | 4 | All Maps","name_short":"lon-4","host":"lon-1.uk.uncletopia.com","port":27045,"enabled":true,"region":"eu","cc":"gb","latitude":51.509865,"longitude":-0.118092,"reserved":0,"last_update":"0001-01-01T00:00:00Z","name_a2s":"Uncletopia | London | 4 | All Maps","protocol":17,"map":"pl_borneo","folder":"tf","game":"Team Fortress","app_id":440,"player_count":24,"max_players":24,"Bots":0,"server_type":"Dedicated","server_os":"Linux","password":true,"vac":true,"version":"7757534","steam_id":85568392924510193,"keywords":["nocrits","nodmgspread","payload","uncletopia"],"game_id":440,"stv_port":27046,"stv_name":"Uncletopia | London | 4 | All Maps | STV","players":[{"user_id":176,"name":"‚ú™ qua ‚ú™","steam_id":76561198066408333,"connected_time":13667000000000,"state":"active","ping":74},{"user_id":347,"name":"honking schumply","steam_id":76561198400406140,"connected_time":1167000000000,"state":"active","ping":46},{"user_id":294,"name":"Dinnerfood53","steam_id":76561198236015392,"connected_time":5528000000000,"state":"active","ping":108},{"user_id":340,"name":"Ash","steam_id":76561198110133179,"connected_time":1778000000000,"state":"active","ping":56},{"user_id":330,"name":"Sunshine","steam_id":76561198885528098,"connected_time":2405000000000,"state":"active","ping":105},{"user_id":326,"name":"BarrackOmaha","steam_id":76561198027922724,"connected_time":2730000000000,"state":"active","ping":82},{"user_id":360,"name":"Son Goku","steam_id":76561199383437138,"connected_time":915000000000,"state":"active","ping":122},{"user_id":334,"name":"rambunctious","steam_id":76561198202278348,"connected_time":2300000000000,"state":"active","ping":53},{"user_id":391,"name":"DinBin","steam_id":76561198801591466,"connected_time":164000000000,"state":"active","ping":98},{"user_id":345,"name":"Hot Bean","steam_id":76561198803639155,"connected_time":1422000000000,"state":"active","ping":96},{"user_id":348,"name":"o","steam_id":76561199403752637,"connected_time":1158000000000,"state":"active","ping":54},{"user_id":366,"name":"Jess-hee produce the drugs, ho","steam_id":76561198038665095,"connected_time":699000000000,"state":"active","ping":54},{"user_id":338,"name":"jail or the grave","steam_id":76561198274105878,"connected_time":2199000000000,"state":"active","ping":94},{"user_id":293,"name":"Ansari","steam_id":76561198074982971,"connected_time":5808000000000,"state":"active","ping":65},{"user_id":389,"name":"Pyrolander","steam_id":76561198050785450,"connected_time":247000000000,"state":"active","ping":47},{"user_id":388,"name":"lenard","steam_id":76561198354392595,"connected_time":281000000000,"state":"active","ping":50},{"user_id":353,"name":"IKERIUS","steam_id":76561198274164589,"connected_time":1032000000000,"state":"active","ping":84},{"user_id":341,"name":"issues","steam_id":76561197994492154,"connected_time":1738000000000,"state":"active","ping":74},{"user_id":387,"name":"nick murphy","steam_id":76561198086592534,"connected_time":297000000000,"state":"active","ping":49},{"user_id":374,"name":"norn iron","steam_id":76561198069723264,"connected_time":564000000000,"state":"active","ping":57},{"user_id":309,"name":"‚ô• Aura ‚ô•","steam_id":76561198066258544,"connected_time":4334000000000,"state":"active","ping":59},{"user_id":370,"name":"AmadStatistician","steam_id":76561198163654770,"connected_time":595000000000,"state":"active","ping":62},{"user_id":371,"name":"Virgil","steam_id":76561198248786778,"connected_time":585000000000,"state":"active","ping":114},{"user_id":390,"name":"spiegelsberge","steam_id":76561199469797619,"connected_time":230000000000,"state":"active","ping":68}]},{"server_id":21,"name":"Uncletopia | London | 5 | All Maps","name_short":"lon-5","host":"lon-1.uk.uncletopia.com","port":27055,"enabled":true,"region":"eu","cc":"gb","latitude":51.509865,"longitude":-0.118092,"reserved":0,"last_update":"0001-01-01T00:00:00Z","name_a2s":"Uncletopia | London | 5 | All Maps","protocol":17,"map":"cp_snakewater_final1","folder":"tf","game":"Team Fortress","app_id":440,"player_count":2,"max_players":24,"Bots":0,"server_type":"Dedicated","server_os":"Linux","password":true,"vac":true,"version":"7757534","steam_id":85568392924742829,"keywords":["cp","nocrits","nodmgspread","uncletopia"],"game_id":440,"stv_port":27056,"stv_name":"Uncletopia | London | 5 | All Maps | STV","players":[{"user_id":14,"name":"Verculum","steam_id":76561198894912634,"connected_time":71000000000,"state":"spawning","ping":179},{"user_id":15,"name":"KillerQueen (he/they/she)","steam_id":76561199019399725,"connected_time":19000000000,"state":"active","ping":381}]},{"server_id":22,"name":"Uncletopia | London | 6 | All Maps","name_short":"lon-6","host":"lon-1.uk.uncletopia.com","port":27065,"enabled":true,"region":"eu","cc":"gb","latitude":51.509865,"longitude":-0.118092,"reserved":0,"last_update":"0001-01-01T00:00:00Z","name_a2s":"Uncletopia | London | 6 | All Maps","protocol":17,"map":"koth_highpass","folder":"tf","game":"Team Fortress","app_id":440,"player_count":0,"max_players":24,"Bots":0,"server_type":"Dedicated","server_os":"Linux","password":true,"vac":true,"version":"7757534","steam_id":85568392924742830,"keywords":["cp","nocrits","nodmgspread","uncletopia"],"game_id":440,"stv_port":27066,"stv_name":"Uncletopia | London | 6 | All Maps | STV","players":null},{"server_id":40,"name":"Uncletopia | London | 7 | No Payload","name_short":"lon-7","host":"lon-1.uk.uncletopia.com","port":27075,"enabled":true,"region":"eu","cc":"gb","latitude":51.509865,"longitude":-0.118092,"reserved":0,"last_update":"0001-01-01T00:00:00Z","name_a2s":"Uncletopia | London | 7 | No Payload","protocol":17,"map":"koth_highpass","folder":"tf","game":"Team Fortress","app_id":440,"player_count":0,"max_players":24,"Bots":0,"server_type":"Dedicated","server_os":"Linux","password":true,"vac":true,"version":"7757534","steam_id":85568392924964314,"keywords":["cp","nocrits","nodmgspread","uncletopia"],"game_id":440,"stv_port":27076,"stv_name":"Uncletopia | London | 7 | No Payload | STV","players":null},{"server_id":41,"name":"Uncletopia | London | 8 | Community","name_short":"lon-8","host":"lon-1.uk.uncletopia.com","port":27085,"enabled":true,"region":"eu","cc":"gb","latitude":51.509865,"longitude":-0.118092,"reserved":0,"last_update":"0001-01-01T00:00:00Z","name_a2s":"Uncletopia | London | 8 | Community","protocol":17,"map":"workshop/pl_divulgence_b4b.ugc2884808746","folder":"tf","game":"Team Fortress","app_id":440,"player_count":0,"max_players":24,"Bots":0,"server_type":"Dedicated","server_os":"Linux","password":true,"vac":true,"version":"7757534","steam_id":85568392924964315,"keywords":["nocrits","nodmgspread","payload","uncletopia"],"game_id":440,"stv_port":27086,"stv_name":"Uncletopia | London | 8 | Community | STV","players":null},{"server_id":300,"name":"Uncletopia | Montr√©al | 1 | All Maps","name_short":"mtl-1","host":"mtl-1.ca.uncletopia.com","port":27015,"enabled":true,"region":"us-east","cc":"ca","latitude":45.50889,"longitude":-73.56167,"reserved":0,"last_update":"0001-01-01T00:00:00Z","name_a2s":"Uncletopia | Montr√©al | 1 | All Maps","protocol":17,"map":"pl_pier","folder":"tf","game":"Team Fortress","app_id":440,"player_count":0,"max_players":24,"Bots":0,"server_type":"Dedicated","server_os":"Linux","password":true,"vac":true,"version":"7757534","steam_id":85568392924500087,"keywords":["nocrits","nodmgspread","payload","uncletopia"],"game_id":440,"stv_port":27016,"stv_name":"Uncletopia | Montr√©al | 1 | All Maps | STV","players":null},{"server_id":301,"name":"Uncletopia | Montr√©al | 2 | All Maps","name_short":"mtl-2","host":"mtl-1.ca.uncletopia.com","port":27025,"enabled":true,"region":"us-east","cc":"ca","latitude":45.50889,"longitude":-73.56167,"reserved":0,"last_update":"0001-01-01T00:00:00Z","name_a2s":"Uncletopia | Montr√©al | 2 | All Maps","protocol":17,"map":"cp_sunshine","folder":"tf","game":"Team Fortress","app_id":440,"player_count":0,"max_players":24,"Bots":0,"server_type":"Dedicated","server_os":"Linux","password":true,"vac":true,"version":"7757534","steam_id":85568392924500088,"keywords":["cp","nocrits","nodmgspread","uncletopia"],"game_id":440,"stv_port":27026,"stv_name":"Uncletopia | Montr√©al | 2 | All Maps | STV","players":null},{"server_id":302,"name":"Uncletopia | Montr√©al | 3 | All Maps","name_short":"mtl-3","host":"mtl-1.ca.uncletopia.com","port":27035,"enabled":true,"region":"us-east","cc":"ca","latitude":45.50889,"longitude":-73.56167,"reserved":0,"last_update":"0001-01-01T00:00:00Z","name_a2s":"Uncletopia | Montr√©al | 3 | All Maps","protocol":17,"map":"pl_frontier_final","folder":"tf","game":"Team Fortress","app_id":440,"player_count":0,"max_players":24,"Bots":0,"server_type":"Dedicated","server_os":"Linux","password":true,"vac":true,"version":"7757534","steam_id":85568392924500089,"keywords":["nocrits","nodmgspread","payload","uncletopia"],"game_id":440,"stv_port":27036,"stv_name":"Uncletopia | Montr√©al | 3 | All Maps | STV","players":null},{"server_id":303,"name":"Uncletopia | Montr√©al | 4 | No Payload","name_short":"mtl-4","host":"mtl-1.ca.uncletopia.com","port":27045,"enabled":true,"region":"us-east","cc":"ca","latitude":45.50889,"longitude":-73.56167,"reserved":0,"last_update":"0001-01-01T00:00:00Z","name_a2s":"Uncletopia | Montr√©al | 4 | No Payload","protocol":17,"map":"pl_pier","folder":"tf","game":"Team Fortress","app_id":440,"player_count":0,"max_players":24,"Bots":0,"server_type":"Dedicated","server_os":"Linux","password":true,"vac":true,"version":"7757534","steam_id":85568392924500090,"keywords":["nocrits","nodmgspread","payload","uncletopia"],"game_id":440,"stv_port":27046,"stv_name":"Uncletopia | Montr√©al | 4 | No Payload | STV","players":null},{"server_id":13,"name":"Uncletopia | New York City | 1 | All Maps","name_short":"nyc-1","host":"nyc-1.us.uncletopia.com","port":27015,"enabled":true,"region":"us-east","cc":"us","latitude":40.73061,"longitude":-73.93524,"reserved":0,"last_update":"0001-01-01T00:00:00Z","name_a2s":"Uncletopia | New York City | 1 | All Maps","protocol":17,"map":"koth_viaduct","folder":"tf","game":"Team Fortress","app_id":440,"player_count":0,"max_players":24,"Bots":0,"server_type":"Dedicated","server_os":"Linux","password":true,"vac":true,"version":"7757534","steam_id":85568392924469993,"keywords":["cp","nocrits","nodmgspread","uncletopia"],"game_id":440,"stv_port":27016,"stv_name":"Uncletopia | New York City | 1 | All Maps | STV","players":null},{"server_id":14,"name":"Uncletopia | New York City | 2 | All Maps","name_short":"nyc-2","host":"nyc-1.us.uncletopia.com","port":27025,"enabled":true,"region":"us-east","cc":"us","latitude":40.73061,"longitude":-73.93524,"reserved":0,"last_update":"0001-01-01T00:00:00Z","name_a2s":"Uncletopia | New York City | 2 | All Maps","protocol":17,"map":"koth_lakeside_final","folder":"tf","game":"Team Fortress","app_id":440,"player_count":0,"max_players":24,"Bots":0,"server_type":"Dedicated","server_os":"Linux","password":true,"vac":true,"version":"7757534","steam_id":85568392924469994,"keywords":["cp","nocrits","nodmgspread","uncletopia"],"game_id":440,"stv_port":27026,"stv_name":"Uncletopia | New York City | 2 | All Maps | STV","players":null},{"server_id":15,"name":"Uncletopia | New York City | 3 | Stopwatch Beta","name_short":"nyc-3","host":"nyc-1.us.uncletopia.com","port":27035,"enabled":true,"region":"us-east","cc":"us","latitude":40.73061,"longitude":-73.93524,"reserved":0,"last_update":"0001-01-01T00:00:00Z","name_a2s":"Uncletopia | New York City | 3 | Stopwatch Beta","protocol":17,"map":"koth_lakeside_final","folder":"tf","game":"Team Fortress","app_id":440,"player_count":0,"max_players":24,"Bots":0,"server_type":"Dedicated","server_os":"Linux","password":true,"vac":true,"version":"7757534","steam_id":85568392924742820,"keywords":["cp","nocrits","nodmgspread","uncletopia"],"game_id":440,"stv_port":27036,"stv_name":"Uncletopia | New York City | 3 | Stopwatch Beta | STV","players":null},{"server_id":16,"name":"Uncletopia | New York City | 4 | Community","name_short":"nyc-4","host":"nyc-1.us.uncletopia.com","port":27045,"enabled":true,"region":"us-east","cc":"us","latitude":40.73061,"longitude":-73.93524,"reserved":0,"last_update":"0001-01-01T00:00:00Z","name_a2s":"Uncletopia | New York City | 4 | Community","protocol":17,"map":"pl_frontier_final","folder":"tf","game":"Team Fortress","app_id":440,"player_count":0,"max_players":24,"Bots":0,"server_type":"Dedicated","server_os":"Linux","password":true,"vac":true,"version":"7757534","steam_id":85568392924742821,"keywords":["nocrits","nodmgspread","payload","uncletopia"],"game_id":440,"stv_port":27046,"stv_name":"Uncletopia | New York City | 4 | Community | STV","players":null},{"server_id":142,"name":"Uncletopia | S√£o Paulo | 1 | All Maps","name_short":"sao-1","host":"sao-1.br.uncletopia.com","port":27015,"enabled":true,"region":"sa","cc":"br","latitude":-23.533773,"longitude":-46.62529,"reserved":0,"last_update":"0001-01-01T00:00:00Z","name_a2s":"Uncletopia | S√£o Paulo | 1 | All Maps","protocol":17,"map":"pl_pier","folder":"tf","game":"Team Fortress","app_id":440,"player_count":0,"max_players":24,"Bots":0,"server_type":"Dedicated","server_os":"Linux","password":true,"vac":true,"version":"7757534","steam_id":85568392924469996,"keywords":["nocrits","nodmgspread","payload","uncletopia"],"game_id":440,"stv_port":27016,"stv_name":"Uncletopia | S√£o Paulo | 1 | All Maps | STV","players":null},{"server_id":143,"name":"Uncletopia | S√£o Paulo | 2 | All Maps","name_short":"sao-2","host":"sao-2.br.uncletopia.com","port":27015,"enabled":true,"region":"sa","cc":"br","latitude":-23.533773,"longitude":-46.62529,"reserved":0,"last_update":"0001-01-01T00:00:00Z","name_a2s":"Uncletopia | S√£o Paulo | 2 | All Maps","protocol":17,"map":"koth_viaduct","folder":"tf","game":"Team Fortress","app_id":440,"player_count":0,"max_players":24,"Bots":0,"server_type":"Dedicated","server_os":"Linux","password":true,"vac":true,"version":"7757534","steam_id":85568392924485349,"keywords":["cp","nocrits","nodmgspread","uncletopia"],"game_id":440,"stv_port":27016,"stv_name":"Uncletopia | S√£o Paulo | 2 | All Maps | STV","players":null},{"server_id":7,"name":"Uncletopia | Seattle | 1 | All Maps","name_short":"sea-1","host":"sea-1.us.uncletopia.com","port":27015,"enabled":true,"region":"us-west","cc":"us","latitude":47.608013,"longitude":-122.33517,"reserved":0,"last_update":"0001-01-01T00:00:00Z","name_a2s":"Uncletopia | Seattle | 1 | All Maps","protocol":17,"map":"koth_viaduct","folder":"tf","game":"Team Fortress","app_id":440,"player_count":0,"max_players":24,"Bots":0,"server_type":"Dedicated","server_os":"Linux","password":true,"vac":true,"version":"7757534","steam_id":85568392924469997,"keywords":["cp","nocrits","nodmgspread","uncletopia"],"game_id":440,"stv_port":27016,"stv_name":"Uncletopia | Seattle | 1 | All Maps | STV","players":null},{"server_id":119,"name":"Uncletopia | Seattle | 2 | All Maps","name_short":"sea-2","host":"sea-1.us.uncletopia.com","port":27025,"enabled":true,"region":"us-west","cc":"us","latitude":47.608013,"longitude":-122.33517,"reserved":0,"last_update":"0001-01-01T00:00:00Z","name_a2s":"Uncletopia | Seattle | 2 | All Maps","protocol":17,"map":"pl_barnblitz","folder":"tf","game":"Team Fortress","app_id":440,"player_count":0,"max_players":24,"Bots":0,"server_type":"Dedicated","server_os":"Linux","password":true,"vac":true,"version":"7757534","steam_id":85568392924469998,"keywords":["nocrits","nodmgspread","payload","uncletopia"],"game_id":440,"stv_port":27026,"stv_name":"Uncletopia | Seattle | 2 | All Maps | STV","players":null},{"server_id":406,"name":"Uncletopia | Seattle | 3 | Stopwatch Beta","name_short":"sea-3","host":"sea-1.us.uncletopia.com","port":27035,"enabled":true,"region":"us-west","cc":"us","latitude":47.608013,"longitude":-122.33517,"reserved":0,"last_update":"0001-01-01T00:00:00Z","name_a2s":"Uncletopia | Seattle | 3 | Stopwatch Beta","protocol":17,"map":"cp_process_final","folder":"tf","game":"Team Fortress","app_id":440,"player_count":0,"max_players":24,"Bots":0,"server_type":"Dedicated","server_os":"Linux","password":true,"vac":true,"version":"7757534","steam_id":85568392924515217,"keywords":["cp","nocrits","nodmgspread","uncletopia"],"game_id":440,"stv_port":27036,"stv_name":"Uncletopia | Seattle | 3 | Stopwatch Beta | STV","players":null},{"server_id":17,"name":"Uncletopia | San Francisco | 1 | All Maps","name_short":"sfo-1","host":"sfo-1.us.uncletopia.com","port":27015,"enabled":true,"region":"us-west","cc":"us","latitude":37.77397,"longitude":-122.4313,"reserved":0,"last_update":"0001-01-01T00:00:00Z","name_a2s":"Uncletopia | San Francisco | 1 | All Maps","protocol":17,"map":"pl_snowycoast","folder":"tf","game":"Team Fortress","app_id":440,"player_count":24,"max_players":24,"Bots":0,"server_type":"Dedicated","server_os":"Linux","password":true,"vac":true,"version":"7757534","steam_id":85568392924469999,"keywords":["nocrits","nodmgspread","payload","uncletopia"],"game_id":440,"stv_port":27016,"stv_name":"Uncletopia | San Francisco | 1 | All Maps | STV","players":[{"user_id":119,"name":"Tyler\u0026Fingers","steam_id":76561198085154485,"connected_time":264000000000,"state":"active","ping":116},{"user_id":22,"name":"dust | she/it","steam_id":76561198045218909,"connected_time":6542000000000,"state":"active","ping":60},{"user_id":112,"name":"ÊÉ≥Ë¶ÅÁÇ´ÔºåÁøπÂ∞èÊåá","steam_id":76561197991420286,"connected_time":733000000000,"state":"active","ping":53},{"user_id":99,"name":"Alkimia","steam_id":76561198385763137,"connected_time":1462000000000,"state":"active","ping":99},{"user_id":113,"name":"*wes*","steam_id":76561198294528373,"connected_time":689000000000,"state":"active","ping":96},{"user_id":120,"name":"mineblast99","steam_id":76561199065648954,"connected_time":185000000000,"state":"active","ping":112},{"user_id":37,"name":"john","steam_id":76561198850447852,"connected_time":3821000000000,"state":"active","ping":77},{"user_id":94,"name":"VerdantSunset","steam_id":76561198062313478,"connected_time":1805000000000,"state":"active","ping":113},{"user_id":121,"name":"Habber The Quesomancer","steam_id":76561198049642751,"connected_time":144000000000,"state":"active","ping":80},{"user_id":76,"name":"Aqua Tofana","steam_id":76561198351183381,"connected_time":2534000000000,"state":"active","ping":73},{"user_id":64,"name":"cattzer","steam_id":76561199055713543,"connected_time":2984000000000,"state":"active","ping":61},{"user_id":96,"name":"morgenne","steam_id":76561199224141679,"connected_time":1702000000000,"state":"active","ping":68},{"user_id":109,"name":"Zobozo","steam_id":76561198028954297,"connected_time":778000000000,"state":"active","ping":41},{"user_id":90,"name":"Wallace","steam_id":76561198178305667,"connected_time":1858000000000,"state":"active","ping":65},{"user_id":54,"name":"SlayingP :P","steam_id":76561198113364714,"connected_time":3248000000000,"state":"active","ping":103},{"user_id":101,"name":"where is the bathroom?","steam_id":76561198206922028,"connected_time":1338000000000,"state":"active","ping":60},{"user_id":118,"name":"Green Icicle","steam_id":76561198069624529,"connected_time":535000000000,"state":"active","ping":54},{"user_id":98,"name":"DIGGY","steam_id":76561198991238982,"connected_time":1504000000000,"state":"active","ping":71},{"user_id":111,"name":"Psychosis","steam_id":76561198078659070,"connected_time":739000000000,"state":"active","ping":118},{"user_id":116,"name":"„ÇØ„Ç±„Ç§","steam_id":76561198215122444,"connected_time":623000000000,"state":"active","ping":115},{"user_id":67,"name":"Fluffy \u003c3 [HUGS]","steam_id":76561198119444962,"connected_time":2906000000000,"state":"active","ping":84},{"user_id":68,"name":"summerlis","steam_id":76561198165324438,"connected_time":2901000000000,"state":"active","ping":50},{"user_id":91,"name":"QUEASYWHALE","steam_id":76561199107482851,"connected_time":1856000000000,"state":"active","ping":87},{"user_id":117,"name":"Imitation Caucasian","steam_id":76561198320536166,"connected_time":581000000000,"state":"active","ping":77}]},{"server_id":18,"name":"Uncletopia | San Francisco | 2 | All Maps","name_short":"sfo-2","host":"sfo-1.us.uncletopia.com","port":27025,"enabled":true,"region":"us-west","cc":"us","latitude":37.77397,"longitude":-122.4313,"reserved":0,"last_update":"0001-01-01T00:00:00Z","name_a2s":"Uncletopia | San Francisco | 2 | All Maps","protocol":17,"map":"koth_cascade","folder":"tf","game":"Team Fortress","app_id":440,"player_count":0,"max_players":24,"Bots":0,"server_type":"Dedicated","server_os":"Linux","password":true,"vac":true,"version":"7757534","steam_id":85568392924470000,"keywords":["cp","nocrits","nodmgspread","uncletopia"],"game_id":440,"stv_port":27026,"stv_name":"Uncletopia | San Francisco | 2 | All Maps | STV","players":null},{"server_id":19,"name":"Uncletopia | San Francisco | 3 | Stopwatch Beta","name_short":"sfo-3","host":"sfo-1.us.uncletopia.com","port":27035,"enabled":true,"region":"us-west","cc":"us","latitude":37.77397,"longitude":-122.4313,"reserved":0,"last_update":"0001-01-01T00:00:00Z","name_a2s":"Uncletopia | San Francisco | 3 | Stopwatch Beta","protocol":17,"map":"workshop/koth_product_final.ugc454272353","folder":"tf","game":"Team Fortress","app_id":440,"player_count":0,"max_players":24,"Bots":0,"server_type":"Dedicated","server_os":"Linux","password":true,"vac":true,"version":"7757534","steam_id":85568392924742824,"keywords":["cp","nocrits","nodmgspread","uncletopia"],"game_id":440,"stv_port":27036,"stv_name":"Uncletopia | San Francisco | 3 | Stopwatch Beta | STV","players":null},{"server_id":20,"name":"Uncletopia | San Francisco | 4 | Community","name_short":"sfo-4","host":"sfo-1.us.uncletopia.com","port":27045,"enabled":true,"region":"us-west","cc":"us","latitude":37.77397,"longitude":-122.4313,"reserved":0,"last_update":"0001-01-01T00:00:00Z","name_a2s":"Uncletopia | San Francisco | 4 | Community","protocol":17,"map":"pl_frontier_final","folder":"tf","game":"Team Fortress","app_id":440,"player_count":0,"max_players":24,"Bots":0,"server_type":"Dedicated","server_os":"Linux","password":true,"vac":true,"version":"7757534","steam_id":85568392924742826,"keywords":["nocrits","nodmgspread","payload","uncletopia"],"game_id":440,"stv_port":27046,"stv_name":"Uncletopia | San Francisco | 4 | Community | STV","players":null},{"server_id":141,"name":"Uncletopia | Sydney | 1 | All Maps","name_short":"syd-1","host":"syd-1.au.uncletopia.com","port":27015,"enabled":true,"region":"au","cc":"au","latitude":-33.865143,"longitude":151.2099,"reserved":0,"last_update":"0001-01-01T00:00:00Z","name_a2s":"Uncletopia | Sydney | 1 | All Maps","protocol":17,"map":"koth_highpass","folder":"tf","game":"Team Fortress","app_id":440,"player_count":0,"max_players":24,"Bots":0,"server_type":"Dedicated","server_os":"Linux","password":true,"vac":true,"version":"7757534","steam_id":85568392924470001,"keywords":["cp","nocrits","nodmgspread","uncletopia"],"game_id":440,"stv_port":27016,"stv_name":"Uncletopia | Sydney | 1 | All Maps | STV","players":null},{"server_id":123,"name":"Uncletopia | Sydney | 2 | All Maps","name_short":"syd-2","host":"syd-1.au.uncletopia.com","port":27025,"enabled":true,"region":"au","cc":"au","latitude":-33.865143,"longitude":151.2099,"reserved":0,"last_update":"0001-01-01T00:00:00Z","name_a2s":"Uncletopia | Sydney | 2 | All Maps","protocol":17,"map":"cp_sunshine","folder":"tf","game":"Team Fortress","app_id":440,"player_count":0,"max_players":24,"Bots":0,"server_type":"Dedicated","server_os":"Linux","password":true,"vac":true,"version":"7757534","steam_id":85568392924470002,"keywords":["cp","nocrits","nodmgspread","uncletopia"],"game_id":440,"stv_port":27026,"stv_name":"Uncletopia | Sydney | 2 | All Maps | STV","players":null},{"server_id":395,"name":"Uncletopia | Sydney | 3 | All Maps","name_short":"syd-3","host":"syd-1.au.uncletopia.com","port":27035,"enabled":true,"region":"au","cc":"au","latitude":-33.865143,"longitude":151.2099,"reserved":0,"last_update":"0001-01-01T00:00:00Z","name_a2s":"Uncletopia | Sydney | 3 | All Maps","protocol":17,"map":"koth_viaduct","folder":"tf","game":"Team Fortress","app_id":440,"player_count":0,"max_players":24,"Bots":0,"server_type":"Dedicated","server_os":"Linux","password":true,"vac":true,"version":"7757534","steam_id":85568392925194467,"keywords":["cp","nocrits","nodmgspread","uncletopia"],"game_id":440,"stv_port":27036,"stv_name":"Uncletopia | Sydney | 3 | All Maps | STV","players":null},{"server_id":396,"name":"Uncletopia | Sydney | 4 | All Maps","name_short":"syd-4","host":"syd-1.au.uncletopia.com","port":27045,"enabled":true,"region":"au","cc":"au","latitude":-33.865143,"longitude":151.2099,"reserved":0,"last_update":"0001-01-01T00:00:00Z","name_a2s":"Uncletopia | Sydney | 4 | All Maps","protocol":17,"map":"cp_mountainlab","folder":"tf","game":"Team Fortress","app_id":440,"player_count":0,"max_players":24,"Bots":0,"server_type":"Dedicated","server_os":"Linux","password":true,"vac":true,"version":"7757534","steam_id":85568392925397958,"keywords":["cp","nocrits","nodmgspread","uncletopia"],"game_id":440,"stv_port":27046,"stv_name":"Uncletopia | Sydney | 4 | All Maps | STV","players":null},{"server_id":58,"name":"Uncletopia | Sydney | 5 | Stopwatch Beta","name_short":"syd-5","host":"syd-1.au.uncletopia.com","port":27055,"enabled":true,"region":"au","cc":"au","latitude":-33.865143,"longitude":151.2099,"reserved":0,"last_update":"0001-01-01T00:00:00Z","name_a2s":"Uncletopia | Sydney | 5 | Stopwatch Beta","protocol":17,"map":"workshop/cp_process_f12.ugc2302948105","folder":"tf","game":"Team Fortress","app_id":440,"player_count":0,"max_players":24,"Bots":0,"server_type":"Dedicated","server_os":"Linux","password":true,"vac":true,"version":"7757534","steam_id":85568392925397959,"keywords":["cp","nocrits","nodmgspread","uncletopia"],"game_id":440,"stv_port":27056,"stv_name":"Uncletopia | Sydney | 5 | Stopwatch Beta | STV","players":null},{"server_id":59,"name":"Uncletopia | Sydney | 6 | Community","name_short":"syd-6","host":"syd-1.au.uncletopia.com","port":27065,"enabled":true,"region":"au","cc":"au","latitude":-33.865143,"longitude":151.2099,"reserved":0,"last_update":"0001-01-01T00:00:00Z","name_a2s":"Uncletopia | Sydney | 6 | Community","protocol":17,"map":"workshop/koth_bagel_rc6.ugc2514036946","folder":"tf","game":"Team Fortress","app_id":440,"player_count":0,"max_players":24,"Bots":0,"server_type":"Dedicated","server_os":"Linux","password":true,"vac":true,"version":"7757534","steam_id":85568392925397960,"keywords":["cp","nocrits","nodmgspread","uncletopia"],"game_id":440,"stv_port":27066,"stv_name":"Uncletopia | Sydney | 6 | Community | STV","players":null},{"server_id":49,"name":"Uncletopia | Warsaw | 1 | All Maps","name_short":"waw-1","host":"waw-1.pl.uncletopia.com","port":27015,"enabled":true,"region":"eu","cc":"pl","latitude":52.2297,"longitude":21.017532,"reserved":0,"last_update":"0001-01-01T00:00:00Z","name_a2s":"","protocol":0,"map":"","folder":"","game":"","app_id":0,"player_count":0,"max_players":0,"Bots":0,"server_type":"","server_os":"","password":false,"vac":false,"version":"","steam_id":0,"keywords":null,"game_id":0,"stv_port":0,"stv_name":"","players":null},{"server_id":50,"name":"Uncletopia | Warsaw | 2 | All Maps","name_short":"waw-2","host":"waw-1.pl.uncletopia.com","port":27025,"enabled":true,"region":"eu","cc":"pl","latitude":52.2297,"longitude":21.017532,"reserved":0,"last_update":"0001-01-01T00:00:00Z","name_a2s":"Uncletopia | Warsaw | 2 | All Maps","protocol":17,"map":"cp_dustbowl","folder":"tf","game":"Team Fortress","app_id":440,"player_count":0,"max_players":24,"Bots":0,"server_type":"Dedicated","server_os":"Linux","password":true,"vac":true,"version":"7757534","steam_id":85568392925397851,"keywords":["cp","nocrits","nodmgspread","uncletopia"],"game_id":440,"stv_port":27026,"stv_name":"Uncletopia | Warsaw | 2 | All Maps | STV","players":null},{"server_id":51,"name":"Uncletopia | Warsaw | 3 | All Maps","name_short":"waw-3","host":"waw-1.pl.uncletopia.com","port":27035,"enabled":true,"region":"eu","cc":"pl","latitude":52.2297,"longitude":21.017532,"reserved":0,"last_update":"0001-01-01T00:00:00Z","name_a2s":"Uncletopia | Warsaw | 3 | All Maps","protocol":17,"map":"koth_cascade","folder":"tf","game":"Team Fortress","app_id":440,"player_count":0,"max_players":24,"Bots":0,"server_type":"Dedicated","server_os":"Linux","password":true,"vac":true,"version":"7757534","steam_id":85568392925397852,"keywords":["cp","nocrits","nodmgspread","uncletopia"],"game_id":440,"stv_port":27036,"stv_name":"Uncletopia | Warsaw | 3 | All Maps | STV","players":null},{"server_id":52,"name":"Uncletopia | Warsaw | 4 | All Maps","name_short":"waw-4","host":"waw-1.pl.uncletopia.com","port":27045,"enabled":true,"region":"eu","cc":"pl","latitude":52.2297,"longitude":21.017532,"reserved":0,"last_update":"0001-01-01T00:00:00Z","name_a2s":"Uncletopia | Warsaw | 4 | All Maps","protocol":17,"map":"cp_altitude","folder":"tf","game":"Team Fortress","app_id":440,"player_count":1,"max_players":24,"Bots":0,"server_type":"Dedicated","server_os":"Linux","password":true,"vac":true,"version":"7757534","steam_id":85568392925397853,"keywords":["cp","nocrits","nodmgspread","uncletopia"],"game_id":440,"stv_port":27046,"stv_name":"Uncletopia | Warsaw | 4 | All Maps | STV","players":[{"user_id":4,"name":"Ladach FanBoy","steam_id":76561198142360956,"connected_time":59000000000,"state":"active","ping":61}]},{"server_id":53,"name":"Uncletopia | Warsaw | 5 | Stopwatch Beta","name_short":"waw-5","host":"waw-1.pl.uncletopia.com","port":27055,"enabled":true,"region":"eu","cc":"pl","latitude":52.2297,"longitude":21.017532,"reserved":0,"last_update":"0001-01-01T00:00:00Z","name_a2s":"Uncletopia | Warsaw | 5 | Stopwatch Beta","protocol":17,"map":"pl_pier","folder":"tf","game":"Team Fortress","app_id":440,"player_count":0,"max_players":24,"Bots":0,"server_type":"Dedicated","server_os":"Linux","password":true,"vac":true,"version":"7757534","steam_id":85568392925397854,"keywords":["nocrits","nodmgspread","payload","uncletopia"],"game_id":440,"stv_port":27056,"stv_name":"Uncletopia | Warsaw | 5 | Stopwatch Beta | STV","players":null},{"server_id":54,"name":"Uncletopia | Warsaw | 6 | Community","name_short":"waw-6","host":"waw-1.pl.uncletopia.com","port":27065,"enabled":true,"region":"eu","cc":"pl","latitude":52.2297,"longitude":21.017532,"reserved":0,"last_update":"0001-01-01T00:00:00Z","name_a2s":"Uncletopia | Warsaw | 6 | Community","protocol":17,"map":"koth_highpass","folder":"tf","game":"Team Fortress","app_id":440,"player_count":0,"max_players":24,"Bots":0,"server_type":"Dedicated","server_os":"Linux","password":true,"vac":true,"version":"7757534","steam_id":85568392925397856,"keywords":["cp","nocrits","nodmgspread","uncletopia"],"game_id":440,"stv_port":27066,"stv_name":"Uncletopia | Warsaw | 6 | Community | STV","players":null}]}