{"status":true,"message":"","result":[{"server_id":9,"name":"Uncletopia | Atlanta | 1 | All Maps","name_short":"atl-1","host":"atl-1.us.uncletopia.com","port":27015,"enabled":true,"region":"us-east","cc":"us","latitude":33.753746,"longitude":-84.38633,"reserved":0,"last_update":"0001-01-01T00:00:00Z","name_a2s":"Uncletopia | Atlanta | 1 | All Maps","protocol":17,"map":"koth_viaduct","folder":"tf","game":"Team Fortress","app_id":440,"player_count":24,"max_players":24,"Bots":0,"server_type":"Dedicated","server_os":"Linux","password":true,"vac":true,"version":"7742253","steam_id":85568392924469982,"keywords":["cp","nocrits","nodmgspread","uncletopia"],"game_id":440,"stv_port":27016,"stv_name":"Uncletopia | Atlanta | 1 | All Maps | STV","players":[{"user_id":515,"name":"Zhong Xina 钟新娜","steam_id":76561198044022060,"connected_time":1466000000000,"state":"active","ping":57},{"user_id":478,"name":"DuckKey","steam_id":76561198904477889,"connected_time":4721000000000,"state":"active","ping":69},{"user_id":516,"name":"PFC Chub, 101st AIRBORNE (AASLT","steam_id":76561198132710768,"connected_time":1405000000000,"state":"active","ping":86},{"user_id":496,"name":"Rockhead","steam_id":76561197995196535,"connected_time":3104000000000,"state":"active","ping":64},{"user_id":467,"name":"flyingnotegames","steam_id":76561199097431332,"connected_time":5740000000000,"state":"active","ping":89},{"user_id":505,"name":"sB","steam_id":76561198041610406,"connected_time":2169000000000,"state":"active","ping":76},{"user_id":483,"name":"Alt","steam_id":76561197992591984,"connected_time":4279000000000,"state":"active","ping":84},{"user_id":511,"name":"a real gummy krabby patty","steam_id":76561198238842076,"connected_time":1875000000000,"state":"active","ping":52},{"user_id":501,"name":"DJ Spit","steam_id":76561198186637025,"connected_time":2762000000000,"state":"active","ping":89},{"user_id":525,"name":"ATL1 | to4st","steam_id":76561198981009008,"connected_time":353000000000,"state":"active","ping":71},{"user_id":524,"name":"KingMando","steam_id":76561198462240323,"connected_time":596000000000,"state":"active","ping":119},{"user_id":504,"name":"rambunctious slacker","steam_id":76561198337692867,"connected_time":2251000000000,"state":"active","ping":82},{"user_id":522,"name":"Rex","steam_id":76561198138365053,"connected_time":843000000000,"state":"active","ping":108},{"user_id":521,"name":"mega giga payload hater!","steam_id":76561198039727616,"connected_time":1004000000000,"state":"active","ping":52},{"user_id":519,"name":"Droidcommander66","steam_id":76561199128620389,"connected_time":1036000000000,"state":"active","ping":125},{"user_id":469,"name":"ATL1 | Lav4ie They/Them","steam_id":76561198825997674,"connected_time":5380000000000,"state":"active","ping":54},{"user_id":464,"name":"knotsofunny","steam_id":76561198071336304,"connected_time":5998000000000,"state":"active","ping":73},{"user_id":506,"name":"Bandicario","steam_id":76561198432036026,"connected_time":2156000000000,"state":"active","ping":45},{"user_id":400,"name":"the-willy12","steam_id":76561199145029672,"connected_time":10660000000000,"state":"active","ping":85},{"user_id":369,"name":"Lost (15)","steam_id":76561198093713427,"connected_time":12552000000000,"state":"active","ping":82},{"user_id":485,"name":"John","steam_id":76561198070700732,"connected_time":4154000000000,"state":"active","ping":97},{"user_id":493,"name":"ZePanther","steam_id":76561198059357804,"connected_time":3508000000000,"state":"active","ping":84},{"user_id":503,"name":"Epifiny","steam_id":76561198027958086,"connected_time":2606000000000,"state":"active","ping":78},{"user_id":517,"name":"jandajanda","steam_id":76561198235722476,"connected_time":1052000000000,"state":"active","ping":57}]},{"server_id":400,"name":"Uncletopia | Atlanta | 3 | Stopwatch Beta","name_short":"atl-3","host":"atl-1.us.uncletopia.com","port":27035,"enabled":true,"region":"us-east","cc":"us","latitude":33.753746,"longitude":-84.38633,"reserved":0,"last_update":"0001-01-01T00:00:00Z","name_a2s":"Uncletopia | Atlanta | 3 | Stopwatch Beta","protocol":17,"map":"koth_highpass","folder":"tf","game":"Team Fortress","app_id":440,"player_count":0,"max_players":24,"Bots":0,"server_type":"Dedicated","server_os":"Linux","password":true,"vac":true,"version":"7742253","steam_id":85568392924515187,"keywords":["cp","nocrits","nodmgspread","uncletopia"],"game_id":440,"stv_port":27036,"stv_name":"Uncletopia | Atlanta | 3 | Stopwatch Beta | STV","players":null},{"server_id":401,"name":"Uncletopia | Atlanta | 4 | No Payload","name_short":"atl-4","host":"atl-1.us.uncletopia.com","port":27045,"enabled":true,"region":"us-east","cc":"us","latitude":33.753746,"longitude":-84.38633,"reserved":0,"last_update":"0001-01-01T00:00:00Z","name_a2s":"Uncletopia | Atlanta | 4 | No Payload","protocol":17,"map":"pl_pier","folder":"tf","game":"Team Fortress","app_id":440,"player_count":0,"max_players":24,"Bots":0,"server_type":"Dedicated","server_os":"Linux","password":true,"vac":true,"version":"7723704","steam_id":85568392924515188,"keywords":["nocrits","nodmgspread","payload","uncletopia"],"game_id":440,"stv_port":27046,"stv_name":"Uncletopia | Atlanta | 4 | No Payload | STV","players":null},{"server_id":2,"name":"Uncletopia | Chicago | 1 | All Maps","name_short":"chi-1","host":"chi-1.us.uncletopia.com","port":27015,"enabled":true,"region":"us-central","cc":"us","latitude":41.881832,"longitude":-87.62318,"reserved":0,"last_update":"0001-01-01T00:00:00Z","name_a2s":"Uncletopia | Chicago | 1 | All Maps","protocol":17,"map":"plr_hightower","folder":"tf","game":"Team Fortress","app_id":440,"player_count":21,"max_players":24,"Bots":0,"server_type":"Dedicated","server_os":"Linux","password":true,"vac":true,"version":"7742253","steam_id":85568392924469984,"keywords":["nocrits","nodmgspread","payload","uncletopia"],"game_id":440,"stv_port":27016,"stv_name":"Uncletopia | Chicago | 1 | All Maps | STV","players":[{"user_id":779,"name":"KingCrawful","steam_id":76561198104291657,"connected_time":527000000000,"state":"active","ping":59},{"user_id":786,"name":"Cock Sucker","steam_id":76561198279207749,"connected_time":276000000000,"state":"active","ping":99},{"user_id":770,"name":"Captain Ahab","steam_id":76561198967076418,"connected_time":968000000000,"state":"active","ping":71},{"user_id":712,"name":"Catboy Potemkin","steam_id":76561198078474420,"connected_time":6306000000000,"state":"active","ping":61},{"user_id":756,"name":"Lunartik","steam_id":76561199004827382,"connected_time":1672000000000,"state":"active","ping":60},{"user_id":782,"name":"Ademar","steam_id":76561199391802581,"connected_time":462000000000,"state":"active","ping":59},{"user_id":750,"name":"TeeTree","steam_id":76561198862307874,"connected_time":2694000000000,"state":"active","ping":60},{"user_id":788,"name":"Infinitytacos","steam_id":76561198884260211,"connected_time":214000000000,"state":"active","ping":42},{"user_id":755,"name":"blob","steam_id":76561198122375328,"connected_time":1686000000000,"state":"active","ping":57},{"user_id":785,"name":"Re-Loaded_Game","steam_id":76561199097136515,"connected_time":426000000000,"state":"active","ping":76},{"user_id":789,"name":"Meeks","steam_id":76561199084570058,"connected_time":140000000000,"state":"spawning","ping":98},{"user_id":790,"name":"Tokyo_Timeshift_","steam_id":76561198048677523,"connected_time":20000000000,"state":"active","ping":51},{"user_id":703,"name":"no","steam_id":76561198248853140,"connected_time":7105000000000,"state":"active","ping":48},{"user_id":698,"name":"the deadliest pyroshark","steam_id":76561198374227766,"connected_time":7269000000000,"state":"active","ping":73},{"user_id":729,"name":"Birch","steam_id":76561198316231704,"connected_time":4382000000000,"state":"active","ping":54},{"user_id":791,"name":"sandalh3ad","steam_id":76561198133481462,"connected_time":0,"state":"spawning","ping":48},{"user_id":751,"name":"Sentry Gun (Festive American)","steam_id":76561198313770809,"connected_time":2015000000000,"state":"active","ping":51},{"user_id":778,"name":"Darkrain","steam_id":76561197987915511,"connected_time":529000000000,"state":"active","ping":54},{"user_id":734,"name":"TallBit","steam_id":76561199059748976,"connected_time":3336000000000,"state":"active","ping":58},{"user_id":774,"name":"Bella the souly","steam_id":76561198285217077,"connected_time":890000000000,"state":"active","ping":89}]},{"server_id":106,"name":"Uncletopia | Chicago | 2 | All Maps","name_short":"chi-2","host":"chi-1.us.uncletopia.com","port":27025,"enabled":true,"region":"us-central","cc":"us","latitude":41.881832,"longitude":-87.62318,"reserved":0,"last_update":"0001-01-01T00:00:00Z","name_a2s":"Uncletopia | Chicago | 2 | All Maps","protocol":17,"map":"pl_upward","folder":"tf","game":"Team Fortress","app_id":440,"player_count":19,"max_players":24,"Bots":0,"server_type":"Dedicated","server_os":"Linux","password":true,"vac":true,"version":"7742253","steam_id":85568392924469985,"keywords":["nocrits","nodmgspread","payload","uncletopia"],"game_id":440,"stv_port":27026,"stv_name":"Uncletopia | Chicago | 2 | All Maps | STV","players":[{"user_id":425,"name":"boob7","steam_id":76561197991868141,"connected_time":125000000000,"state":"active","ping":94},{"user_id":395,"name":"Kinbo2487","steam_id":76561198184714198,"connected_time":2177000000000,"state":"active","ping":76},{"user_id":426,"name":"Pathara44","steam_id":76561198048238620,"connected_time":115000000000,"state":"active","ping":49},{"user_id":427,"name":"Lumberjane37 (She/Her)","steam_id":76561198014841793,"connected_time":28000000000,"state":"spawning","ping":133},{"user_id":424,"name":"sweaterfan","steam_id":76561199389567214,"connected_time":215000000000,"state":"active","ping":54},{"user_id":428,"name":"Bobbn","steam_id":76561198876124683,"connected_time":25000000000,"state":"active","ping":58},{"user_id":412,"name":"scruffy chicken","steam_id":76561199136492644,"connected_time":1398000000000,"state":"active","ping":86},{"user_id":429,"name":"Smig","steam_id":76561198408846602,"connected_time":3000000000,"state":"spawning","ping":79},{"user_id":423,"name":"IloveBacon","steam_id":76561198860703450,"connected_time":272000000000,"state":"active","ping":79},{"user_id":396,"name":"emerald6","steam_id":76561198141978758,"connected_time":1957000000000,"state":"active","ping":70},{"user_id":421,"name":"Phillip Jeffries","steam_id":76561198064052174,"connected_time":629000000000,"state":"active","ping":60},{"user_id":401,"name":"Trans Bumblebee","steam_id":76561198119393205,"connected_time":1673000000000,"state":"active","ping":72},{"user_id":403,"name":"ansoonii","steam_id":76561198092494136,"connected_time":1639000000000,"state":"active","ping":61},{"user_id":422,"name":"♥MagicWeedCat♥","steam_id":76561199121834449,"connected_time":481000000000,"state":"active","ping":89},{"user_id":406,"name":"Sudo","steam_id":76561198123714026,"connected_time":1464000000000,"state":"active","ping":94},{"user_id":407,"name":"Voyager","steam_id":76561199128786637,"connected_time":1462000000000,"state":"active","ping":99},{"user_id":408,"name":"poey","steam_id":76561198865346767,"connected_time":1453000000000,"state":"active","ping":91},{"user_id":409,"name":"Kid named download","steam_id":76561199192074448,"connected_time":1446000000000,"state":"active","ping":64},{"user_id":411,"name":"› Panik the Cat","steam_id":76561198050301260,"connected_time":1435000000000,"state":"active","ping":90}]},{"server_id":402,"name":"Uncletopia | Chicago | 3 | All Maps","name_short":"chi-3","host":"chi-1.us.uncletopia.com","port":27035,"enabled":true,"region":"us-central","cc":"us","latitude":41.881832,"longitude":-87.62318,"reserved":0,"last_update":"0001-01-01T00:00:00Z","name_a2s":"Uncletopia | Chicago | 3 | All Maps","protocol":17,"map":"pl_upward","folder":"tf","game":"Team Fortress","app_id":440,"player_count":22,"max_players":24,"Bots":0,"server_type":"Dedicated","server_os":"Linux","password":true,"vac":true,"version":"7742253","steam_id":85568392924515191,"keywords":["nocrits","nodmgspread","payload","uncletopia"],"game_id":440,"stv_port":27036,"stv_name":"Uncletopia | Chicago | 3 | All Maps | STV","players":[{"user_id":662,"name":"6kre_1t","steam_id":76561198106157810,"connected_time":1343000000000,"state":"active","ping":50},{"user_id":692,"name":"[a2m] Joemaster725","steam_id":76561198016824573,"connected_time":7000000000,"state":"spawning","ping":118},{"user_id":689,"name":"crunchy and spicy wasp snack","steam_id":76561199322728703,"connected_time":151000000000,"state":"active","ping":62},{"user_id":682,"name":"Totouri","steam_id":76561198004229789,"connected_time":830000000000,"state":"active","ping":57},{"user_id":687,"name":"lokm","steam_id":76561198030374238,"connected_time":409000000000,"state":"active","ping":109},{"user_id":479,"name":"Prodious","steam_id":76561198063250819,"connected_time":7173000000000,"state":"active","ping":43},{"user_id":691,"name":"hunky dory","steam_id":76561198030422254,"connected_time":44000000000,"state":"active","ping":67},{"user_id":663,"name":"Fudgely","steam_id":76561198039425862,"connected_time":1298000000000,"state":"active","ping":71},{"user_id":686,"name":"MoonWolf","steam_id":76561198095735033,"connected_time":648000000000,"state":"active","ping":74},{"user_id":676,"name":"Dude Named Bob","steam_id":76561198310448093,"connected_time":1152000000000,"state":"active","ping":45},{"user_id":690,"name":"TCookies","steam_id":76561198078031012,"connected_time":142000000000,"state":"active","ping":59},{"user_id":684,"name":"Saristan","steam_id":76561198093346048,"connected_time":773000000000,"state":"active","ping":73},{"user_id":670,"name":"Donkey","steam_id":76561197968155896,"connected_time":1181000000000,"state":"active","ping":61},{"user_id":596,"name":"Waltuh","steam_id":76561198278185182,"connected_time":3215000000000,"state":"active","ping":70},{"user_id":547,"name":"ItsRoy","steam_id":76561198119525485,"connected_time":4426000000000,"state":"active","ping":56},{"user_id":639,"name":"shimstar","steam_id":76561198108356950,"connected_time":2138000000000,"state":"active","ping":75},{"user_id":672,"name":"User","steam_id":76561198035585970,"connected_time":1171000000000,"state":"active","ping":63},{"user_id":685,"name":"Yarn","steam_id":76561199227148369,"connected_time":696000000000,"state":"active","ping":95},{"user_id":641,"name":"hazel","steam_id":76561198447244031,"connected_time":2068000000000,"state":"active","ping":63},{"user_id":683,"name":"[a2m] twodavez","steam_id":76561198008565646,"connected_time":809000000000,"state":"active","ping":46},{"user_id":688,"name":"HumFreY","steam_id":76561198076639682,"connected_time":388000000000,"state":"active","ping":75},{"user_id":675,"name":"Festive Mythril","steam_id":76561198028488773,"connected_time":1165000000000,"state":"active","ping":59}]},{"server_id":403,"name":"Uncletopia | Chicago | 4 | All Maps","name_short":"chi-4","host":"chi-1.us.uncletopia.com","port":27045,"enabled":true,"region":"us-central","cc":"us","latitude":41.881832,"longitude":-87.62318,"reserved":0,"last_update":"0001-01-01T00:00:00Z","name_a2s":"Uncletopia | Chicago | 4 | All Maps","protocol":17,"map":"pl_swiftwater_final1","folder":"tf","game":"Team Fortress","app_id":440,"player_count":19,"max_players":24,"Bots":0,"server_type":"Dedicated","server_os":"Linux","password":true,"vac":true,"version":"7742253","steam_id":85568392924515193,"keywords":["nocrits","nodmgspread","payload","uncletopia"],"game_id":440,"stv_port":27046,"stv_name":"Uncletopia | Chicago | 4 | All Maps | STV","players":[{"user_id":531,"name":"Eat It Up Worms Hero","steam_id":76561198259956719,"connected_time":1323000000000,"state":"active","ping":63},{"user_id":544,"name":"kr1tsurf3r","steam_id":76561198076402476,"connected_time":33000000000,"state":"active","ping":113},{"user_id":545,"name":"Athrium","steam_id":76561199201940614,"connected_time":12000000000,"state":"active","ping":65},{"user_id":492,"name":"ShadBad","steam_id":76561198248287390,"connected_time":3679000000000,"state":"active","ping":114},{"user_id":535,"name":"Uncle","steam_id":76561197988647705,"connected_time":940000000000,"state":"spawning","ping":59},{"user_id":528,"name":"Mattron1","steam_id":76561198012270524,"connected_time":1786000000000,"state":"active","ping":55},{"user_id":512,"name":"sax","steam_id":76561198094788852,"connected_time":2575000000000,"state":"active","ping":45},{"user_id":543,"name":"Liquid Oxycodone","steam_id":76561198154162664,"connected_time":294000000000,"state":"active","ping":99},{"user_id":526,"name":"DatBlodGud","steam_id":76561198867897841,"connected_time":1937000000000,"state":"active","ping":81},{"user_id":523,"name":"a crazy hobo","steam_id":76561198289650060,"connected_time":2061000000000,"state":"active","ping":84},{"user_id":541,"name":"comet sooicidy","steam_id":76561198025173479,"connected_time":797000000000,"state":"active","ping":87},{"user_id":533,"name":"Mexican Immigrant","steam_id":76561198387341089,"connected_time":1230000000000,"state":"spawning","ping":120},{"user_id":536,"name":"SpottedBoy","steam_id":76561198323910281,"connected_time":938000000000,"state":"active","ping":118},{"user_id":525,"name":"potato gaming","steam_id":76561197978839360,"connected_time":2045000000000,"state":"active","ping":62},{"user_id":450,"name":"no wtf not that","steam_id":76561198461518382,"connected_time":6736000000000,"state":"active","ping":61},{"user_id":500,"name":"glitch","steam_id":76561197979495589,"connected_time":3350000000000,"state":"active","ping":66},{"user_id":510,"name":"timestew","steam_id":76561198367583372,"connected_time":2681000000000,"state":"active","ping":89},{"user_id":542,"name":"CFDv20","steam_id":76561198450073779,"connected_time":791000000000,"state":"active","ping":92},{"user_id":529,"name":"devamar","steam_id":76561198069115467,"connected_time":1731000000000,"state":"active","ping":58}]},{"server_id":36,"name":"Uncletopia | Chicago | 5 | All Maps","name_short":"chi-5","host":"chi-2.us.uncletopia.com","port":27015,"enabled":true,"region":"us-central","cc":"us","latitude":41.881832,"longitude":-87.62318,"reserved":0,"last_update":"0001-01-01T00:00:00Z","name_a2s":"Uncletopia | Chicago | 5 | All Maps","protocol":17,"map":"pl_frontier_final","folder":"tf","game":"Team Fortress","app_id":440,"player_count":22,"max_players":24,"Bots":0,"server_type":"Dedicated","server_os":"Linux","password":true,"vac":true,"version":"7742253","steam_id":85568392924866362,"keywords":["nocrits","nodmgspread","payload","uncletopia"],"game_id":440,"stv_port":27016,"stv_name":"Uncletopia | Chicago | 5 | All Maps | STV","players":[{"user_id":405,"name":"Anti-Capitalist","steam_id":76561198131179644,"connected_time":97000000000,"state":"active","ping":72},{"user_id":392,"name":"battle clown","steam_id":76561198045788371,"connected_time":925000000000,"state":"active","ping":65},{"user_id":370,"name":"totally not a pile of beans","steam_id":76561198119851931,"connected_time":2528000000000,"state":"active","ping":77},{"user_id":321,"name":"defcon","steam_id":76561198100656328,"connected_time":6665000000000,"state":"active","ping":75},{"user_id":326,"name":"Predicta","steam_id":76561198017630616,"connected_time":6042000000000,"state":"active","ping":49},{"user_id":389,"name":"Ishmael","steam_id":76561199006155366,"connected_time":1715000000000,"state":"active","ping":55},{"user_id":358,"name":"HollyBlocky","steam_id":76561198030156100,"connected_time":3706000000000,"state":"active","ping":73},{"user_id":393,"name":"Laft","steam_id":76561198364501558,"connected_time":895000000000,"state":"active","ping":68},{"user_id":388,"name":"William1X","steam_id":76561198987884043,"connected_time":1859000000000,"state":"active","ping":61},{"user_id":394,"name":"craf","steam_id":76561198163535075,"connected_time":867000000000,"state":"active","ping":70},{"user_id":365,"name":"Ze_Über_Nerd","steam_id":76561198091148675,"connected_time":3021000000000,"state":"active","ping":75},{"user_id":385,"name":"Dr. Dick","steam_id":76561198138011922,"connected_time":2005000000000,"state":"active","ping":73},{"user_id":367,"name":"Coup de Grass","steam_id":76561198011643226,"connected_time":2729000000000,"state":"active","ping":87},{"user_id":395,"name":"Michael Jordan","steam_id":76561198306393090,"connected_time":860000000000,"state":"active","ping":45},{"user_id":378,"name":"Average Omori Enjoyer","steam_id":76561199163263543,"connected_time":2464000000000,"state":"active","ping":112},{"user_id":406,"name":"Hobocop","steam_id":76561198076321907,"connected_time":87000000000,"state":"active","ping":86},{"user_id":399,"name":"FishNachoz","steam_id":76561198026519426,"connected_time":693000000000,"state":"active","ping":141},{"user_id":401,"name":"Mads Mikkelsen","steam_id":76561198083482001,"connected_time":615000000000,"state":"active","ping":135},{"user_id":404,"name":"trobin120","steam_id":76561199122420273,"connected_time":356000000000,"state":"active","ping":65},{"user_id":380,"name":"Polpetta777","steam_id":76561198044331477,"connected_time":2436000000000,"state":"active","ping":60},{"user_id":391,"name":"Disambiguation","steam_id":76561198133963270,"connected_time":956000000000,"state":"active","ping":60},{"user_id":402,"name":"extinct111","steam_id":76561199013696367,"connected_time":549000000000,"state":"active","ping":62}]},{"server_id":37,"name":"Uncletopia | Chicago | 6 | All Maps","name_short":"chi-6","host":"chi-2.us.uncletopia.com","port":27025,"enabled":true,"region":"us-central","cc":"us","latitude":41.881832,"longitude":-87.62318,"reserved":0,"last_update":"0001-01-01T00:00:00Z","name_a2s":"Uncletopia | Chicago | 6 | All Maps","protocol":17,"map":"koth_cascade","folder":"tf","game":"Team Fortress","app_id":440,"player_count":0,"max_players":24,"Bots":0,"server_type":"Dedicated","server_os":"Linux","password":true,"vac":true,"version":"7742253","steam_id":85568392924866363,"keywords":["cp","nocrits","nodmgspread","uncletopia"],"game_id":440,"stv_port":27026,"stv_name":"Uncletopia | Chicago | 6 | All Maps | STV","players":null},{"server_id":38,"name":"Uncletopia | Chicago | 7 | Stopwatch Beta","name_short":"chi-7","host":"chi-2.us.uncletopia.com","port":27035,"enabled":true,"region":"us-central","cc":"us","latitude":41.881832,"longitude":-87.62318,"reserved":0,"last_update":"0001-01-01T00:00:00Z","name_a2s":"Uncletopia | Chicago | 7 | Stopwatch Beta","protocol":17,"map":"workshop/koth_bagel_rc5.ugc2514036946","folder":"tf","game":"Team Fortress","app_id":440,"player_count":0,"max_players":24,"Bots":0,"server_type":"Dedicated","server_os":"Linux","password":true,"vac":true,"version":"7742253","steam_id":85568392924866364,"keywords":["cp","nocrits","nodmgspread","uncletopia"],"game_id":440,"stv_port":27036,"stv_name":"Uncletopia | Chicago | 7 | Stopwatch Beta | STV","players":null},{"server_id":39,"name":"Uncletopia | Chicago | 8 | Community","name_short":"chi-8","host":"chi-2.us.uncletopia.com","port":27045,"enabled":true,"region":"us-central","cc":"us","latitude":41.881832,"longitude":-87.62318,"reserved":0,"last_update":"0001-01-01T00:00:00Z","name_a2s":"Uncletopia | Chicago | 8 | Community","protocol":17,"map":"workshop/cp_villa_b19.ugc2113052569","folder":"tf","game":"Team Fortress","app_id":440,"player_count":0,"max_players":24,"Bots":0,"server_type":"Dedicated","server_os":"Linux","password":true,"vac":true,"version":"7742253","steam_id":85568392924866365,"keywords":["cp","nocrits","nodmgspread","uncletopia"],"game_id":440,"stv_port":27046,"stv_name":"Uncletopia | Chicago | 8 | Community | STV","players":null},{"server_id":8,"name":"Uncletopia | Dallas | 1 | All Maps","name_short":"dal-1","host":"dal-1.us.uncletopia.com","port":27015,"enabled":true,"region":"us-central","cc":"us","latitude":32.779167,"longitude":-96.80889,"reserved":0,"last_update":"0001-01-01T00:00:00Z","name_a2s":"Uncletopia | Dallas | 1 | All Maps","protocol":17,"map":"pl_badwater","folder":"tf","game":"Team Fortress","app_id":440,"player_count":24,"max_players":24,"Bots":0,"server_type":"Dedicated","server_os":"Linux","password":true,"vac":true,"version":"7742253","steam_id":85568392924469986,"keywords":["nocrits","nodmgspread","payload","uncletopia"],"game_id":440,"stv_port":27016,"stv_name":"Uncletopia | Dallas | 1 | All Maps | STV","players":[{"user_id":695,"name":"Room","steam_id":76561199174579733,"connected_time":890000000000,"state":"active","ping":106},{"user_id":700,"name":"remedu","steam_id":76561198005152587,"connected_time":255000000000,"state":"active","ping":42},{"user_id":658,"name":"Chuck Finley","steam_id":76561198027411284,"connected_time":3241000000000,"state":"active","ping":64},{"user_id":701,"name":"sollarious101","steam_id":76561199086649385,"connected_time":246000000000,"state":"active","ping":41},{"user_id":690,"name":"pseudo-sentient subhuman","steam_id":76561198328210524,"connected_time":1121000000000,"state":"active","ping":88},{"user_id":675,"name":"radicalPolio","steam_id":76561197961561855,"connected_time":2369000000000,"state":"active","ping":39},{"user_id":679,"name":"QuickJab","steam_id":76561198088891030,"connected_time":1838000000000,"state":"active","ping":47},{"user_id":703,"name":"DonJamón","steam_id":76561198319090131,"connected_time":89000000000,"state":"active","ping":63},{"user_id":704,"name":"Middle-Aged Rush Fan","steam_id":76561198140814319,"connected_time":88000000000,"state":"active","ping":81},{"user_id":647,"name":"ElectronX","steam_id":76561198116034988,"connected_time":4239000000000,"state":"active","ping":65},{"user_id":705,"name":"Jack from Jack in The Box","steam_id":76561199083594971,"connected_time":68000000000,"state":"active","ping":71},{"user_id":706,"name":"kibsta","steam_id":76561198991982630,"connected_time":61000000000,"state":"active","ping":81},{"user_id":696,"name":"Legal Helpy","steam_id":76561198399334453,"connected_time":741000000000,"state":"active","ping":58},{"user_id":691,"name":"Female Gamer","steam_id":76561199366482682,"connected_time":1104000000000,"state":"active","ping":109},{"user_id":707,"name":"Goob","steam_id":76561198326469586,"connected_time":59000000000,"state":"active","ping":59},{"user_id":688,"name":"Azaheth","steam_id":76561198253616898,"connected_time":1179000000000,"state":"active","ping":93},{"user_id":699,"name":"KindlyNeptune23","steam_id":76561199290469415,"connected_time":348000000000,"state":"active","ping":70},{"user_id":672,"name":"cam","steam_id":76561198073426718,"connected_time":2543000000000,"state":"active","ping":63},{"user_id":694,"name":"SquirrelAway™","steam_id":76561197998828619,"connected_time":970000000000,"state":"active","ping":68},{"user_id":650,"name":"The Krinkler","steam_id":76561198020308956,"connected_time":4042000000000,"state":"active","ping":62},{"user_id":601,"name":"LeFunnyMan","steam_id":76561199081645289,"connected_time":6636000000000,"state":"active","ping":48},{"user_id":627,"name":"Leth","steam_id":76561198044715192,"connected_time":5405000000000,"state":"active","ping":92},{"user_id":563,"name":"Stapler","steam_id":76561198099295077,"connected_time":9382000000000,"state":"active","ping":89},{"user_id":684,"name":"sex defender","steam_id":76561199122152458,"connected_time":1787000000000,"state":"active","ping":64}]},{"server_id":108,"name":"Uncletopia | Dallas | 2 | All Maps","name_short":"dal-2","host":"dal-1.us.uncletopia.com","port":27025,"enabled":true,"region":"us-central","cc":"us","latitude":32.779167,"longitude":-96.80889,"reserved":0,"last_update":"0001-01-01T00:00:00Z","name_a2s":"Uncletopia | Dallas | 2 | All Maps","protocol":17,"map":"cp_process_final","folder":"tf","game":"Team Fortress","app_id":440,"player_count":22,"max_players":24,"Bots":0,"server_type":"Dedicated","server_os":"Linux","password":true,"vac":true,"version":"7742253","steam_id":85568392924469988,"keywords":["cp","nocrits","nodmgspread","uncletopia"],"game_id":440,"stv_port":27026,"stv_name":"Uncletopia | Dallas | 2 | All Maps | STV","players":[{"user_id":363,"name":"Mina's Ninas","steam_id":76561198046502179,"connected_time":1450000000000,"state":"active","ping":70},{"user_id":377,"name":"✞Scarlet✞","steam_id":76561199103174090,"connected_time":245000000000,"state":"active","ping":62},{"user_id":278,"name":"Onyx","steam_id":76561198275349640,"connected_time":7349000000000,"state":"active","ping":77},{"user_id":374,"name":"Gnome","steam_id":76561198026495729,"connected_time":560000000000,"state":"active","ping":64},{"user_id":354,"name":"BlueZy","steam_id":76561198059111030,"connected_time":2109000000000,"state":"active","ping":90},{"user_id":379,"name":"\u003e:3 (very festive)","steam_id":76561198068586634,"connected_time":202000000000,"state":"active","ping":66},{"user_id":380,"name":"Xenophile","steam_id":76561198044772435,"connected_time":101000000000,"state":"active","ping":61},{"user_id":277,"name":"dekase","steam_id":76561198967533371,"connected_time":7359000000000,"state":"active","ping":102},{"user_id":369,"name":"gasparmx","steam_id":76561197998611994,"connected_time":753000000000,"state":"active","ping":86},{"user_id":370,"name":"RedMustrd","steam_id":76561199246218857,"connected_time":706000000000,"state":"active","ping":82},{"user_id":355,"name":"Vlashen","steam_id":76561197960788563,"connected_time":1998000000000,"state":"active","ping":77},{"user_id":371,"name":"Can You Feel It Mr.Krabs","steam_id":76561198128302414,"connected_time":683000000000,"state":"active","ping":64},{"user_id":332,"name":"Viperbro_FGC #SaveTF2","steam_id":76561198140863068,"connected_time":3579000000000,"state":"active","ping":62},{"user_id":372,"name":"nnobi","steam_id":76561198878729277,"connected_time":666000000000,"state":"active","ping":76},{"user_id":315,"name":"✿ PoutyBun ✿","steam_id":76561197965762847,"connected_time":4393000000000,"state":"active","ping":79},{"user_id":356,"name":"Donk","steam_id":76561198803472441,"connected_time":1995000000000,"state":"active","ping":86},{"user_id":373,"name":"Fawny","steam_id":76561198311363172,"connected_time":614000000000,"state":"active","ping":60},{"user_id":358,"name":"the engineer","steam_id":76561198101203842,"connected_time":1946000000000,"state":"active","ping":63},{"user_id":364,"name":"Ping","steam_id":76561199206514106,"connected_time":1002000000000,"state":"active","ping":57},{"user_id":338,"name":"Glanderson booper","steam_id":76561198021223747,"connected_time":3167000000000,"state":"active","ping":116},{"user_id":375,"name":"Kazadrim","steam_id":76561198053906103,"connected_time":536000000000,"state":"active","ping":83},{"user_id":327,"name":"G-G-G-GAMERSHOT","steam_id":76561198798980951,"connected_time":3806000000000,"state":"active","ping":78}]},{"server_id":5,"name":"Uncletopia | Frankfurt | 1 | All Maps","name_short":"frk-1","host":"frk-1.de.uncletopia.com","port":27015,"enabled":true,"region":"eu","cc":"de","latitude":50.110924,"longitude":8.682127,"reserved":0,"last_update":"0001-01-01T00:00:00Z","name_a2s":"Uncletopia | Frankfurt | 1 | All Maps","protocol":17,"map":"koth_lakeside_final","folder":"tf","game":"Team Fortress","app_id":440,"player_count":0,"max_players":24,"Bots":0,"server_type":"Dedicated","server_os":"Linux","password":true,"vac":true,"version":"7742253","steam_id":85568392924469989,"keywords":["cp","nocrits","nodmgspread","uncletopia"],"game_id":440,"stv_port":27016,"stv_name":"Uncletopia | Frankfurt | 1 | All Maps | STV","players":null},{"server_id":110,"name":"Uncletopia | Frankfurt | 2 | All Maps","name_short":"frk-2","host":"frk-1.de.uncletopia.com","port":27025,"enabled":true,"region":"eu","cc":"de","latitude":50.110924,"longitude":8.682127,"reserved":0,"last_update":"0001-01-01T00:00:00Z","name_a2s":"Uncletopia | Frankfurt | 2 | All Maps","protocol":17,"map":"pl_borneo","folder":"tf","game":"Team Fortress","app_id":440,"player_count":23,"max_players":24,"Bots":0,"server_type":"Dedicated","server_os":"Linux","password":true,"vac":true,"version":"7742253","steam_id":85568392924469990,"keywords":["nocrits","nodmgspread","payload","uncletopia"],"game_id":440,"stv_port":27026,"stv_name":"Uncletopia | Frankfurt | 2 | All Maps | STV","players":[{"user_id":814,"name":"pizzaboob","steam_id":76561198097507847,"connected_time":407000000000,"state":"active","ping":74},{"user_id":781,"name":"ivanmixo","steam_id":76561198160213989,"connected_time":2887000000000,"state":"active","ping":59},{"user_id":815,"name":"SoupER","steam_id":76561198063056668,"connected_time":387000000000,"state":"active","ping":55},{"user_id":811,"name":"drunk gaming happy new year","steam_id":76561198531978435,"connected_time":1276000000000,"state":"active","ping":65},{"user_id":796,"name":"scout TF2","steam_id":76561198072037878,"connected_time":2441000000000,"state":"active","ping":61},{"user_id":789,"name":"Cosmetic brain","steam_id":76561198055936410,"connected_time":2528000000000,"state":"active","ping":80},{"user_id":790,"name":"Cheshireycat","steam_id":76561198067204908,"connected_time":2489000000000,"state":"active","ping":71},{"user_id":784,"name":"DocTwoEight","steam_id":76561198153488940,"connected_time":2753000000000,"state":"active","ping":77},{"user_id":804,"name":"glyphoglossus molossus","steam_id":76561198191291749,"connected_time":1671000000000,"state":"active","ping":66},{"user_id":785,"name":"catboy trickster","steam_id":76561198075665211,"connected_time":2717000000000,"state":"active","ping":40},{"user_id":787,"name":"Summers","steam_id":76561199161028679,"connected_time":2697000000000,"state":"active","ping":60},{"user_id":822,"name":"annoying garry","steam_id":76561198019078145,"connected_time":167000000000,"state":"active","ping":75},{"user_id":816,"name":"Doughy","steam_id":76561198044084210,"connected_time":316000000000,"state":"active","ping":82},{"user_id":817,"name":"Misctek","steam_id":76561199037541925,"connected_time":308000000000,"state":"active","ping":75},{"user_id":819,"name":"wickEd_","steam_id":76561198048068999,"connected_time":243000000000,"state":"active","ping":140},{"user_id":797,"name":"Female FESTIVE Gaming","steam_id":76561198000891394,"connected_time":2412000000000,"state":"active","ping":74},{"user_id":798,"name":"gamer man","steam_id":76561198436817109,"connected_time":2351000000000,"state":"active","ping":68},{"user_id":820,"name":"8114","steam_id":76561198069214797,"connected_time":240000000000,"state":"active","ping":82},{"user_id":805,"name":"pezza","steam_id":76561197995173247,"connected_time":1550000000000,"state":"active","ping":65},{"user_id":800,"name":"lvl. 50 honkler","steam_id":76561198061688660,"connected_time":2257000000000,"state":"active","ping":97},{"user_id":803,"name":"Cloudy","steam_id":76561198082293402,"connected_time":2002000000000,"state":"active","ping":51},{"user_id":802,"name":"Sreak","steam_id":76561198209131656,"connected_time":2173000000000,"state":"active","ping":46}]},{"server_id":308,"name":"Uncletopia | Frankfurt | 3 | All Maps","name_short":"frk-3","host":"frk-1.de.uncletopia.com","port":27035,"enabled":true,"region":"eu","cc":"de","latitude":50.110924,"longitude":8.682127,"reserved":0,"last_update":"0001-01-01T00:00:00Z","name_a2s":"Uncletopia | Frankfurt | 3 | All Maps","protocol":17,"map":"koth_cascade","folder":"tf","game":"Team Fortress","app_id":440,"player_count":0,"max_players":24,"Bots":0,"server_type":"Dedicated","server_os":"Linux","password":true,"vac":true,"version":"7742253","steam_id":85568392924504274,"keywords":["cp","nocrits","nodmgspread","uncletopia"],"game_id":440,"stv_port":27036,"stv_name":"Uncletopia | Frankfurt | 3 | All Maps | STV","players":null},{"server_id":309,"name":"Uncletopia | Frankfurt | 4 | All Maps","name_short":"frk-4","host":"frk-1.de.uncletopia.com","port":27045,"enabled":true,"region":"eu","cc":"de","latitude":50.110924,"longitude":8.682127,"reserved":0,"last_update":"0001-01-01T00:00:00Z","name_a2s":"Uncletopia | Frankfurt | 4 | All Maps","protocol":17,"map":"cp_sunshine","folder":"tf","game":"Team Fortress","app_id":440,"player_count":0,"max_players":24,"Bots":0,"server_type":"Dedicated","server_os":"Linux","password":true,"vac":true,"version":"7742253","steam_id":85568392924504275,"keywords":["cp","nocrits","nodmgspread","uncletopia"],"game_id":440,"stv_port":27046,"stv_name":"Uncletopia | Frankfurt | 4 | All Maps | STV","players":null},{"server_id":310,"name":"Uncletopia | Frankfurt | 5 | All Maps","name_short":"frk-5","host":"frk-1.de.uncletopia.com","port":27055,"enabled":true,"region":"eu","cc":"de","latitude":50.110924,"longitude":8.682127,"reserved":0,"last_update":"0001-01-01T00:00:00Z","name_a2s":"Uncletopia | Frankfurt | 5 | All Maps","protocol":17,"map":"koth_viaduct","folder":"tf","game":"Team Fortress","app_id":440,"player_count":0,"max_players":24,"Bots":0,"server_type":"Dedicated","server_os":"Linux","password":true,"vac":true,"version":"7742253","steam_id":85568392924504277,"keywords":["cp","nocrits","nodmgspread","uncletopia"],"game_id":440,"stv_port":27056,"stv_name":"Uncletopia | Frankfurt | 5 | All Maps | STV","players":null},{"server_id":311,"name":"Uncletopia | Frankfurt | 6 | All Maps","name_short":"frk-6","host":"frk-1.de.uncletopia.com","port":27065,"enabled":true,"region":"eu","cc":"de","latitude":50.110924,"longitude":8.682127,"reserved":0,"last_update":"0001-01-01T00:00:00Z","name_a2s":"Uncletopia | Frankfurt | 6 | All Maps","protocol":17,"map":"pl_badwater","folder":"tf","game":"Team Fortress","app_id":440,"player_count":18,"max_players":24,"Bots":0,"server_type":"Dedicated","server_os":"Linux","password":true,"vac":true,"version":"7742253","steam_id":85568392924504278,"keywords":["nocrits","nodmgspread","payload","uncletopia"],"game_id":440,"stv_port":27066,"stv_name":"Uncletopia | Frankfurt | 6 | All Maps | STV","players":[{"user_id":616,"name":"Julez","steam_id":76561198045505082,"connected_time":2405000000000,"state":"active","ping":75},{"user_id":626,"name":"Масюня","steam_id":76561198274597202,"connected_time":258000000000,"state":"active","ping":85},{"user_id":627,"name":"ФСБ","steam_id":76561199304674452,"connected_time":184000000000,"state":"active","ping":99},{"user_id":628,"name":"/e-blan /D-generate","steam_id":76561198804216490,"connected_time":133000000000,"state":"active","ping":67},{"user_id":591,"name":"Cahl","steam_id":76561198980863125,"connected_time":5002000000000,"state":"active","ping":59},{"user_id":612,"name":"Pet354","steam_id":76561198867294144,"connected_time":2645000000000,"state":"active","ping":44},{"user_id":570,"name":"torn","steam_id":76561198223003236,"connected_time":6504000000000,"state":"active","ping":65},{"user_id":601,"name":"Lewee","steam_id":76561198058828018,"connected_time":4214000000000,"state":"active","ping":59},{"user_id":596,"name":"SuperBob103","steam_id":76561199175360012,"connected_time":4642000000000,"state":"active","ping":62},{"user_id":602,"name":"Steen","steam_id":76561198122992510,"connected_time":4199000000000,"state":"active","ping":46},{"user_id":622,"name":"Ostarr","steam_id":76561198200054489,"connected_time":880000000000,"state":"active","ping":62},{"user_id":609,"name":"Blo","steam_id":76561198161651469,"connected_time":3353000000000,"state":"active","ping":55},{"user_id":611,"name":"tm`","steam_id":76561197993580412,"connected_time":3168000000000,"state":"active","ping":60},{"user_id":615,"name":"Kelpy G gaming","steam_id":76561198056995633,"connected_time":2539000000000,"state":"active","ping":59},{"user_id":619,"name":"k","steam_id":76561198818452217,"connected_time":1400000000000,"state":"active","ping":60},{"user_id":557,"name":"waffle toaster","steam_id":76561198799089628,"connected_time":7363000000000,"state":"active","ping":63},{"user_id":620,"name":"creeper","steam_id":76561198396747440,"connected_time":1140000000000,"state":"active","ping":77},{"user_id":613,"name":"Economic crisis","steam_id":76561198063562843,"connected_time":2642000000000,"state":"active","ping":52}]},{"server_id":23,"name":"Uncletopia | Frankfurt | 7 | Stopwatch Beta","name_short":"frk-7","host":"frk-1.de.uncletopia.com","port":27075,"enabled":true,"region":"eu","cc":"de","latitude":50.110924,"longitude":8.682127,"reserved":0,"last_update":"0001-01-01T00:00:00Z","name_a2s":"Uncletopia | Frankfurt | 7 | Stopwatch Beta","protocol":17,"map":"workshop/pl_summercoast_rc8e.ugc1761528829","folder":"tf","game":"Team Fortress","app_id":440,"player_count":0,"max_players":24,"Bots":0,"server_type":"Dedicated","server_os":"Linux","password":true,"vac":true,"version":"7742253","steam_id":85568392924742827,"keywords":["nocrits","nodmgspread","payload","uncletopia"],"game_id":440,"stv_port":27076,"stv_name":"Uncletopia | Frankfurt | 7 | Stopwatch Beta | STV","players":null},{"server_id":24,"name":"Uncletopia | Frankfurt | 8 | Community","name_short":"frk-8","host":"frk-1.de.uncletopia.com","port":27085,"enabled":true,"region":"eu","cc":"de","latitude":50.110924,"longitude":8.682127,"reserved":0,"last_update":"0001-01-01T00:00:00Z","name_a2s":"Uncletopia | Frankfurt | 8 | Community","protocol":17,"map":"workshop/koth_synthetic_rc6a.ugc1549817316","folder":"tf","game":"Team Fortress","app_id":440,"player_count":0,"max_players":24,"Bots":0,"server_type":"Dedicated","server_os":"Linux","password":true,"vac":true,"version":"7742253","steam_id":85568392924742828,"keywords":["cp","nocrits","nodmgspread","uncletopia"],"game_id":440,"stv_port":27086,"stv_name":"Uncletopia | Frankfurt | 8 | Community | STV","players":null},{"server_id":202,"name":"Uncletopia | Hong Kong | 1 | All Maps","name_short":"hgk-1","host":"hgk-1.hk.uncletopia.com","port":27015,"enabled":true,"region":"asia","cc":"hk","latitude":22.302711,"longitude":114.177216,"reserved":0,"last_update":"0001-01-01T00:00:00Z","name_a2s":"Uncletopia | Hong Kong | 1 | All Maps","protocol":17,"map":"pl_swiftwater_final1","folder":"tf","game":"Team Fortress","app_id":440,"player_count":14,"max_players":24,"Bots":0,"server_type":"Dedicated","server_os":"Linux","password":true,"vac":true,"version":"7742253","steam_id":85568392924494504,"keywords":["nocrits","nodmgspread","payload","uncletopia"],"game_id":440,"stv_port":27016,"stv_name":"Uncletopia | Hong Kong | 1 | All Maps | STV","players":[{"user_id":47,"name":";'[","steam_id":76561198835623050,"connected_time":1699000000000,"state":"active","ping":83},{"user_id":52,"name":"zxcvbnm","steam_id":76561198866884809,"connected_time":771000000000,"state":"active","ping":61},{"user_id":49,"name":"corpse_cadaver","steam_id":76561199225360457,"connected_time":1397000000000,"state":"active","ping":65},{"user_id":50,"name":"o2","steam_id":76561199262570913,"connected_time":1207000000000,"state":"active","ping":122},{"user_id":53,"name":"Aerotronics","steam_id":76561198821190704,"connected_time":685000000000,"state":"active","ping":129},{"user_id":55,"name":"rabian","steam_id":76561199420453519,"connected_time":583000000000,"state":"active","ping":95},{"user_id":21,"name":"Yna Yna (actually Oka Oka)","steam_id":76561199232527135,"connected_time":3705000000000,"state":"active","ping":114},{"user_id":15,"name":"Simoframe","steam_id":76561199111778304,"connected_time":4478000000000,"state":"active","ping":109},{"user_id":42,"name":"uzr","steam_id":76561198799343084,"connected_time":2063000000000,"state":"active","ping":124},{"user_id":26,"name":"Nephew Nate","steam_id":76561199137872034,"connected_time":3024000000000,"state":"active","ping":85},{"user_id":27,"name":"Aunt Daine","steam_id":76561198447470800,"connected_time":3013000000000,"state":"active","ping":88},{"user_id":45,"name":"x.","steam_id":76561198131951701,"connected_time":1878000000000,"state":"active","ping":110},{"user_id":43,"name":"Corn_Archer","steam_id":76561199185044554,"connected_time":2001000000000,"state":"active","ping":59},{"user_id":39,"name":"indistinguishable from magic","steam_id":76561198442507642,"connected_time":2291000000000,"state":"active","ping":90}]},{"server_id":1,"name":"Uncletopia | Los Angeles | 1 | All Maps","name_short":"lax-1","host":"lax-1.us.uncletopia.com","port":27015,"enabled":true,"region":"us-west","cc":"us","latitude":33.94279,"longitude":-118.41004,"reserved":0,"last_update":"0001-01-01T00:00:00Z","name_a2s":"Uncletopia | Los Angeles | 1 | All Maps","protocol":17,"map":"pl_barnblitz","folder":"tf","game":"Team Fortress","app_id":440,"player_count":23,"max_players":24,"Bots":0,"server_type":"Dedicated","server_os":"Linux","password":true,"vac":true,"version":"7742253","steam_id":85568392924469991,"keywords":["nocrits","nodmgspread","payload","uncletopia"],"game_id":440,"stv_port":27016,"stv_name":"Uncletopia | Los Angeles | 1 | All Maps | STV","players":[{"user_id":118,"name":"King Kinyon","steam_id":76561198080525234,"connected_time":1592000000000,"state":"active","ping":70},{"user_id":119,"name":"another breloom","steam_id":76561198006938024,"connected_time":1543000000000,"state":"active","ping":44},{"user_id":136,"name":"groovetomanny","steam_id":76561198371660675,"connected_time":793000000000,"state":"active","ping":50},{"user_id":120,"name":"Andreshatesmondays","steam_id":76561198889349797,"connected_time":1535000000000,"state":"active","ping":50},{"user_id":138,"name":"DissaprovingSteven","steam_id":76561198967061694,"connected_time":606000000000,"state":"active","ping":71},{"user_id":108,"name":"Abyssal","steam_id":76561198269483615,"connected_time":2438000000000,"state":"active","ping":45},{"user_id":137,"name":"RMBL","steam_id":76561198150137369,"connected_time":656000000000,"state":"active","ping":46},{"user_id":139,"name":"no idea","steam_id":76561198032121669,"connected_time":496000000000,"state":"active","ping":124},{"user_id":90,"name":"Sticky","steam_id":76561198031581547,"connected_time":3067000000000,"state":"active","ping":45},{"user_id":122,"name":"ヽ(°ω° )ﾉ","steam_id":76561198010855541,"connected_time":1513000000000,"state":"active","ping":63},{"user_id":99,"name":"Krazy","steam_id":76561198835502709,"connected_time":2825000000000,"state":"active","ping":43},{"user_id":77,"name":"F.B.I Doggo","steam_id":76561198376057993,"connected_time":4458000000000,"state":"active","ping":54},{"user_id":140,"name":"mineblast99","steam_id":76561199065648954,"connected_time":428000000000,"state":"active","ping":114},{"user_id":127,"name":"Chafn","steam_id":76561197969386702,"connected_time":1349000000000,"state":"active","ping":60},{"user_id":124,"name":"Brynkiwi","steam_id":76561198052177917,"connected_time":1487000000000,"state":"active","ping":73},{"user_id":133,"name":"AmiableNebula","steam_id":76561198094306627,"connected_time":899000000000,"state":"active","ping":52},{"user_id":142,"name":"[chef] iron","steam_id":76561197970888616,"connected_time":344000000000,"state":"active","ping":89},{"user_id":126,"name":"Measured Moth","steam_id":76561198043220089,"connected_time":1401000000000,"state":"active","ping":40},{"user_id":143,"name":"hoOmIN","steam_id":76561198334947079,"connected_time":281000000000,"state":"active","ping":45},{"user_id":129,"name":"Dorso","steam_id":76561198380590080,"connected_time":1298000000000,"state":"active","ping":39},{"user_id":130,"name":"jungus","steam_id":76561198129862008,"connected_time":1170000000000,"state":"active","ping":48},{"user_id":101,"name":"⛧⸸⛧⸸⛧⸸","steam_id":76561198007051179,"connected_time":2818000000000,"state":"active","ping":39},{"user_id":102,"name":"Pan Dulce","steam_id":76561198044444716,"connected_time":2812000000000,"state":"active","ping":56}]},{"server_id":112,"name":"Uncletopia | Los Angeles | 2 | All Maps","name_short":"lax-2","host":"lax-1.us.uncletopia.com","port":27025,"enabled":true,"region":"us-west","cc":"us","latitude":33.94279,"longitude":-118.41004,"reserved":0,"last_update":"0001-01-01T00:00:00Z","name_a2s":"Uncletopia | Los Angeles | 2 | All Maps","protocol":17,"map":"koth_lakeside_final","folder":"tf","game":"Team Fortress","app_id":440,"player_count":0,"max_players":24,"Bots":0,"server_type":"Dedicated","server_os":"Linux","password":true,"vac":true,"version":"7742253","steam_id":85568392924469992,"keywords":["cp","nocrits","nodmgspread","uncletopia"],"game_id":440,"stv_port":27026,"stv_name":"Uncletopia | Los Angeles | 2 | All Maps | STV","players":null},{"server_id":324,"name":"Uncletopia | Los Angeles | 3 | All Maps","name_short":"lax-3","host":"lax-1.us.uncletopia.com","port":27035,"enabled":true,"region":"us-west","cc":"us","latitude":33.94279,"longitude":-118.41004,"reserved":0,"last_update":"0001-01-01T00:00:00Z","name_a2s":"Uncletopia | Los Angeles | 3 | All Maps","protocol":17,"map":"cp_altitude","folder":"tf","game":"Team Fortress","app_id":440,"player_count":0,"max_players":24,"Bots":0,"server_type":"Dedicated","server_os":"Linux","password":true,"vac":true,"version":"7742253","steam_id":85568392924510198,"keywords":["cp","nocrits","nodmgspread","uncletopia"],"game_id":440,"stv_port":27036,"stv_name":"Uncletopia | Los Angeles | 3 | All Maps | STV","players":null},{"server_id":25,"name":"Uncletopia | Los Angeles | 4 | Stopwatch Beta","name_short":"lax-4","host":"lax-1.us.uncletopia.com","port":27045,"enabled":true,"region":"us-west","cc":"us","latitude":33.94279,"longitude":-118.41004,"reserved":0,"last_update":"0001-01-01T00:00:00Z","name_a2s":"Uncletopia | Los Angeles | 4 | Stopwatch Beta","protocol":17,"map":"cp_granary","folder":"tf","game":"Team Fortress","app_id":440,"player_count":0,"max_players":24,"Bots":0,"server_type":"Dedicated","server_os":"Linux","password":true,"vac":true,"version":"7742253","steam_id":85568392924510199,"keywords":["cp","nocrits","nodmgspread","uncletopia"],"game_id":440,"stv_port":27046,"stv_name":"Uncletopia | Los Angeles | 4 | Stopwatch Beta | STV","players":null},{"server_id":11,"name":"Uncletopia | London | 1 | All Maps","name_short":"lon-1","host":"lon-1.uk.uncletopia.com","port":27015,"enabled":true,"region":"eu","cc":"gb","latitude":51.509865,"longitude":-0.118092,"reserved":0,"last_update":"0001-01-01T00:00:00Z","name_a2s":"Uncletopia | London | 1 | All Maps","protocol":17,"map":"cp_powerhouse","folder":"tf","game":"Team Fortress","app_id":440,"player_count":24,"max_players":24,"Bots":0,"server_type":"Dedicated","server_os":"Linux","password":true,"vac":true,"version":"7742253","steam_id":85568392924367362,"keywords":["cp","nocrits","nodmgspread","uncletopia"],"game_id":440,"stv_port":27016,"stv_name":"Uncletopia | London | 1 | All Maps | STV","players":[{"user_id":705,"name":"Rez","steam_id":76561198410598772,"connected_time":4561000000000,"state":"active","ping":44},{"user_id":703,"name":"✪ J","steam_id":76561198094911581,"connected_time":4753000000000,"state":"active","ping":50},{"user_id":749,"name":"ducks","steam_id":76561198148378654,"connected_time":1604000000000,"state":"active","ping":91},{"user_id":757,"name":"Charon","steam_id":76561198061714753,"connected_time":973000000000,"state":"active","ping":75},{"user_id":751,"name":"Hildreth","steam_id":76561197995254867,"connected_time":1387000000000,"state":"active","ping":47},{"user_id":759,"name":"Tryrex","steam_id":76561198157824042,"connected_time":389000000000,"state":"active","ping":102},{"user_id":753,"name":"The","steam_id":76561198359311605,"connected_time":1231000000000,"state":"active","ping":75},{"user_id":727,"name":"Exxon","steam_id":76561198997885594,"connected_time":3457000000000,"state":"active","ping":48},{"user_id":734,"name":"Tsuruko","steam_id":76561198063618114,"connected_time":2724000000000,"state":"active","ping":74},{"user_id":695,"name":"Spoofr","steam_id":76561199267825043,"connected_time":6138000000000,"state":"active","ping":75},{"user_id":711,"name":"Spore","steam_id":76561198889433116,"connected_time":4058000000000,"state":"active","ping":64},{"user_id":712,"name":"Abby","steam_id":76561198170528489,"connected_time":3974000000000,"state":"active","ping":60},{"user_id":729,"name":"Echo of Abyss","steam_id":76561198981841782,"connected_time":3106000000000,"state":"active","ping":71},{"user_id":713,"name":"AntsInMyAss","steam_id":76561198881037607,"connected_time":3971000000000,"state":"active","ping":58},{"user_id":735,"name":"few","steam_id":76561199220675624,"connected_time":2696000000000,"state":"active","ping":122},{"user_id":747,"name":"Bean_boy263","steam_id":76561199229364397,"connected_time":1698000000000,"state":"active","ping":59},{"user_id":739,"name":"Orisa Undertale","steam_id":76561198848650365,"connected_time":2517000000000,"state":"active","ping":75},{"user_id":756,"name":"alko_bone","steam_id":76561198557773514,"connected_time":1110000000000,"state":"active","ping":119},{"user_id":740,"name":"Ross","steam_id":76561198965967986,"connected_time":2502000000000,"state":"active","ping":61},{"user_id":733,"name":"gnarly business","steam_id":76561198832688767,"connected_time":2767000000000,"state":"active","ping":46},{"user_id":748,"name":"FarisKO","steam_id":76561198259234555,"connected_time":1674000000000,"state":"active","ping":150},{"user_id":736,"name":"Mafour","steam_id":76561197994581337,"connected_time":2692000000000,"state":"active","ping":89},{"user_id":755,"name":"Citalopram","steam_id":76561198315899410,"connected_time":1176000000000,"state":"active","ping":75},{"user_id":725,"name":"khuligan.abdullah.95","steam_id":76561198349000185,"connected_time":3596000000000,"state":"active","ping":67}]},{"server_id":114,"name":"Uncletopia | London | 2 | All Maps","name_short":"lon-2","host":"lon-1.uk.uncletopia.com","port":27025,"enabled":true,"region":"eu","cc":"gb","latitude":51.509865,"longitude":-0.118092,"reserved":0,"last_update":"0001-01-01T00:00:00Z","name_a2s":"Uncletopia | London | 2 | All Maps","protocol":17,"map":"pl_borneo","folder":"tf","game":"Team Fortress","app_id":440,"player_count":23,"max_players":24,"Bots":0,"server_type":"Dedicated","server_os":"Linux","password":true,"vac":true,"version":"7742253","steam_id":85568392924470941,"keywords":["nocrits","nodmgspread","payload","uncletopia"],"game_id":440,"stv_port":27026,"stv_name":"Uncletopia | London | 2 | All Maps | STV","players":[{"user_id":988,"name":"Somei","steam_id":76561198040938864,"connected_time":876000000000,"state":"active","ping":31},{"user_id":979,"name":"solvalou","steam_id":76561198071963216,"connected_time":1994000000000,"state":"active","ping":47},{"user_id":980,"name":"Wure","steam_id":76561198057245353,"connected_time":1986000000000,"state":"active","ping":63},{"user_id":908,"name":"The Stupid Fucking Gamer","steam_id":76561198068213670,"connected_time":9074000000000,"state":"active","ping":64},{"user_id":985,"name":"Scottish Resistance","steam_id":76561198071360214,"connected_time":1179000000000,"state":"active","ping":58},{"user_id":960,"name":"paradise punch lemonade","steam_id":76561198058012525,"connected_time":4638000000000,"state":"active","ping":78},{"user_id":881,"name":"shan780","steam_id":76561198077809195,"connected_time":10682000000000,"state":"active","ping":59},{"user_id":983,"name":"Uncle Owen","steam_id":76561198157999291,"connected_time":1659000000000,"state":"active","ping":87},{"user_id":989,"name":"j100j","steam_id":76561198338726444,"connected_time":836000000000,"state":"active","ping":89},{"user_id":973,"name":"Dr Zoidcrab","steam_id":76561198023709882,"connected_time":2901000000000,"state":"active","ping":65},{"user_id":987,"name":"Romultra","steam_id":76561198354105082,"connected_time":1007000000000,"state":"active","ping":48},{"user_id":990,"name":"endure in pain","steam_id":76561199442459698,"connected_time":797000000000,"state":"active","ping":84},{"user_id":943,"name":"Chinese censorship Bureau","steam_id":76561198397898616,"connected_time":6319000000000,"state":"active","ping":59},{"user_id":991,"name":"all snipers are edgy cowards","steam_id":76561198060200599,"connected_time":721000000000,"state":"active","ping":98},{"user_id":992,"name":"Cranbury","steam_id":76561198079170457,"connected_time":527000000000,"state":"active","ping":44},{"user_id":880,"name":"BCFire","steam_id":76561198070663279,"connected_time":10700000000000,"state":"active","ping":45},{"user_id":996,"name":"Atlas","steam_id":76561198866802561,"connected_time":109000000000,"state":"spawning","ping":50},{"user_id":995,"name":"Indium","steam_id":76561198255532796,"connected_time":268000000000,"state":"active","ping":63},{"user_id":997,"name":"slaver193","steam_id":76561199099490788,"connected_time":74000000000,"state":"active","ping":90},{"user_id":998,"name":"The chumbler","steam_id":76561198999161827,"connected_time":72000000000,"state":"active","ping":62},{"user_id":959,"name":"IKARUS","steam_id":76561198850898422,"connected_time":4823000000000,"state":"active","ping":73},{"user_id":975,"name":"Bert","steam_id":76561198070206096,"connected_time":2494000000000,"state":"active","ping":50},{"user_id":999,"name":"Fusilli_","steam_id":76561198066475370,"connected_time":36000000000,"state":"active","ping":81}]},{"server_id":320,"name":"Uncletopia | London | 3 | All Maps","name_short":"lon-3","host":"lon-1.uk.uncletopia.com","port":27035,"enabled":true,"region":"eu","cc":"gb","latitude":51.509865,"longitude":-0.118092,"reserved":0,"last_update":"0001-01-01T00:00:00Z","name_a2s":"Uncletopia | London | 3 | All Maps","protocol":17,"map":"pl_badwater","folder":"tf","game":"Team Fortress","app_id":440,"player_count":0,"max_players":24,"Bots":0,"server_type":"Dedicated","server_os":"Linux","password":true,"vac":true,"version":"7742253","steam_id":85568392924510192,"keywords":["nocrits","nodmgspread","payload","uncletopia"],"game_id":440,"stv_port":27036,"stv_name":"Uncletopia | London | 3 | All Maps | STV","players":null},{"server_id":321,"name":"Uncletopia | London | 4 | All Maps","name_short":"lon-4","host":"lon-1.uk.uncletopia.com","port":27045,"enabled":true,"region":"eu","cc":"gb","latitude":51.509865,"longitude":-0.118092,"reserved":0,"last_update":"0001-01-01T00:00:00Z","name_a2s":"Uncletopia | London | 4 | All Maps","protocol":17,"map":"koth_cascade","folder":"tf","game":"Team Fortress","app_id":440,"player_count":0,"max_players":24,"Bots":0,"server_type":"Dedicated","server_os":"Linux","password":true,"vac":true,"version":"7742253","steam_id":85568392924510193,"keywords":["cp","nocrits","nodmgspread","uncletopia"],"game_id":440,"stv_port":27046,"stv_name":"Uncletopia | London | 4 | All Maps | STV","players":null},{"server_id":21,"name":"Uncletopia | London | 5 | All Maps","name_short":"lon-5","host":"lon-1.uk.uncletopia.com","port":27055,"enabled":true,"region":"eu","cc":"gb","latitude":51.509865,"longitude":-0.118092,"reserved":0,"last_update":"0001-01-01T00:00:00Z","name_a2s":"Uncletopia | London | 5 | All Maps","protocol":17,"map":"koth_viaduct","folder":"tf","game":"Team Fortress","app_id":440,"player_count":0,"max_players":24,"Bots":0,"server_type":"Dedicated","server_os":"Linux","password":true,"vac":true,"version":"7742253","steam_id":85568392924742829,"keywords":["cp","nocrits","nodmgspread","uncletopia"],"game_id":440,"stv_port":27056,"stv_name":"Uncletopia | London | 5 | All Maps | STV","players":null},{"server_id":22,"name":"Uncletopia | London | 6 | All Maps","name_short":"lon-6","host":"lon-1.uk.uncletopia.com","port":27065,"enabled":true,"region":"eu","cc":"gb","latitude":51.509865,"longitude":-0.118092,"reserved":0,"last_update":"0001-01-01T00:00:00Z","name_a2s":"Uncletopia | London | 6 | All Maps","protocol":17,"map":"koth_highpass","folder":"tf","game":"Team Fortress","app_id":440,"player_count":0,"max_players":24,"Bots":0,"server_type":"Dedicated","server_os":"Linux","password":true,"vac":true,"version":"7742253","steam_id":85568392924742830,"keywords":["cp","nocrits","nodmgspread","uncletopia"],"game_id":440,"stv_port":27066,"stv_name":"Uncletopia | London | 6 | All Maps | STV","players":null},{"server_id":40,"name":"Uncletopia | London | 7 | No Payload","name_short":"lon-7","host":"lon-1.uk.uncletopia.com","port":27075,"enabled":true,"region":"eu","cc":"gb","latitude":51.509865,"longitude":-0.118092,"reserved":0,"last_update":"0001-01-01T00:00:00Z","name_a2s":"Uncletopia | London | 7 | No Payload","protocol":17,"map":"koth_harvest_final","folder":"tf","game":"Team Fortress","app_id":440,"player_count":0,"max_players":24,"Bots":0,"server_type":"Dedicated","server_os":"Linux","password":true,"vac":true,"version":"7742253","steam_id":85568392924964314,"keywords":["cp","nocrits","nodmgspread","uncletopia"],"game_id":440,"stv_port":27076,"stv_name":"Uncletopia | London | 7 | No Payload | STV","players":null},{"server_id":41,"name":"Uncletopia | London | 8 | Community","name_short":"lon-8","host":"lon-1.uk.uncletopia.com","port":27085,"enabled":true,"region":"eu","cc":"gb","latitude":51.509865,"longitude":-0.118092,"reserved":0,"last_update":"0001-01-01T00:00:00Z","name_a2s":"Uncletopia | London | 8 | Community","protocol":17,"map":"workshop/pl_cactuscanyon_redux_rc4b.ugc2579644293","folder":"tf","game":"Team Fortress","app_id":440,"player_count":0,"max_players":24,"Bots":0,"server_type":"Dedicated","server_os":"Linux","password":true,"vac":true,"version":"7742253","steam_id":85568392924964315,"keywords":["nocrits","nodmgspread","payload","uncletopia"],"game_id":440,"stv_port":27086,"stv_name":"Uncletopia | London | 8 | Community | STV","players":null},{"server_id":300,"name":"Uncletopia | Montréal | 1 | All Maps","name_short":"mtl-1","host":"mtl-1.ca.uncletopia.com","port":27015,"enabled":true,"region":"us-east","cc":"ca","latitude":45.50889,"longitude":-73.56167,"reserved":0,"last_update":"0001-01-01T00:00:00Z","name_a2s":"Uncletopia | Montréal | 1 | All Maps","protocol":17,"map":"cp_altitude","folder":"tf","game":"Team Fortress","app_id":440,"player_count":0,"max_players":24,"Bots":0,"server_type":"Dedicated","server_os":"Linux","password":true,"vac":true,"version":"7742253","steam_id":85568392924500087,"keywords":["cp","nocrits","nodmgspread","uncletopia"],"game_id":440,"stv_port":27016,"stv_name":"Uncletopia | Montréal | 1 | All Maps | STV","players":null},{"server_id":301,"name":"Uncletopia | Montréal | 2 | All Maps","name_short":"mtl-2","host":"mtl-1.ca.uncletopia.com","port":27025,"enabled":true,"region":"us-east","cc":"ca","latitude":45.50889,"longitude":-73.56167,"reserved":0,"last_update":"0001-01-01T00:00:00Z","name_a2s":"Uncletopia | Montréal | 2 | All Maps","protocol":17,"map":"koth_highpass","folder":"tf","game":"Team Fortress","app_id":440,"player_count":0,"max_players":24,"Bots":0,"server_type":"Dedicated","server_os":"Linux","password":true,"vac":true,"version":"7742253","steam_id":85568392924500088,"keywords":["cp","nocrits","nodmgspread","uncletopia"],"game_id":440,"stv_port":27026,"stv_name":"Uncletopia | Montréal | 2 | All Maps | STV","players":null},{"server_id":302,"name":"Uncletopia | Montréal | 3 | All Maps","name_short":"mtl-3","host":"mtl-1.ca.uncletopia.com","port":27035,"enabled":true,"region":"us-east","cc":"ca","latitude":45.50889,"longitude":-73.56167,"reserved":0,"last_update":"0001-01-01T00:00:00Z","name_a2s":"Uncletopia | Montréal | 3 | All Maps","protocol":17,"map":"cp_altitude","folder":"tf","game":"Team Fortress","app_id":440,"player_count":2,"max_players":24,"Bots":0,"server_type":"Dedicated","server_os":"Linux","password":true,"vac":true,"version":"7742253","steam_id":85568392924500089,"keywords":["cp","nocrits","nodmgspread","uncletopia"],"game_id":440,"stv_port":27036,"stv_name":"Uncletopia | Montréal | 3 | All Maps | STV","players":[{"user_id":4,"name":"Sample","steam_id":76561198358228740,"connected_time":1503000000000,"state":"active","ping":48},{"user_id":5,"name":"cashew227","steam_id":76561198354318215,"connected_time":1415000000000,"state":"active","ping":49}]},{"server_id":303,"name":"Uncletopia | Montréal | 4 | No Payload","name_short":"mtl-4","host":"mtl-1.ca.uncletopia.com","port":27045,"enabled":true,"region":"us-east","cc":"ca","latitude":45.50889,"longitude":-73.56167,"reserved":0,"last_update":"0001-01-01T00:00:00Z","name_a2s":"Uncletopia | Montréal | 4 | No Payload","protocol":17,"map":"plr_pipeline","folder":"tf","game":"Team Fortress","app_id":440,"player_count":0,"max_players":24,"Bots":0,"server_type":"Dedicated","server_os":"Linux","password":true,"vac":true,"version":"7742253","steam_id":85568392924500090,"keywords":["nocrits","nodmgspread","payload","uncletopia"],"game_id":440,"stv_port":27046,"stv_name":"Uncletopia | Montréal | 4 | No Payload | STV","players":null},{"server_id":13,"name":"Uncletopia | New York City | 1 | All Maps","name_short":"nyc-1","host":"nyc-1.us.uncletopia.com","port":27015,"enabled":true,"region":"us-east","cc":"us","latitude":40.73061,"longitude":-73.93524,"reserved":0,"last_update":"0001-01-01T00:00:00Z","name_a2s":"Uncletopia | New York City | 1 | All Maps","protocol":17,"map":"cp_dustbowl","folder":"tf","game":"Team Fortress","app_id":440,"player_count":24,"max_players":24,"Bots":0,"server_type":"Dedicated","server_os":"Linux","password":true,"vac":true,"version":"7742253","steam_id":85568392924469993,"keywords":["cp","nocrits","nodmgspread","uncletopia"],"game_id":440,"stv_port":27016,"stv_name":"Uncletopia | New York City | 1 | All Maps | STV","players":[{"user_id":442,"name":"Fewseb","steam_id":76561198104808456,"connected_time":832000000000,"state":"active","ping":83},{"user_id":439,"name":"Turnabout","steam_id":76561198883325162,"connected_time":977000000000,"state":"active","ping":85},{"user_id":425,"name":"Xx_PR3TTY_R4VE_G!R1_xX","steam_id":76561199059016425,"connected_time":2138000000000,"state":"active","ping":61},{"user_id":408,"name":"Gaming on a 13 year old Mac","steam_id":76561198019476636,"connected_time":4573000000000,"state":"active","ping":54},{"user_id":435,"name":"Spirit","steam_id":76561199069322627,"connected_time":1424000000000,"state":"active","ping":61},{"user_id":413,"name":"FattSucc","steam_id":76561198009500503,"connected_time":3757000000000,"state":"active","ping":88},{"user_id":440,"name":"CaucasianShaq","steam_id":76561198351623516,"connected_time":971000000000,"state":"active","ping":77},{"user_id":437,"name":"Defiant Statement.","steam_id":76561199101373436,"connected_time":1318000000000,"state":"active","ping":62},{"user_id":366,"name":"Miner2495","steam_id":76561198445904523,"connected_time":8000000000000,"state":"active","ping":65},{"user_id":377,"name":"C0SMIC PLAGU3","steam_id":76561198051958643,"connected_time":7311000000000,"state":"active","ping":59},{"user_id":432,"name":"Jfrvl Gvl","steam_id":76561199013465852,"connected_time":1578000000000,"state":"active","ping":49},{"user_id":436,"name":"Ⓑ⓪⓪ⓣⓨⓒⓐⓚⓔⓢ","steam_id":76561198088776421,"connected_time":1411000000000,"state":"active","ping":83},{"user_id":334,"name":"Chechens Spotted","steam_id":76561199028910893,"connected_time":9618000000000,"state":"active","ping":77},{"user_id":429,"name":"Any Femboys In Chat?","steam_id":76561198253462393,"connected_time":1767000000000,"state":"active","ping":82},{"user_id":407,"name":"HAPPY NOOB YEAR","steam_id":76561198014919412,"connected_time":4581000000000,"state":"active","ping":45},{"user_id":405,"name":"Leo","steam_id":76561198088304064,"connected_time":5084000000000,"state":"active","ping":58},{"user_id":443,"name":"Laura Palmer Gaming","steam_id":76561198282965733,"connected_time":831000000000,"state":"active","ping":45},{"user_id":423,"name":"Glitchy stick","steam_id":76561199013429386,"connected_time":2873000000000,"state":"active","ping":59},{"user_id":430,"name":"Gitgudgame","steam_id":76561198354761942,"connected_time":1767000000000,"state":"active","ping":61},{"user_id":402,"name":"Donatello (parnets)","steam_id":76561198801214349,"connected_time":5169000000000,"state":"active","ping":62},{"user_id":444,"name":"ndvr","steam_id":76561199379200102,"connected_time":195000000000,"state":"active","ping":51},{"user_id":372,"name":"lyanide","steam_id":76561198311704368,"connected_time":7809000000000,"state":"active","ping":58},{"user_id":422,"name":"5upermilk","steam_id":76561197978282744,"connected_time":3332000000000,"state":"active","ping":71},{"user_id":431,"name":"Repo Clam","steam_id":76561198198217573,"connected_time":1756000000000,"state":"active","ping":62}]},{"server_id":14,"name":"Uncletopia | New York City | 2 | All Maps","name_short":"nyc-2","host":"nyc-1.us.uncletopia.com","port":27025,"enabled":true,"region":"us-east","cc":"us","latitude":40.73061,"longitude":-73.93524,"reserved":0,"last_update":"0001-01-01T00:00:00Z","name_a2s":"Uncletopia | New York City | 2 | All Maps","protocol":17,"map":"pl_upward","folder":"tf","game":"Team Fortress","app_id":440,"player_count":0,"max_players":24,"Bots":0,"server_type":"Dedicated","server_os":"Linux","password":true,"vac":true,"version":"7742253","steam_id":85568392924469994,"keywords":["nocrits","nodmgspread","payload","uncletopia"],"game_id":440,"stv_port":27026,"stv_name":"Uncletopia | New York City | 2 | All Maps | STV","players":null},{"server_id":15,"name":"Uncletopia | New York City | 3 | Stopwatch Beta","name_short":"nyc-3","host":"nyc-1.us.uncletopia.com","port":27035,"enabled":true,"region":"us-east","cc":"us","latitude":40.73061,"longitude":-73.93524,"reserved":0,"last_update":"0001-01-01T00:00:00Z","name_a2s":"Uncletopia | New York City | 3 | Stopwatch Beta","protocol":17,"map":"pl_pier","folder":"tf","game":"Team Fortress","app_id":440,"player_count":0,"max_players":24,"Bots":0,"server_type":"Dedicated","server_os":"Linux","password":true,"vac":true,"version":"7742253","steam_id":85568392924742820,"keywords":["nocrits","nodmgspread","payload","uncletopia"],"game_id":440,"stv_port":27036,"stv_name":"Uncletopia | New York City | 3 | Stopwatch Beta | STV","players":null},{"server_id":16,"name":"Uncletopia | New York City | 4 | Community","name_short":"nyc-4","host":"nyc-1.us.uncletopia.com","port":27045,"enabled":true,"region":"us-east","cc":"us","latitude":40.73061,"longitude":-73.93524,"reserved":0,"last_update":"0001-01-01T00:00:00Z","name_a2s":"Uncletopia | New York City | 4 | Community","protocol":17,"map":"workshop/koth_bagel_rc5.ugc2514036946","folder":"tf","game":"Team Fortress","app_id":440,"player_count":23,"max_players":24,"Bots":0,"server_type":"Dedicated","server_os":"Linux","password":true,"vac":true,"version":"7742253","steam_id":85568392924742821,"keywords":["cp","nocrits","nodmgspread","uncletopia"],"game_id":440,"stv_port":27046,"stv_name":"Uncletopia | New York City | 4 | Community | STV","players":[{"user_id":266,"name":"Hot Cheese Sundae","steam_id":76561198061189527,"connected_time":1130000000000,"state":"active","ping":70},{"user_id":245,"name":"Willow","steam_id":76561198098589327,"connected_time":2262000000000,"state":"active","ping":75},{"user_id":249,"name":"slothy","steam_id":76561198129871900,"connected_time":2055000000000,"state":"active","ping":62},{"user_id":247,"name":"King Sans","steam_id":76561198294198517,"connected_time":2087000000000,"state":"active","ping":52},{"user_id":244,"name":"Anhkrehg","steam_id":76561197963201684,"connected_time":2297000000000,"state":"active","ping":67},{"user_id":275,"name":"IPlayGamez","steam_id":76561198041387508,"connected_time":689000000000,"state":"active","ping":56},{"user_id":270,"name":"party pooper","steam_id":76561198068760559,"connected_time":909000000000,"state":"active","ping":48},{"user_id":173,"name":"Warzard","steam_id":76561199154051413,"connected_time":6048000000000,"state":"active","ping":92},{"user_id":277,"name":"greasygrove1242","steam_id":76561199117295471,"connected_time":637000000000,"state":"active","ping":38},{"user_id":194,"name":"majorbobfunction","steam_id":76561198042464632,"connected_time":5223000000000,"state":"active","ping":74},{"user_id":284,"name":"Saturn","steam_id":76561198211622632,"connected_time":157000000000,"state":"active","ping":45},{"user_id":198,"name":"birch","steam_id":76561198054041094,"connected_time":5150000000000,"state":"active","ping":137},{"user_id":251,"name":"ClericsRose","steam_id":76561198011013806,"connected_time":1895000000000,"state":"active","ping":74},{"user_id":252,"name":"Chase from Paw Patrol™","steam_id":76561198145283389,"connected_time":1886000000000,"state":"active","ping":50},{"user_id":276,"name":"Eliakith","steam_id":76561198118272874,"connected_time":670000000000,"state":"active","ping":81},{"user_id":274,"name":"Barry","steam_id":76561198371953939,"connected_time":732000000000,"state":"active","ping":87},{"user_id":283,"name":"Evolution","steam_id":76561198144767370,"connected_time":247000000000,"state":"active","ping":72},{"user_id":278,"name":"Pester","steam_id":76561198322672725,"connected_time":627000000000,"state":"active","ping":71},{"user_id":254,"name":"caberknight tf2","steam_id":76561199273882768,"connected_time":1851000000000,"state":"active","ping":55},{"user_id":256,"name":"Squid121","steam_id":76561198038832034,"connected_time":1807000000000,"state":"active","ping":121},{"user_id":263,"name":"BellySwelly","steam_id":76561198282083762,"connected_time":1513000000000,"state":"active","ping":89},{"user_id":279,"name":"Kelpy","steam_id":76561198294906383,"connected_time":569000000000,"state":"active","ping":54},{"user_id":280,"name":"Winter the Witchie","steam_id":76561198151971178,"connected_time":537000000000,"state":"active","ping":64}]},{"server_id":142,"name":"Uncletopia | São Paulo | 1 | All Maps","name_short":"sao-1","host":"sao-1.br.uncletopia.com","port":27015,"enabled":true,"region":"sa","cc":"br","latitude":-23.533773,"longitude":-46.62529,"reserved":0,"last_update":"0001-01-01T00:00:00Z","name_a2s":"Uncletopia | São Paulo | 1 | All Maps","protocol":17,"map":"pl_pier","folder":"tf","game":"Team Fortress","app_id":440,"player_count":0,"max_players":24,"Bots":0,"server_type":"Dedicated","server_os":"Linux","password":true,"vac":true,"version":"7742253","steam_id":85568392924469996,"keywords":["nocrits","nodmgspread","payload","uncletopia"],"game_id":440,"stv_port":27016,"stv_name":"Uncletopia | São Paulo | 1 | All Maps | STV","players":null},{"server_id":143,"name":"Uncletopia | São Paulo | 2 | All Maps","name_short":"sao-2","host":"sao-2.br.uncletopia.com","port":27015,"enabled":true,"region":"sa","cc":"br","latitude":-23.533773,"longitude":-46.62529,"reserved":0,"last_update":"0001-01-01T00:00:00Z","name_a2s":"Uncletopia | São Paulo | 2 | All Maps","protocol":17,"map":"koth_harvest_final","folder":"tf","game":"Team Fortress","app_id":440,"player_count":0,"max_players":24,"Bots":0,"server_type":"Dedicated","server_os":"Linux","password":true,"vac":true,"version":"7742253","steam_id":85568392924485349,"keywords":["cp","nocrits","nodmgspread","uncletopia"],"game_id":440,"stv_port":27016,"stv_name":"Uncletopia | São Paulo | 2 | All Maps | STV","players":null},{"server_id":7,"name":"Uncletopia | Seattle | 1 | All Maps","name_short":"sea-1","host":"sea-1.us.uncletopia.com","port":27015,"enabled":true,"region":"us-west","cc":"us","latitude":47.608013,"longitude":-122.33517,"reserved":0,"last_update":"0001-01-01T00:00:00Z","name_a2s":"Uncletopia | Seattle | 1 | All Maps","protocol":17,"map":"pl_upward","folder":"tf","game":"Team Fortress","app_id":440,"player_count":24,"max_players":24,"Bots":0,"server_type":"Dedicated","server_os":"Linux","password":true,"vac":true,"version":"7742253","steam_id":85568392924469997,"keywords":["nocrits","nodmgspread","payload","uncletopia"],"game_id":440,"stv_port":27016,"stv_name":"Uncletopia | Seattle | 1 | All Maps | STV","players":[{"user_id":268,"name":"Seagoll","steam_id":76561198017953606,"connected_time":2490000000000,"state":"active","ping":57},{"user_id":283,"name":"BasedGod","steam_id":76561198061177973,"connected_time":576000000000,"state":"active","ping":60},{"user_id":279,"name":"Agent","steam_id":76561199389584938,"connected_time":866000000000,"state":"active","ping":34},{"user_id":284,"name":"Tectonic11","steam_id":76561198061169359,"connected_time":497000000000,"state":"active","ping":114},{"user_id":273,"name":"BEASTxGODx420","steam_id":76561198184814466,"connected_time":1914000000000,"state":"active","ping":39},{"user_id":281,"name":"Razor","steam_id":76561198008415797,"connected_time":628000000000,"state":"active","ping":85},{"user_id":285,"name":"TurboRaspberry","steam_id":76561199215360629,"connected_time":473000000000,"state":"active","ping":37},{"user_id":267,"name":"Greskrendtregk","steam_id":76561197969553142,"connected_time":2792000000000,"state":"active","ping":53},{"user_id":256,"name":"Foxymittenz","steam_id":76561198189953711,"connected_time":3250000000000,"state":"active","ping":58},{"user_id":286,"name":"Cash MoneyBlue","steam_id":76561198934825927,"connected_time":390000000000,"state":"active","ping":135},{"user_id":280,"name":"Glue Gobbler","steam_id":76561198237034712,"connected_time":728000000000,"state":"active","ping":53},{"user_id":252,"name":"vfa","steam_id":76561198055729118,"connected_time":3854000000000,"state":"active","ping":56},{"user_id":113,"name":"- xXdinorabbitXx -","steam_id":76561199120171464,"connected_time":15314000000000,"state":"active","ping":94},{"user_id":94,"name":"twitch.tv/EmiTV","steam_id":76561198041201321,"connected_time":16370000000000,"state":"active","ping":136},{"user_id":287,"name":"Melon","steam_id":76561198203952392,"connected_time":372000000000,"state":"active","ping":117},{"user_id":274,"name":"Halo","steam_id":76561198144909435,"connected_time":1603000000000,"state":"active","ping":79},{"user_id":292,"name":"skipper","steam_id":76561199229351352,"connected_time":190000000000,"state":"active","ping":133},{"user_id":289,"name":"I like cheese (real)","steam_id":76561198882837408,"connected_time":279000000000,"state":"active","ping":70},{"user_id":276,"name":"Infineable","steam_id":76561198358100698,"connected_time":1557000000000,"state":"active","ping":111},{"user_id":290,"name":"MantisTobboggan","steam_id":76561197969447887,"connected_time":206000000000,"state":"active","ping":65},{"user_id":296,"name":"spenca","steam_id":76561198025371154,"connected_time":41000000000,"state":"active","ping":76},{"user_id":291,"name":"Infentdegree211","steam_id":76561198385234127,"connected_time":202000000000,"state":"active","ping":85},{"user_id":293,"name":"An Old Lady","steam_id":76561198047480318,"connected_time":149000000000,"state":"active","ping":73},{"user_id":295,"name":"vial","steam_id":76561198366140277,"connected_time":127000000000,"state":"active","ping":59}]},{"server_id":119,"name":"Uncletopia | Seattle | 2 | All Maps","name_short":"sea-2","host":"sea-1.us.uncletopia.com","port":27025,"enabled":true,"region":"us-west","cc":"us","latitude":47.608013,"longitude":-122.33517,"reserved":0,"last_update":"0001-01-01T00:00:00Z","name_a2s":"Uncletopia | Seattle | 2 | All Maps","protocol":17,"map":"pl_upward","folder":"tf","game":"Team Fortress","app_id":440,"player_count":24,"max_players":24,"Bots":0,"server_type":"Dedicated","server_os":"Linux","password":true,"vac":true,"version":"7742253","steam_id":85568392924469998,"keywords":["nocrits","nodmgspread","payload","uncletopia"],"game_id":440,"stv_port":27026,"stv_name":"Uncletopia | Seattle | 2 | All Maps | STV","players":[{"user_id":613,"name":"s4lmon","steam_id":76561198055882807,"connected_time":106000000000,"state":"active","ping":50},{"user_id":598,"name":"✫P∀nck∈✫","steam_id":76561198050163618,"connected_time":1255000000000,"state":"active","ping":71},{"user_id":609,"name":"genuine he/him pussy","steam_id":76561198260722699,"connected_time":542000000000,"state":"active","ping":124},{"user_id":571,"name":"Master Of Whales","steam_id":76561198349104889,"connected_time":2578000000000,"state":"active","ping":73},{"user_id":594,"name":"Person","steam_id":76561198073885832,"connected_time":1555000000000,"state":"active","ping":86},{"user_id":553,"name":"PAC-MATH","steam_id":76561198327729748,"connected_time":3244000000000,"state":"active","ping":107},{"user_id":606,"name":"rin-rin","steam_id":76561198166827208,"connected_time":840000000000,"state":"active","ping":45},{"user_id":601,"name":"Back with the milk","steam_id":76561199020105501,"connected_time":1027000000000,"state":"active","ping":131},{"user_id":475,"name":"penguinlord30","steam_id":76561198437116566,"connected_time":8712000000000,"state":"active","ping":55},{"user_id":610,"name":"Samiho","steam_id":76561198984374561,"connected_time":518000000000,"state":"active","ping":53},{"user_id":614,"name":"Jackmen Hoff","steam_id":76561199225557946,"connected_time":96000000000,"state":"active","ping":82},{"user_id":597,"name":"SoupDelivery","steam_id":76561198064906818,"connected_time":1459000000000,"state":"active","ping":99},{"user_id":576,"name":"KingTinkerer","steam_id":76561198226856548,"connected_time":2495000000000,"state":"active","ping":68},{"user_id":538,"name":"Eevee (She/Her)","steam_id":76561198271393589,"connected_time":4472000000000,"state":"active","ping":59},{"user_id":599,"name":"Chingga","steam_id":76561198165837395,"connected_time":1161000000000,"state":"active","ping":41},{"user_id":602,"name":"TrashCanGaming","steam_id":76561199150746424,"connected_time":1013000000000,"state":"active","ping":89},{"user_id":607,"name":"SesataPomang","steam_id":76561198145133059,"connected_time":690000000000,"state":"active","ping":92},{"user_id":580,"name":"Dauntless Duelist","steam_id":76561198025056018,"connected_time":2373000000000,"state":"active","ping":46},{"user_id":608,"name":"Tea Enthusiast","steam_id":76561198185583925,"connected_time":584000000000,"state":"active","ping":76},{"user_id":605,"name":"♥Callie♥","steam_id":76561198448635551,"connected_time":911000000000,"state":"active","ping":141},{"user_id":585,"name":"weed lesbian","steam_id":76561198042263805,"connected_time":2209000000000,"state":"active","ping":42},{"user_id":615,"name":"Borro","steam_id":76561198331225476,"connected_time":84000000000,"state":"active","ping":73},{"user_id":590,"name":"weed wizard","steam_id":76561198121427519,"connected_time":1881000000000,"state":"active","ping":63},{"user_id":612,"name":"McNamJam","steam_id":76561198028128686,"connected_time":444000000000,"state":"active","ping":68}]},{"server_id":406,"name":"Uncletopia | Seattle | 3 | Stopwatch Beta","name_short":"sea-3","host":"sea-1.us.uncletopia.com","port":27035,"enabled":true,"region":"us-west","cc":"us","latitude":47.608013,"longitude":-122.33517,"reserved":0,"last_update":"0001-01-01T00:00:00Z","name_a2s":"Uncletopia | Seattle | 3 | Stopwatch Beta","protocol":17,"map":"koth_highpass","folder":"tf","game":"Team Fortress","app_id":440,"player_count":0,"max_players":24,"Bots":0,"server_type":"Dedicated","server_os":"Linux","password":true,"vac":true,"version":"7742253","steam_id":85568392924515217,"keywords":["cp","nocrits","nodmgspread","uncletopia"],"game_id":440,"stv_port":27036,"stv_name":"Uncletopia | Seattle | 3 | Stopwatch Beta | STV","players":null},{"server_id":17,"name":"Uncletopia | San Francisco | 1 | All Maps","name_short":"sfo-1","host":"sfo-1.us.uncletopia.com","port":27015,"enabled":true,"region":"us-west","cc":"us","latitude":37.77397,"longitude":-122.4313,"reserved":0,"last_update":"0001-01-01T00:00:00Z","name_a2s":"Uncletopia | San Francisco | 1 | All Maps","protocol":17,"map":"cp_snakewater_final1","folder":"tf","game":"Team Fortress","app_id":440,"player_count":5,"max_players":24,"Bots":0,"server_type":"Dedicated","server_os":"Linux","password":true,"vac":true,"version":"7742253","steam_id":85568392924469999,"keywords":["cp","nocrits","nodmgspread","uncletopia"],"game_id":440,"stv_port":27016,"stv_name":"Uncletopia | San Francisco | 1 | All Maps | STV","players":[{"user_id":214,"name":"minimoose","steam_id":76561199090012242,"connected_time":328000000000,"state":"active","ping":74},{"user_id":215,"name":"Sconedog04","steam_id":76561198410923783,"connected_time":325000000000,"state":"active","ping":112},{"user_id":210,"name":"A 7/10","steam_id":76561198075814864,"connected_time":847000000000,"state":"active","ping":136},{"user_id":211,"name":"Klopo","steam_id":76561198871108633,"connected_time":787000000000,"state":"active","ping":40},{"user_id":187,"name":"Knock on the sky and listen","steam_id":76561198077597130,"connected_time":3341000000000,"state":"active","ping":34}]},{"server_id":18,"name":"Uncletopia | San Francisco | 2 | All Maps","name_short":"sfo-2","host":"sfo-1.us.uncletopia.com","port":27025,"enabled":true,"region":"us-west","cc":"us","latitude":37.77397,"longitude":-122.4313,"reserved":0,"last_update":"0001-01-01T00:00:00Z","name_a2s":"Uncletopia | San Francisco | 2 | All Maps","protocol":17,"map":"pl_frontier_final","folder":"tf","game":"Team Fortress","app_id":440,"player_count":0,"max_players":24,"Bots":0,"server_type":"Dedicated","server_os":"Linux","password":true,"vac":true,"version":"7742253","steam_id":85568392924470000,"keywords":["nocrits","nodmgspread","payload","uncletopia"],"game_id":440,"stv_port":27026,"stv_name":"Uncletopia | San Francisco | 2 | All Maps | STV","players":null},{"server_id":19,"name":"Uncletopia | San Francisco | 3 | Stopwatch Beta","name_short":"sfo-3","host":"sfo-1.us.uncletopia.com","port":27035,"enabled":true,"region":"us-west","cc":"us","latitude":37.77397,"longitude":-122.4313,"reserved":0,"last_update":"0001-01-01T00:00:00Z","name_a2s":"Uncletopia | San Francisco | 3 | Stopwatch Beta","protocol":17,"map":"workshop/koth_clearcut_b15.ugc2107050255","folder":"tf","game":"Team Fortress","app_id":440,"player_count":0,"max_players":24,"Bots":0,"server_type":"Dedicated","server_os":"Linux","password":true,"vac":true,"version":"7742253","steam_id":85568392924742824,"keywords":["cp","nocrits","nodmgspread","uncletopia"],"game_id":440,"stv_port":27036,"stv_name":"Uncletopia | San Francisco | 3 | Stopwatch Beta | STV","players":null},{"server_id":20,"name":"Uncletopia | San Francisco | 4 | Community","name_short":"sfo-4","host":"sfo-1.us.uncletopia.com","port":27045,"enabled":true,"region":"us-west","cc":"us","latitude":37.77397,"longitude":-122.4313,"reserved":0,"last_update":"0001-01-01T00:00:00Z","name_a2s":"Uncletopia | San Francisco | 4 | Community","protocol":17,"map":"workshop/pl_barnblitz_pro7.ugc582280235","folder":"tf","game":"Team Fortress","app_id":440,"player_count":0,"max_players":24,"Bots":0,"server_type":"Dedicated","server_os":"Linux","password":true,"vac":true,"version":"7742253","steam_id":85568392924742826,"keywords":["nocrits","nodmgspread","payload","uncletopia"],"game_id":440,"stv_port":27046,"stv_name":"Uncletopia | San Francisco | 4 | Community | STV","players":null},{"server_id":141,"name":"Uncletopia | Sydney | 1 | All Maps","name_short":"syd-1","host":"syd-1.au.uncletopia.com","port":27015,"enabled":true,"region":"au","cc":"au","latitude":-33.865143,"longitude":151.2099,"reserved":0,"last_update":"0001-01-01T00:00:00Z","name_a2s":"Uncletopia | Sydney | 1 | All Maps","protocol":17,"map":"koth_lakeside_final","folder":"tf","game":"Team Fortress","app_id":440,"player_count":24,"max_players":24,"Bots":0,"server_type":"Dedicated","server_os":"Linux","password":true,"vac":true,"version":"7742253","steam_id":85568392924470001,"keywords":["cp","nocrits","nodmgspread","uncletopia"],"game_id":440,"stv_port":27016,"stv_name":"Uncletopia | Sydney | 1 | All Maps | STV","players":[{"user_id":206,"name":"Van","steam_id":76561198027324852,"connected_time":331000000000,"state":"active","ping":77},{"user_id":167,"name":"Wake'n'Bake'n'Make'n'Bacon","steam_id":76561198061960926,"connected_time":3225000000000,"state":"active","ping":93},{"user_id":147,"name":"Match","steam_id":76561198088227748,"connected_time":4417000000000,"state":"active","ping":60},{"user_id":211,"name":"ben","steam_id":76561198223331996,"connected_time":189000000000,"state":"active","ping":60},{"user_id":178,"name":"Cup","steam_id":76561198038485845,"connected_time":2713000000000,"state":"active","ping":30},{"user_id":207,"name":"76561199204434162","steam_id":76561199204434162,"connected_time":324000000000,"state":"active","ping":64},{"user_id":196,"name":"Erebus","steam_id":76561198165570322,"connected_time":1755000000000,"state":"active","ping":45},{"user_id":192,"name":"BilboSwaggins79","steam_id":76561198984446872,"connected_time":1869000000000,"state":"active","ping":57},{"user_id":149,"name":"P2K","steam_id":76561199148002309,"connected_time":4307000000000,"state":"active","ping":167},{"user_id":94,"name":"CheeseFlag126","steam_id":76561199262769917,"connected_time":7076000000000,"state":"active","ping":63},{"user_id":205,"name":"gon","steam_id":76561198059906626,"connected_time":345000000000,"state":"active","ping":60},{"user_id":212,"name":"441","steam_id":76561198098324340,"connected_time":52000000000,"state":"active","ping":43},{"user_id":179,"name":"PanMan","steam_id":76561199027390996,"connected_time":2711000000000,"state":"active","ping":62},{"user_id":171,"name":"Mr.Deathclaw","steam_id":76561198025419320,"connected_time":3112000000000,"state":"active","ping":45},{"user_id":193,"name":"Owlenstein™","steam_id":76561198093983826,"connected_time":1840000000000,"state":"active","ping":120},{"user_id":183,"name":"KeeweMiner","steam_id":76561198373679200,"connected_time":2583000000000,"state":"active","ping":95},{"user_id":197,"name":"Wombon","steam_id":76561198071323879,"connected_time":1734000000000,"state":"active","ping":83},{"user_id":210,"name":"zebulon","steam_id":76561198063481761,"connected_time":263000000000,"state":"active","ping":44},{"user_id":213,"name":"natopotato.co","steam_id":76561198958059883,"connected_time":44000000000,"state":"active","ping":61},{"user_id":202,"name":"1ocalTechSuppor1","steam_id":76561198175547093,"connected_time":1054000000000,"state":"active","ping":90},{"user_id":180,"name":"monocrumb","steam_id":76561199126588682,"connected_time":2697000000000,"state":"active","ping":77},{"user_id":156,"name":"pizza hut","steam_id":76561199046481213,"connected_time":3892000000000,"state":"active","ping":70},{"user_id":208,"name":"old chunk of coal","steam_id":76561197990537324,"connected_time":311000000000,"state":"active","ping":113},{"user_id":182,"name":"MR Martian","steam_id":76561198157854561,"connected_time":2623000000000,"state":"active","ping":90}]},{"server_id":123,"name":"Uncletopia | Sydney | 2 | All Maps","name_short":"syd-2","host":"syd-1.au.uncletopia.com","port":27025,"enabled":true,"region":"au","cc":"au","latitude":-33.865143,"longitude":151.2099,"reserved":0,"last_update":"0001-01-01T00:00:00Z","name_a2s":"Uncletopia | Sydney | 2 | All Maps","protocol":17,"map":"koth_lakeside_final","folder":"tf","game":"Team Fortress","app_id":440,"player_count":7,"max_players":24,"Bots":0,"server_type":"Dedicated","server_os":"Linux","password":true,"vac":true,"version":"7742253","steam_id":85568392924470002,"keywords":["cp","nocrits","nodmgspread","uncletopia"],"game_id":440,"stv_port":27026,"stv_name":"Uncletopia | Sydney | 2 | All Maps | STV","players":[{"user_id":21,"name":"Bakaiser","steam_id":76561198085312279,"connected_time":719000000000,"state":"active","ping":63},{"user_id":22,"name":"Ser Fabulous","steam_id":76561198052258046,"connected_time":714000000000,"state":"active","ping":43},{"user_id":23,"name":"MikkyD","steam_id":76561198043452962,"connected_time":532000000000,"state":"active","ping":60},{"user_id":24,"name":"Emerald the Snake","steam_id":76561199013344853,"connected_time":439000000000,"state":"active","ping":70},{"user_id":28,"name":"Rogue (Anti-fire)","steam_id":76561198055404248,"connected_time":136000000000,"state":"active","ping":51},{"user_id":27,"name":"mrjoker78","steam_id":76561198863586919,"connected_time":160000000000,"state":"active","ping":48},{"user_id":29,"name":"shucks","steam_id":76561198260357417,"connected_time":63000000000,"state":"spawning","ping":47}]},{"server_id":395,"name":"Uncletopia | Sydney | 3 | All Maps","name_short":"syd-3","host":"syd-1.au.uncletopia.com","port":27035,"enabled":true,"region":"au","cc":"au","latitude":-33.865143,"longitude":151.2099,"reserved":0,"last_update":"0001-01-01T00:00:00Z","name_a2s":"Uncletopia | Sydney | 3 | All Maps","protocol":17,"map":"koth_viaduct","folder":"tf","game":"Team Fortress","app_id":440,"player_count":0,"max_players":24,"Bots":0,"server_type":"Dedicated","server_os":"Linux","password":true,"vac":true,"version":"7742253","steam_id":85568392925194467,"keywords":["cp","nocrits","nodmgspread","uncletopia"],"game_id":440,"stv_port":27036,"stv_name":"Uncletopia | Sydney | 3 | All Maps | STV","players":null},{"server_id":396,"name":"Uncletopia | Sydney | 4 | All Maps","name_short":"syd-4","host":"syd-1.au.uncletopia.com","port":27045,"enabled":true,"region":"au","cc":"au","latitude":-33.865143,"longitude":151.2099,"reserved":0,"last_update":"0001-01-01T00:00:00Z","name_a2s":"Uncletopia | Sydney | 4 | All Maps","protocol":17,"map":"pl_frontier_final","folder":"tf","game":"Team Fortress","app_id":440,"player_count":0,"max_players":24,"Bots":0,"server_type":"Dedicated","server_os":"Linux","password":true,"vac":true,"version":"7742253","steam_id":85568392925397958,"keywords":["nocrits","nodmgspread","payload","uncletopia"],"game_id":440,"stv_port":27046,"stv_name":"Uncletopia | Sydney | 4 | All Maps | STV","players":null},{"server_id":58,"name":"Uncletopia | Sydney | 5 | Stopwatch Beta","name_short":"syd-5","host":"syd-1.au.uncletopia.com","port":27055,"enabled":true,"region":"au","cc":"au","latitude":-33.865143,"longitude":151.2099,"reserved":0,"last_update":"0001-01-01T00:00:00Z","name_a2s":"Uncletopia | Sydney | 5 | Stopwatch Beta","protocol":17,"map":"koth_highpass","folder":"tf","game":"Team Fortress","app_id":440,"player_count":0,"max_players":24,"Bots":0,"server_type":"Dedicated","server_os":"Linux","password":true,"vac":true,"version":"7742253","steam_id":85568392925397959,"keywords":["cp","nocrits","nodmgspread","uncletopia"],"game_id":440,"stv_port":27056,"stv_name":"Uncletopia | Sydney | 5 | Stopwatch Beta | STV","players":null},{"server_id":59,"name":"Uncletopia | Sydney | 6 | Community","name_short":"syd-6","host":"syd-1.au.uncletopia.com","port":27065,"enabled":true,"region":"au","cc":"au","latitude":-33.865143,"longitude":151.2099,"reserved":0,"last_update":"0001-01-01T00:00:00Z","name_a2s":"Uncletopia | Sydney | 6 | Community","protocol":17,"map":"workshop/cp_villa_b19.ugc2113052569","folder":"tf","game":"Team Fortress","app_id":440,"player_count":0,"max_players":24,"Bots":0,"server_type":"Dedicated","server_os":"Linux","password":true,"vac":true,"version":"7742253","steam_id":85568392925397960,"keywords":["cp","nocrits","nodmgspread","uncletopia"],"game_id":440,"stv_port":27066,"stv_name":"Uncletopia | Sydney | 6 | Community | STV","players":null},{"server_id":49,"name":"Uncletopia | Warsaw | 1 | All Maps","name_short":"waw-1","host":"waw-1.pl.uncletopia.com","port":27015,"enabled":true,"region":"eu","cc":"pl","latitude":52.2297,"longitude":21.017532,"reserved":0,"last_update":"0001-01-01T00:00:00Z","name_a2s":"","protocol":0,"map":"","folder":"","game":"","app_id":0,"player_count":0,"max_players":0,"Bots":0,"server_type":"","server_os":"","password":false,"vac":false,"version":"","steam_id":0,"keywords":null,"game_id":0,"stv_port":0,"stv_name":"","players":null},{"server_id":50,"name":"Uncletopia | Warsaw | 2 | All Maps","name_short":"waw-2","host":"waw-1.pl.uncletopia.com","port":27025,"enabled":true,"region":"eu","cc":"pl","latitude":52.2297,"longitude":21.017532,"reserved":0,"last_update":"0001-01-01T00:00:00Z","name_a2s":"Uncletopia | Warsaw | 2 | All Maps","protocol":17,"map":"koth_cascade","folder":"tf","game":"Team Fortress","app_id":440,"player_count":0,"max_players":24,"Bots":0,"server_type":"Dedicated","server_os":"Linux","password":true,"vac":true,"version":"7742253","steam_id":85568392925397851,"keywords":["cp","nocrits","nodmgspread","uncletopia"],"game_id":440,"stv_port":27026,"stv_name":"Uncletopia | Warsaw | 2 | All Maps | STV","players":null},{"server_id":51,"name":"Uncletopia | Warsaw | 3 | All Maps","name_short":"waw-3","host":"waw-1.pl.uncletopia.com","port":27035,"enabled":true,"region":"eu","cc":"pl","latitude":52.2297,"longitude":21.017532,"reserved":0,"last_update":"0001-01-01T00:00:00Z","name_a2s":"Uncletopia | Warsaw | 3 | All Maps","protocol":17,"map":"koth_cascade","folder":"tf","game":"Team Fortress","app_id":440,"player_count":0,"max_players":24,"Bots":0,"server_type":"Dedicated","server_os":"Linux","password":true,"vac":true,"version":"7742253","steam_id":85568392925397852,"keywords":["cp","nocrits","nodmgspread","uncletopia"],"game_id":440,"stv_port":27036,"stv_name":"Uncletopia | Warsaw | 3 | All Maps | STV","players":null},{"server_id":52,"name":"Uncletopia | Warsaw | 4 | All Maps","name_short":"waw-4","host":"waw-1.pl.uncletopia.com","port":27045,"enabled":true,"region":"eu","cc":"pl","latitude":52.2297,"longitude":21.017532,"reserved":0,"last_update":"0001-01-01T00:00:00Z","name_a2s":"Uncletopia | Warsaw | 4 | All Maps","protocol":17,"map":"koth_highpass","folder":"tf","game":"Team Fortress","app_id":440,"player_count":0,"max_players":24,"Bots":0,"server_type":"Dedicated","server_os":"Linux","password":true,"vac":true,"version":"7742253","steam_id":85568392925397853,"keywords":["cp","nocrits","nodmgspread","uncletopia"],"game_id":440,"stv_port":27046,"stv_name":"Uncletopia | Warsaw | 4 | All Maps | STV","players":null},{"server_id":53,"name":"Uncletopia | Warsaw | 5 | Stopwatch Beta","name_short":"waw-5","host":"waw-1.pl.uncletopia.com","port":27055,"enabled":true,"region":"eu","cc":"pl","latitude":52.2297,"longitude":21.017532,"reserved":0,"last_update":"0001-01-01T00:00:00Z","name_a2s":"Uncletopia | Warsaw | 5 | Stopwatch Beta","protocol":17,"map":"pl_swiftwater_final1","folder":"tf","game":"Team Fortress","app_id":440,"player_count":0,"max_players":24,"Bots":0,"server_type":"Dedicated","server_os":"Linux","password":true,"vac":true,"version":"7742253","steam_id":85568392925397854,"keywords":["nocrits","nodmgspread","payload","uncletopia"],"game_id":440,"stv_port":27056,"stv_name":"Uncletopia | Warsaw | 5 | Stopwatch Beta | STV","players":null},{"server_id":54,"name":"Uncletopia | Warsaw | 6 | Community","name_short":"waw-6","host":"waw-1.pl.uncletopia.com","port":27065,"enabled":true,"region":"eu","cc":"pl","latitude":52.2297,"longitude":21.017532,"reserved":0,"last_update":"0001-01-01T00:00:00Z","name_a2s":"Uncletopia | Warsaw | 6 | Community","protocol":17,"map":"workshop/koth_slaughter_rc1.ugc1712845210","folder":"tf","game":"Team Fortress","app_id":440,"player_count":0,"max_players":24,"Bots":0,"server_type":"Dedicated","server_os":"Linux","password":true,"vac":true,"version":"7742253","steam_id":85568392925397856,"keywords":["cp","nocrits","nodmgspread","uncletopia"],"game_id":440,"stv_port":27066,"stv_name":"Uncletopia | Warsaw | 6 | Community | STV","players":null}]}