{"status":true,"message":"","result":[{"server_id":9,"name":"Uncletopia | Atlanta | 1 | All Maps","name_short":"atl-1","host":"atl-1.us.uncletopia.com","port":27015,"enabled":true,"region":"us-east","cc":"us","latitude":33.753746,"longitude":-84.38633,"reserved":0,"last_update":"0001-01-01T00:00:00Z","name_a2s":"Uncletopia | Atlanta | 1 | All Maps","protocol":17,"map":"cp_process_final","folder":"tf","game":"Team Fortress","app_id":440,"player_count":24,"max_players":24,"Bots":0,"server_type":"Dedicated","server_os":"Linux","password":true,"vac":true,"version":"7882260","steam_id":85568392924469982,"keywords":["cp","nocrits","nodmgspread","uncletopia"],"game_id":440,"stv_port":27016,"stv_name":"Uncletopia | Atlanta | 1 | All Maps | STV","players":[{"user_id":347,"name":"My Gamertag 25","steam_id":76561198116056849,"connected_time":1655000000000,"state":"active","ping":88},{"user_id":382,"name":"freyja","steam_id":76561198249206656,"connected_time":60000000000,"state":"active","ping":84},{"user_id":338,"name":"hi","steam_id":76561198809577048,"connected_time":2623000000000,"state":"active","ping":92},{"user_id":365,"name":"HARRY","steam_id":76561198842067238,"connected_time":433000000000,"state":"active","ping":62},{"user_id":352,"name":"CheeseLikeSubstance","steam_id":76561197977170646,"connected_time":1637000000000,"state":"active","ping":70},{"user_id":363,"name":"Rat-ortastic","steam_id":76561198105613110,"connected_time":827000000000,"state":"active","ping":70},{"user_id":337,"name":"ATLS 1 | Krissy","steam_id":76561197960848174,"connected_time":2648000000000,"state":"active","ping":67},{"user_id":358,"name":"stumped","steam_id":76561198994634058,"connected_time":1408000000000,"state":"active","ping":68},{"user_id":357,"name":"Samurai Joseph","steam_id":76561198027849460,"connected_time":1436000000000,"state":"active","ping":60},{"user_id":364,"name":"ma0re","steam_id":76561199231971506,"connected_time":574000000000,"state":"active","ping":69},{"user_id":323,"name":"lynt","steam_id":76561198988333976,"connected_time":4031000000000,"state":"active","ping":44},{"user_id":349,"name":"atom","steam_id":76561198800020753,"connected_time":1652000000000,"state":"active","ping":65},{"user_id":366,"name":"Flint","steam_id":76561198066547582,"connected_time":412000000000,"state":"active","ping":106},{"user_id":371,"name":"Higgle Poggers","steam_id":76561198043960257,"connected_time":337000000000,"state":"active","ping":87},{"user_id":335,"name":"Lancer Fan Club","steam_id":76561198355495948,"connected_time":2844000000000,"state":"active","ping":56},{"user_id":255,"name":"and i'm javert!","steam_id":76561198117033273,"connected_time":8263000000000,"state":"active","ping":145},{"user_id":368,"name":"Decolour","steam_id":76561199045608372,"connected_time":350000000000,"state":"active","ping":83},{"user_id":373,"name":"chexo4","steam_id":76561198150532531,"connected_time":224000000000,"state":"active","ping":51},{"user_id":348,"name":"eish","steam_id":76561198089463603,"connected_time":1654000000000,"state":"active","ping":135},{"user_id":324,"name":"ATL1 | cola","steam_id":76561198374390458,"connected_time":3953000000000,"state":"active","ping":70},{"user_id":351,"name":"DragonFalcon™","steam_id":76561198044559930,"connected_time":1648000000000,"state":"active","ping":63},{"user_id":353,"name":"MayaBon","steam_id":76561198797968261,"connected_time":1637000000000,"state":"active","ping":115},{"user_id":383,"name":"k3nny11","steam_id":76561198182533757,"connected_time":59000000000,"state":"active","ping":71},{"user_id":345,"name":"rat","steam_id":76561198313364985,"connected_time":1892000000000,"state":"active","ping":102}]},{"server_id":104,"name":"Uncletopia | Atlanta | 2 | All Maps","name_short":"atl-2","host":"atl-1.us.uncletopia.com","port":27025,"enabled":true,"region":"us-east","cc":"us","latitude":33.753746,"longitude":-84.38633,"reserved":0,"last_update":"0001-01-01T00:00:00Z","name_a2s":"Uncletopia | Atlanta | 2 | All Maps","protocol":17,"map":"pl_snowycoast","folder":"tf","game":"Team Fortress","app_id":440,"player_count":24,"max_players":24,"Bots":0,"server_type":"Dedicated","server_os":"Linux","password":true,"vac":true,"version":"7882260","steam_id":85568392924469983,"keywords":["nocrits","nodmgspread","payload","uncletopia"],"game_id":440,"stv_port":27026,"stv_name":"Uncletopia | Atlanta | 2 | All Maps | STV","players":[{"user_id":208,"name":"TheMrMan","steam_id":76561198072304288,"connected_time":7697000000000,"state":"active","ping":79},{"user_id":290,"name":"Lee?","steam_id":76561199060892634,"connected_time":1218000000000,"state":"active","ping":59},{"user_id":240,"name":"Mr.Trace","steam_id":76561198206862893,"connected_time":4814000000000,"state":"active","ping":117},{"user_id":282,"name":"Blue Raja","steam_id":76561199053236283,"connected_time":1546000000000,"state":"active","ping":83},{"user_id":270,"name":"tiananmensquare1989","steam_id":76561199076837870,"connected_time":2606000000000,"state":"active","ping":70},{"user_id":298,"name":"Female Gamer","steam_id":76561199366482682,"connected_time":735000000000,"state":"active","ping":153},{"user_id":295,"name":"TheLonliestThelonius","steam_id":76561198097657243,"connected_time":857000000000,"state":"active","ping":87},{"user_id":292,"name":"LeadHickory","steam_id":76561198219756521,"connected_time":1012000000000,"state":"active","ping":90},{"user_id":301,"name":"Maverick","steam_id":76561198322829814,"connected_time":543000000000,"state":"active","ping":76},{"user_id":279,"name":"how do i girl???","steam_id":76561198050290565,"connected_time":1821000000000,"state":"active","ping":68},{"user_id":236,"name":"ScrockCat","steam_id":76561198012882208,"connected_time":5305000000000,"state":"active","ping":126},{"user_id":186,"name":"waowaowao","steam_id":76561198068804538,"connected_time":9988000000000,"state":"active","ping":65},{"user_id":267,"name":"ToastyBish","steam_id":76561198185327309,"connected_time":2669000000000,"state":"active","ping":57},{"user_id":288,"name":"FHC | SHAQ$","steam_id":76561198045246504,"connected_time":1305000000000,"state":"active","ping":68},{"user_id":294,"name":"nothere","steam_id":76561198341624641,"connected_time":886000000000,"state":"active","ping":61},{"user_id":275,"name":"AwesomeAEA","steam_id":76561198303978260,"connected_time":2047000000000,"state":"active","ping":78},{"user_id":281,"name":"Jeeper","steam_id":76561198155583692,"connected_time":1632000000000,"state":"active","ping":74},{"user_id":297,"name":"Holy Obsession","steam_id":76561198103361750,"connected_time":836000000000,"state":"active","ping":93},{"user_id":283,"name":".-.","steam_id":76561198820617005,"connected_time":1518000000000,"state":"active","ping":97},{"user_id":284,"name":"Notation","steam_id":76561198119509319,"connected_time":1471000000000,"state":"active","ping":50},{"user_id":246,"name":"Drapph","steam_id":76561199384213314,"connected_time":4635000000000,"state":"active","ping":97},{"user_id":293,"name":"Vanilla :3","steam_id":76561199106847859,"connected_time":907000000000,"state":"active","ping":66},{"user_id":291,"name":"Broken Cereal√","steam_id":76561198087489795,"connected_time":1014000000000,"state":"active","ping":64},{"user_id":303,"name":"Voodo133","steam_id":76561198042670351,"connected_time":407000000000,"state":"active","ping":86}]},{"server_id":400,"name":"Uncletopia | Atlanta | 3 | Community","name_short":"atl-3","host":"atl-1.us.uncletopia.com","port":27035,"enabled":true,"region":"us-east","cc":"us","latitude":33.753746,"longitude":-84.38633,"reserved":0,"last_update":"0001-01-01T00:00:00Z","name_a2s":"Uncletopia | Atlanta | 3 | Community","protocol":17,"map":"workshop/pl_highwood_b13.ugc1769496557","folder":"tf","game":"Team Fortress","app_id":440,"player_count":24,"max_players":24,"Bots":0,"server_type":"Dedicated","server_os":"Linux","password":true,"vac":true,"version":"7882260","steam_id":85568392924515187,"keywords":["nocrits","nodmgspread","payload","uncletopia"],"game_id":440,"stv_port":27036,"stv_name":"Uncletopia | Atlanta | 3 | Community | STV","players":[{"user_id":34,"name":"Turnip","steam_id":76561198066309458,"connected_time":1701000000000,"state":"active","ping":53},{"user_id":70,"name":"WASTEDTALENT247","steam_id":76561199444251416,"connected_time":477000000000,"state":"active","ping":63},{"user_id":38,"name":"BIGGEST MAC","steam_id":76561198847517098,"connected_time":1620000000000,"state":"active","ping":100},{"user_id":45,"name":"Angry Canadian","steam_id":76561198122643399,"connected_time":1181000000000,"state":"active","ping":45},{"user_id":36,"name":"Chip Skylark","steam_id":76561198148263717,"connected_time":1671000000000,"state":"active","ping":47},{"user_id":37,"name":"M16A1Sauce","steam_id":76561199058049384,"connected_time":1659000000000,"state":"active","ping":76},{"user_id":46,"name":"sassy loli","steam_id":76561198402316065,"connected_time":1097000000000,"state":"active","ping":92},{"user_id":62,"name":"Scotty","steam_id":76561198268006443,"connected_time":897000000000,"state":"active","ping":66},{"user_id":47,"name":"Latedawns82","steam_id":76561199196300397,"connected_time":1093000000000,"state":"active","ping":124},{"user_id":72,"name":"Missing Minus","steam_id":76561198120822928,"connected_time":18000000000,"state":"spawning","ping":42},{"user_id":48,"name":"Big Manny","steam_id":76561198999284997,"connected_time":1092000000000,"state":"active","ping":127},{"user_id":49,"name":"kiaan","steam_id":76561198060819695,"connected_time":1087000000000,"state":"active","ping":75},{"user_id":50,"name":"hellen keller's dog","steam_id":76561198045356198,"connected_time":1087000000000,"state":"active","ping":62},{"user_id":51,"name":"boolian","steam_id":76561198172187922,"connected_time":1076000000000,"state":"active","ping":105},{"user_id":52,"name":"covert","steam_id":76561198088573643,"connected_time":1072000000000,"state":"active","ping":102},{"user_id":53,"name":"Crim","steam_id":76561199111367435,"connected_time":1070000000000,"state":"active","ping":91},{"user_id":54,"name":"foxxo","steam_id":76561198451014982,"connected_time":1046000000000,"state":"active","ping":76},{"user_id":71,"name":"LemonZest","steam_id":76561199196369249,"connected_time":433000000000,"state":"active","ping":74},{"user_id":69,"name":"Green_GarBear","steam_id":76561199468912415,"connected_time":560000000000,"state":"active","ping":123},{"user_id":64,"name":"Lift_","steam_id":76561198863467430,"connected_time":886000000000,"state":"active","ping":60},{"user_id":59,"name":"Rohi Mig","steam_id":76561198113623627,"connected_time":968000000000,"state":"active","ping":84},{"user_id":61,"name":"Bobby Mike","steam_id":76561198353781282,"connected_time":950000000000,"state":"active","ping":69},{"user_id":68,"name":"Wallet Inspector","steam_id":76561199467334502,"connected_time":658000000000,"state":"active","ping":114},{"user_id":67,"name":"Leafpool Enjoyer (femboy)","steam_id":76561198123549027,"connected_time":777000000000,"state":"active","ping":75}]},{"server_id":401,"name":"Uncletopia | Atlanta | 4 | No Payload","name_short":"atl-4","host":"atl-1.us.uncletopia.com","port":27045,"enabled":true,"region":"us-east","cc":"us","latitude":33.753746,"longitude":-84.38633,"reserved":0,"last_update":"0001-01-01T00:00:00Z","name_a2s":"","protocol":0,"map":"","folder":"","game":"","app_id":0,"player_count":0,"max_players":0,"Bots":0,"server_type":"","server_os":"","password":false,"vac":false,"version":"","steam_id":0,"keywords":null,"game_id":0,"stv_port":0,"stv_name":"","players":null},{"server_id":2,"name":"Uncletopia | Chicago | 1 | All Maps","name_short":"chi-1","host":"chi-1.us.uncletopia.com","port":27015,"enabled":true,"region":"us-central","cc":"us","latitude":41.881832,"longitude":-87.62318,"reserved":0,"last_update":"0001-01-01T00:00:00Z","name_a2s":"Uncletopia | Chicago | 1 | All Maps","protocol":17,"map":"pl_borneo","folder":"tf","game":"Team Fortress","app_id":440,"player_count":24,"max_players":24,"Bots":0,"server_type":"Dedicated","server_os":"Linux","password":true,"vac":true,"version":"7882260","steam_id":85568392924469984,"keywords":["nocrits","nodmgspread","payload","uncletopia"],"game_id":440,"stv_port":27016,"stv_name":"Uncletopia | Chicago | 1 | All Maps | STV","players":[{"user_id":428,"name":"Bee_Pirate","steam_id":76561199000599111,"connected_time":6768000000000,"state":"active","ping":62},{"user_id":474,"name":"Mehman","steam_id":76561199020244051,"connected_time":2598000000000,"state":"active","ping":97},{"user_id":496,"name":"Simply_Komeiji","steam_id":76561198354177703,"connected_time":694000000000,"state":"active","ping":89},{"user_id":482,"name":"LightningBlitz47","steam_id":76561198310971283,"connected_time":1631000000000,"state":"active","ping":100},{"user_id":486,"name":"LerN","steam_id":76561198083463877,"connected_time":869000000000,"state":"active","ping":47},{"user_id":472,"name":"Valerie","steam_id":76561198061409396,"connected_time":2654000000000,"state":"active","ping":48},{"user_id":487,"name":"BRICKHOUSE BILL","steam_id":76561198799403828,"connected_time":862000000000,"state":"active","ping":48},{"user_id":500,"name":"RiceRiceDesu","steam_id":76561198018568723,"connected_time":451000000000,"state":"active","ping":56},{"user_id":434,"name":"an inebriated newt fancier","steam_id":76561197985428155,"connected_time":6611000000000,"state":"active","ping":57},{"user_id":490,"name":"Hylic","steam_id":76561199051314589,"connected_time":841000000000,"state":"active","ping":61},{"user_id":422,"name":"Thundermonkey (SMOKE)","steam_id":76561198017631728,"connected_time":7173000000000,"state":"active","ping":63},{"user_id":491,"name":"Toygar","steam_id":76561198023679830,"connected_time":831000000000,"state":"active","ping":47},{"user_id":492,"name":"1TheExterminator","steam_id":76561198972879727,"connected_time":807000000000,"state":"active","ping":79},{"user_id":468,"name":"bruiseraaron","steam_id":76561198020092380,"connected_time":2695000000000,"state":"active","ping":60},{"user_id":462,"name":"Ehttri","steam_id":76561198170138667,"connected_time":3611000000000,"state":"active","ping":79},{"user_id":499,"name":"DESTROY","steam_id":76561199100342013,"connected_time":622000000000,"state":"active","ping":96},{"user_id":467,"name":"Elizabeth truss","steam_id":76561198058250979,"connected_time":2898000000000,"state":"active","ping":70},{"user_id":497,"name":"\u003cUsername Unknown\u003e","steam_id":76561198255311543,"connected_time":685000000000,"state":"active","ping":88},{"user_id":480,"name":"Suspicious Doggo","steam_id":76561198871853577,"connected_time":1777000000000,"state":"active","ping":96},{"user_id":494,"name":"Shattered Glass","steam_id":76561198116835391,"connected_time":796000000000,"state":"active","ping":99},{"user_id":464,"name":"richard clock","steam_id":76561198048455671,"connected_time":3529000000000,"state":"active","ping":60},{"user_id":498,"name":"CaptainKn1ght","steam_id":76561198018979695,"connected_time":677000000000,"state":"active","ping":84},{"user_id":469,"name":"Yunky","steam_id":76561197966495749,"connected_time":2694000000000,"state":"active","ping":73},{"user_id":502,"name":"Biosock Infiknit","steam_id":76561198072693794,"connected_time":87000000000,"state":"active","ping":57}]},{"server_id":106,"name":"Uncletopia | Chicago | 2 | All Maps","name_short":"chi-2","host":"chi-1.us.uncletopia.com","port":27025,"enabled":true,"region":"us-central","cc":"us","latitude":41.881832,"longitude":-87.62318,"reserved":0,"last_update":"0001-01-01T00:00:00Z","name_a2s":"Uncletopia | Chicago | 2 | All Maps","protocol":17,"map":"cp_dustbowl","folder":"tf","game":"Team Fortress","app_id":440,"player_count":24,"max_players":24,"Bots":0,"server_type":"Dedicated","server_os":"Linux","password":true,"vac":true,"version":"7882260","steam_id":85568392924469985,"keywords":["cp","nocrits","nodmgspread","uncletopia"],"game_id":440,"stv_port":27026,"stv_name":"Uncletopia | Chicago | 2 | All Maps | STV","players":[{"user_id":617,"name":"TheSalathar","steam_id":76561198880618280,"connected_time":1575000000000,"state":"active","ping":110},{"user_id":589,"name":"Loleo","steam_id":76561198348132374,"connected_time":2633000000000,"state":"active","ping":56},{"user_id":613,"name":"Oh No! It's Twister!","steam_id":76561198016791916,"connected_time":1705000000000,"state":"active","ping":87},{"user_id":602,"name":"pontiff","steam_id":76561198304265800,"connected_time":2307000000000,"state":"active","ping":77},{"user_id":498,"name":"0","steam_id":76561198046055673,"connected_time":8109000000000,"state":"active","ping":72},{"user_id":629,"name":"scripy","steam_id":76561199267237541,"connected_time":462000000000,"state":"active","ping":113},{"user_id":626,"name":"Fumpo","steam_id":76561198206873365,"connected_time":734000000000,"state":"active","ping":70},{"user_id":591,"name":"Pheonix","steam_id":76561199470538309,"connected_time":2630000000000,"state":"active","ping":51},{"user_id":575,"name":"*‧˚kitsu ʚ♥ɞ","steam_id":76561198091741658,"connected_time":4037000000000,"state":"active","ping":69},{"user_id":610,"name":"EdgemasterLordOfTheSalt","steam_id":76561198039551605,"connected_time":1943000000000,"state":"active","ping":82},{"user_id":601,"name":"mineblast99","steam_id":76561199065648954,"connected_time":2325000000000,"state":"active","ping":79},{"user_id":611,"name":"Enron Hubbard","steam_id":76561198012951411,"connected_time":1940000000000,"state":"active","ping":60},{"user_id":612,"name":"jackhillard83","steam_id":76561199057098390,"connected_time":1899000000000,"state":"active","ping":92},{"user_id":615,"name":"Vin","steam_id":76561198043601929,"connected_time":1586000000000,"state":"active","ping":121},{"user_id":619,"name":"TommoSFMO","steam_id":76561198855070608,"connected_time":1552000000000,"state":"active","ping":81},{"user_id":576,"name":"Cats Can Kill!","steam_id":76561198043652981,"connected_time":4031000000000,"state":"active","ping":86},{"user_id":607,"name":"femboy foxgirl","steam_id":76561198056432756,"connected_time":1993000000000,"state":"active","ping":64},{"user_id":604,"name":"Bicep Boi","steam_id":76561198169128060,"connected_time":2200000000000,"state":"active","ping":86},{"user_id":621,"name":"Daperlin","steam_id":76561198091299113,"connected_time":1481000000000,"state":"active","ping":83},{"user_id":614,"name":"monke","steam_id":76561198308289194,"connected_time":1694000000000,"state":"active","ping":51},{"user_id":625,"name":"daBigBoss","steam_id":76561198120428029,"connected_time":754000000000,"state":"active","ping":91},{"user_id":630,"name":"WALKING GOPRO","steam_id":76561198186928885,"connected_time":139000000000,"state":"active","ping":72},{"user_id":570,"name":"Chosen_One_of_Arroyo","steam_id":76561199229339031,"connected_time":4226000000000,"state":"active","ping":95}]},{"server_id":402,"name":"Uncletopia | Chicago | 3 | All Maps","name_short":"chi-3","host":"chi-1.us.uncletopia.com","port":27035,"enabled":true,"region":"us-central","cc":"us","latitude":41.881832,"longitude":-87.62318,"reserved":0,"last_update":"0001-01-01T00:00:00Z","name_a2s":"Uncletopia | Chicago | 3 | All Maps","protocol":17,"map":"cp_dustbowl","folder":"tf","game":"Team Fortress","app_id":440,"player_count":24,"max_players":24,"Bots":0,"server_type":"Dedicated","server_os":"Linux","password":true,"vac":true,"version":"7882260","steam_id":85568392924515191,"keywords":["cp","nocrits","nodmgspread","uncletopia"],"game_id":440,"stv_port":27036,"stv_name":"Uncletopia | Chicago | 3 | All Maps | STV","players":[{"user_id":392,"name":"ipadkid","steam_id":76561199239446808,"connected_time":347000000000,"state":"active","ping":74},{"user_id":374,"name":"Digitic","steam_id":76561198080295536,"connected_time":1926000000000,"state":"active","ping":75},{"user_id":382,"name":"roy","steam_id":76561198032579971,"connected_time":1542000000000,"state":"active","ping":70},{"user_id":384,"name":"that's a regular show reference","steam_id":76561198204995668,"connected_time":1286000000000,"state":"active","ping":79},{"user_id":366,"name":"DoubleX2000","steam_id":76561198164134387,"connected_time":1990000000000,"state":"active","ping":105},{"user_id":367,"name":"TothBrush","steam_id":76561198028254471,"connected_time":1989000000000,"state":"active","ping":67},{"user_id":388,"name":"minecraft","steam_id":76561198104345201,"connected_time":646000000000,"state":"active","ping":86},{"user_id":385,"name":"chhiccennuggett","steam_id":76561198125864630,"connected_time":1128000000000,"state":"active","ping":107},{"user_id":352,"name":"Gachalover","steam_id":76561199231552074,"connected_time":3851000000000,"state":"active","ping":72},{"user_id":368,"name":"Witch!","steam_id":76561198062763756,"connected_time":1986000000000,"state":"active","ping":55},{"user_id":379,"name":"|WS| Don't_Taze_Me_Bro","steam_id":76561198043289495,"connected_time":1777000000000,"state":"active","ping":73},{"user_id":380,"name":"goose","steam_id":76561198367551668,"connected_time":1752000000000,"state":"active","ping":54},{"user_id":363,"name":"Lone Dancer","steam_id":76561199096241116,"connected_time":2028000000000,"state":"active","ping":57},{"user_id":370,"name":"get rotated idiot","steam_id":76561198045724540,"connected_time":1971000000000,"state":"active","ping":117},{"user_id":339,"name":"xstar","steam_id":76561198170045102,"connected_time":4585000000000,"state":"active","ping":62},{"user_id":359,"name":"God's Goofiest Goober","steam_id":76561198140341533,"connected_time":3406000000000,"state":"active","ping":34},{"user_id":377,"name":"DOMO_MR_ROBOTO","steam_id":76561198077108345,"connected_time":1870000000000,"state":"active","ping":97},{"user_id":215,"name":"ZofoJackson","steam_id":76561197998366861,"connected_time":14451000000000,"state":"active","ping":63},{"user_id":371,"name":"Lord Razor","steam_id":76561198373286283,"connected_time":1965000000000,"state":"active","ping":95},{"user_id":387,"name":"Brown_Dream","steam_id":76561198975766145,"connected_time":725000000000,"state":"active","ping":86},{"user_id":394,"name":"Hope","steam_id":76561199182558088,"connected_time":221000000000,"state":"active","ping":71},{"user_id":393,"name":"Et_1113","steam_id":76561199199558343,"connected_time":342000000000,"state":"active","ping":111},{"user_id":373,"name":"Whys there a level 3 there?","steam_id":76561198309696109,"connected_time":1942000000000,"state":"active","ping":71},{"user_id":357,"name":"Kazul","steam_id":76561198014925555,"connected_time":3794000000000,"state":"active","ping":53}]},{"server_id":403,"name":"Uncletopia | Chicago | 4 | All Maps","name_short":"chi-4","host":"chi-1.us.uncletopia.com","port":27045,"enabled":true,"region":"us-central","cc":"us","latitude":41.881832,"longitude":-87.62318,"reserved":0,"last_update":"0001-01-01T00:00:00Z","name_a2s":"Uncletopia | Chicago | 4 | All Maps","protocol":17,"map":"koth_sawmill","folder":"tf","game":"Team Fortress","app_id":440,"player_count":23,"max_players":24,"Bots":0,"server_type":"Dedicated","server_os":"Linux","password":true,"vac":true,"version":"7882260","steam_id":85568392924515193,"keywords":["cp","nocrits","nodmgspread","uncletopia"],"game_id":440,"stv_port":27046,"stv_name":"Uncletopia | Chicago | 4 | All Maps | STV","players":[{"user_id":156,"name":"Owl Pacino","steam_id":76561197979970666,"connected_time":2141000000000,"state":"active","ping":54},{"user_id":180,"name":"MeatwadMeatwad","steam_id":76561198202194160,"connected_time":547000000000,"state":"active","ping":45},{"user_id":157,"name":"pinkissocool {f2p}","steam_id":76561198989599828,"connected_time":2111000000000,"state":"active","ping":56},{"user_id":181,"name":"Chode Mode","steam_id":76561198353840477,"connected_time":436000000000,"state":"active","ping":48},{"user_id":184,"name":"(◔) Neville","steam_id":76561198025637970,"connected_time":94000000000,"state":"active","ping":75},{"user_id":114,"name":"Merchant","steam_id":76561198130468663,"connected_time":4336000000000,"state":"active","ping":57},{"user_id":140,"name":"thecal","steam_id":76561198307893384,"connected_time":3102000000000,"state":"active","ping":47},{"user_id":175,"name":"putrid slob","steam_id":76561198382572522,"connected_time":991000000000,"state":"active","ping":68},{"user_id":161,"name":"Cats in 3D","steam_id":76561198048051416,"connected_time":1715000000000,"state":"active","ping":62},{"user_id":160,"name":"Dr. Robotniks Mean Bean Machine","steam_id":76561198047980627,"connected_time":1859000000000,"state":"active","ping":54},{"user_id":159,"name":"Monsta","steam_id":76561197971626425,"connected_time":1902000000000,"state":"active","ping":94},{"user_id":171,"name":"Get Beaned","steam_id":76561198391590820,"connected_time":1182000000000,"state":"active","ping":108},{"user_id":152,"name":"Weeb","steam_id":76561198333568146,"connected_time":2300000000000,"state":"active","ping":75},{"user_id":165,"name":"Dewgong (real)","steam_id":76561198045999391,"connected_time":1286000000000,"state":"active","ping":67},{"user_id":154,"name":"Goober","steam_id":76561198988863807,"connected_time":2289000000000,"state":"active","ping":74},{"user_id":179,"name":"NarcolepticRock","steam_id":76561199123103642,"connected_time":622000000000,"state":"active","ping":73},{"user_id":176,"name":"EnergyBolt30","steam_id":76561198925178957,"connected_time":901000000000,"state":"active","ping":122},{"user_id":97,"name":"Zeora","steam_id":76561198799145251,"connected_time":5728000000000,"state":"active","ping":66},{"user_id":169,"name":"epitome","steam_id":76561198834412436,"connected_time":1231000000000,"state":"active","ping":80},{"user_id":135,"name":"FazeCumShot69","steam_id":76561199248475270,"connected_time":3344000000000,"state":"active","ping":74},{"user_id":148,"name":"kevinw.817","steam_id":76561199229743305,"connected_time":2483000000000,"state":"active","ping":90},{"user_id":183,"name":"Tibalt Nyahuma","steam_id":76561198034779431,"connected_time":296000000000,"state":"active","ping":77},{"user_id":101,"name":"6thDog","steam_id":76561198097713905,"connected_time":5444000000000,"state":"active","ping":65}]},{"server_id":36,"name":"Uncletopia | Chicago | 5 | All Maps","name_short":"chi-5","host":"chi-2.us.uncletopia.com","port":27015,"enabled":true,"region":"us-central","cc":"us","latitude":41.881832,"longitude":-87.62318,"reserved":0,"last_update":"0001-01-01T00:00:00Z","name_a2s":"Uncletopia | Chicago | 5 | All Maps","protocol":17,"map":"pl_pier","folder":"tf","game":"Team Fortress","app_id":440,"player_count":24,"max_players":24,"Bots":0,"server_type":"Dedicated","server_os":"Linux","password":true,"vac":true,"version":"7882260","steam_id":85568392924866362,"keywords":["nocrits","nodmgspread","payload","uncletopia"],"game_id":440,"stv_port":27016,"stv_name":"Uncletopia | Chicago | 5 | All Maps | STV","players":[{"user_id":85,"name":"SUROS Handcannon","steam_id":76561198798341137,"connected_time":1570000000000,"state":"active","ping":97},{"user_id":63,"name":"Elias","steam_id":76561198106431732,"connected_time":3362000000000,"state":"active","ping":31},{"user_id":99,"name":"Mr. Crispy Lips","steam_id":76561198028157625,"connected_time":794000000000,"state":"active","ping":98},{"user_id":101,"name":"Johnny Lawrence #JohnnyMaxxing","steam_id":76561199367141671,"connected_time":539000000000,"state":"active","ping":60},{"user_id":106,"name":"Cliff Uppercut","steam_id":76561197999439391,"connected_time":275000000000,"state":"active","ping":75},{"user_id":98,"name":"bought this cart for 15 dollars","steam_id":76561198253731826,"connected_time":890000000000,"state":"active","ping":62},{"user_id":100,"name":"bonk","steam_id":76561198821774697,"connected_time":584000000000,"state":"active","ping":49},{"user_id":117,"name":"Applesauce","steam_id":76561198049642811,"connected_time":35000000000,"state":"active","ping":70},{"user_id":116,"name":"Fredrick","steam_id":76561197981419964,"connected_time":95000000000,"state":"active","ping":62},{"user_id":115,"name":"❤[CandySwirl]❤","steam_id":76561198817361963,"connected_time":149000000000,"state":"active","ping":106},{"user_id":110,"name":"Texas Man","steam_id":76561198353412986,"connected_time":224000000000,"state":"active","ping":63},{"user_id":118,"name":"Cosmic sR","steam_id":76561198081738675,"connected_time":2000000000,"state":"spawning","ping":65},{"user_id":59,"name":"dekarrin","steam_id":76561198012736095,"connected_time":3607000000000,"state":"active","ping":70},{"user_id":105,"name":"Depths","steam_id":76561198343435310,"connected_time":297000000000,"state":"active","ping":114},{"user_id":57,"name":"LeRoy42","steam_id":76561198035591428,"connected_time":3632000000000,"state":"active","ping":71},{"user_id":112,"name":"Im totally a hacker","steam_id":76561198888005736,"connected_time":212000000000,"state":"active","ping":74},{"user_id":52,"name":"eat Pant","steam_id":76561197974965536,"connected_time":3786000000000,"state":"active","ping":61},{"user_id":108,"name":"Quietsharp","steam_id":76561198277968438,"connected_time":247000000000,"state":"active","ping":106},{"user_id":77,"name":"bro ion kno","steam_id":76561198103496593,"connected_time":2133000000000,"state":"active","ping":64},{"user_id":66,"name":"countrychefbeerboy92","steam_id":76561198132476501,"connected_time":3105000000000,"state":"active","ping":45},{"user_id":109,"name":"challen","steam_id":76561197961277967,"connected_time":229000000000,"state":"active","ping":68},{"user_id":102,"name":"ZeN | #SaveTF2","steam_id":76561199098746585,"connected_time":532000000000,"state":"active","ping":70},{"user_id":95,"name":"Gamering_funy","steam_id":76561199006503777,"connected_time":1001000000000,"state":"active","ping":58},{"user_id":114,"name":"GeraldyJones65","steam_id":76561199122297098,"connected_time":178000000000,"state":"active","ping":82}]},{"server_id":37,"name":"Uncletopia | Chicago | 6 | All Maps","name_short":"chi-6","host":"chi-2.us.uncletopia.com","port":27025,"enabled":true,"region":"us-central","cc":"us","latitude":41.881832,"longitude":-87.62318,"reserved":0,"last_update":"0001-01-01T00:00:00Z","name_a2s":"Uncletopia | Chicago | 6 | All Maps","protocol":17,"map":"pl_upward","folder":"tf","game":"Team Fortress","app_id":440,"player_count":24,"max_players":24,"Bots":0,"server_type":"Dedicated","server_os":"Linux","password":true,"vac":true,"version":"7882260","steam_id":85568392924866363,"keywords":["nocrits","nodmgspread","payload","uncletopia"],"game_id":440,"stv_port":27026,"stv_name":"Uncletopia | Chicago | 6 | All Maps | STV","players":[{"user_id":177,"name":"Fiftystorm","steam_id":76561198296894704,"connected_time":90000000000,"state":"active","ping":52},{"user_id":117,"name":"Unavoidable Madnetastrophe","steam_id":76561197995620232,"connected_time":3095000000000,"state":"active","ping":49},{"user_id":162,"name":"Spicy Jumbo Big Daddy","steam_id":76561198076364318,"connected_time":1383000000000,"state":"active","ping":58},{"user_id":169,"name":"BOT Void","steam_id":76561198961997485,"connected_time":790000000000,"state":"active","ping":106},{"user_id":120,"name":"ECCO","steam_id":76561198002821513,"connected_time":2837000000000,"state":"active","ping":65},{"user_id":167,"name":"Forever Enlightened.","steam_id":76561198286792807,"connected_time":928000000000,"state":"active","ping":72},{"user_id":122,"name":"TrashCanGaming","steam_id":76561199150746424,"connected_time":2820000000000,"state":"active","ping":41},{"user_id":173,"name":"Orca?","steam_id":76561198164341099,"connected_time":312000000000,"state":"active","ping":81},{"user_id":124,"name":"posted up in the flat","steam_id":76561198044856349,"connected_time":2775000000000,"state":"active","ping":48},{"user_id":151,"name":"SexyBootsHaver","steam_id":76561198202018494,"connected_time":1836000000000,"state":"active","ping":92},{"user_id":180,"name":"Bilgecrank","steam_id":76561197967191751,"connected_time":29000000000,"state":"active","ping":86},{"user_id":147,"name":"Abed","steam_id":76561198120360801,"connected_time":1922000000000,"state":"active","ping":104},{"user_id":129,"name":"Dongus","steam_id":76561197979056451,"connected_time":2704000000000,"state":"active","ping":102},{"user_id":148,"name":"Thequirka (bad player)","steam_id":76561198968058652,"connected_time":1922000000000,"state":"active","ping":99},{"user_id":159,"name":"Lucille II","steam_id":76561198138543746,"connected_time":1646000000000,"state":"active","ping":81},{"user_id":172,"name":"Demoman With One Joke","steam_id":76561197993467034,"connected_time":321000000000,"state":"active","ping":52},{"user_id":174,"name":"honk","steam_id":76561198050398028,"connected_time":305000000000,"state":"active","ping":54},{"user_id":134,"name":"Jaydyn","steam_id":76561198140326797,"connected_time":2631000000000,"state":"active","ping":80},{"user_id":171,"name":"theonepptickler","steam_id":76561199439256359,"connected_time":464000000000,"state":"active","ping":69},{"user_id":160,"name":"tylr","steam_id":76561198128198748,"connected_time":1456000000000,"state":"active","ping":48},{"user_id":175,"name":"the worst tf2 player ever","steam_id":76561198330205913,"connected_time":181000000000,"state":"active","ping":80},{"user_id":168,"name":"Nukeboy","steam_id":76561198147058560,"connected_time":903000000000,"state":"active","ping":100},{"user_id":140,"name":"Reisen Udongein Inaba","steam_id":76561198051082314,"connected_time":2541000000000,"state":"active","ping":108},{"user_id":142,"name":"Junko","steam_id":76561198146089003,"connected_time":2534000000000,"state":"active","ping":49}]},{"server_id":38,"name":"Uncletopia | Chicago | 7 | Stopwatch Beta","name_short":"chi-7","host":"chi-2.us.uncletopia.com","port":27035,"enabled":true,"region":"us-central","cc":"us","latitude":41.881832,"longitude":-87.62318,"reserved":0,"last_update":"0001-01-01T00:00:00Z","name_a2s":"Uncletopia | Chicago | 7 | Stopwatch Beta","protocol":17,"map":"pl_borneo","folder":"tf","game":"Team Fortress","app_id":440,"player_count":0,"max_players":24,"Bots":0,"server_type":"Dedicated","server_os":"Linux","password":true,"vac":true,"version":"7882260","steam_id":85568392924866364,"keywords":["nocrits","nodmgspread","payload","uncletopia"],"game_id":440,"stv_port":27036,"stv_name":"Uncletopia | Chicago | 7 | Stopwatch Beta | STV","players":null},{"server_id":39,"name":"Uncletopia | Chicago | 8 | Community","name_short":"chi-8","host":"chi-2.us.uncletopia.com","port":27045,"enabled":true,"region":"us-central","cc":"us","latitude":41.881832,"longitude":-87.62318,"reserved":0,"last_update":"0001-01-01T00:00:00Z","name_a2s":"Uncletopia | Chicago | 8 | Community","protocol":17,"map":"workshop/cp_overgrown_rc7b.ugc503939302","folder":"tf","game":"Team Fortress","app_id":440,"player_count":1,"max_players":24,"Bots":0,"server_type":"Dedicated","server_os":"Linux","password":true,"vac":true,"version":"7882260","steam_id":85568392924866365,"keywords":["cp","nocrits","nodmgspread","uncletopia"],"game_id":440,"stv_port":27046,"stv_name":"Uncletopia | Chicago | 8 | Community | STV","players":[{"user_id":23,"name":"\u003eochure\u003c","steam_id":76561198129445706,"connected_time":39000000000,"state":"spawning","ping":189}]},{"server_id":8,"name":"Uncletopia | Dallas | 1 | All Maps","name_short":"dal-1","host":"dal-1.us.uncletopia.com","port":27015,"enabled":true,"region":"us-central","cc":"us","latitude":32.779167,"longitude":-96.80889,"reserved":0,"last_update":"0001-01-01T00:00:00Z","name_a2s":"Uncletopia | Dallas | 1 | All Maps","protocol":17,"map":"pl_upward","folder":"tf","game":"Team Fortress","app_id":440,"player_count":24,"max_players":24,"Bots":0,"server_type":"Dedicated","server_os":"Linux","password":true,"vac":true,"version":"7882260","steam_id":85568392924469986,"keywords":["nocrits","nodmgspread","payload","uncletopia"],"game_id":440,"stv_port":27016,"stv_name":"Uncletopia | Dallas | 1 | All Maps | STV","players":[{"user_id":441,"name":"aiden","steam_id":76561199221104592,"connected_time":928000000000,"state":"active","ping":95},{"user_id":447,"name":"ุ","steam_id":76561198142586591,"connected_time":317000000000,"state":"active","ping":60},{"user_id":431,"name":"Do not disturb me.","steam_id":76561199128157952,"connected_time":1839000000000,"state":"active","ping":117},{"user_id":445,"name":"Darling","steam_id":76561198127525888,"connected_time":558000000000,"state":"active","ping":53},{"user_id":443,"name":"Unreliable Narrator","steam_id":76561198021303959,"connected_time":684000000000,"state":"active","ping":75},{"user_id":455,"name":"Loogus","steam_id":76561198811561721,"connected_time":227000000000,"state":"active","ping":74},{"user_id":453,"name":"wheresgeorge","steam_id":76561198986281248,"connected_time":254000000000,"state":"active","ping":91},{"user_id":457,"name":"Salt","steam_id":76561198418001135,"connected_time":71000000000,"state":"active","ping":67},{"user_id":416,"name":"It me. Pingle.","steam_id":76561198096221632,"connected_time":3599000000000,"state":"active","ping":63},{"user_id":456,"name":"goddess","steam_id":76561198079178866,"connected_time":146000000000,"state":"active","ping":86},{"user_id":440,"name":"buttering my croissant","steam_id":76561198021227843,"connected_time":970000000000,"state":"active","ping":65},{"user_id":436,"name":"NB","steam_id":76561198079361515,"connected_time":1127000000000,"state":"active","ping":168},{"user_id":398,"name":"MidSobbes08","steam_id":76561199013101925,"connected_time":5180000000000,"state":"active","ping":111},{"user_id":442,"name":"ShadowDragon0125","steam_id":76561198343849022,"connected_time":802000000000,"state":"active","ping":81},{"user_id":399,"name":"Psych03","steam_id":76561198061753667,"connected_time":5178000000000,"state":"active","ping":75},{"user_id":449,"name":"bunny girl bimbo!","steam_id":76561198122027532,"connected_time":291000000000,"state":"active","ping":77},{"user_id":446,"name":"BLACK MAN FROM JOJO","steam_id":76561198272948471,"connected_time":469000000000,"state":"active","ping":90},{"user_id":426,"name":"CapnKris22","steam_id":76561198049010994,"connected_time":1938000000000,"state":"active","ping":104},{"user_id":450,"name":"Antonin Scalia","steam_id":76561198080687598,"connected_time":288000000000,"state":"active","ping":76},{"user_id":444,"name":"reptar","steam_id":76561198070164185,"connected_time":580000000000,"state":"active","ping":66},{"user_id":429,"name":"good soup guy","steam_id":76561199210237835,"connected_time":1908000000000,"state":"active","ping":108},{"user_id":438,"name":"Rukh","steam_id":76561197999361315,"connected_time":1102000000000,"state":"active","ping":103},{"user_id":451,"name":"pigswill","steam_id":76561197999081865,"connected_time":276000000000,"state":"active","ping":104},{"user_id":423,"name":"Huggernaut","steam_id":76561198043998084,"connected_time":1968000000000,"state":"active","ping":64}]},{"server_id":108,"name":"Uncletopia | Dallas | 2 | All Maps","name_short":"dal-2","host":"dal-1.us.uncletopia.com","port":27025,"enabled":true,"region":"us-central","cc":"us","latitude":32.779167,"longitude":-96.80889,"reserved":0,"last_update":"0001-01-01T00:00:00Z","name_a2s":"Uncletopia | Dallas | 2 | All Maps","protocol":17,"map":"cp_dustbowl","folder":"tf","game":"Team Fortress","app_id":440,"player_count":24,"max_players":24,"Bots":0,"server_type":"Dedicated","server_os":"Linux","password":true,"vac":true,"version":"7882260","steam_id":85568392924469988,"keywords":["cp","nocrits","nodmgspread","uncletopia"],"game_id":440,"stv_port":27026,"stv_name":"Uncletopia | Dallas | 2 | All Maps | STV","players":[{"user_id":534,"name":"Lock'd","steam_id":76561198170108230,"connected_time":939000000000,"state":"active","ping":59},{"user_id":518,"name":"Scout","steam_id":76561198140517330,"connected_time":1483000000000,"state":"active","ping":80},{"user_id":540,"name":"dabri88","steam_id":76561198103645497,"connected_time":760000000000,"state":"active","ping":98},{"user_id":463,"name":"Aerobro","steam_id":76561198033530996,"connected_time":5075000000000,"state":"active","ping":69},{"user_id":535,"name":"Jill Sandwich","steam_id":76561198841783789,"connected_time":915000000000,"state":"active","ping":77},{"user_id":516,"name":"[FOFS]billyburl","steam_id":76561198079535159,"connected_time":2059000000000,"state":"active","ping":76},{"user_id":546,"name":"Mecha","steam_id":76561198014927379,"connected_time":387000000000,"state":"active","ping":86},{"user_id":528,"name":"Alltrex","steam_id":76561198202254225,"connected_time":1172000000000,"state":"active","ping":97},{"user_id":521,"name":"IgnisGlasses","steam_id":76561198133064411,"connected_time":1302000000000,"state":"active","ping":75},{"user_id":525,"name":"bee","steam_id":76561198037826370,"connected_time":1223000000000,"state":"active","ping":86},{"user_id":496,"name":"M4tT","steam_id":76561198118764868,"connected_time":3155000000000,"state":"active","ping":57},{"user_id":529,"name":"Project_Counter","steam_id":76561198152786076,"connected_time":1149000000000,"state":"active","ping":59},{"user_id":536,"name":"Neltron","steam_id":76561199383809027,"connected_time":875000000000,"state":"active","ping":82},{"user_id":547,"name":"Teh_Hsky","steam_id":76561198798630221,"connected_time":127000000000,"state":"active","ping":71},{"user_id":501,"name":"Lunaul","steam_id":76561198169208358,"connected_time":3022000000000,"state":"active","ping":76},{"user_id":544,"name":"emily","steam_id":76561198051872256,"connected_time":640000000000,"state":"active","ping":81},{"user_id":548,"name":"the nuisance","steam_id":76561198396326793,"connected_time":65000000000,"state":"active","ping":75},{"user_id":498,"name":"Spimtmot733","steam_id":76561199029189825,"connected_time":3146000000000,"state":"active","ping":89},{"user_id":473,"name":"charm","steam_id":76561198126751384,"connected_time":4701000000000,"state":"active","ping":65},{"user_id":539,"name":"Pom Pom Super Bomb","steam_id":76561198132316905,"connected_time":802000000000,"state":"active","ping":60},{"user_id":533,"name":"sex (real)","steam_id":76561198396414319,"connected_time":1044000000000,"state":"active","ping":87},{"user_id":441,"name":"Moonflower ✦","steam_id":76561198191782483,"connected_time":6906000000000,"state":"active","ping":52},{"user_id":506,"name":"GrumpyGrampaKoala","steam_id":76561198020441036,"connected_time":2619000000000,"state":"active","ping":109},{"user_id":543,"name":"TofuCat","steam_id":76561198416746118,"connected_time":732000000000,"state":"active","ping":44}]},{"server_id":5,"name":"Uncletopia | Frankfurt | 1 | All Maps","name_short":"frk-1","host":"frk-1.de.uncletopia.com","port":27015,"enabled":true,"region":"eu","cc":"de","latitude":50.110924,"longitude":8.682127,"reserved":0,"last_update":"0001-01-01T00:00:00Z","name_a2s":"Uncletopia | Frankfurt | 1 | All Maps","protocol":17,"map":"pl_frontier_final","folder":"tf","game":"Team Fortress","app_id":440,"player_count":0,"max_players":24,"Bots":0,"server_type":"Dedicated","server_os":"Linux","password":true,"vac":true,"version":"7882260","steam_id":85568392924469989,"keywords":["nocrits","nodmgspread","payload","uncletopia"],"game_id":440,"stv_port":27016,"stv_name":"Uncletopia | Frankfurt | 1 | All Maps | STV","players":null},{"server_id":110,"name":"Uncletopia | Frankfurt | 2 | All Maps","name_short":"frk-2","host":"frk-1.de.uncletopia.com","port":27025,"enabled":true,"region":"eu","cc":"de","latitude":50.110924,"longitude":8.682127,"reserved":0,"last_update":"0001-01-01T00:00:00Z","name_a2s":"Uncletopia | Frankfurt | 2 | All Maps","protocol":17,"map":"cp_snakewater_final1","folder":"tf","game":"Team Fortress","app_id":440,"player_count":0,"max_players":24,"Bots":0,"server_type":"Dedicated","server_os":"Linux","password":true,"vac":true,"version":"7882260","steam_id":85568392924469990,"keywords":["cp","nocrits","nodmgspread","uncletopia"],"game_id":440,"stv_port":27026,"stv_name":"Uncletopia | Frankfurt | 2 | All Maps | STV","players":null},{"server_id":308,"name":"Uncletopia | Frankfurt | 3 | All Maps","name_short":"frk-3","host":"frk-1.de.uncletopia.com","port":27035,"enabled":true,"region":"eu","cc":"de","latitude":50.110924,"longitude":8.682127,"reserved":0,"last_update":"0001-01-01T00:00:00Z","name_a2s":"Uncletopia | Frankfurt | 3 | All Maps","protocol":17,"map":"koth_highpass","folder":"tf","game":"Team Fortress","app_id":440,"player_count":0,"max_players":24,"Bots":0,"server_type":"Dedicated","server_os":"Linux","password":true,"vac":true,"version":"7882260","steam_id":85568392924504274,"keywords":["cp","nocrits","nodmgspread","uncletopia"],"game_id":440,"stv_port":27036,"stv_name":"Uncletopia | Frankfurt | 3 | All Maps | STV","players":null},{"server_id":309,"name":"Uncletopia | Frankfurt | 4 | All Maps","name_short":"frk-4","host":"frk-1.de.uncletopia.com","port":27045,"enabled":true,"region":"eu","cc":"de","latitude":50.110924,"longitude":8.682127,"reserved":0,"last_update":"0001-01-01T00:00:00Z","name_a2s":"Uncletopia | Frankfurt | 4 | All Maps","protocol":17,"map":"pl_barnblitz","folder":"tf","game":"Team Fortress","app_id":440,"player_count":0,"max_players":24,"Bots":0,"server_type":"Dedicated","server_os":"Linux","password":true,"vac":true,"version":"7882260","steam_id":85568392924504275,"keywords":["nocrits","nodmgspread","payload","uncletopia"],"game_id":440,"stv_port":27046,"stv_name":"Uncletopia | Frankfurt | 4 | All Maps | STV","players":null},{"server_id":310,"name":"Uncletopia | Frankfurt | 5 | All Maps","name_short":"frk-5","host":"frk-1.de.uncletopia.com","port":27055,"enabled":true,"region":"eu","cc":"de","latitude":50.110924,"longitude":8.682127,"reserved":0,"last_update":"0001-01-01T00:00:00Z","name_a2s":"Uncletopia | Frankfurt | 5 | All Maps","protocol":17,"map":"cp_process_final","folder":"tf","game":"Team Fortress","app_id":440,"player_count":24,"max_players":24,"Bots":0,"server_type":"Dedicated","server_os":"Linux","password":true,"vac":true,"version":"7882260","steam_id":85568392924504277,"keywords":["cp","nocrits","nodmgspread","uncletopia"],"game_id":440,"stv_port":27056,"stv_name":"Uncletopia | Frankfurt | 5 | All Maps | STV","players":[{"user_id":261,"name":"chief s.","steam_id":76561198011460632,"connected_time":971000000000,"state":"active","ping":175},{"user_id":286,"name":"Mike","steam_id":76561198228455736,"connected_time":42000000000,"state":"active","ping":64},{"user_id":233,"name":"c.S \u003e (2S \u003e) 2H \u003e 236236S","steam_id":76561198101624996,"connected_time":2275000000000,"state":"active","ping":92},{"user_id":221,"name":"xTheDarkLight","steam_id":76561198239128298,"connected_time":2563000000000,"state":"active","ping":46},{"user_id":287,"name":"snowycoast","steam_id":76561198346638308,"connected_time":2000000000,"state":"spawning","ping":61},{"user_id":222,"name":"Michael Tansaction","steam_id":76561198051054132,"connected_time":2508000000000,"state":"active","ping":68},{"user_id":264,"name":"Sal","steam_id":76561198967145395,"connected_time":828000000000,"state":"active","ping":143},{"user_id":246,"name":"{FITH}™ Halcyon","steam_id":76561198049132808,"connected_time":1792000000000,"state":"active","ping":173},{"user_id":234,"name":"Galex","steam_id":76561198045637579,"connected_time":2207000000000,"state":"active","ping":47},{"user_id":266,"name":"Mitrev","steam_id":76561198157124880,"connected_time":775000000000,"state":"active","ping":60},{"user_id":243,"name":"Daruun","steam_id":76561198019068781,"connected_time":1832000000000,"state":"active","ping":74},{"user_id":259,"name":"madijo","steam_id":76561198012617400,"connected_time":1143000000000,"state":"active","ping":71},{"user_id":260,"name":"metamikko","steam_id":76561198324704234,"connected_time":1134000000000,"state":"active","ping":103},{"user_id":275,"name":"[BG] TheWiseRedditor 24/7 Tarde","steam_id":76561198105121641,"connected_time":458000000000,"state":"active","ping":75},{"user_id":253,"name":"TurboTabs","steam_id":76561198009785131,"connected_time":1260000000000,"state":"active","ping":85},{"user_id":254,"name":"Samus","steam_id":76561198045943019,"connected_time":1260000000000,"state":"active","ping":45},{"user_id":242,"name":"Cabbch","steam_id":76561198045955679,"connected_time":1905000000000,"state":"active","ping":57},{"user_id":255,"name":"MM Murda OFFICIAL","steam_id":76561198076871529,"connected_time":1250000000000,"state":"active","ping":54},{"user_id":238,"name":"Falling Apples","steam_id":76561198122762346,"connected_time":2136000000000,"state":"active","ping":73},{"user_id":190,"name":"birb","steam_id":76561198084891833,"connected_time":5736000000000,"state":"active","ping":60},{"user_id":256,"name":"R@DIO","steam_id":76561197995533046,"connected_time":1222000000000,"state":"active","ping":81},{"user_id":244,"name":"Clark","steam_id":76561198120498831,"connected_time":1827000000000,"state":"active","ping":70},{"user_id":257,"name":"Zeppy but legal","steam_id":76561199068188042,"connected_time":1210000000000,"state":"active","ping":157},{"user_id":278,"name":"tunak tunak tun","steam_id":76561198034955422,"connected_time":371000000000,"state":"active","ping":74}]},{"server_id":311,"name":"Uncletopia | Frankfurt | 6 | All Maps","name_short":"frk-6","host":"frk-1.de.uncletopia.com","port":27065,"enabled":true,"region":"eu","cc":"de","latitude":50.110924,"longitude":8.682127,"reserved":0,"last_update":"0001-01-01T00:00:00Z","name_a2s":"Uncletopia | Frankfurt | 6 | All Maps","protocol":17,"map":"koth_lakeside_final","folder":"tf","game":"Team Fortress","app_id":440,"player_count":0,"max_players":24,"Bots":0,"server_type":"Dedicated","server_os":"Linux","password":true,"vac":true,"version":"7882260","steam_id":85568392924504278,"keywords":["cp","nocrits","nodmgspread","uncletopia"],"game_id":440,"stv_port":27066,"stv_name":"Uncletopia | Frankfurt | 6 | All Maps | STV","players":null},{"server_id":23,"name":"Uncletopia | Frankfurt | 7 | Stopwatch Beta","name_short":"frk-7","host":"frk-1.de.uncletopia.com","port":27075,"enabled":true,"region":"eu","cc":"de","latitude":50.110924,"longitude":8.682127,"reserved":0,"last_update":"0001-01-01T00:00:00Z","name_a2s":"Uncletopia | Frankfurt | 7 | Stopwatch Beta","protocol":17,"map":"cp_granary","folder":"tf","game":"Team Fortress","app_id":440,"player_count":0,"max_players":24,"Bots":0,"server_type":"Dedicated","server_os":"Linux","password":true,"vac":true,"version":"7882260","steam_id":85568392924742827,"keywords":["cp","nocrits","nodmgspread","uncletopia"],"game_id":440,"stv_port":27076,"stv_name":"Uncletopia | Frankfurt | 7 | Stopwatch Beta | STV","players":null},{"server_id":24,"name":"Uncletopia | Frankfurt | 8 | Community","name_short":"frk-8","host":"frk-1.de.uncletopia.com","port":27085,"enabled":true,"region":"eu","cc":"de","latitude":50.110924,"longitude":8.682127,"reserved":0,"last_update":"0001-01-01T00:00:00Z","name_a2s":"Uncletopia | Frankfurt | 8 | Community","protocol":17,"map":"workshop/koth_slaughter_rc1.ugc1712845210","folder":"tf","game":"Team Fortress","app_id":440,"player_count":24,"max_players":24,"Bots":0,"server_type":"Dedicated","server_os":"Linux","password":true,"vac":true,"version":"7882260","steam_id":85568392924742828,"keywords":["cp","nocrits","nodmgspread","uncletopia"],"game_id":440,"stv_port":27086,"stv_name":"Uncletopia | Frankfurt | 8 | Community | STV","players":[{"user_id":490,"name":"ldshwt","steam_id":76561198090364357,"connected_time":3994000000000,"state":"active","ping":45},{"user_id":557,"name":"JugoTopia","steam_id":76561197996067209,"connected_time":438000000000,"state":"active","ping":122},{"user_id":548,"name":"r06u3","steam_id":76561198254099253,"connected_time":757000000000,"state":"active","ping":169},{"user_id":555,"name":"Captain HandicappedCock","steam_id":76561198109850402,"connected_time":591000000000,"state":"active","ping":69},{"user_id":510,"name":"BallaZz","steam_id":76561198063648740,"connected_time":3124000000000,"state":"active","ping":46},{"user_id":467,"name":"kektuse","steam_id":76561198088426580,"connected_time":5525000000000,"state":"active","ping":59},{"user_id":527,"name":"DarthMurloc_OW","steam_id":76561198075577711,"connected_time":2370000000000,"state":"active","ping":72},{"user_id":532,"name":"Musica Universalis","steam_id":76561198184794174,"connected_time":1870000000000,"state":"active","ping":163},{"user_id":533,"name":"Majestic","steam_id":76561198018990810,"connected_time":1866000000000,"state":"active","ping":161},{"user_id":537,"name":"Pingutaro","steam_id":76561198112803718,"connected_time":1641000000000,"state":"active","ping":74},{"user_id":551,"name":"thia","steam_id":76561198186366599,"connected_time":721000000000,"state":"active","ping":75},{"user_id":558,"name":"SmoothJazz","steam_id":76561198143044358,"connected_time":355000000000,"state":"active","ping":74},{"user_id":528,"name":"Phalcon","steam_id":76561197987051394,"connected_time":2317000000000,"state":"active","ping":74},{"user_id":529,"name":"XL54M15Y","steam_id":76561198048250715,"connected_time":2299000000000,"state":"active","ping":49},{"user_id":538,"name":"Explosive_kink","steam_id":76561198998702838,"connected_time":1612000000000,"state":"active","ping":67},{"user_id":559,"name":"Dragon","steam_id":76561198163255365,"connected_time":345000000000,"state":"active","ping":109},{"user_id":540,"name":"Utvar","steam_id":76561198131838460,"connected_time":1466000000000,"state":"active","ping":54},{"user_id":560,"name":"Arti","steam_id":76561197983352845,"connected_time":322000000000,"state":"active","ping":60},{"user_id":541,"name":"[BGS] BїvїsUA ᗜˬᗜ","steam_id":76561198029932939,"connected_time":1460000000000,"state":"active","ping":82},{"user_id":502,"name":"b r o o g ?","steam_id":76561198280834819,"connected_time":3533000000000,"state":"active","ping":59},{"user_id":561,"name":"Kan0_","steam_id":76561198129596771,"connected_time":270000000000,"state":"active","ping":57},{"user_id":562,"name":"InchMan","steam_id":76561198272658825,"connected_time":96000000000,"state":"active","ping":190},{"user_id":563,"name":"Milo","steam_id":76561198870491380,"connected_time":46000000000,"state":"active","ping":169},{"user_id":518,"name":"tiia","steam_id":76561198046196005,"connected_time":2921000000000,"state":"active","ping":45}]},{"server_id":202,"name":"Uncletopia | Hong Kong | 1 | All Maps","name_short":"hgk-1","host":"hgk-1.hk.uncletopia.com","port":27015,"enabled":true,"region":"asia","cc":"hk","latitude":22.302711,"longitude":114.177216,"reserved":0,"last_update":"0001-01-01T00:00:00Z","name_a2s":"Uncletopia | Hong Kong | 1 | All Maps","protocol":17,"map":"koth_cascade","folder":"tf","game":"Team Fortress","app_id":440,"player_count":0,"max_players":24,"Bots":0,"server_type":"Dedicated","server_os":"Linux","password":true,"vac":true,"version":"7882260","steam_id":85568392924494504,"keywords":["cp","nocrits","nodmgspread","uncletopia"],"game_id":440,"stv_port":27016,"stv_name":"Uncletopia | Hong Kong | 1 | All Maps | STV","players":null},{"server_id":1,"name":"Uncletopia | Los Angeles | 1 | All Maps","name_short":"lax-1","host":"lax-1.us.uncletopia.com","port":27015,"enabled":true,"region":"us-west","cc":"us","latitude":33.94279,"longitude":-118.41004,"reserved":0,"last_update":"0001-01-01T00:00:00Z","name_a2s":"Uncletopia | Los Angeles | 1 | All Maps","protocol":17,"map":"plr_bananabay","folder":"tf","game":"Team Fortress","app_id":440,"player_count":24,"max_players":24,"Bots":0,"server_type":"Dedicated","server_os":"Linux","password":true,"vac":true,"version":"7882260","steam_id":85568392924469991,"keywords":["nocrits","nodmgspread","payload","uncletopia"],"game_id":440,"stv_port":27016,"stv_name":"Uncletopia | Los Angeles | 1 | All Maps | STV","players":[{"user_id":481,"name":"Electric 5$ GiftCard","steam_id":76561199252528662,"connected_time":2203000000000,"state":"active","ping":136},{"user_id":498,"name":"cielael","steam_id":76561198043971956,"connected_time":889000000000,"state":"active","ping":45},{"user_id":502,"name":"Whos Mans Is Dis","steam_id":76561198370978056,"connected_time":772000000000,"state":"active","ping":105},{"user_id":508,"name":"cool beans","steam_id":76561198321591685,"connected_time":186000000000,"state":"active","ping":100},{"user_id":512,"name":"Shamrock Shake Oct.10.2020 @8pm","steam_id":76561198833313201,"connected_time":153000000000,"state":"active","ping":55},{"user_id":518,"name":"Stryder","steam_id":76561199387418697,"connected_time":19000000000,"state":"active","ping":148},{"user_id":516,"name":"lolzfrdawin21","steam_id":76561199006665979,"connected_time":127000000000,"state":"active","ping":132},{"user_id":505,"name":"Clagger","steam_id":76561198066701092,"connected_time":267000000000,"state":"active","ping":60},{"user_id":405,"name":"Altruisticailuridae","steam_id":76561198335295596,"connected_time":5778000000000,"state":"active","ping":54},{"user_id":479,"name":"MonkeyMage101","steam_id":76561198354192200,"connected_time":2282000000000,"state":"active","ping":65},{"user_id":510,"name":"A Shiny Meat Bicycle","steam_id":76561198358757709,"connected_time":177000000000,"state":"active","ping":153},{"user_id":496,"name":"mkl","steam_id":76561197986401685,"connected_time":990000000000,"state":"active","ping":106},{"user_id":504,"name":"Lowell","steam_id":76561198001794647,"connected_time":303000000000,"state":"active","ping":99},{"user_id":515,"name":"no vc no c","steam_id":76561197989503095,"connected_time":140000000000,"state":"active","ping":165},{"user_id":346,"name":"TTV/ChadMorningWood","steam_id":76561198139832291,"connected_time":10277000000000,"state":"active","ping":95},{"user_id":507,"name":"Fargo","steam_id":76561198044703931,"connected_time":226000000000,"state":"active","ping":83},{"user_id":492,"name":"TimeForHype","steam_id":76561197996714494,"connected_time":1341000000000,"state":"active","ping":75},{"user_id":511,"name":"Grilled Jizo","steam_id":76561199250875340,"connected_time":176000000000,"state":"active","ping":90},{"user_id":491,"name":"Nooflebot","steam_id":76561198160465074,"connected_time":1524000000000,"state":"active","ping":119},{"user_id":517,"name":"spherewithahat","steam_id":76561199122192660,"connected_time":67000000000,"state":"active","ping":125},{"user_id":501,"name":"Oliver","steam_id":76561198411529434,"connected_time":790000000000,"state":"active","ping":117},{"user_id":484,"name":"Headmouth","steam_id":76561198019789855,"connected_time":1938000000000,"state":"active","ping":180},{"user_id":427,"name":"alpharuby","steam_id":76561198051638462,"connected_time":4889000000000,"state":"active","ping":45},{"user_id":490,"name":"TheBigPig307","steam_id":76561198322169035,"connected_time":1557000000000,"state":"active","ping":120}]},{"server_id":112,"name":"Uncletopia | Los Angeles | 2 | All Maps","name_short":"lax-2","host":"lax-1.us.uncletopia.com","port":27025,"enabled":true,"region":"us-west","cc":"us","latitude":33.94279,"longitude":-118.41004,"reserved":0,"last_update":"0001-01-01T00:00:00Z","name_a2s":"Uncletopia | Los Angeles | 2 | All Maps","protocol":17,"map":"pl_barnblitz","folder":"tf","game":"Team Fortress","app_id":440,"player_count":24,"max_players":24,"Bots":0,"server_type":"Dedicated","server_os":"Linux","password":true,"vac":true,"version":"7882260","steam_id":85568392924469992,"keywords":["nocrits","nodmgspread","payload","uncletopia"],"game_id":440,"stv_port":27026,"stv_name":"Uncletopia | Los Angeles | 2 | All Maps | STV","players":[{"user_id":148,"name":"selarom | trade.tf |","steam_id":76561199069219350,"connected_time":2897000000000,"state":"active","ping":122},{"user_id":118,"name":"BocchiTheRock From BocchiTheRoc","steam_id":76561198986388085,"connected_time":3813000000000,"state":"active","ping":93},{"user_id":166,"name":"PoobMann6","steam_id":76561198411029238,"connected_time":1840000000000,"state":"active","ping":80},{"user_id":177,"name":"Bluedemon","steam_id":76561199212058684,"connected_time":1112000000000,"state":"active","ping":53},{"user_id":176,"name":"Brigadier Brownie","steam_id":76561198040852898,"connected_time":1222000000000,"state":"active","ping":56},{"user_id":184,"name":"E The Wasp","steam_id":76561199208867417,"connected_time":475000000000,"state":"active","ping":67},{"user_id":113,"name":"lol","steam_id":76561198026491738,"connected_time":4400000000000,"state":"active","ping":60},{"user_id":172,"name":"Cooki","steam_id":76561198051705314,"connected_time":1483000000000,"state":"active","ping":135},{"user_id":174,"name":"Mellow Marshal","steam_id":76561198828607652,"connected_time":1412000000000,"state":"active","ping":114},{"user_id":167,"name":"cometgm","steam_id":76561198054201515,"connected_time":1830000000000,"state":"active","ping":58},{"user_id":162,"name":"oil","steam_id":76561198099980149,"connected_time":2165000000000,"state":"active","ping":55},{"user_id":178,"name":"Ultra","steam_id":76561198858574016,"connected_time":1100000000000,"state":"active","ping":124},{"user_id":165,"name":"XxDragon4321xX","steam_id":76561198046705735,"connected_time":1899000000000,"state":"active","ping":72},{"user_id":151,"name":"HAT-WEARING™ Maggot Gamer Cat","steam_id":76561197973992705,"connected_time":2680000000000,"state":"active","ping":68},{"user_id":175,"name":"william william williams","steam_id":76561199056802747,"connected_time":1399000000000,"state":"active","ping":119},{"user_id":179,"name":"A Little Guy","steam_id":76561198142464684,"connected_time":1098000000000,"state":"active","ping":89},{"user_id":160,"name":"Young Sandwich","steam_id":76561198180908482,"connected_time":2253000000000,"state":"active","ping":163},{"user_id":186,"name":"RagingBagon","steam_id":76561198255453127,"connected_time":284000000000,"state":"active","ping":38},{"user_id":159,"name":"TheSquirrelofHuscurl","steam_id":76561198073379623,"connected_time":2473000000000,"state":"active","ping":128},{"user_id":157,"name":"stboncho","steam_id":76561198172275301,"connected_time":2503000000000,"state":"active","ping":69},{"user_id":185,"name":"mobe","steam_id":76561198121633820,"connected_time":430000000000,"state":"active","ping":69},{"user_id":180,"name":"professional twelve year old","steam_id":76561198858796870,"connected_time":1082000000000,"state":"active","ping":105},{"user_id":181,"name":"Vaporwave","steam_id":76561198434133613,"connected_time":1080000000000,"state":"active","ping":159},{"user_id":183,"name":"Freeza","steam_id":76561198050341005,"connected_time":679000000000,"state":"active","ping":52}]},{"server_id":324,"name":"Uncletopia | Los Angeles | 3 | All Maps","name_short":"lax-3","host":"lax-1.us.uncletopia.com","port":27035,"enabled":true,"region":"us-west","cc":"us","latitude":33.94279,"longitude":-118.41004,"reserved":0,"last_update":"0001-01-01T00:00:00Z","name_a2s":"Uncletopia | Los Angeles | 3 | All Maps","protocol":17,"map":"cp_snakewater_final1","folder":"tf","game":"Team Fortress","app_id":440,"player_count":0,"max_players":24,"Bots":0,"server_type":"Dedicated","server_os":"Linux","password":true,"vac":true,"version":"7882260","steam_id":85568392924510198,"keywords":["cp","nocrits","nodmgspread","uncletopia"],"game_id":440,"stv_port":27036,"stv_name":"Uncletopia | Los Angeles | 3 | All Maps | STV","players":null},{"server_id":25,"name":"Uncletopia | Los Angeles | 4 | Stopwatch Beta","name_short":"lax-4","host":"lax-1.us.uncletopia.com","port":27045,"enabled":true,"region":"us-west","cc":"us","latitude":33.94279,"longitude":-118.41004,"reserved":0,"last_update":"0001-01-01T00:00:00Z","name_a2s":"Uncletopia | Los Angeles | 4 | Stopwatch Beta","protocol":17,"map":"workshop/koth_clearcut_b15.ugc2107050255","folder":"tf","game":"Team Fortress","app_id":440,"player_count":0,"max_players":24,"Bots":0,"server_type":"Dedicated","server_os":"Linux","password":true,"vac":true,"version":"7882260","steam_id":85568392924510199,"keywords":["cp","nocrits","nodmgspread","uncletopia"],"game_id":440,"stv_port":27046,"stv_name":"Uncletopia | Los Angeles | 4 | Stopwatch Beta | STV","players":null},{"server_id":11,"name":"Uncletopia | London | 1 | All Maps","name_short":"lon-1","host":"lon-1.uk.uncletopia.com","port":27015,"enabled":true,"region":"eu","cc":"gb","latitude":51.509865,"longitude":-0.118092,"reserved":0,"last_update":"0001-01-01T00:00:00Z","name_a2s":"Uncletopia | London | 1 | All Maps","protocol":17,"map":"koth_lakeside_final","folder":"tf","game":"Team Fortress","app_id":440,"player_count":0,"max_players":24,"Bots":0,"server_type":"Dedicated","server_os":"Linux","password":true,"vac":true,"version":"7882260","steam_id":85568392924367362,"keywords":["cp","nocrits","nodmgspread","uncletopia"],"game_id":440,"stv_port":27016,"stv_name":"Uncletopia | London | 1 | All Maps | STV","players":null},{"server_id":114,"name":"Uncletopia | London | 2 | All Maps","name_short":"lon-2","host":"lon-1.uk.uncletopia.com","port":27025,"enabled":true,"region":"eu","cc":"gb","latitude":51.509865,"longitude":-0.118092,"reserved":0,"last_update":"0001-01-01T00:00:00Z","name_a2s":"Uncletopia | London | 2 | All Maps","protocol":17,"map":"pl_upward","folder":"tf","game":"Team Fortress","app_id":440,"player_count":6,"max_players":24,"Bots":0,"server_type":"Dedicated","server_os":"Linux","password":true,"vac":true,"version":"7882260","steam_id":85568392924470941,"keywords":["nocrits","nodmgspread","payload","uncletopia"],"game_id":440,"stv_port":27026,"stv_name":"Uncletopia | London | 2 | All Maps | STV","players":[{"user_id":374,"name":"Zama","steam_id":76561199121691104,"connected_time":622000000000,"state":"active","ping":39},{"user_id":378,"name":"Captain Scrumpe","steam_id":76561198032206577,"connected_time":281000000000,"state":"active","ping":83},{"user_id":375,"name":"nakedpee","steam_id":76561198064345980,"connected_time":566000000000,"state":"active","ping":89},{"user_id":372,"name":"Violet","steam_id":76561198079388610,"connected_time":1869000000000,"state":"active","ping":59},{"user_id":365,"name":"Ozzie","steam_id":76561197992915315,"connected_time":2880000000000,"state":"active","ping":69},{"user_id":369,"name":"summer_snowman","steam_id":76561198796697989,"connected_time":2443000000000,"state":"active","ping":179}]},{"server_id":320,"name":"Uncletopia | London | 3 | All Maps","name_short":"lon-3","host":"lon-1.uk.uncletopia.com","port":27035,"enabled":true,"region":"eu","cc":"gb","latitude":51.509865,"longitude":-0.118092,"reserved":0,"last_update":"0001-01-01T00:00:00Z","name_a2s":"Uncletopia | London | 3 | All Maps","protocol":17,"map":"pl_thundermountain","folder":"tf","game":"Team Fortress","app_id":440,"player_count":24,"max_players":24,"Bots":0,"server_type":"Dedicated","server_os":"Linux","password":true,"vac":true,"version":"7882260","steam_id":85568392924510192,"keywords":["nocrits","nodmgspread","payload","uncletopia"],"game_id":440,"stv_port":27036,"stv_name":"Uncletopia | London | 3 | All Maps | STV","players":[{"user_id":374,"name":"Proto-arc","steam_id":76561198012776747,"connected_time":1756000000000,"state":"active","ping":48},{"user_id":396,"name":"mongi","steam_id":76561198412781056,"connected_time":282000000000,"state":"active","ping":146},{"user_id":321,"name":"Mammut","steam_id":76561198056773933,"connected_time":5323000000000,"state":"active","ping":59},{"user_id":342,"name":"Snowmotion","steam_id":76561198075022454,"connected_time":3388000000000,"state":"active","ping":72},{"user_id":379,"name":"Bayo","steam_id":76561198098419588,"connected_time":1546000000000,"state":"active","ping":33},{"user_id":364,"name":"Burpman","steam_id":76561198022897937,"connected_time":2445000000000,"state":"active","ping":52},{"user_id":397,"name":".Aq","steam_id":76561198043376092,"connected_time":263000000000,"state":"active","ping":103},{"user_id":388,"name":"HilldogGaming","steam_id":76561198082209322,"connected_time":1299000000000,"state":"active","ping":83},{"user_id":394,"name":"Dr. Mike","steam_id":76561197991205793,"connected_time":529000000000,"state":"active","ping":79},{"user_id":383,"name":"Volcyy","steam_id":76561198063979124,"connected_time":1425000000000,"state":"active","ping":51},{"user_id":391,"name":"MEGOS","steam_id":76561198172740637,"connected_time":833000000000,"state":"active","ping":64},{"user_id":347,"name":"ducks","steam_id":76561198166148685,"connected_time":3267000000000,"state":"active","ping":30},{"user_id":389,"name":"N0tzz","steam_id":76561198391025653,"connected_time":1171000000000,"state":"active","ping":58},{"user_id":385,"name":"Slifer the Sky Dragon","steam_id":76561198062255803,"connected_time":1406000000000,"state":"active","ping":67},{"user_id":340,"name":"Christmas Ham","steam_id":76561198119601623,"connected_time":3910000000000,"state":"active","ping":53},{"user_id":378,"name":"Zwphyr | TourBot.TF","steam_id":76561198160772793,"connected_time":1663000000000,"state":"active","ping":54},{"user_id":398,"name":"NokoToy","steam_id":76561198181354997,"connected_time":261000000000,"state":"active","ping":86},{"user_id":386,"name":"Lalo","steam_id":76561198184360615,"connected_time":1380000000000,"state":"active","ping":105},{"user_id":333,"name":"Alibi","steam_id":76561198061845595,"connected_time":4664000000000,"state":"active","ping":47},{"user_id":390,"name":"Ðoggo","steam_id":76561198208781180,"connected_time":1167000000000,"state":"active","ping":71},{"user_id":349,"name":"2nd_Bombing_bomb","steam_id":76561199060737987,"connected_time":3239000000000,"state":"active","ping":140},{"user_id":392,"name":"Zevv","steam_id":76561199126307356,"connected_time":827000000000,"state":"active","ping":56},{"user_id":339,"name":"tone","steam_id":76561197975301462,"connected_time":4064000000000,"state":"active","ping":65},{"user_id":400,"name":"Sammy","steam_id":76561197977379410,"connected_time":1000000000,"state":"spawning","ping":49}]},{"server_id":321,"name":"Uncletopia | London | 4 | All Maps","name_short":"lon-4","host":"lon-1.uk.uncletopia.com","port":27045,"enabled":true,"region":"eu","cc":"gb","latitude":51.509865,"longitude":-0.118092,"reserved":0,"last_update":"0001-01-01T00:00:00Z","name_a2s":"Uncletopia | London | 4 | All Maps","protocol":17,"map":"cp_well","folder":"tf","game":"Team Fortress","app_id":440,"player_count":15,"max_players":24,"Bots":0,"server_type":"Dedicated","server_os":"Linux","password":true,"vac":true,"version":"7882260","steam_id":85568392924510193,"keywords":["cp","nocrits","nodmgspread","uncletopia"],"game_id":440,"stv_port":27046,"stv_name":"Uncletopia | London | 4 | All Maps | STV","players":[{"user_id":941,"name":"ChPerette","steam_id":76561198060004887,"connected_time":310000000000,"state":"active","ping":38},{"user_id":937,"name":"Fashion","steam_id":76561198056788026,"connected_time":380000000000,"state":"active","ping":129},{"user_id":942,"name":"Black Sheep","steam_id":76561198042244701,"connected_time":300000000000,"state":"active","ping":61},{"user_id":936,"name":"valerie","steam_id":76561198050856530,"connected_time":385000000000,"state":"active","ping":105},{"user_id":935,"name":"zoinks!","steam_id":76561198068645362,"connected_time":387000000000,"state":"active","ping":41},{"user_id":910,"name":"Shearman360","steam_id":76561198193909685,"connected_time":2291000000000,"state":"active","ping":67},{"user_id":893,"name":"gediot#2","steam_id":76561199229899155,"connected_time":3156000000000,"state":"active","ping":38},{"user_id":943,"name":"Punchy","steam_id":76561197961020896,"connected_time":271000000000,"state":"active","ping":45},{"user_id":944,"name":"jonbob","steam_id":76561197963506620,"connected_time":60000000000,"state":"active","ping":49},{"user_id":945,"name":"sHIFTINGvORTEX","steam_id":76561198231648332,"connected_time":55000000000,"state":"active","ping":65},{"user_id":946,"name":"AmBush","steam_id":76561198092063715,"connected_time":11000000000,"state":"spawning","ping":52},{"user_id":911,"name":"Summer ♥","steam_id":76561198047723907,"connected_time":2274000000000,"state":"active","ping":44},{"user_id":933,"name":"Bambi","steam_id":76561198166972711,"connected_time":493000000000,"state":"active","ping":44},{"user_id":928,"name":"SuntanPikachu","steam_id":76561198121242476,"connected_time":1270000000000,"state":"active","ping":52},{"user_id":932,"name":"Qxillum","steam_id":76561198037201297,"connected_time":753000000000,"state":"active","ping":51}]},{"server_id":21,"name":"Uncletopia | London | 5 | All Maps","name_short":"lon-5","host":"lon-1.uk.uncletopia.com","port":27055,"enabled":true,"region":"eu","cc":"gb","latitude":51.509865,"longitude":-0.118092,"reserved":0,"last_update":"0001-01-01T00:00:00Z","name_a2s":"Uncletopia | London | 5 | All Maps","protocol":17,"map":"koth_viaduct","folder":"tf","game":"Team Fortress","app_id":440,"player_count":2,"max_players":24,"Bots":0,"server_type":"Dedicated","server_os":"Linux","password":true,"vac":true,"version":"7882260","steam_id":85568392924742829,"keywords":["cp","nocrits","nodmgspread","uncletopia"],"game_id":440,"stv_port":27056,"stv_name":"Uncletopia | London | 5 | All Maps | STV","players":[{"user_id":258,"name":"Klicks_","steam_id":76561199026721671,"connected_time":410000000000,"state":"active","ping":182},{"user_id":259,"name":"engi is near","steam_id":76561199123567400,"connected_time":356000000000,"state":"active","ping":168}]},{"server_id":22,"name":"Uncletopia | London | 6 | All Maps","name_short":"lon-6","host":"lon-1.uk.uncletopia.com","port":27065,"enabled":true,"region":"eu","cc":"gb","latitude":51.509865,"longitude":-0.118092,"reserved":0,"last_update":"0001-01-01T00:00:00Z","name_a2s":"Uncletopia | London | 6 | All Maps","protocol":17,"map":"cp_process_final","folder":"tf","game":"Team Fortress","app_id":440,"player_count":0,"max_players":24,"Bots":0,"server_type":"Dedicated","server_os":"Linux","password":true,"vac":true,"version":"7882260","steam_id":85568392924742830,"keywords":["cp","nocrits","nodmgspread","uncletopia"],"game_id":440,"stv_port":27066,"stv_name":"Uncletopia | London | 6 | All Maps | STV","players":null},{"server_id":40,"name":"Uncletopia | London | 7 | No Payload","name_short":"lon-7","host":"lon-1.uk.uncletopia.com","port":27075,"enabled":true,"region":"eu","cc":"gb","latitude":51.509865,"longitude":-0.118092,"reserved":0,"last_update":"0001-01-01T00:00:00Z","name_a2s":"Uncletopia | London | 7 | No Payload","protocol":17,"map":"cp_freight_final1","folder":"tf","game":"Team Fortress","app_id":440,"player_count":0,"max_players":24,"Bots":0,"server_type":"Dedicated","server_os":"Linux","password":true,"vac":true,"version":"7882260","steam_id":85568392924964314,"keywords":["cp","nocrits","nodmgspread","uncletopia"],"game_id":440,"stv_port":27076,"stv_name":"Uncletopia | London | 7 | No Payload | STV","players":null},{"server_id":41,"name":"Uncletopia | London | 8 | Community","name_short":"lon-8","host":"lon-1.uk.uncletopia.com","port":27085,"enabled":true,"region":"eu","cc":"gb","latitude":51.509865,"longitude":-0.118092,"reserved":0,"last_update":"0001-01-01T00:00:00Z","name_a2s":"Uncletopia | London | 8 | Community","protocol":17,"map":"workshop/koth_ramjam_rc1.ugc459778887","folder":"tf","game":"Team Fortress","app_id":440,"player_count":0,"max_players":24,"Bots":0,"server_type":"Dedicated","server_os":"Linux","password":true,"vac":true,"version":"7882260","steam_id":85568392924964315,"keywords":["cp","nocrits","nodmgspread","uncletopia"],"game_id":440,"stv_port":27086,"stv_name":"Uncletopia | London | 8 | Community | STV","players":null},{"server_id":300,"name":"Uncletopia | Montréal | 1 | All Maps","name_short":"mtl-1","host":"mtl-1.ca.uncletopia.com","port":27015,"enabled":true,"region":"us-east","cc":"ca","latitude":45.50889,"longitude":-73.56167,"reserved":0,"last_update":"0001-01-01T00:00:00Z","name_a2s":"Uncletopia | Montréal | 1 | All Maps","protocol":17,"map":"pl_barnblitz","folder":"tf","game":"Team Fortress","app_id":440,"player_count":0,"max_players":24,"Bots":0,"server_type":"Dedicated","server_os":"Linux","password":true,"vac":true,"version":"7882260","steam_id":85568392924500087,"keywords":["nocrits","nodmgspread","payload","uncletopia"],"game_id":440,"stv_port":27016,"stv_name":"Uncletopia | Montréal | 1 | All Maps | STV","players":null},{"server_id":301,"name":"Uncletopia | Montréal | 2 | All Maps","name_short":"mtl-2","host":"mtl-1.ca.uncletopia.com","port":27025,"enabled":true,"region":"us-east","cc":"ca","latitude":45.50889,"longitude":-73.56167,"reserved":0,"last_update":"0001-01-01T00:00:00Z","name_a2s":"Uncletopia | Montréal | 2 | All Maps","protocol":17,"map":"cp_egypt_final","folder":"tf","game":"Team Fortress","app_id":440,"player_count":0,"max_players":24,"Bots":0,"server_type":"Dedicated","server_os":"Linux","password":true,"vac":true,"version":"7882260","steam_id":85568392924500088,"keywords":["cp","nocrits","nodmgspread","uncletopia"],"game_id":440,"stv_port":27026,"stv_name":"Uncletopia | Montréal | 2 | All Maps | STV","players":null},{"server_id":302,"name":"Uncletopia | Montréal | 3 | All Maps","name_short":"mtl-3","host":"mtl-1.ca.uncletopia.com","port":27035,"enabled":true,"region":"us-east","cc":"ca","latitude":45.50889,"longitude":-73.56167,"reserved":0,"last_update":"0001-01-01T00:00:00Z","name_a2s":"Uncletopia | Montréal | 3 | All Maps","protocol":17,"map":"koth_highpass","folder":"tf","game":"Team Fortress","app_id":440,"player_count":0,"max_players":24,"Bots":0,"server_type":"Dedicated","server_os":"Linux","password":true,"vac":true,"version":"7882260","steam_id":85568392924500089,"keywords":["cp","nocrits","nodmgspread","uncletopia"],"game_id":440,"stv_port":27036,"stv_name":"Uncletopia | Montréal | 3 | All Maps | STV","players":null},{"server_id":303,"name":"Uncletopia | Montréal | 4 | No Payload","name_short":"mtl-4","host":"mtl-1.ca.uncletopia.com","port":27045,"enabled":true,"region":"us-east","cc":"ca","latitude":45.50889,"longitude":-73.56167,"reserved":0,"last_update":"0001-01-01T00:00:00Z","name_a2s":"Uncletopia | Montréal | 4 | No Payload","protocol":17,"map":"cp_altitude","folder":"tf","game":"Team Fortress","app_id":440,"player_count":0,"max_players":24,"Bots":0,"server_type":"Dedicated","server_os":"Linux","password":true,"vac":true,"version":"7882260","steam_id":85568392924500090,"keywords":["cp","nocrits","nodmgspread","uncletopia"],"game_id":440,"stv_port":27046,"stv_name":"Uncletopia | Montréal | 4 | No Payload | STV","players":null},{"server_id":13,"name":"Uncletopia | New York City | 1 | All Maps","name_short":"nyc-1","host":"nyc-1.us.uncletopia.com","port":27015,"enabled":true,"region":"us-east","cc":"us","latitude":40.73061,"longitude":-73.93524,"reserved":0,"last_update":"0001-01-01T00:00:00Z","name_a2s":"Uncletopia | New York City | 1 | All Maps","protocol":17,"map":"pl_swiftwater_final1","folder":"tf","game":"Team Fortress","app_id":440,"player_count":24,"max_players":24,"Bots":0,"server_type":"Dedicated","server_os":"Linux","password":true,"vac":true,"version":"7882260","steam_id":85568392924469993,"keywords":["nocrits","nodmgspread","payload","uncletopia"],"game_id":440,"stv_port":27016,"stv_name":"Uncletopia | New York City | 1 | All Maps | STV","players":[{"user_id":292,"name":"esoobac","steam_id":76561198010370396,"connected_time":1924000000000,"state":"active","ping":68},{"user_id":251,"name":"Sire Salty","steam_id":76561198079639072,"connected_time":5708000000000,"state":"active","ping":49},{"user_id":238,"name":"Bocchi the Cock","steam_id":76561198152455316,"connected_time":6307000000000,"state":"active","ping":138},{"user_id":270,"name":"grate_chanpeon-232","steam_id":76561198073424589,"connected_time":3790000000000,"state":"active","ping":48},{"user_id":300,"name":"Xan Hathaway","steam_id":76561198069816677,"connected_time":778000000000,"state":"active","ping":68},{"user_id":272,"name":"1001NinjaDucks","steam_id":76561198058169660,"connected_time":3754000000000,"state":"active","ping":45},{"user_id":304,"name":"Pls f4 piggies ty","steam_id":76561198129769783,"connected_time":165000000000,"state":"active","ping":77},{"user_id":290,"name":"Averagemicrowavedchickenstick","steam_id":76561199128225865,"connected_time":2506000000000,"state":"active","ping":123},{"user_id":213,"name":"SHADY SWEATER SALESMAN","steam_id":76561198014616865,"connected_time":8543000000000,"state":"active","ping":61},{"user_id":301,"name":"scarecrow (evil)","steam_id":76561198082979347,"connected_time":775000000000,"state":"active","ping":60},{"user_id":293,"name":"Burger","steam_id":76561198124642383,"connected_time":1912000000000,"state":"active","ping":88},{"user_id":240,"name":"emilee (evil)","steam_id":76561198061455664,"connected_time":6236000000000,"state":"active","ping":49},{"user_id":294,"name":"Sewer Mermaid","steam_id":76561198021342773,"connected_time":1911000000000,"state":"active","ping":81},{"user_id":295,"name":"ExtremeDucks","steam_id":76561198351756464,"connected_time":1910000000000,"state":"active","ping":88},{"user_id":287,"name":"Flowers","steam_id":76561198031669899,"connected_time":2785000000000,"state":"active","ping":66},{"user_id":296,"name":"Cluwn","steam_id":76561198001336085,"connected_time":1905000000000,"state":"active","ping":96},{"user_id":297,"name":"Drew","steam_id":76561198042864345,"connected_time":1457000000000,"state":"active","ping":87},{"user_id":244,"name":"shploopie","steam_id":76561198264289810,"connected_time":6224000000000,"state":"active","ping":66},{"user_id":302,"name":"doodlenoodles","steam_id":76561199345823430,"connected_time":775000000000,"state":"active","ping":53},{"user_id":277,"name":"Barlon","steam_id":76561198023717515,"connected_time":3601000000000,"state":"active","ping":58},{"user_id":285,"name":"Jeugh","steam_id":76561198073498865,"connected_time":3056000000000,"state":"active","ping":78},{"user_id":274,"name":"Kuai","steam_id":76561198321216513,"connected_time":3724000000000,"state":"active","ping":57},{"user_id":288,"name":"AJTarcza","steam_id":76561198070800190,"connected_time":2589000000000,"state":"active","ping":73},{"user_id":306,"name":"GanZ","steam_id":76561199378883538,"connected_time":97000000000,"state":"active","ping":67}]},{"server_id":14,"name":"Uncletopia | New York City | 2 | All Maps","name_short":"nyc-2","host":"nyc-1.us.uncletopia.com","port":27025,"enabled":true,"region":"us-east","cc":"us","latitude":40.73061,"longitude":-73.93524,"reserved":0,"last_update":"0001-01-01T00:00:00Z","name_a2s":"Uncletopia | New York City | 2 | All Maps","protocol":17,"map":"pl_borneo","folder":"tf","game":"Team Fortress","app_id":440,"player_count":24,"max_players":24,"Bots":0,"server_type":"Dedicated","server_os":"Linux","password":true,"vac":true,"version":"7882260","steam_id":85568392924469994,"keywords":["nocrits","nodmgspread","payload","uncletopia"],"game_id":440,"stv_port":27026,"stv_name":"Uncletopia | New York City | 2 | All Maps | STV","players":[{"user_id":146,"name":"bit","steam_id":76561198993740818,"connected_time":448000000000,"state":"active","ping":73},{"user_id":141,"name":"AceDeuce","steam_id":76561198049904924,"connected_time":1035000000000,"state":"active","ping":66},{"user_id":149,"name":"Al'","steam_id":76561198105420574,"connected_time":349000000000,"state":"active","ping":75},{"user_id":151,"name":"Hook, Line, and Sphincter","steam_id":76561198078207743,"connected_time":216000000000,"state":"active","ping":43},{"user_id":131,"name":"stewfat","steam_id":76561198084066964,"connected_time":1875000000000,"state":"active","ping":35},{"user_id":150,"name":"Aurro (achievement hunting)","steam_id":76561198315692300,"connected_time":242000000000,"state":"active","ping":51},{"user_id":134,"name":"swan","steam_id":76561198012569200,"connected_time":1681000000000,"state":"active","ping":60},{"user_id":124,"name":"P.C. Baby","steam_id":76561198067011379,"connected_time":2348000000000,"state":"active","ping":137},{"user_id":129,"name":"stradegy","steam_id":76561199074761112,"connected_time":2039000000000,"state":"active","ping":69},{"user_id":145,"name":"alex","steam_id":76561198095203229,"connected_time":473000000000,"state":"active","ping":69},{"user_id":102,"name":"Mr.Bady","steam_id":76561199094651706,"connected_time":4021000000000,"state":"active","ping":65},{"user_id":125,"name":"Mommy Chrysalis","steam_id":76561198802356746,"connected_time":2252000000000,"state":"active","ping":118},{"user_id":148,"name":"Okpar","steam_id":76561199221067945,"connected_time":424000000000,"state":"active","ping":92},{"user_id":73,"name":"Canadian","steam_id":76561199104281653,"connected_time":5137000000000,"state":"active","ping":55},{"user_id":112,"name":"[ATL1] Lavender they/them","steam_id":76561198825997674,"connected_time":3010000000000,"state":"active","ping":63},{"user_id":138,"name":"FLMix Glitch","steam_id":76561198067195817,"connected_time":1375000000000,"state":"active","ping":74},{"user_id":93,"name":"DiscoTraveler","steam_id":76561199240168088,"connected_time":4464000000000,"state":"active","ping":62},{"user_id":122,"name":"vgMaster749","steam_id":76561198205048900,"connected_time":2512000000000,"state":"active","ping":61},{"user_id":81,"name":"Peepster","steam_id":76561198297854733,"connected_time":4800000000000,"state":"active","ping":78},{"user_id":143,"name":"cysipy","steam_id":76561198341860106,"connected_time":898000000000,"state":"active","ping":61},{"user_id":147,"name":"mitzi","steam_id":76561198200865897,"connected_time":448000000000,"state":"active","ping":62},{"user_id":135,"name":"cp_junction head","steam_id":76561198070380404,"connected_time":1419000000000,"state":"active","ping":45},{"user_id":144,"name":"Hank","steam_id":76561198094830509,"connected_time":487000000000,"state":"active","ping":63},{"user_id":106,"name":"faxxy","steam_id":76561198079621240,"connected_time":3331000000000,"state":"active","ping":85}]},{"server_id":15,"name":"Uncletopia | New York City | 3 | Stopwatch Beta","name_short":"nyc-3","host":"nyc-1.us.uncletopia.com","port":27035,"enabled":true,"region":"us-east","cc":"us","latitude":40.73061,"longitude":-73.93524,"reserved":0,"last_update":"0001-01-01T00:00:00Z","name_a2s":"Uncletopia | New York City | 3 | Stopwatch Beta","protocol":17,"map":"koth_highpass","folder":"tf","game":"Team Fortress","app_id":440,"player_count":0,"max_players":24,"Bots":0,"server_type":"Dedicated","server_os":"Linux","password":true,"vac":true,"version":"7882260","steam_id":85568392924742820,"keywords":["cp","nocrits","nodmgspread","uncletopia"],"game_id":440,"stv_port":27036,"stv_name":"Uncletopia | New York City | 3 | Stopwatch Beta | STV","players":null},{"server_id":16,"name":"Uncletopia | New York City | 4 | Community","name_short":"nyc-4","host":"nyc-1.us.uncletopia.com","port":27045,"enabled":true,"region":"us-east","cc":"us","latitude":40.73061,"longitude":-73.93524,"reserved":0,"last_update":"0001-01-01T00:00:00Z","name_a2s":"Uncletopia | New York City | 4 | Community","protocol":17,"map":"workshop/koth_trenchfoot_b1a.ugc731436616","folder":"tf","game":"Team Fortress","app_id":440,"player_count":3,"max_players":24,"Bots":0,"server_type":"Dedicated","server_os":"Linux","password":true,"vac":true,"version":"7882260","steam_id":85568392924742821,"keywords":["cp","nocrits","nodmgspread","uncletopia"],"game_id":440,"stv_port":27046,"stv_name":"Uncletopia | New York City | 4 | Community | STV","players":[{"user_id":3210,"name":"Ghost","steam_id":76561198426370628,"connected_time":0,"state":"connecting","ping":0},{"user_id":3211,"name":"Captain Bohemian","steam_id":76561198066428311,"connected_time":0,"state":"connecting","ping":0},{"user_id":3212,"name":"Metalmaple","steam_id":76561198144352577,"connected_time":0,"state":"connecting","ping":0}]},{"server_id":142,"name":"Uncletopia | São Paulo | 1 | All Maps","name_short":"sao-1","host":"sao-1.br.uncletopia.com","port":27015,"enabled":true,"region":"sa","cc":"br","latitude":-23.533773,"longitude":-46.62529,"reserved":0,"last_update":"0001-01-01T00:00:00Z","name_a2s":"Uncletopia | São Paulo | 1 | All Maps","protocol":17,"map":"koth_viaduct","folder":"tf","game":"Team Fortress","app_id":440,"player_count":0,"max_players":24,"Bots":0,"server_type":"Dedicated","server_os":"Linux","password":true,"vac":true,"version":"7882260","steam_id":85568392924469996,"keywords":["cp","nocrits","nodmgspread","uncletopia"],"game_id":440,"stv_port":27016,"stv_name":"Uncletopia | São Paulo | 1 | All Maps | STV","players":null},{"server_id":143,"name":"Uncletopia | São Paulo | 2 | All Maps","name_short":"sao-2","host":"sao-2.br.uncletopia.com","port":27015,"enabled":true,"region":"sa","cc":"br","latitude":-23.533773,"longitude":-46.62529,"reserved":0,"last_update":"0001-01-01T00:00:00Z","name_a2s":"Uncletopia | São Paulo | 2 | All Maps","protocol":17,"map":"cp_dustbowl","folder":"tf","game":"Team Fortress","app_id":440,"player_count":3,"max_players":24,"Bots":0,"server_type":"Dedicated","server_os":"Linux","password":true,"vac":true,"version":"7882260","steam_id":85568392924485349,"keywords":["cp","nocrits","nodmgspread","uncletopia"],"game_id":440,"stv_port":27016,"stv_name":"Uncletopia | São Paulo | 2 | All Maps | STV","players":[{"user_id":30,"name":"burrildo_11","steam_id":76561199163140389,"connected_time":2816000000000,"state":"active","ping":64},{"user_id":31,"name":"Abrahão0100","steam_id":76561199135205416,"connected_time":2810000000000,"state":"active","ping":49},{"user_id":41,"name":"cmjgamingOHHH YEA","steam_id":76561199124037552,"connected_time":377000000000,"state":"active","ping":166}]},{"server_id":7,"name":"Uncletopia | Seattle | 1 | All Maps","name_short":"sea-1","host":"sea-1.us.uncletopia.com","port":27015,"enabled":true,"region":"us-west","cc":"us","latitude":47.608013,"longitude":-122.33517,"reserved":0,"last_update":"0001-01-01T00:00:00Z","name_a2s":"Uncletopia | Seattle | 1 | All Maps","protocol":17,"map":"ctf_2fort","folder":"tf","game":"Team Fortress","app_id":440,"player_count":24,"max_players":24,"Bots":0,"server_type":"Dedicated","server_os":"Linux","password":true,"vac":true,"version":"7882260","steam_id":85568392924469997,"keywords":["ctf","nocrits","nodmgspread","uncletopia"],"game_id":440,"stv_port":27016,"stv_name":"Uncletopia | Seattle | 1 | All Maps | STV","players":[{"user_id":218,"name":"Username","steam_id":76561198855586261,"connected_time":6443000000000,"state":"active","ping":71},{"user_id":280,"name":"Dargoos","steam_id":76561198366212046,"connected_time":2337000000000,"state":"active","ping":83},{"user_id":293,"name":"jokisilent","steam_id":76561198075458936,"connected_time":720000000000,"state":"active","ping":49},{"user_id":278,"name":"Corpe","steam_id":76561198054490549,"connected_time":2344000000000,"state":"active","ping":52},{"user_id":284,"name":"duddlee","steam_id":76561198030052564,"connected_time":2016000000000,"state":"active","ping":60},{"user_id":194,"name":"Dr. Cgad","steam_id":76561198203411640,"connected_time":9254000000000,"state":"active","ping":113},{"user_id":207,"name":"evilOlive","steam_id":76561198106222025,"connected_time":8199000000000,"state":"active","ping":104},{"user_id":277,"name":"dust | she/it","steam_id":76561198045218909,"connected_time":2355000000000,"state":"active","ping":43},{"user_id":263,"name":"Neptune *:･ﾟ✧*:･ﾟ","steam_id":76561199054203198,"connected_time":3194000000000,"state":"active","ping":116},{"user_id":297,"name":"iphone 7 plus","steam_id":76561198335836405,"connected_time":560000000000,"state":"active","ping":76},{"user_id":253,"name":"louie, engineer main","steam_id":76561198168084763,"connected_time":4820000000000,"state":"active","ping":43},{"user_id":282,"name":"toes","steam_id":76561198221151676,"connected_time":2124000000000,"state":"active","ping":60},{"user_id":283,"name":"greens beans","steam_id":76561198153611491,"connected_time":2060000000000,"state":"active","ping":41},{"user_id":285,"name":"Isabelle","steam_id":76561198159550429,"connected_time":1967000000000,"state":"active","ping":78},{"user_id":298,"name":"Keamy","steam_id":76561199471434875,"connected_time":530000000000,"state":"active","ping":41},{"user_id":305,"name":"Mr defrost","steam_id":76561198322125657,"connected_time":157000000000,"state":"active","ping":66},{"user_id":125,"name":"fox news goblin","steam_id":76561198167648580,"connected_time":13329000000000,"state":"active","ping":75},{"user_id":299,"name":"Finkly","steam_id":76561198049828110,"connected_time":529000000000,"state":"active","ping":46},{"user_id":273,"name":"Son Goku","steam_id":76561198271939793,"connected_time":2750000000000,"state":"active","ping":56},{"user_id":300,"name":"Skabbety","steam_id":76561198168044257,"connected_time":526000000000,"state":"active","ping":42},{"user_id":288,"name":"BolognaWithOlives","steam_id":76561198101262668,"connected_time":1258000000000,"state":"active","ping":89},{"user_id":303,"name":"ursa","steam_id":76561198025394298,"connected_time":296000000000,"state":"active","ping":109},{"user_id":275,"name":"Caylebe77","steam_id":76561198097842408,"connected_time":2577000000000,"state":"active","ping":70},{"user_id":244,"name":"SibilantSerpent","steam_id":76561198154488754,"connected_time":5493000000000,"state":"active","ping":56}]},{"server_id":119,"name":"Uncletopia | Seattle | 2 | All Maps","name_short":"sea-2","host":"sea-1.us.uncletopia.com","port":27025,"enabled":true,"region":"us-west","cc":"us","latitude":47.608013,"longitude":-122.33517,"reserved":0,"last_update":"0001-01-01T00:00:00Z","name_a2s":"Uncletopia | Seattle | 2 | All Maps","protocol":17,"map":"pl_upward","folder":"tf","game":"Team Fortress","app_id":440,"player_count":23,"max_players":24,"Bots":0,"server_type":"Dedicated","server_os":"Linux","password":true,"vac":true,"version":"7882260","steam_id":85568392924469998,"keywords":["nocrits","nodmgspread","payload","uncletopia"],"game_id":440,"stv_port":27026,"stv_name":"Uncletopia | Seattle | 2 | All Maps | STV","players":[{"user_id":230,"name":"pat back","steam_id":76561198347225801,"connected_time":2131000000000,"state":"active","ping":46},{"user_id":260,"name":"Feldspaten","steam_id":76561199122059102,"connected_time":243000000000,"state":"active","ping":85},{"user_id":231,"name":"Pah-Wraith Gul Dukat","steam_id":76561198033918106,"connected_time":1888000000000,"state":"active","ping":76},{"user_id":233,"name":"Evanb","steam_id":76561198042057792,"connected_time":1882000000000,"state":"active","ping":45},{"user_id":252,"name":"moldyboi_","steam_id":76561199051928811,"connected_time":919000000000,"state":"active","ping":79},{"user_id":229,"name":"boptop","steam_id":76561198161732518,"connected_time":2229000000000,"state":"active","ping":64},{"user_id":255,"name":"NovaScotianDuckRetriever","steam_id":76561198061867269,"connected_time":638000000000,"state":"active","ping":37},{"user_id":253,"name":"Retroliar","steam_id":76561199004899484,"connected_time":768000000000,"state":"active","ping":88},{"user_id":237,"name":"JON","steam_id":76561198057971005,"connected_time":1633000000000,"state":"active","ping":34},{"user_id":261,"name":"Darkspiral","steam_id":76561198080807559,"connected_time":241000000000,"state":"active","ping":76},{"user_id":254,"name":"Jason Voorhees","steam_id":76561198358987380,"connected_time":710000000000,"state":"active","ping":70},{"user_id":79,"name":"Power Jake","steam_id":76561198051510260,"connected_time":12841000000000,"state":"active","ping":60},{"user_id":199,"name":"cp_AnnoyingOrange","steam_id":76561198058956253,"connected_time":3626000000000,"state":"active","ping":47},{"user_id":262,"name":"Apollo","steam_id":76561198162364702,"connected_time":212000000000,"state":"active","ping":49},{"user_id":257,"name":"SomeFuckingGuy #SAVETF2","steam_id":76561199239165015,"connected_time":463000000000,"state":"active","ping":66},{"user_id":239,"name":"Agent86","steam_id":76561198046794593,"connected_time":1531000000000,"state":"active","ping":135},{"user_id":247,"name":"Surfing Garchomp","steam_id":76561199107236884,"connected_time":1277000000000,"state":"active","ping":41},{"user_id":238,"name":"Elfy","steam_id":76561199166448617,"connected_time":1624000000000,"state":"active","ping":57},{"user_id":263,"name":"portal2trollin","steam_id":76561198046869828,"connected_time":195000000000,"state":"active","ping":105},{"user_id":130,"name":"VerminKing","steam_id":76561198060887391,"connected_time":8537000000000,"state":"active","ping":62},{"user_id":265,"name":"Goose","steam_id":76561198036774894,"connected_time":120000000000,"state":"active","ping":42},{"user_id":245,"name":"Heinz-Harald Hopeless","steam_id":76561199002203593,"connected_time":1388000000000,"state":"active","ping":87},{"user_id":259,"name":"Saul Bunyan Attorney at Log","steam_id":76561198209153291,"connected_time":295000000000,"state":"active","ping":86}]},{"server_id":406,"name":"Uncletopia | Seattle | 3 | Stopwatch Beta","name_short":"sea-3","host":"sea-1.us.uncletopia.com","port":27035,"enabled":true,"region":"us-west","cc":"us","latitude":47.608013,"longitude":-122.33517,"reserved":0,"last_update":"0001-01-01T00:00:00Z","name_a2s":"Uncletopia | Seattle | 3 | Stopwatch Beta","protocol":17,"map":"koth_lakeside_final","folder":"tf","game":"Team Fortress","app_id":440,"player_count":0,"max_players":24,"Bots":0,"server_type":"Dedicated","server_os":"Linux","password":true,"vac":true,"version":"7882260","steam_id":85568392924515217,"keywords":["cp","nocrits","nodmgspread","uncletopia"],"game_id":440,"stv_port":27036,"stv_name":"Uncletopia | Seattle | 3 | Stopwatch Beta | STV","players":null},{"server_id":17,"name":"Uncletopia | San Francisco | 1 | All Maps","name_short":"sfo-1","host":"sfo-1.us.uncletopia.com","port":27015,"enabled":true,"region":"us-west","cc":"us","latitude":37.77397,"longitude":-122.4313,"reserved":0,"last_update":"0001-01-01T00:00:00Z","name_a2s":"Uncletopia | San Francisco | 1 | All Maps","protocol":17,"map":"cp_process_final","folder":"tf","game":"Team Fortress","app_id":440,"player_count":0,"max_players":24,"Bots":0,"server_type":"Dedicated","server_os":"Linux","password":true,"vac":true,"version":"7757534","steam_id":85568392924469999,"keywords":["cp","nocrits","nodmgspread","uncletopia"],"game_id":440,"stv_port":27016,"stv_name":"Uncletopia | San Francisco | 1 | All Maps | STV","players":null},{"server_id":18,"name":"Uncletopia | San Francisco | 2 | All Maps","name_short":"sfo-2","host":"sfo-1.us.uncletopia.com","port":27025,"enabled":true,"region":"us-west","cc":"us","latitude":37.77397,"longitude":-122.4313,"reserved":0,"last_update":"0001-01-01T00:00:00Z","name_a2s":"Uncletopia | San Francisco | 2 | All Maps","protocol":17,"map":"koth_highpass","folder":"tf","game":"Team Fortress","app_id":440,"player_count":0,"max_players":24,"Bots":0,"server_type":"Dedicated","server_os":"Linux","password":true,"vac":true,"version":"7757534","steam_id":85568392924470000,"keywords":["cp","nocrits","nodmgspread","uncletopia"],"game_id":440,"stv_port":27026,"stv_name":"Uncletopia | San Francisco | 2 | All Maps | STV","players":null},{"server_id":19,"name":"Uncletopia | San Francisco | 3 | Stopwatch Beta","name_short":"sfo-3","host":"sfo-1.us.uncletopia.com","port":27035,"enabled":true,"region":"us-west","cc":"us","latitude":37.77397,"longitude":-122.4313,"reserved":0,"last_update":"0001-01-01T00:00:00Z","name_a2s":"Uncletopia | San Francisco | 3 | Stopwatch Beta","protocol":17,"map":"koth_lakeside_final","folder":"tf","game":"Team Fortress","app_id":440,"player_count":0,"max_players":24,"Bots":0,"server_type":"Dedicated","server_os":"Linux","password":true,"vac":true,"version":"7757534","steam_id":85568392924742824,"keywords":["cp","nocrits","nodmgspread","uncletopia"],"game_id":440,"stv_port":27036,"stv_name":"Uncletopia | San Francisco | 3 | Stopwatch Beta | STV","players":null},{"server_id":20,"name":"Uncletopia | San Francisco | 4 | Community","name_short":"sfo-4","host":"sfo-1.us.uncletopia.com","port":27045,"enabled":true,"region":"us-west","cc":"us","latitude":37.77397,"longitude":-122.4313,"reserved":0,"last_update":"0001-01-01T00:00:00Z","name_a2s":"Uncletopia | San Francisco | 4 | Community","protocol":17,"map":"cp_altitude","folder":"tf","game":"Team Fortress","app_id":440,"player_count":0,"max_players":24,"Bots":0,"server_type":"Dedicated","server_os":"Linux","password":true,"vac":true,"version":"7757534","steam_id":85568392924742826,"keywords":["cp","nocrits","nodmgspread","uncletopia"],"game_id":440,"stv_port":27046,"stv_name":"Uncletopia | San Francisco | 4 | Community | STV","players":null},{"server_id":141,"name":"Uncletopia | Sydney | 1 | All Maps","name_short":"syd-1","host":"syd-1.au.uncletopia.com","port":27015,"enabled":true,"region":"au","cc":"au","latitude":-33.865143,"longitude":151.2099,"reserved":0,"last_update":"0001-01-01T00:00:00Z","name_a2s":"Uncletopia | Sydney | 1 | All Maps","protocol":17,"map":"cp_snakewater_final1","folder":"tf","game":"Team Fortress","app_id":440,"player_count":0,"max_players":24,"Bots":0,"server_type":"Dedicated","server_os":"Linux","password":true,"vac":true,"version":"7882260","steam_id":85568392924470001,"keywords":["cp","nocrits","nodmgspread","uncletopia"],"game_id":440,"stv_port":27016,"stv_name":"Uncletopia | Sydney | 1 | All Maps | STV","players":null},{"server_id":123,"name":"Uncletopia | Sydney | 2 | All Maps","name_short":"syd-2","host":"syd-1.au.uncletopia.com","port":27025,"enabled":true,"region":"au","cc":"au","latitude":-33.865143,"longitude":151.2099,"reserved":0,"last_update":"0001-01-01T00:00:00Z","name_a2s":"Uncletopia | Sydney | 2 | All Maps","protocol":17,"map":"pl_barnblitz","folder":"tf","game":"Team Fortress","app_id":440,"player_count":0,"max_players":24,"Bots":0,"server_type":"Dedicated","server_os":"Linux","password":true,"vac":true,"version":"7882260","steam_id":85568392924470002,"keywords":["nocrits","nodmgspread","payload","uncletopia"],"game_id":440,"stv_port":27026,"stv_name":"Uncletopia | Sydney | 2 | All Maps | STV","players":null},{"server_id":395,"name":"Uncletopia | Sydney | 3 | All Maps","name_short":"syd-3","host":"syd-1.au.uncletopia.com","port":27035,"enabled":true,"region":"au","cc":"au","latitude":-33.865143,"longitude":151.2099,"reserved":0,"last_update":"0001-01-01T00:00:00Z","name_a2s":"Uncletopia | Sydney | 3 | All Maps","protocol":17,"map":"pl_badwater","folder":"tf","game":"Team Fortress","app_id":440,"player_count":0,"max_players":24,"Bots":0,"server_type":"Dedicated","server_os":"Linux","password":true,"vac":true,"version":"7882260","steam_id":85568392925194467,"keywords":["nocrits","nodmgspread","payload","uncletopia"],"game_id":440,"stv_port":27036,"stv_name":"Uncletopia | Sydney | 3 | All Maps | STV","players":null},{"server_id":396,"name":"Uncletopia | Sydney | 4 | All Maps","name_short":"syd-4","host":"syd-1.au.uncletopia.com","port":27045,"enabled":true,"region":"au","cc":"au","latitude":-33.865143,"longitude":151.2099,"reserved":0,"last_update":"0001-01-01T00:00:00Z","name_a2s":"Uncletopia | Sydney | 4 | All Maps","protocol":17,"map":"pl_frontier_final","folder":"tf","game":"Team Fortress","app_id":440,"player_count":0,"max_players":24,"Bots":0,"server_type":"Dedicated","server_os":"Linux","password":true,"vac":true,"version":"7882260","steam_id":85568392925397958,"keywords":["nocrits","nodmgspread","payload","uncletopia"],"game_id":440,"stv_port":27046,"stv_name":"Uncletopia | Sydney | 4 | All Maps | STV","players":null},{"server_id":58,"name":"Uncletopia | Sydney | 5 | Stopwatch Beta","name_short":"syd-5","host":"syd-1.au.uncletopia.com","port":27055,"enabled":true,"region":"au","cc":"au","latitude":-33.865143,"longitude":151.2099,"reserved":0,"last_update":"0001-01-01T00:00:00Z","name_a2s":"Uncletopia | Sydney | 5 | Stopwatch Beta","protocol":17,"map":"pl_swiftwater_final1","folder":"tf","game":"Team Fortress","app_id":440,"player_count":0,"max_players":24,"Bots":0,"server_type":"Dedicated","server_os":"Linux","password":true,"vac":true,"version":"7882260","steam_id":85568392925397959,"keywords":["nocrits","nodmgspread","payload","uncletopia"],"game_id":440,"stv_port":27056,"stv_name":"Uncletopia | Sydney | 5 | Stopwatch Beta | STV","players":null},{"server_id":59,"name":"Uncletopia | Sydney | 6 | Community","name_short":"syd-6","host":"syd-1.au.uncletopia.com","port":27065,"enabled":true,"region":"au","cc":"au","latitude":-33.865143,"longitude":151.2099,"reserved":0,"last_update":"0001-01-01T00:00:00Z","name_a2s":"Uncletopia | Sydney | 6 | Community","protocol":17,"map":"pl_snowycoast","folder":"tf","game":"Team Fortress","app_id":440,"player_count":0,"max_players":24,"Bots":0,"server_type":"Dedicated","server_os":"Linux","password":true,"vac":true,"version":"7882260","steam_id":85568392925397960,"keywords":["nocrits","nodmgspread","payload","uncletopia"],"game_id":440,"stv_port":27066,"stv_name":"Uncletopia | Sydney | 6 | Community | STV","players":null},{"server_id":49,"name":"Uncletopia | Warsaw | 1 | All Maps","name_short":"waw-1","host":"waw-1.pl.uncletopia.com","port":27015,"enabled":true,"region":"eu","cc":"pl","latitude":52.2297,"longitude":21.017532,"reserved":0,"last_update":"0001-01-01T00:00:00Z","name_a2s":"","protocol":0,"map":"","folder":"","game":"","app_id":0,"player_count":0,"max_players":0,"Bots":0,"server_type":"","server_os":"","password":false,"vac":false,"version":"","steam_id":0,"keywords":null,"game_id":0,"stv_port":0,"stv_name":"","players":null},{"server_id":50,"name":"Uncletopia | Warsaw | 2 | All Maps","name_short":"waw-2","host":"waw-1.pl.uncletopia.com","port":27025,"enabled":true,"region":"eu","cc":"pl","latitude":52.2297,"longitude":21.017532,"reserved":0,"last_update":"0001-01-01T00:00:00Z","name_a2s":"Uncletopia | Warsaw | 2 | All Maps","protocol":17,"map":"koth_highpass","folder":"tf","game":"Team Fortress","app_id":440,"player_count":0,"max_players":24,"Bots":0,"server_type":"Dedicated","server_os":"Linux","password":true,"vac":true,"version":"7882260","steam_id":85568392925397851,"keywords":["cp","nocrits","nodmgspread","uncletopia"],"game_id":440,"stv_port":27026,"stv_name":"Uncletopia | Warsaw | 2 | All Maps | STV","players":null},{"server_id":51,"name":"Uncletopia | Warsaw | 3 | All Maps","name_short":"waw-3","host":"waw-1.pl.uncletopia.com","port":27035,"enabled":true,"region":"eu","cc":"pl","latitude":52.2297,"longitude":21.017532,"reserved":0,"last_update":"0001-01-01T00:00:00Z","name_a2s":"Uncletopia | Warsaw | 3 | All Maps","protocol":17,"map":"koth_viaduct","folder":"tf","game":"Team Fortress","app_id":440,"player_count":0,"max_players":24,"Bots":0,"server_type":"Dedicated","server_os":"Linux","password":true,"vac":true,"version":"7882260","steam_id":85568392925397852,"keywords":["cp","nocrits","nodmgspread","uncletopia"],"game_id":440,"stv_port":27036,"stv_name":"Uncletopia | Warsaw | 3 | All Maps | STV","players":null},{"server_id":52,"name":"Uncletopia | Warsaw | 4 | All Maps","name_short":"waw-4","host":"waw-1.pl.uncletopia.com","port":27045,"enabled":true,"region":"eu","cc":"pl","latitude":52.2297,"longitude":21.017532,"reserved":0,"last_update":"0001-01-01T00:00:00Z","name_a2s":"Uncletopia | Warsaw | 4 | All Maps","protocol":17,"map":"koth_highpass","folder":"tf","game":"Team Fortress","app_id":440,"player_count":0,"max_players":24,"Bots":0,"server_type":"Dedicated","server_os":"Linux","password":true,"vac":true,"version":"7882260","steam_id":85568392925397853,"keywords":["cp","nocrits","nodmgspread","uncletopia"],"game_id":440,"stv_port":27046,"stv_name":"Uncletopia | Warsaw | 4 | All Maps | STV","players":null},{"server_id":53,"name":"Uncletopia | Warsaw | 5 | Stopwatch Beta","name_short":"waw-5","host":"waw-1.pl.uncletopia.com","port":27055,"enabled":true,"region":"eu","cc":"pl","latitude":52.2297,"longitude":21.017532,"reserved":0,"last_update":"0001-01-01T00:00:00Z","name_a2s":"Uncletopia | Warsaw | 5 | Stopwatch Beta","protocol":17,"map":"pl_upward","folder":"tf","game":"Team Fortress","app_id":440,"player_count":0,"max_players":24,"Bots":0,"server_type":"Dedicated","server_os":"Linux","password":true,"vac":true,"version":"7882260","steam_id":85568392925397854,"keywords":["nocrits","nodmgspread","payload","uncletopia"],"game_id":440,"stv_port":27056,"stv_name":"Uncletopia | Warsaw | 5 | Stopwatch Beta | STV","players":null},{"server_id":54,"name":"Uncletopia | Warsaw | 6 | Community","name_short":"waw-6","host":"waw-1.pl.uncletopia.com","port":27065,"enabled":true,"region":"eu","cc":"pl","latitude":52.2297,"longitude":21.017532,"reserved":0,"last_update":"0001-01-01T00:00:00Z","name_a2s":"Uncletopia | Warsaw | 6 | Community","protocol":17,"map":"workshop/cp_fulgur_rc2a.ugc2068252300","folder":"tf","game":"Team Fortress","app_id":440,"player_count":0,"max_players":24,"Bots":0,"server_type":"Dedicated","server_os":"Linux","password":true,"vac":true,"version":"7882260","steam_id":85568392925397856,"keywords":["cp","nocrits","nodmgspread","uncletopia"],"game_id":440,"stv_port":27066,"stv_name":"Uncletopia | Warsaw | 6 | Community | STV","players":null}]}