{"status":true,"message":"","result":[{"server_id":9,"name":"Uncletopia | Atlanta | 1 | All Maps","name_short":"atl-1","host":"atl-1.us.uncletopia.com","port":27015,"enabled":true,"region":"us-east","cc":"us","latitude":33.753746,"longitude":-84.38633,"reserved":0,"last_update":"0001-01-01T00:00:00Z","name_a2s":"Uncletopia | Atlanta | 1 | All Maps","protocol":17,"map":"pl_upward","folder":"tf","game":"Team Fortress","app_id":440,"player_count":24,"max_players":24,"Bots":0,"server_type":"Dedicated","server_os":"Linux","password":true,"vac":true,"version":"7882260","steam_id":85568392924469982,"keywords":["nocrits","nodmgspread","payload","uncletopia"],"game_id":440,"stv_port":27016,"stv_name":"Uncletopia | Atlanta | 1 | All Maps | STV","players":[{"user_id":206,"name":"Captain Chicken","steam_id":76561198398677744,"connected_time":6491000000000,"state":"active","ping":92},{"user_id":248,"name":"peee pee man","steam_id":76561198044979205,"connected_time":2734000000000,"state":"active","ping":77},{"user_id":256,"name":"Jona2180","steam_id":76561198807012900,"connected_time":1838000000000,"state":"active","ping":61},{"user_id":262,"name":"Dr Oshawott","steam_id":76561198042021629,"connected_time":1585000000000,"state":"active","ping":89},{"user_id":113,"name":"zzz","steam_id":76561198143727547,"connected_time":12943000000000,"state":"active","ping":108},{"user_id":264,"name":"Paul Blart","steam_id":76561198068110623,"connected_time":1372000000000,"state":"active","ping":106},{"user_id":265,"name":"Satori Komeiji","steam_id":76561198158211423,"connected_time":1358000000000,"state":"active","ping":97},{"user_id":253,"name":"Brian","steam_id":76561198089908485,"connected_time":2156000000000,"state":"active","ping":59},{"user_id":247,"name":"J O V A","steam_id":76561198090333536,"connected_time":2817000000000,"state":"active","ping":62},{"user_id":270,"name":"xX_HimboSwallower_Xx","steam_id":76561198016029965,"connected_time":510000000000,"state":"active","ping":75},{"user_id":271,"name":"Nephs","steam_id":76561198136763403,"connected_time":450000000000,"state":"active","ping":86},{"user_id":129,"name":"wG deez","steam_id":76561198277163301,"connected_time":12008000000000,"state":"active","ping":78},{"user_id":252,"name":"Sophie","steam_id":76561198170408057,"connected_time":2198000000000,"state":"active","ping":56},{"user_id":267,"name":"Albino Jellyfish","steam_id":76561198208561097,"connected_time":995000000000,"state":"active","ping":69},{"user_id":222,"name":"Daniel Craig Fan","steam_id":76561198053467923,"connected_time":5207000000000,"state":"active","ping":81},{"user_id":266,"name":"lwyr","steam_id":76561198007982579,"connected_time":1281000000000,"state":"active","ping":61},{"user_id":183,"name":"noobkiller420","steam_id":76561198079416036,"connected_time":8493000000000,"state":"active","ping":85},{"user_id":192,"name":"lynt","steam_id":76561198988333976,"connected_time":7727000000000,"state":"active","ping":42},{"user_id":239,"name":"Toonice","steam_id":76561198402994885,"connected_time":3635000000000,"state":"active","ping":88},{"user_id":254,"name":"Broadsword","steam_id":76561198011160411,"connected_time":1864000000000,"state":"active","ping":49},{"user_id":268,"name":"[txc] garf","steam_id":76561198083078030,"connected_time":806000000000,"state":"active","ping":48},{"user_id":251,"name":"Crystron","steam_id":76561198880437428,"connected_time":2480000000000,"state":"active","ping":90},{"user_id":168,"name":"Sage","steam_id":76561198143101697,"connected_time":9599000000000,"state":"active","ping":111},{"user_id":260,"name":"(no monitor) ayylien","steam_id":76561198042127970,"connected_time":1767000000000,"state":"active","ping":60}]},{"server_id":104,"name":"Uncletopia | Atlanta | 2 | All Maps","name_short":"atl-2","host":"atl-1.us.uncletopia.com","port":27025,"enabled":true,"region":"us-east","cc":"us","latitude":33.753746,"longitude":-84.38633,"reserved":0,"last_update":"0001-01-01T00:00:00Z","name_a2s":"Uncletopia | Atlanta | 2 | All Maps","protocol":17,"map":"cp_snakewater_final1","folder":"tf","game":"Team Fortress","app_id":440,"player_count":24,"max_players":24,"Bots":0,"server_type":"Dedicated","server_os":"Linux","password":true,"vac":true,"version":"7882260","steam_id":85568392924469983,"keywords":["cp","nocrits","nodmgspread","uncletopia"],"game_id":440,"stv_port":27026,"stv_name":"Uncletopia | Atlanta | 2 | All Maps | STV","players":[{"user_id":440,"name":"The Pope","steam_id":76561198313560302,"connected_time":795000000000,"state":"active","ping":37},{"user_id":388,"name":"Notation","steam_id":76561198119509319,"connected_time":5748000000000,"state":"active","ping":47},{"user_id":418,"name":"Batsy","steam_id":76561198044767185,"connected_time":3349000000000,"state":"active","ping":46},{"user_id":427,"name":"DrLuciferWinchester","steam_id":76561198261849661,"connected_time":2870000000000,"state":"active","ping":167},{"user_id":409,"name":"trobin120","steam_id":76561199122420273,"connected_time":4001000000000,"state":"active","ping":62},{"user_id":422,"name":"the real babytron","steam_id":76561197989627918,"connected_time":3292000000000,"state":"active","ping":78},{"user_id":444,"name":"Ring A Ding","steam_id":76561199205871164,"connected_time":464000000000,"state":"active","ping":90},{"user_id":403,"name":"lost in spaaaaace","steam_id":76561199085974120,"connected_time":4282000000000,"state":"active","ping":67},{"user_id":439,"name":"Zin","steam_id":76561199041369507,"connected_time":1190000000000,"state":"active","ping":69},{"user_id":424,"name":"nothing burger eater","steam_id":76561198046201690,"connected_time":3151000000000,"state":"active","ping":153},{"user_id":402,"name":"Obelisk","steam_id":76561198049416866,"connected_time":4405000000000,"state":"active","ping":56},{"user_id":386,"name":"MineAGK","steam_id":76561198128372943,"connected_time":5820000000000,"state":"active","ping":84},{"user_id":445,"name":"EskiM0JOJ0","steam_id":76561199130877402,"connected_time":278000000000,"state":"active","ping":73},{"user_id":446,"name":"J_Bug","steam_id":76561198163362175,"connected_time":118000000000,"state":"active","ping":81},{"user_id":433,"name":"Wallet","steam_id":76561198081067377,"connected_time":1788000000000,"state":"active","ping":57},{"user_id":441,"name":"coco","steam_id":76561199112844022,"connected_time":729000000000,"state":"active","ping":105},{"user_id":356,"name":"ThatGamingKiwi","steam_id":76561199170522237,"connected_time":7040000000000,"state":"active","ping":97},{"user_id":438,"name":"Meat Mans Meat","steam_id":76561198062149455,"connected_time":1387000000000,"state":"active","ping":45},{"user_id":428,"name":"Motorol¬™","steam_id":76561198358119669,"connected_time":2492000000000,"state":"active","ping":132},{"user_id":423,"name":"Frajer","steam_id":76561198059129680,"connected_time":3291000000000,"state":"active","ping":77},{"user_id":393,"name":"Stakie","steam_id":76561198401556657,"connected_time":5319000000000,"state":"active","ping":164},{"user_id":412,"name":"tubby","steam_id":76561198174982661,"connected_time":3640000000000,"state":"active","ping":71},{"user_id":434,"name":"A Can of Arizona Green Tea","steam_id":76561198062481133,"connected_time":1594000000000,"state":"active","ping":92},{"user_id":430,"name":"rgb keyboard","steam_id":76561198814096380,"connected_time":2221000000000,"state":"active","ping":83}]},{"server_id":400,"name":"Uncletopia | Atlanta | 3 | Community","name_short":"atl-3","host":"atl-1.us.uncletopia.com","port":27035,"enabled":true,"region":"us-east","cc":"us","latitude":33.753746,"longitude":-84.38633,"reserved":0,"last_update":"0001-01-01T00:00:00Z","name_a2s":"Uncletopia | Atlanta | 3 | Community","protocol":17,"map":"workshop/cp_propaganda_b18.ugc1603743849","folder":"tf","game":"Team Fortress","app_id":440,"player_count":0,"max_players":24,"Bots":0,"server_type":"Dedicated","server_os":"Linux","password":true,"vac":true,"version":"7882260","steam_id":85568392924515187,"keywords":["cp","nocrits","nodmgspread","uncletopia"],"game_id":440,"stv_port":27036,"stv_name":"Uncletopia | Atlanta | 3 | Community | STV","players":null},{"server_id":401,"name":"Uncletopia | Atlanta | 4 | No Payload","name_short":"atl-4","host":"atl-1.us.uncletopia.com","port":27045,"enabled":true,"region":"us-east","cc":"us","latitude":33.753746,"longitude":-84.38633,"reserved":0,"last_update":"0001-01-01T00:00:00Z","name_a2s":"","protocol":0,"map":"","folder":"","game":"","app_id":0,"player_count":0,"max_players":0,"Bots":0,"server_type":"","server_os":"","password":false,"vac":false,"version":"","steam_id":0,"keywords":null,"game_id":0,"stv_port":0,"stv_name":"","players":null},{"server_id":2,"name":"Uncletopia | Chicago | 1 | All Maps","name_short":"chi-1","host":"chi-1.us.uncletopia.com","port":27015,"enabled":true,"region":"us-central","cc":"us","latitude":41.881832,"longitude":-87.62318,"reserved":0,"last_update":"0001-01-01T00:00:00Z","name_a2s":"Uncletopia | Chicago | 1 | All Maps","protocol":17,"map":"pl_borneo","folder":"tf","game":"Team Fortress","app_id":440,"player_count":24,"max_players":24,"Bots":0,"server_type":"Dedicated","server_os":"Linux","password":true,"vac":true,"version":"7882260","steam_id":85568392924469984,"keywords":["nocrits","nodmgspread","payload","uncletopia"],"game_id":440,"stv_port":27016,"stv_name":"Uncletopia | Chicago | 1 | All Maps | STV","players":[{"user_id":295,"name":"R.Y.","steam_id":76561199384459715,"connected_time":2929000000000,"state":"active","ping":100},{"user_id":275,"name":"Antifa Alligator","steam_id":76561197988170816,"connected_time":3996000000000,"state":"active","ping":63},{"user_id":319,"name":"the randacious randall","steam_id":76561199060774318,"connected_time":456000000000,"state":"active","ping":50},{"user_id":309,"name":"Tito","steam_id":76561198041702529,"connected_time":1434000000000,"state":"active","ping":87},{"user_id":310,"name":"You are dead not big surprise","steam_id":76561198961669220,"connected_time":1278000000000,"state":"active","ping":80},{"user_id":277,"name":"cringe","steam_id":76561198104086771,"connected_time":3964000000000,"state":"active","ping":93},{"user_id":321,"name":"Wardin","steam_id":76561198096881855,"connected_time":146000000000,"state":"active","ping":59},{"user_id":287,"name":"kermitcreeper(ZAZA)","steam_id":76561199222829972,"connected_time":3263000000000,"state":"active","ping":58},{"user_id":252,"name":"richard clock","steam_id":76561198048455671,"connected_time":6017000000000,"state":"active","ping":60},{"user_id":318,"name":"Kiss Master","steam_id":76561198289572271,"connected_time":478000000000,"state":"active","ping":89},{"user_id":312,"name":"c64guy","steam_id":76561198023022744,"connected_time":989000000000,"state":"active","ping":59},{"user_id":315,"name":"nines","steam_id":76561198078992548,"connected_time":522000000000,"state":"active","ping":75},{"user_id":190,"name":"WatchWill","steam_id":76561198157237945,"connected_time":11757000000000,"state":"active","ping":71},{"user_id":317,"name":"‚ô• PsychicCellar ‚ô•","steam_id":76561198045923020,"connected_time":502000000000,"state":"active","ping":60},{"user_id":200,"name":"vv","steam_id":76561198134813102,"connected_time":10825000000000,"state":"active","ping":56},{"user_id":316,"name":"money getting 1 percenter","steam_id":76561198012796388,"connected_time":517000000000,"state":"active","ping":49},{"user_id":305,"name":"ArrowOmega","steam_id":76561198079364917,"connected_time":1798000000000,"state":"active","ping":76},{"user_id":311,"name":"AviiCream ‚ô°","steam_id":76561199186721860,"connected_time":1147000000000,"state":"active","ping":56},{"user_id":308,"name":"jim bob","steam_id":76561198815547064,"connected_time":1466000000000,"state":"active","ping":72},{"user_id":303,"name":"Gnarly Shark Bite","steam_id":76561198004058342,"connected_time":1837000000000,"state":"active","ping":71},{"user_id":293,"name":"Schmingus","steam_id":76561199476148332,"connected_time":3046000000000,"state":"active","ping":115},{"user_id":299,"name":"Daehypeels","steam_id":76561198268981599,"connected_time":2372000000000,"state":"active","ping":65},{"user_id":320,"name":"LVL 4 Dispenser Gaming","steam_id":76561198044244547,"connected_time":311000000000,"state":"active","ping":79},{"user_id":294,"name":"[UHS] K24A4 2.4","steam_id":76561199072970627,"connected_time":3030000000000,"state":"active","ping":45}]},{"server_id":106,"name":"Uncletopia | Chicago | 2 | All Maps","name_short":"chi-2","host":"chi-1.us.uncletopia.com","port":27025,"enabled":true,"region":"us-central","cc":"us","latitude":41.881832,"longitude":-87.62318,"reserved":0,"last_update":"0001-01-01T00:00:00Z","name_a2s":"Uncletopia | Chicago | 2 | All Maps","protocol":17,"map":"pl_borneo","folder":"tf","game":"Team Fortress","app_id":440,"player_count":24,"max_players":24,"Bots":0,"server_type":"Dedicated","server_os":"Linux","password":true,"vac":true,"version":"7882260","steam_id":85568392924469985,"keywords":["nocrits","nodmgspread","payload","uncletopia"],"game_id":440,"stv_port":27026,"stv_name":"Uncletopia | Chicago | 2 | All Maps | STV","players":[{"user_id":67,"name":"Corn","steam_id":76561198177186718,"connected_time":2375000000000,"state":"active","ping":53},{"user_id":100,"name":"SCraig64","steam_id":76561198171251965,"connected_time":897000000000,"state":"active","ping":75},{"user_id":119,"name":"putrid slob","steam_id":76561198382572522,"connected_time":103000000000,"state":"active","ping":70},{"user_id":120,"name":"Mega","steam_id":76561198121258379,"connected_time":98000000000,"state":"active","ping":86},{"user_id":117,"name":"Jak(i)","steam_id":76561198076823144,"connected_time":123000000000,"state":"active","ping":65},{"user_id":91,"name":"Racist(in Minecraft)","steam_id":76561198117206414,"connected_time":1041000000000,"state":"active","ping":73},{"user_id":78,"name":"Krypa","steam_id":76561198144307152,"connected_time":1765000000000,"state":"active","ping":54},{"user_id":35,"name":"Get Beaned","steam_id":76561198391590820,"connected_time":4692000000000,"state":"active","ping":109},{"user_id":112,"name":"Tony Pajamas","steam_id":76561198102299438,"connected_time":223000000000,"state":"active","ping":62},{"user_id":104,"name":"goooot","steam_id":76561198155591052,"connected_time":863000000000,"state":"active","ping":80},{"user_id":70,"name":"Rustyorion","steam_id":76561198439186347,"connected_time":2319000000000,"state":"active","ping":95},{"user_id":107,"name":"Soupman_Official","steam_id":76561198314308732,"connected_time":685000000000,"state":"active","ping":80},{"user_id":115,"name":"Cutie","steam_id":76561198126686695,"connected_time":161000000000,"state":"active","ping":60},{"user_id":118,"name":"MoldyCoffee936","steam_id":76561198099061153,"connected_time":117000000000,"state":"active","ping":97},{"user_id":113,"name":"ChaoticSony","steam_id":76561198288624642,"connected_time":202000000000,"state":"active","ping":62},{"user_id":94,"name":"VALENCE","steam_id":76561198118492031,"connected_time":1003000000000,"state":"active","ping":73},{"user_id":121,"name":"quint","steam_id":76561198046797995,"connected_time":94000000000,"state":"active","ping":56},{"user_id":56,"name":"Mburesh","steam_id":76561198137460717,"connected_time":3294000000000,"state":"active","ping":83},{"user_id":106,"name":"The King","steam_id":76561198117344758,"connected_time":765000000000,"state":"active","ping":91},{"user_id":89,"name":"3-13","steam_id":76561198063929021,"connected_time":1305000000000,"state":"active","ping":76},{"user_id":99,"name":"remonjules","steam_id":76561198070547748,"connected_time":948000000000,"state":"active","ping":62},{"user_id":110,"name":"Splader79","steam_id":76561198112495101,"connected_time":651000000000,"state":"active","ping":60},{"user_id":122,"name":"AYAYA!!!","steam_id":76561198992102180,"connected_time":69000000000,"state":"spawning","ping":45},{"user_id":111,"name":"Bon Gripper","steam_id":76561198090074621,"connected_time":405000000000,"state":"active","ping":60}]},{"server_id":402,"name":"Uncletopia | Chicago | 3 | All Maps","name_short":"chi-3","host":"chi-1.us.uncletopia.com","port":27035,"enabled":true,"region":"us-central","cc":"us","latitude":41.881832,"longitude":-87.62318,"reserved":0,"last_update":"0001-01-01T00:00:00Z","name_a2s":"Uncletopia | Chicago | 3 | All Maps","protocol":17,"map":"pl_badwater","folder":"tf","game":"Team Fortress","app_id":440,"player_count":0,"max_players":24,"Bots":0,"server_type":"Dedicated","server_os":"Linux","password":true,"vac":true,"version":"7882260","steam_id":85568392924515191,"keywords":["nocrits","nodmgspread","payload","uncletopia"],"game_id":440,"stv_port":27036,"stv_name":"Uncletopia | Chicago | 3 | All Maps | STV","players":null},{"server_id":403,"name":"Uncletopia | Chicago | 4 | All Maps","name_short":"chi-4","host":"chi-1.us.uncletopia.com","port":27045,"enabled":true,"region":"us-central","cc":"us","latitude":41.881832,"longitude":-87.62318,"reserved":0,"last_update":"0001-01-01T00:00:00Z","name_a2s":"Uncletopia | Chicago | 4 | All Maps","protocol":17,"map":"koth_cascade","folder":"tf","game":"Team Fortress","app_id":440,"player_count":0,"max_players":24,"Bots":0,"server_type":"Dedicated","server_os":"Linux","password":true,"vac":true,"version":"7882260","steam_id":85568392924515193,"keywords":["cp","nocrits","nodmgspread","uncletopia"],"game_id":440,"stv_port":27046,"stv_name":"Uncletopia | Chicago | 4 | All Maps | STV","players":null},{"server_id":36,"name":"Uncletopia | Chicago | 5 | All Maps","name_short":"chi-5","host":"chi-2.us.uncletopia.com","port":27015,"enabled":true,"region":"us-central","cc":"us","latitude":41.881832,"longitude":-87.62318,"reserved":0,"last_update":"0001-01-01T00:00:00Z","name_a2s":"Uncletopia | Chicago | 5 | All Maps","protocol":17,"map":"pl_snowycoast","folder":"tf","game":"Team Fortress","app_id":440,"player_count":0,"max_players":24,"Bots":0,"server_type":"Dedicated","server_os":"Linux","password":true,"vac":true,"version":"7882260","steam_id":85568392924866362,"keywords":["nocrits","nodmgspread","payload","uncletopia"],"game_id":440,"stv_port":27016,"stv_name":"Uncletopia | Chicago | 5 | All Maps | STV","players":null},{"server_id":37,"name":"Uncletopia | Chicago | 6 | All Maps","name_short":"chi-6","host":"chi-2.us.uncletopia.com","port":27025,"enabled":true,"region":"us-central","cc":"us","latitude":41.881832,"longitude":-87.62318,"reserved":0,"last_update":"0001-01-01T00:00:00Z","name_a2s":"Uncletopia | Chicago | 6 | All Maps","protocol":17,"map":"koth_cascade","folder":"tf","game":"Team Fortress","app_id":440,"player_count":0,"max_players":24,"Bots":0,"server_type":"Dedicated","server_os":"Linux","password":true,"vac":true,"version":"7882260","steam_id":85568392924866363,"keywords":["cp","nocrits","nodmgspread","uncletopia"],"game_id":440,"stv_port":27026,"stv_name":"Uncletopia | Chicago | 6 | All Maps | STV","players":null},{"server_id":38,"name":"Uncletopia | Chicago | 7 | Stopwatch Beta","name_short":"chi-7","host":"chi-2.us.uncletopia.com","port":27035,"enabled":true,"region":"us-central","cc":"us","latitude":41.881832,"longitude":-87.62318,"reserved":0,"last_update":"0001-01-01T00:00:00Z","name_a2s":"Uncletopia | Chicago | 7 | Stopwatch Beta","protocol":17,"map":"workshop/cp_process_f12.ugc2302948105","folder":"tf","game":"Team Fortress","app_id":440,"player_count":0,"max_players":24,"Bots":0,"server_type":"Dedicated","server_os":"Linux","password":true,"vac":true,"version":"7882260","steam_id":85568392924866364,"keywords":["cp","nocrits","nodmgspread","uncletopia"],"game_id":440,"stv_port":27036,"stv_name":"Uncletopia | Chicago | 7 | Stopwatch Beta | STV","players":null},{"server_id":39,"name":"Uncletopia | Chicago | 8 | Community","name_short":"chi-8","host":"chi-2.us.uncletopia.com","port":27045,"enabled":true,"region":"us-central","cc":"us","latitude":41.881832,"longitude":-87.62318,"reserved":0,"last_update":"0001-01-01T00:00:00Z","name_a2s":"Uncletopia | Chicago | 8 | Community","protocol":17,"map":"workshop/cp_kalinka_rc6a.ugc1272700588","folder":"tf","game":"Team Fortress","app_id":440,"player_count":0,"max_players":24,"Bots":0,"server_type":"Dedicated","server_os":"Linux","password":true,"vac":true,"version":"7882260","steam_id":85568392924866365,"keywords":["cp","nocrits","nodmgspread","uncletopia"],"game_id":440,"stv_port":27046,"stv_name":"Uncletopia | Chicago | 8 | Community | STV","players":null},{"server_id":8,"name":"Uncletopia | Dallas | 1 | All Maps","name_short":"dal-1","host":"dal-1.us.uncletopia.com","port":27015,"enabled":true,"region":"us-central","cc":"us","latitude":32.779167,"longitude":-96.80889,"reserved":0,"last_update":"0001-01-01T00:00:00Z","name_a2s":"Uncletopia | Dallas | 1 | All Maps","protocol":17,"map":"pl_frontier_final","folder":"tf","game":"Team Fortress","app_id":440,"player_count":24,"max_players":24,"Bots":0,"server_type":"Dedicated","server_os":"Linux","password":true,"vac":true,"version":"7882260","steam_id":85568392924469986,"keywords":["nocrits","nodmgspread","payload","uncletopia"],"game_id":440,"stv_port":27016,"stv_name":"Uncletopia | Dallas | 1 | All Maps | STV","players":[{"user_id":170,"name":"Shamrock Shake Oct.10.2020 @8pm","steam_id":76561198833313201,"connected_time":1248000000000,"state":"active","ping":86},{"user_id":156,"name":"Jesse Bear","steam_id":76561198217075305,"connected_time":2395000000000,"state":"active","ping":100},{"user_id":157,"name":"epicsauce guy 9491","steam_id":76561198414336279,"connected_time":2376000000000,"state":"active","ping":60},{"user_id":159,"name":"Z0mb01","steam_id":76561198840675301,"connected_time":2338000000000,"state":"active","ping":138},{"user_id":196,"name":"Kdwag","steam_id":76561198030761042,"connected_time":624000000000,"state":"active","ping":82},{"user_id":155,"name":"rawrie","steam_id":76561198005371178,"connected_time":2431000000000,"state":"active","ping":70},{"user_id":194,"name":"Smittywerbenjager-manjenson","steam_id":76561198067060742,"connected_time":635000000000,"state":"active","ping":55},{"user_id":171,"name":"novastarphantom","steam_id":76561198045909935,"connected_time":1211000000000,"state":"active","ping":75},{"user_id":201,"name":"Crow","steam_id":76561198399415578,"connected_time":561000000000,"state":"active","ping":60},{"user_id":184,"name":"Icarus the legend","steam_id":76561199013250091,"connected_time":853000000000,"state":"active","ping":39},{"user_id":172,"name":"mycoolcucumber","steam_id":76561198177586211,"connected_time":1199000000000,"state":"active","ping":82},{"user_id":164,"name":"HighJingo","steam_id":76561198846814390,"connected_time":2238000000000,"state":"active","ping":57},{"user_id":149,"name":"Jacob Hornberger 2016","steam_id":76561198204549723,"connected_time":2812000000000,"state":"active","ping":141},{"user_id":173,"name":"Antwan","steam_id":76561198246200638,"connected_time":1185000000000,"state":"active","ping":46},{"user_id":199,"name":"Rukh","steam_id":76561197999361315,"connected_time":580000000000,"state":"active","ping":102},{"user_id":200,"name":"portal2trollin","steam_id":76561198046869828,"connected_time":580000000000,"state":"active","ping":71},{"user_id":202,"name":"mann","steam_id":76561199406261605,"connected_time":409000000000,"state":"active","ping":46},{"user_id":39,"name":"fatnuts87","steam_id":76561198119689085,"connected_time":9110000000000,"state":"active","ping":75},{"user_id":154,"name":"M","steam_id":76561198255827013,"connected_time":2506000000000,"state":"active","ping":124},{"user_id":193,"name":"DragonHunter994","steam_id":76561199076203907,"connected_time":649000000000,"state":"active","ping":63},{"user_id":167,"name":"Sir Coreden","steam_id":76561198008430589,"connected_time":2162000000000,"state":"active","ping":92},{"user_id":176,"name":"altpuppy","steam_id":76561198325643231,"connected_time":1127000000000,"state":"active","ping":76},{"user_id":179,"name":"VerseG","steam_id":76561198059246919,"connected_time":998000000000,"state":"active","ping":104},{"user_id":181,"name":"Bot Maxwell","steam_id":76561198040781615,"connected_time":966000000000,"state":"active","ping":95}]},{"server_id":108,"name":"Uncletopia | Dallas | 2 | All Maps","name_short":"dal-2","host":"dal-1.us.uncletopia.com","port":27025,"enabled":true,"region":"us-central","cc":"us","latitude":32.779167,"longitude":-96.80889,"reserved":0,"last_update":"0001-01-01T00:00:00Z","name_a2s":"Uncletopia | Dallas | 2 | All Maps","protocol":17,"map":"cp_dustbowl","folder":"tf","game":"Team Fortress","app_id":440,"player_count":24,"max_players":24,"Bots":0,"server_type":"Dedicated","server_os":"Linux","password":true,"vac":true,"version":"7882260","steam_id":85568392924469988,"keywords":["cp","nocrits","nodmgspread","uncletopia"],"game_id":440,"stv_port":27026,"stv_name":"Uncletopia | Dallas | 2 | All Maps | STV","players":[{"user_id":78,"name":"hempa!","steam_id":76561198159477619,"connected_time":417000000000,"state":"active","ping":60},{"user_id":11,"name":"god gamer","steam_id":76561198168149434,"connected_time":5474000000000,"state":"active","ping":109},{"user_id":67,"name":"bachphong760","steam_id":76561199433780443,"connected_time":1391000000000,"state":"active","ping":110},{"user_id":70,"name":"Sea raider","steam_id":76561198123982355,"connected_time":896000000000,"state":"active","ping":76},{"user_id":68,"name":"Gaiduk","steam_id":76561198112323877,"connected_time":906000000000,"state":"active","ping":114},{"user_id":72,"name":"big shmoka","steam_id":76561198050768962,"connected_time":886000000000,"state":"active","ping":82},{"user_id":29,"name":"milk master","steam_id":76561198127851014,"connected_time":3480000000000,"state":"active","ping":44},{"user_id":63,"name":"bocaJ","steam_id":76561198374535092,"connected_time":2096000000000,"state":"active","ping":60},{"user_id":80,"name":"Pombley","steam_id":76561198141227263,"connected_time":196000000000,"state":"active","ping":59},{"user_id":52,"name":"KingKata","steam_id":76561198289610011,"connected_time":2398000000000,"state":"active","ping":127},{"user_id":66,"name":"Riff III","steam_id":76561198066921423,"connected_time":1726000000000,"state":"active","ping":70},{"user_id":71,"name":"2JZ_","steam_id":76561198064027289,"connected_time":896000000000,"state":"active","ping":75},{"user_id":38,"name":"PostBASH","steam_id":76561199194134673,"connected_time":2896000000000,"state":"active","ping":55},{"user_id":69,"name":"A BIG YUMMY PIZZA","steam_id":76561198169315998,"connected_time":906000000000,"state":"active","ping":82},{"user_id":79,"name":"SleepyJackdaw","steam_id":76561198053520098,"connected_time":416000000000,"state":"active","ping":61},{"user_id":46,"name":"rice","steam_id":76561198119326733,"connected_time":2583000000000,"state":"active","ping":78},{"user_id":49,"name":"Crabby Patty","steam_id":76561198071150936,"connected_time":2520000000000,"state":"active","ping":68},{"user_id":53,"name":"Big Jon","steam_id":76561198402285099,"connected_time":2380000000000,"state":"active","ping":99},{"user_id":74,"name":"Yoru","steam_id":76561198119698950,"connected_time":828000000000,"state":"active","ping":121},{"user_id":56,"name":"Auggy","steam_id":76561198041816037,"connected_time":2320000000000,"state":"active","ping":101},{"user_id":75,"name":"Soyuna","steam_id":76561199198717725,"connected_time":750000000000,"state":"active","ping":73},{"user_id":58,"name":"Deltaco","steam_id":76561198094572694,"connected_time":2301000000000,"state":"active","ping":124},{"user_id":59,"name":"lycoris","steam_id":76561199113965768,"connected_time":2265000000000,"state":"active","ping":86},{"user_id":76,"name":"Mablinlok","steam_id":76561197992718242,"connected_time":750000000000,"state":"active","ping":91}]},{"server_id":5,"name":"Uncletopia | Frankfurt | 1 | All Maps","name_short":"frk-1","host":"frk-1.de.uncletopia.com","port":27015,"enabled":true,"region":"eu","cc":"de","latitude":50.110924,"longitude":8.682127,"reserved":0,"last_update":"0001-01-01T00:00:00Z","name_a2s":"Uncletopia | Frankfurt | 1 | All Maps","protocol":17,"map":"cp_dustbowl","folder":"tf","game":"Team Fortress","app_id":440,"player_count":24,"max_players":24,"Bots":0,"server_type":"Dedicated","server_os":"Linux","password":true,"vac":true,"version":"7882260","steam_id":85568392924469989,"keywords":["cp","nocrits","nodmgspread","uncletopia"],"game_id":440,"stv_port":27016,"stv_name":"Uncletopia | Frankfurt | 1 | All Maps | STV","players":[{"user_id":397,"name":"oscar","steam_id":76561198079636127,"connected_time":5036000000000,"state":"active","ping":82},{"user_id":372,"name":"SpaceNut","steam_id":76561198059198302,"connected_time":6412000000000,"state":"active","ping":60},{"user_id":400,"name":"Rainbow Sapling","steam_id":76561198127682941,"connected_time":4565000000000,"state":"active","ping":78},{"user_id":437,"name":"Pyrolander","steam_id":76561198050785450,"connected_time":1473000000000,"state":"active","ping":49},{"user_id":425,"name":"dustloaf","steam_id":76561198074339302,"connected_time":2479000000000,"state":"active","ping":92},{"user_id":402,"name":"Lugialf","steam_id":76561198069050794,"connected_time":4343000000000,"state":"active","ping":90},{"user_id":433,"name":"Luuk","steam_id":76561198088266026,"connected_time":2314000000000,"state":"active","ping":45},{"user_id":422,"name":"Sh1n","steam_id":76561199012155377,"connected_time":2912000000000,"state":"active","ping":41},{"user_id":404,"name":"Carter","steam_id":76561198005243938,"connected_time":4155000000000,"state":"active","ping":75},{"user_id":442,"name":"Plants vs Zombies","steam_id":76561198354960567,"connected_time":1442000000000,"state":"active","ping":47},{"user_id":446,"name":"BrotherPotato","steam_id":76561198049948120,"connected_time":868000000000,"state":"active","ping":74},{"user_id":427,"name":"Boki","steam_id":76561198044553351,"connected_time":2426000000000,"state":"active","ping":75},{"user_id":445,"name":"Mr.O #deletesniper","steam_id":76561198039567498,"connected_time":1157000000000,"state":"active","ping":61},{"user_id":388,"name":"PiN hEaD","steam_id":76561198834713682,"connected_time":5692000000000,"state":"active","ping":86},{"user_id":376,"name":"Ketich","steam_id":76561198021772703,"connected_time":6136000000000,"state":"active","ping":72},{"user_id":444,"name":"Poltron","steam_id":76561198059972377,"connected_time":1412000000000,"state":"active","ping":62},{"user_id":447,"name":"Petight","steam_id":76561197999438798,"connected_time":674000000000,"state":"active","ping":49},{"user_id":428,"name":"Vancelot","steam_id":76561198050750089,"connected_time":2419000000000,"state":"active","ping":85},{"user_id":434,"name":"metamikko","steam_id":76561198324704234,"connected_time":2304000000000,"state":"active","ping":99},{"user_id":448,"name":"Pablo","steam_id":76561198119600486,"connected_time":403000000000,"state":"active","ping":79},{"user_id":429,"name":"·É¶_JeffyVR_·É¶","steam_id":76561198932558520,"connected_time":2408000000000,"state":"active","ping":63},{"user_id":414,"name":"cyc –ø—Å–∏—Ö–æ–∫–∏–¥","steam_id":76561198039233724,"connected_time":3766000000000,"state":"active","ping":117},{"user_id":439,"name":"Better Call Medic","steam_id":76561198939711234,"connected_time":1462000000000,"state":"active","ping":117},{"user_id":440,"name":"Bobo","steam_id":76561198052308399,"connected_time":1461000000000,"state":"active","ping":63}]},{"server_id":110,"name":"Uncletopia | Frankfurt | 2 | All Maps","name_short":"frk-2","host":"frk-1.de.uncletopia.com","port":27025,"enabled":true,"region":"eu","cc":"de","latitude":50.110924,"longitude":8.682127,"reserved":0,"last_update":"0001-01-01T00:00:00Z","name_a2s":"Uncletopia | Frankfurt | 2 | All Maps","protocol":17,"map":"pl_snowycoast","folder":"tf","game":"Team Fortress","app_id":440,"player_count":24,"max_players":24,"Bots":0,"server_type":"Dedicated","server_os":"Linux","password":true,"vac":true,"version":"7882260","steam_id":85568392924469990,"keywords":["nocrits","nodmgspread","payload","uncletopia"],"game_id":440,"stv_port":27026,"stv_name":"Uncletopia | Frankfurt | 2 | All Maps | STV","players":[{"user_id":535,"name":"Klifton","steam_id":76561198803743443,"connected_time":5024000000000,"state":"active","ping":73},{"user_id":563,"name":"TND","steam_id":76561197996379424,"connected_time":3270000000000,"state":"active","ping":59},{"user_id":591,"name":"cooler bones","steam_id":76561199480942903,"connected_time":1445000000000,"state":"active","ping":62},{"user_id":593,"name":"Mehman","steam_id":76561199020244051,"connected_time":1266000000000,"state":"active","ping":190},{"user_id":592,"name":"flr","steam_id":76561198249327786,"connected_time":1316000000000,"state":"active","ping":60},{"user_id":571,"name":"epic gamer moment","steam_id":76561198299515070,"connected_time":2667000000000,"state":"active","ping":91},{"user_id":602,"name":"cuboidbird741","steam_id":76561198174823322,"connected_time":133000000000,"state":"active","ping":62},{"user_id":606,"name":"Holy f stewie, I am sh√≠tting.","steam_id":76561198147173457,"connected_time":18000000000,"state":"spawning","ping":94},{"user_id":589,"name":"dafydd","steam_id":76561198052200325,"connected_time":1645000000000,"state":"active","ping":76},{"user_id":570,"name":"quickfast","steam_id":76561199438900919,"connected_time":2851000000000,"state":"active","ping":72},{"user_id":601,"name":"Daperlin","steam_id":76561198091299113,"connected_time":530000000000,"state":"active","ping":171},{"user_id":603,"name":"Der Herr Doktor","steam_id":76561198119476089,"connected_time":103000000000,"state":"active","ping":52},{"user_id":590,"name":"Dewotter","steam_id":76561198007653168,"connected_time":1632000000000,"state":"active","ping":66},{"user_id":604,"name":"Sir Skyber","steam_id":76561198064440004,"connected_time":90000000000,"state":"active","ping":91},{"user_id":594,"name":"Deffrey","steam_id":76561198084366179,"connected_time":1226000000000,"state":"active","ping":75},{"user_id":598,"name":"Slifer the Sky Dragon","steam_id":76561198062255803,"connected_time":746000000000,"state":"active","ping":62},{"user_id":582,"name":"Morgan BullFrog","steam_id":76561198088334623,"connected_time":1886000000000,"state":"active","ping":103},{"user_id":550,"name":"Torttu","steam_id":76561198013980029,"connected_time":4666000000000,"state":"active","ping":63},{"user_id":543,"name":"nibsÓÑ∏","steam_id":76561198040099538,"connected_time":4868000000000,"state":"active","ping":74},{"user_id":545,"name":"Sniper is poorly designed","steam_id":76561198357107806,"connected_time":4729000000000,"state":"active","ping":61},{"user_id":569,"name":"Ruvix","steam_id":76561198239689346,"connected_time":3030000000000,"state":"active","ping":79},{"user_id":595,"name":"Providence","steam_id":76561198003920270,"connected_time":1205000000000,"state":"active","ping":85},{"user_id":596,"name":"WATANG!","steam_id":76561198040478926,"connected_time":1204000000000,"state":"active","ping":63},{"user_id":605,"name":"siamang ape","steam_id":76561198366599617,"connected_time":47000000000,"state":"active","ping":59}]},{"server_id":308,"name":"Uncletopia | Frankfurt | 3 | All Maps","name_short":"frk-3","host":"frk-1.de.uncletopia.com","port":27035,"enabled":true,"region":"eu","cc":"de","latitude":50.110924,"longitude":8.682127,"reserved":0,"last_update":"0001-01-01T00:00:00Z","name_a2s":"Uncletopia | Frankfurt | 3 | All Maps","protocol":17,"map":"cp_dustbowl","folder":"tf","game":"Team Fortress","app_id":440,"player_count":24,"max_players":24,"Bots":0,"server_type":"Dedicated","server_os":"Linux","password":true,"vac":true,"version":"7882260","steam_id":85568392924504274,"keywords":["cp","nocrits","nodmgspread","uncletopia"],"game_id":440,"stv_port":27036,"stv_name":"Uncletopia | Frankfurt | 3 | All Maps | STV","players":[{"user_id":1005,"name":"Ramzus","steam_id":76561198012385070,"connected_time":659000000000,"state":"active","ping":88},{"user_id":1000,"name":"Piteras","steam_id":76561198858532207,"connected_time":955000000000,"state":"active","ping":74},{"user_id":982,"name":"Testicular torsion","steam_id":76561198119547399,"connected_time":2705000000000,"state":"active","ping":55},{"user_id":1007,"name":"Darkny","steam_id":76561198045570547,"connected_time":562000000000,"state":"active","ping":85},{"user_id":957,"name":"usia","steam_id":76561198120406679,"connected_time":4074000000000,"state":"active","ping":88},{"user_id":983,"name":"EGirl | Klarra","steam_id":76561198077745407,"connected_time":2340000000000,"state":"active","ping":60},{"user_id":922,"name":"szmen","steam_id":76561198072569764,"connected_time":6448000000000,"state":"active","ping":79},{"user_id":956,"name":"Kocham Wode z Filtra","steam_id":76561198016042113,"connected_time":4109000000000,"state":"active","ping":78},{"user_id":960,"name":"Emma","steam_id":76561198076724979,"connected_time":3787000000000,"state":"active","ping":59},{"user_id":959,"name":"F.Fazbear","steam_id":76561198406606196,"connected_time":3900000000000,"state":"active","ping":84},{"user_id":995,"name":"Spectral Sloth","steam_id":76561198170083139,"connected_time":1582000000000,"state":"active","ping":84},{"user_id":1009,"name":"Pingu","steam_id":76561198074477219,"connected_time":355000000000,"state":"active","ping":59},{"user_id":937,"name":"Washburne","steam_id":76561198032810579,"connected_time":5491000000000,"state":"active","ping":67},{"user_id":862,"name":"Loki Beaker","steam_id":76561198048086250,"connected_time":9901000000000,"state":"active","ping":54},{"user_id":984,"name":"LAZORBEAM","steam_id":76561198088735927,"connected_time":2316000000000,"state":"active","ping":60},{"user_id":998,"name":"MVM Tank","steam_id":76561198292845505,"connected_time":1188000000000,"state":"active","ping":85},{"user_id":1010,"name":"Chief Chris üëå","steam_id":76561198042430852,"connected_time":268000000000,"state":"active","ping":71},{"user_id":1001,"name":"klimanso","steam_id":76561199151084760,"connected_time":937000000000,"state":"active","ping":96},{"user_id":898,"name":"Charmedelf","steam_id":76561197993611881,"connected_time":8487000000000,"state":"active","ping":59},{"user_id":994,"name":"feed and seed","steam_id":76561199088046420,"connected_time":1645000000000,"state":"active","ping":58},{"user_id":1002,"name":"Rizziologist","steam_id":76561198089003514,"connected_time":908000000000,"state":"active","ping":45},{"user_id":996,"name":"Clitorina","steam_id":76561198077570815,"connected_time":1533000000000,"state":"active","ping":59},{"user_id":971,"name":"boofing prozac","steam_id":76561198851157897,"connected_time":3409000000000,"state":"active","ping":74},{"user_id":973,"name":"Matteo Il Biondo","steam_id":76561198315389475,"connected_time":3370000000000,"state":"active","ping":60}]},{"server_id":309,"name":"Uncletopia | Frankfurt | 4 | All Maps","name_short":"frk-4","host":"frk-1.de.uncletopia.com","port":27045,"enabled":true,"region":"eu","cc":"de","latitude":50.110924,"longitude":8.682127,"reserved":0,"last_update":"0001-01-01T00:00:00Z","name_a2s":"Uncletopia | Frankfurt | 4 | All Maps","protocol":17,"map":"pl_barnblitz","folder":"tf","game":"Team Fortress","app_id":440,"player_count":17,"max_players":24,"Bots":0,"server_type":"Dedicated","server_os":"Linux","password":true,"vac":true,"version":"7882260","steam_id":85568392924504275,"keywords":["nocrits","nodmgspread","payload","uncletopia"],"game_id":440,"stv_port":27046,"stv_name":"Uncletopia | Frankfurt | 4 | All Maps | STV","players":[{"user_id":155,"name":"franco","steam_id":76561198113693551,"connected_time":50000000000,"state":"active","ping":116},{"user_id":137,"name":"tralalaOuiOui","steam_id":76561197963471507,"connected_time":1069000000000,"state":"active","ping":52},{"user_id":142,"name":"Lukero","steam_id":76561198301594341,"connected_time":838000000000,"state":"active","ping":92},{"user_id":154,"name":"farrapo","steam_id":76561198031088039,"connected_time":100000000000,"state":"active","ping":89},{"user_id":122,"name":"ScaryTree","steam_id":76561199384362833,"connected_time":1980000000000,"state":"active","ping":86},{"user_id":156,"name":"Benzo Fury","steam_id":76561198025259336,"connected_time":29000000000,"state":"active","ping":52},{"user_id":115,"name":"r","steam_id":76561198410598772,"connected_time":3781000000000,"state":"active","ping":54},{"user_id":124,"name":"frikandel speciaal","steam_id":76561198137997056,"connected_time":1565000000000,"state":"active","ping":55},{"user_id":125,"name":"‚ôõ„Ç∏„Éß„Éº„Ç§‚ôõ","steam_id":76561198238984788,"connected_time":1475000000000,"state":"active","ping":56},{"user_id":141,"name":"ba-loo-loo","steam_id":76561198965894854,"connected_time":847000000000,"state":"active","ping":67},{"user_id":143,"name":"NxTh23","steam_id":76561198796638527,"connected_time":786000000000,"state":"active","ping":81},{"user_id":131,"name":"Kamanie","steam_id":76561198135448255,"connected_time":1304000000000,"state":"active","ping":47},{"user_id":134,"name":"zoinks!","steam_id":76561198068645362,"connected_time":1197000000000,"state":"active","ping":55},{"user_id":146,"name":"dnl","steam_id":76561198074156929,"connected_time":683000000000,"state":"active","ping":85},{"user_id":148,"name":"skill","steam_id":76561198106012909,"connected_time":610000000000,"state":"active","ping":68},{"user_id":149,"name":"pijacka","steam_id":76561198103899658,"connected_time":550000000000,"state":"active","ping":60},{"user_id":153,"name":"jerry (:","steam_id":76561198205668108,"connected_time":276000000000,"state":"active","ping":54}]},{"server_id":310,"name":"Uncletopia | Frankfurt | 5 | All Maps","name_short":"frk-5","host":"frk-1.de.uncletopia.com","port":27055,"enabled":true,"region":"eu","cc":"de","latitude":50.110924,"longitude":8.682127,"reserved":0,"last_update":"0001-01-01T00:00:00Z","name_a2s":"Uncletopia | Frankfurt | 5 | All Maps","protocol":17,"map":"pl_snowycoast","folder":"tf","game":"Team Fortress","app_id":440,"player_count":20,"max_players":24,"Bots":0,"server_type":"Dedicated","server_os":"Linux","password":true,"vac":true,"version":"7882260","steam_id":85568392924504277,"keywords":["nocrits","nodmgspread","payload","uncletopia"],"game_id":440,"stv_port":27056,"stv_name":"Uncletopia | Frankfurt | 5 | All Maps | STV","players":[{"user_id":235,"name":"God is serb","steam_id":76561198966246028,"connected_time":627000000000,"state":"active","ping":86},{"user_id":212,"name":"Ë™∞„Åã„ÅåË¶ã„Å¶„ÅÑ„Çã","steam_id":76561198834913692,"connected_time":2926000000000,"state":"active","ping":64},{"user_id":245,"name":"Matteo Besho","steam_id":76561199159657855,"connected_time":28000000000,"state":"active","ping":66},{"user_id":213,"name":"Udinese Dion","steam_id":76561198067931573,"connected_time":2723000000000,"state":"active","ping":44},{"user_id":177,"name":"cazador","steam_id":76561198123096922,"connected_time":5816000000000,"state":"active","ping":89},{"user_id":237,"name":"isaku","steam_id":76561198092648865,"connected_time":567000000000,"state":"active","ping":65},{"user_id":241,"name":"Xi Jingping","steam_id":76561198000958139,"connected_time":250000000000,"state":"active","ping":70},{"user_id":165,"name":"xavier","steam_id":76561198076494034,"connected_time":6026000000000,"state":"active","ping":57},{"user_id":209,"name":"Miles","steam_id":76561198084891833,"connected_time":3131000000000,"state":"active","ping":48},{"user_id":193,"name":"Galzra87","steam_id":76561198063414443,"connected_time":4237000000000,"state":"active","ping":72},{"user_id":242,"name":"two beers.","steam_id":76561198221391096,"connected_time":195000000000,"state":"active","ping":74},{"user_id":189,"name":"hananamanna","steam_id":76561198006570285,"connected_time":4335000000000,"state":"active","ping":105},{"user_id":239,"name":"DonD","steam_id":76561198061496731,"connected_time":405000000000,"state":"active","ping":75},{"user_id":243,"name":"putrid weasel","steam_id":76561198012955043,"connected_time":125000000000,"state":"active","ping":79},{"user_id":195,"name":"dimitrij_6ix_god","steam_id":76561199023275543,"connected_time":4106000000000,"state":"active","ping":77},{"user_id":244,"name":"GoatLord1","steam_id":76561198157964544,"connected_time":82000000000,"state":"active","ping":67},{"user_id":233,"name":"Clint Eastwood","steam_id":76561198021552128,"connected_time":817000000000,"state":"active","ping":98},{"user_id":234,"name":"Bajas","steam_id":76561198179339326,"connected_time":658000000000,"state":"active","ping":88},{"user_id":230,"name":"Vershal Smershal","steam_id":76561198116223995,"connected_time":1508000000000,"state":"active","ping":62},{"user_id":188,"name":"HelwiiHill","steam_id":76561198066730552,"connected_time":4604000000000,"state":"active","ping":78}]},{"server_id":311,"name":"Uncletopia | Frankfurt | 6 | All Maps","name_short":"frk-6","host":"frk-1.de.uncletopia.com","port":27065,"enabled":true,"region":"eu","cc":"de","latitude":50.110924,"longitude":8.682127,"reserved":0,"last_update":"0001-01-01T00:00:00Z","name_a2s":"Uncletopia | Frankfurt | 6 | All Maps","protocol":17,"map":"pl_badwater","folder":"tf","game":"Team Fortress","app_id":440,"player_count":24,"max_players":24,"Bots":0,"server_type":"Dedicated","server_os":"Linux","password":true,"vac":true,"version":"7882260","steam_id":85568392924504278,"keywords":["nocrits","nodmgspread","payload","uncletopia"],"game_id":440,"stv_port":27066,"stv_name":"Uncletopia | Frankfurt | 6 | All Maps | STV","players":[{"user_id":119,"name":"A Succulent Chinese Meal","steam_id":76561198069472440,"connected_time":2274000000000,"state":"active","ping":82},{"user_id":140,"name":"Patrick Bateman","steam_id":76561198140462195,"connected_time":1941000000000,"state":"active","ping":164},{"user_id":165,"name":"Sparky","steam_id":76561198036754195,"connected_time":348000000000,"state":"active","ping":42},{"user_id":135,"name":"Joy","steam_id":76561198155314925,"connected_time":1993000000000,"state":"active","ping":65},{"user_id":166,"name":"Rolloden","steam_id":76561198069414404,"connected_time":329000000000,"state":"active","ping":56},{"user_id":122,"name":"SNS BATIN–ê–®","steam_id":76561198053914183,"connected_time":2237000000000,"state":"active","ping":67},{"user_id":141,"name":"Cataleptic","steam_id":76561197997966949,"connected_time":1879000000000,"state":"active","ping":73},{"user_id":169,"name":"juni","steam_id":76561198036504214,"connected_time":58000000000,"state":"active","ping":46},{"user_id":153,"name":"HADID_sex_god","steam_id":76561198302623594,"connected_time":1162000000000,"state":"active","ping":92},{"user_id":168,"name":"Oriuke","steam_id":76561197992166123,"connected_time":215000000000,"state":"active","ping":59},{"user_id":152,"name":"Savussy","steam_id":76561198388201179,"connected_time":1329000000000,"state":"active","ping":55},{"user_id":79,"name":"KeTlEr","steam_id":76561198100957443,"connected_time":6424000000000,"state":"active","ping":63},{"user_id":127,"name":"rizzstraining order","steam_id":76561198255576760,"connected_time":2091000000000,"state":"active","ping":49},{"user_id":128,"name":"Ventulus","steam_id":76561198037004830,"connected_time":2082000000000,"state":"active","ping":74},{"user_id":167,"name":"Evil Activities","steam_id":76561198093170043,"connected_time":287000000000,"state":"active","ping":61},{"user_id":130,"name":"Mineran","steam_id":76561198357224424,"connected_time":2071000000000,"state":"active","ping":88},{"user_id":156,"name":"metodmiha","steam_id":76561199111498575,"connected_time":899000000000,"state":"active","ping":75},{"user_id":138,"name":"Tison","steam_id":76561199127635841,"connected_time":1982000000000,"state":"active","ping":44},{"user_id":86,"name":"hlug2340","steam_id":76561198087970118,"connected_time":5791000000000,"state":"active","ping":71},{"user_id":154,"name":"meriones","steam_id":76561198034234373,"connected_time":1075000000000,"state":"active","ping":53},{"user_id":145,"name":"Sirzen","steam_id":76561198170155434,"connected_time":1804000000000,"state":"active","ping":55},{"user_id":150,"name":"mike erhmentraut","steam_id":76561199025378498,"connected_time":1506000000000,"state":"active","ping":58},{"user_id":163,"name":"Mega Saturn","steam_id":76561198024750500,"connected_time":439000000000,"state":"active","ping":101},{"user_id":164,"name":"Yuzu","steam_id":76561198121694613,"connected_time":379000000000,"state":"active","ping":69}]},{"server_id":23,"name":"Uncletopia | Frankfurt | 7 | Stopwatch Beta","name_short":"frk-7","host":"frk-1.de.uncletopia.com","port":27075,"enabled":true,"region":"eu","cc":"de","latitude":50.110924,"longitude":8.682127,"reserved":0,"last_update":"0001-01-01T00:00:00Z","name_a2s":"Uncletopia | Frankfurt | 7 | Stopwatch Beta","protocol":17,"map":"cp_dustbowl","folder":"tf","game":"Team Fortress","app_id":440,"player_count":0,"max_players":24,"Bots":0,"server_type":"Dedicated","server_os":"Linux","password":true,"vac":true,"version":"7882260","steam_id":85568392924742827,"keywords":["cp","nocrits","nodmgspread","uncletopia"],"game_id":440,"stv_port":27076,"stv_name":"Uncletopia | Frankfurt | 7 | Stopwatch Beta | STV","players":null},{"server_id":24,"name":"Uncletopia | Frankfurt | 8 | Community","name_short":"frk-8","host":"frk-1.de.uncletopia.com","port":27085,"enabled":true,"region":"eu","cc":"de","latitude":50.110924,"longitude":8.682127,"reserved":0,"last_update":"0001-01-01T00:00:00Z","name_a2s":"Uncletopia | Frankfurt | 8 | Community","protocol":17,"map":"koth_cascade","folder":"tf","game":"Team Fortress","app_id":440,"player_count":0,"max_players":24,"Bots":0,"server_type":"Dedicated","server_os":"Linux","password":true,"vac":true,"version":"7882260","steam_id":85568392924742828,"keywords":["cp","nocrits","nodmgspread","uncletopia"],"game_id":440,"stv_port":27086,"stv_name":"Uncletopia | Frankfurt | 8 | Community | STV","players":null},{"server_id":202,"name":"Uncletopia | Hong Kong | 1 | All Maps","name_short":"hgk-1","host":"hgk-1.hk.uncletopia.com","port":27015,"enabled":true,"region":"asia","cc":"hk","latitude":22.302711,"longitude":114.177216,"reserved":0,"last_update":"0001-01-01T00:00:00Z","name_a2s":"Uncletopia | Hong Kong | 1 | All Maps","protocol":17,"map":"koth_highpass","folder":"tf","game":"Team Fortress","app_id":440,"player_count":0,"max_players":24,"Bots":0,"server_type":"Dedicated","server_os":"Linux","password":true,"vac":true,"version":"7882260","steam_id":85568392924494504,"keywords":["cp","nocrits","nodmgspread","uncletopia"],"game_id":440,"stv_port":27016,"stv_name":"Uncletopia | Hong Kong | 1 | All Maps | STV","players":null},{"server_id":1,"name":"Uncletopia | Los Angeles | 1 | All Maps","name_short":"lax-1","host":"lax-1.us.uncletopia.com","port":27015,"enabled":true,"region":"us-west","cc":"us","latitude":33.94279,"longitude":-118.41004,"reserved":0,"last_update":"0001-01-01T00:00:00Z","name_a2s":"Uncletopia | Los Angeles | 1 | All Maps","protocol":17,"map":"pl_pier","folder":"tf","game":"Team Fortress","app_id":440,"player_count":0,"max_players":24,"Bots":0,"server_type":"Dedicated","server_os":"Linux","password":true,"vac":true,"version":"7882260","steam_id":85568392924469991,"keywords":["nocrits","nodmgspread","payload","uncletopia"],"game_id":440,"stv_port":27016,"stv_name":"Uncletopia | Los Angeles | 1 | All Maps | STV","players":null},{"server_id":112,"name":"Uncletopia | Los Angeles | 2 | All Maps","name_short":"lax-2","host":"lax-1.us.uncletopia.com","port":27025,"enabled":true,"region":"us-west","cc":"us","latitude":33.94279,"longitude":-118.41004,"reserved":0,"last_update":"0001-01-01T00:00:00Z","name_a2s":"Uncletopia | Los Angeles | 2 | All Maps","protocol":17,"map":"pl_pier","folder":"tf","game":"Team Fortress","app_id":440,"player_count":22,"max_players":24,"Bots":0,"server_type":"Dedicated","server_os":"Linux","password":true,"vac":true,"version":"7882260","steam_id":85568392924469992,"keywords":["nocrits","nodmgspread","payload","uncletopia"],"game_id":440,"stv_port":27026,"stv_name":"Uncletopia | Los Angeles | 2 | All Maps | STV","players":[{"user_id":336,"name":"Cythemanticore","steam_id":76561198346374610,"connected_time":2190000000000,"state":"active","ping":67},{"user_id":350,"name":"Zykron","steam_id":76561199056400800,"connected_time":867000000000,"state":"active","ping":53},{"user_id":254,"name":"Zebulon","steam_id":76561198025719753,"connected_time":7085000000000,"state":"active","ping":62},{"user_id":293,"name":"Drakon","steam_id":76561198078210822,"connected_time":4931000000000,"state":"active","ping":60},{"user_id":339,"name":"Konrad Vilulf","steam_id":76561198111124481,"connected_time":1970000000000,"state":"active","ping":114},{"user_id":349,"name":"GlossyBat","steam_id":76561198929313869,"connected_time":874000000000,"state":"active","ping":59},{"user_id":295,"name":"African Water Buffalo","steam_id":76561198106938500,"connected_time":4905000000000,"state":"active","ping":47},{"user_id":358,"name":"FedSmoker","steam_id":76561198255854081,"connected_time":401000000000,"state":"active","ping":81},{"user_id":314,"name":"Rave Cat","steam_id":76561198026369683,"connected_time":3742000000000,"state":"active","ping":60},{"user_id":344,"name":"Yosh","steam_id":76561198027078899,"connected_time":1351000000000,"state":"active","ping":90},{"user_id":322,"name":"bendera","steam_id":76561197965486503,"connected_time":3210000000000,"state":"active","ping":115},{"user_id":348,"name":"H00DEDRIOT","steam_id":76561198351880498,"connected_time":1167000000000,"state":"active","ping":77},{"user_id":360,"name":"üå∏Princess Novaüå∏","steam_id":76561198320711089,"connected_time":352000000000,"state":"active","ping":70},{"user_id":335,"name":"Grub","steam_id":76561198174510235,"connected_time":2272000000000,"state":"active","ping":189},{"user_id":357,"name":"nfseskimo","steam_id":76561198078745666,"connected_time":428000000000,"state":"active","ping":74},{"user_id":351,"name":"SesataPomang","steam_id":76561198145133059,"connected_time":615000000000,"state":"active","ping":85},{"user_id":365,"name":"Online","steam_id":76561198087472640,"connected_time":28000000000,"state":"active","ping":96},{"user_id":366,"name":"B·µ¢g B‚Çí‚Çõ‚Çõ","steam_id":76561198090271815,"connected_time":24000000000,"state":"active","ping":149},{"user_id":352,"name":"DeathSushi","steam_id":76561199156131540,"connected_time":589000000000,"state":"active","ping":90},{"user_id":361,"name":"Transfem with a gun","steam_id":76561199064861814,"connected_time":345000000000,"state":"active","ping":85},{"user_id":367,"name":"oxbudy","steam_id":76561198022120207,"connected_time":7000000000,"state":"spawning","ping":74},{"user_id":345,"name":"aimboat","steam_id":76561198218131923,"connected_time":1230000000000,"state":"active","ping":113}]},{"server_id":324,"name":"Uncletopia | Los Angeles | 3 | All Maps","name_short":"lax-3","host":"lax-1.us.uncletopia.com","port":27035,"enabled":true,"region":"us-west","cc":"us","latitude":33.94279,"longitude":-118.41004,"reserved":0,"last_update":"0001-01-01T00:00:00Z","name_a2s":"Uncletopia | Los Angeles | 3 | All Maps","protocol":17,"map":"pl_swiftwater_final1","folder":"tf","game":"Team Fortress","app_id":440,"player_count":17,"max_players":24,"Bots":0,"server_type":"Dedicated","server_os":"Linux","password":true,"vac":true,"version":"7882260","steam_id":85568392924510198,"keywords":["nocrits","nodmgspread","payload","uncletopia"],"game_id":440,"stv_port":27036,"stv_name":"Uncletopia | Los Angeles | 3 | All Maps | STV","players":[{"user_id":316,"name":"piebluedog","steam_id":76561198141362745,"connected_time":873000000000,"state":"active","ping":95},{"user_id":339,"name":"Locked in the bathroom","steam_id":76561198206394503,"connected_time":59000000000,"state":"active","ping":82},{"user_id":326,"name":"Barrelface_Mgee","steam_id":76561198840544843,"connected_time":517000000000,"state":"active","ping":69},{"user_id":322,"name":"Blitzo (the O is silent)","steam_id":76561198065781694,"connected_time":596000000000,"state":"active","ping":121},{"user_id":332,"name":"Wendigo","steam_id":76561197966816693,"connected_time":238000000000,"state":"active","ping":88},{"user_id":323,"name":"WildRose","steam_id":76561199198872694,"connected_time":586000000000,"state":"active","ping":113},{"user_id":325,"name":"Captain Morghan","steam_id":76561198388657942,"connected_time":531000000000,"state":"active","ping":105},{"user_id":327,"name":"ravioli","steam_id":76561199375947257,"connected_time":440000000000,"state":"active","ping":61},{"user_id":335,"name":"[chef] iron","steam_id":76561197970888616,"connected_time":127000000000,"state":"active","ping":85},{"user_id":330,"name":"Ferrin","steam_id":76561198071757444,"connected_time":347000000000,"state":"active","ping":99},{"user_id":331,"name":"sweglord227","steam_id":76561198415510262,"connected_time":346000000000,"state":"active","ping":100},{"user_id":333,"name":"BONKster","steam_id":76561198170089663,"connected_time":216000000000,"state":"active","ping":124},{"user_id":334,"name":"Moffein","steam_id":76561198016739296,"connected_time":149000000000,"state":"active","ping":49},{"user_id":336,"name":"mc.sleek","steam_id":76561198057602720,"connected_time":112000000000,"state":"active","ping":240},{"user_id":338,"name":"Mini Sentry","steam_id":76561198151531499,"connected_time":103000000000,"state":"active","ping":75},{"user_id":341,"name":"Surfing Garchomp","steam_id":76561199107236884,"connected_time":22000000000,"state":"spawning","ping":65},{"user_id":342,"name":"Et_1113","steam_id":76561199199558343,"connected_time":12000000000,"state":"active","ping":138}]},{"server_id":25,"name":"Uncletopia | Los Angeles | 4 | Stopwatch Beta","name_short":"lax-4","host":"lax-1.us.uncletopia.com","port":27045,"enabled":true,"region":"us-west","cc":"us","latitude":33.94279,"longitude":-118.41004,"reserved":0,"last_update":"0001-01-01T00:00:00Z","name_a2s":"Uncletopia | Los Angeles | 4 | Stopwatch Beta","protocol":17,"map":"cp_snakewater_final1","folder":"tf","game":"Team Fortress","app_id":440,"player_count":0,"max_players":24,"Bots":0,"server_type":"Dedicated","server_os":"Linux","password":true,"vac":true,"version":"7882260","steam_id":85568392924510199,"keywords":["cp","nocrits","nodmgspread","uncletopia"],"game_id":440,"stv_port":27046,"stv_name":"Uncletopia | Los Angeles | 4 | Stopwatch Beta | STV","players":null},{"server_id":11,"name":"Uncletopia | London | 1 | All Maps","name_short":"lon-1","host":"lon-1.uk.uncletopia.com","port":27015,"enabled":true,"region":"eu","cc":"gb","latitude":51.509865,"longitude":-0.118092,"reserved":0,"last_update":"0001-01-01T00:00:00Z","name_a2s":"Uncletopia | London | 1 | All Maps","protocol":17,"map":"cp_snakewater_final1","folder":"tf","game":"Team Fortress","app_id":440,"player_count":24,"max_players":24,"Bots":0,"server_type":"Dedicated","server_os":"Linux","password":true,"vac":true,"version":"7882260","steam_id":85568392924367362,"keywords":["cp","nocrits","nodmgspread","uncletopia"],"game_id":440,"stv_port":27016,"stv_name":"Uncletopia | London | 1 | All Maps | STV","players":[{"user_id":679,"name":"Loaf","steam_id":76561198148290115,"connected_time":2964000000000,"state":"active","ping":64},{"user_id":689,"name":"üÉî Nugg1t(she/they)","steam_id":76561198065652251,"connected_time":1412000000000,"state":"active","ping":50},{"user_id":700,"name":"fdxx","steam_id":76561198219209201,"connected_time":501000000000,"state":"active","ping":93},{"user_id":685,"name":"Sakari","steam_id":76561197997811299,"connected_time":2431000000000,"state":"active","ping":64},{"user_id":702,"name":"Provectus","steam_id":76561198247974602,"connected_time":467000000000,"state":"active","ping":85},{"user_id":677,"name":"Son Goku","steam_id":76561199383437138,"connected_time":3126000000000,"state":"active","ping":122},{"user_id":697,"name":"REN","steam_id":76561198000596385,"connected_time":785000000000,"state":"active","ping":75},{"user_id":705,"name":"NuGs","steam_id":76561198305550934,"connected_time":447000000000,"state":"active","ping":48},{"user_id":709,"name":"rev up the bugatti wahey","steam_id":76561198079589665,"connected_time":264000000000,"state":"active","ping":60},{"user_id":690,"name":"Minimi","steam_id":76561198873850443,"connected_time":1335000000000,"state":"active","ping":36},{"user_id":706,"name":"^_^","steam_id":76561198971354161,"connected_time":423000000000,"state":"active","ping":111},{"user_id":683,"name":"DED (CEO of Jar-A-Tea)","steam_id":76561198110469231,"connected_time":2650000000000,"state":"active","ping":51},{"user_id":698,"name":"JOHN GAMING (#1 gunspy)","steam_id":76561199085822219,"connected_time":538000000000,"state":"active","ping":88},{"user_id":682,"name":"SOPHIIEE","steam_id":76561198443798981,"connected_time":2691000000000,"state":"active","ping":57},{"user_id":651,"name":"Wiwiff_","steam_id":76561199164255561,"connected_time":5049000000000,"state":"active","ping":69},{"user_id":691,"name":"porngamer","steam_id":76561198204620491,"connected_time":1248000000000,"state":"active","ping":34},{"user_id":684,"name":"Koi-Koi","steam_id":76561198045527771,"connected_time":2484000000000,"state":"active","ping":54},{"user_id":710,"name":"‚ô• aura ‚ô•","steam_id":76561198066258544,"connected_time":11000000000,"state":"spawning","ping":64},{"user_id":620,"name":"goff","steam_id":76561198118989010,"connected_time":6813000000000,"state":"active","ping":45},{"user_id":688,"name":"DrunkHungarian","steam_id":76561198853346540,"connected_time":1476000000000,"state":"active","ping":60},{"user_id":665,"name":"dec","steam_id":76561198009660168,"connected_time":4006000000000,"state":"active","ping":47},{"user_id":645,"name":"chazza","steam_id":76561199076124858,"connected_time":5497000000000,"state":"active","ping":47},{"user_id":704,"name":"-_-Steve-_-","steam_id":76561198318786687,"connected_time":452000000000,"state":"active","ping":101},{"user_id":708,"name":"Harry the Wizard","steam_id":76561198128345843,"connected_time":365000000000,"state":"active","ping":63}]},{"server_id":114,"name":"Uncletopia | London | 2 | All Maps","name_short":"lon-2","host":"lon-1.uk.uncletopia.com","port":27025,"enabled":true,"region":"eu","cc":"gb","latitude":51.509865,"longitude":-0.118092,"reserved":0,"last_update":"0001-01-01T00:00:00Z","name_a2s":"Uncletopia | London | 2 | All Maps","protocol":17,"map":"pl_barnblitz","folder":"tf","game":"Team Fortress","app_id":440,"player_count":24,"max_players":24,"Bots":0,"server_type":"Dedicated","server_os":"Linux","password":true,"vac":true,"version":"7882260","steam_id":85568392924470941,"keywords":["nocrits","nodmgspread","payload","uncletopia"],"game_id":440,"stv_port":27026,"stv_name":"Uncletopia | London | 2 | All Maps | STV","players":[{"user_id":224,"name":"Gnarville","steam_id":76561198006373329,"connected_time":858000000000,"state":"active","ping":47},{"user_id":242,"name":"elwen","steam_id":76561198025282054,"connected_time":287000000000,"state":"active","ping":71},{"user_id":225,"name":"Nicholas Angel","steam_id":76561198434652604,"connected_time":829000000000,"state":"active","ping":83},{"user_id":222,"name":"Meddler","steam_id":76561198033001402,"connected_time":1218000000000,"state":"active","ping":39},{"user_id":234,"name":"Shearman360","steam_id":76561198193909685,"connected_time":598000000000,"state":"active","ping":64},{"user_id":170,"name":"Kotbube Peter","steam_id":76561198148386749,"connected_time":5347000000000,"state":"active","ping":63},{"user_id":235,"name":"Markein","steam_id":76561198360754280,"connected_time":548000000000,"state":"active","ping":47},{"user_id":221,"name":"ÀêmissingÀê","steam_id":76561198080541279,"connected_time":1290000000000,"state":"active","ping":99},{"user_id":228,"name":"Juiceydough","steam_id":76561197997323419,"connected_time":813000000000,"state":"active","ping":82},{"user_id":243,"name":"Cotton Eye Joe","steam_id":76561198080594207,"connected_time":231000000000,"state":"active","ping":55},{"user_id":229,"name":"gnarly business","steam_id":76561198832688767,"connected_time":812000000000,"state":"active","ping":50},{"user_id":230,"name":"Alfred Schroom","steam_id":76561198117990411,"connected_time":794000000000,"state":"active","ping":84},{"user_id":187,"name":"Krzty","steam_id":76561198306160711,"connected_time":4282000000000,"state":"active","ping":71},{"user_id":201,"name":"shh... tiny carrots r sleeping","steam_id":76561198069649097,"connected_time":2922000000000,"state":"active","ping":47},{"user_id":214,"name":"IndigoJones","steam_id":76561198050284262,"connected_time":2122000000000,"state":"active","ping":45},{"user_id":220,"name":"Nero Claudius","steam_id":76561198173936397,"connected_time":1381000000000,"state":"active","ping":102},{"user_id":210,"name":"$n√òw","steam_id":76561198238781028,"connected_time":2699000000000,"state":"active","ping":105},{"user_id":241,"name":"Ichba' Playa' Mana'","steam_id":76561198152701211,"connected_time":342000000000,"state":"active","ping":75},{"user_id":196,"name":"Jimmy","steam_id":76561198133680783,"connected_time":3040000000000,"state":"active","ping":72},{"user_id":223,"name":"chocolate flavoured femboy","steam_id":76561198819353867,"connected_time":1149000000000,"state":"active","ping":38},{"user_id":203,"name":"hmscole09","steam_id":76561198811362788,"connected_time":2893000000000,"state":"active","ping":57},{"user_id":173,"name":"Griffith","steam_id":76561198074407897,"connected_time":5308000000000,"state":"active","ping":116},{"user_id":211,"name":"senior pomidor","steam_id":76561198123659806,"connected_time":2662000000000,"state":"active","ping":100},{"user_id":245,"name":"Locke","steam_id":76561198339408300,"connected_time":159000000000,"state":"active","ping":58}]},{"server_id":320,"name":"Uncletopia | London | 3 | All Maps","name_short":"lon-3","host":"lon-1.uk.uncletopia.com","port":27035,"enabled":true,"region":"eu","cc":"gb","latitude":51.509865,"longitude":-0.118092,"reserved":0,"last_update":"0001-01-01T00:00:00Z","name_a2s":"Uncletopia | London | 3 | All Maps","protocol":17,"map":"koth_cascade","folder":"tf","game":"Team Fortress","app_id":440,"player_count":4,"max_players":24,"Bots":0,"server_type":"Dedicated","server_os":"Linux","password":true,"vac":true,"version":"7882260","steam_id":85568392924510192,"keywords":["cp","nocrits","nodmgspread","uncletopia"],"game_id":440,"stv_port":27036,"stv_name":"Uncletopia | London | 3 | All Maps | STV","players":[{"user_id":126,"name":"Man With A Pan","steam_id":76561199138916276,"connected_time":1772000000000,"state":"active","ping":64},{"user_id":127,"name":"HotFloppyFish","steam_id":76561199130564220,"connected_time":1672000000000,"state":"active","ping":49},{"user_id":132,"name":"David Random","steam_id":76561198144497918,"connected_time":120000000000,"state":"active","ping":62},{"user_id":129,"name":"Lario","steam_id":76561199194109193,"connected_time":1576000000000,"state":"active","ping":57}]},{"server_id":321,"name":"Uncletopia | London | 4 | All Maps","name_short":"lon-4","host":"lon-1.uk.uncletopia.com","port":27045,"enabled":true,"region":"eu","cc":"gb","latitude":51.509865,"longitude":-0.118092,"reserved":0,"last_update":"0001-01-01T00:00:00Z","name_a2s":"Uncletopia | London | 4 | All Maps","protocol":17,"map":"pl_upward","folder":"tf","game":"Team Fortress","app_id":440,"player_count":15,"max_players":24,"Bots":0,"server_type":"Dedicated","server_os":"Linux","password":true,"vac":true,"version":"7882260","steam_id":85568392924510193,"keywords":["nocrits","nodmgspread","payload","uncletopia"],"game_id":440,"stv_port":27046,"stv_name":"Uncletopia | London | 4 | All Maps | STV","players":[{"user_id":646,"name":"One Shiny Boi‚Ñ¢","steam_id":76561198199193627,"connected_time":380000000000,"state":"active","ping":71},{"user_id":648,"name":"desnot","steam_id":76561198862581894,"connected_time":233000000000,"state":"active","ping":70},{"user_id":621,"name":"Carrotcracker","steam_id":76561198034862396,"connected_time":3533000000000,"state":"active","ping":80},{"user_id":619,"name":"eeeeee","steam_id":76561198017786875,"connected_time":3723000000000,"state":"active","ping":67},{"user_id":588,"name":"Gordon","steam_id":76561198303652059,"connected_time":5622000000000,"state":"active","ping":72},{"user_id":647,"name":"Max Andrew","steam_id":76561198158955194,"connected_time":309000000000,"state":"active","ping":58},{"user_id":649,"name":"Noosie","steam_id":76561198108612349,"connected_time":200000000000,"state":"active","ping":61},{"user_id":650,"name":"TrashVerN","steam_id":76561197977444051,"connected_time":98000000000,"state":"active","ping":58},{"user_id":651,"name":"PowerKAT [TTV] Emptiness_CTS","steam_id":76561198182129870,"connected_time":90000000000,"state":"active","ping":109},{"user_id":652,"name":"sound","steam_id":76561199053033603,"connected_time":65000000000,"state":"spawning","ping":83},{"user_id":653,"name":"Avitz","steam_id":76561197986150359,"connected_time":57000000000,"state":"active","ping":43},{"user_id":610,"name":"jaime8D","steam_id":76561197980590671,"connected_time":4204000000000,"state":"active","ping":89},{"user_id":645,"name":"General Petrov","steam_id":76561198027204104,"connected_time":1240000000000,"state":"active","ping":85},{"user_id":590,"name":"Buddy","steam_id":76561198050185582,"connected_time":5610000000000,"state":"active","ping":64},{"user_id":636,"name":"Snoucher","steam_id":76561198955323108,"connected_time":2538000000000,"state":"active","ping":84}]},{"server_id":21,"name":"Uncletopia | London | 5 | All Maps","name_short":"lon-5","host":"lon-1.uk.uncletopia.com","port":27055,"enabled":true,"region":"eu","cc":"gb","latitude":51.509865,"longitude":-0.118092,"reserved":0,"last_update":"0001-01-01T00:00:00Z","name_a2s":"Uncletopia | London | 5 | All Maps","protocol":17,"map":"pl_frontier_final","folder":"tf","game":"Team Fortress","app_id":440,"player_count":24,"max_players":24,"Bots":0,"server_type":"Dedicated","server_os":"Linux","password":true,"vac":true,"version":"7882260","steam_id":85568392924742829,"keywords":["nocrits","nodmgspread","payload","uncletopia"],"game_id":440,"stv_port":27056,"stv_name":"Uncletopia | London | 5 | All Maps | STV","players":[{"user_id":194,"name":"ricky pee pee","steam_id":76561198152620745,"connected_time":1992000000000,"state":"active","ping":55},{"user_id":179,"name":"Teecho","steam_id":76561197995269610,"connected_time":2668000000000,"state":"active","ping":45},{"user_id":195,"name":"Majima Gaming HD","steam_id":76561198365750503,"connected_time":1931000000000,"state":"active","ping":38},{"user_id":149,"name":"jordieeh2011","steam_id":76561198202001138,"connected_time":4009000000000,"state":"active","ping":80},{"user_id":197,"name":"Baron","steam_id":76561198021901783,"connected_time":1529000000000,"state":"active","ping":55},{"user_id":193,"name":"RocK Knight","steam_id":76561198186054573,"connected_time":2036000000000,"state":"active","ping":88},{"user_id":211,"name":"Rocco__","steam_id":76561197992824074,"connected_time":611000000000,"state":"active","ping":133},{"user_id":201,"name":"Woa","steam_id":76561198345683201,"connected_time":969000000000,"state":"active","ping":53},{"user_id":200,"name":"Markhop1","steam_id":76561198014112456,"connected_time":1003000000000,"state":"active","ping":65},{"user_id":155,"name":"Vanilla","steam_id":76561198073933435,"connected_time":3468000000000,"state":"active","ping":52},{"user_id":212,"name":"410 E Walnut Ave, Dawson, Iowa","steam_id":76561198285931413,"connected_time":471000000000,"state":"active","ping":135},{"user_id":202,"name":"your mum","steam_id":76561198047828651,"connected_time":959000000000,"state":"active","ping":59},{"user_id":157,"name":"radek","steam_id":76561197998883721,"connected_time":3460000000000,"state":"active","ping":91},{"user_id":158,"name":"Micha≈Ç","steam_id":76561198320346362,"connected_time":3434000000000,"state":"active","ping":73},{"user_id":203,"name":"Toofy","steam_id":76561197989727907,"connected_time":955000000000,"state":"active","ping":37},{"user_id":214,"name":"Quill","steam_id":76561198348124998,"connected_time":91000000000,"state":"active","ping":74},{"user_id":209,"name":"they are rare","steam_id":76561198258838926,"connected_time":892000000000,"state":"active","ping":108},{"user_id":183,"name":"Horo","steam_id":76561198009504508,"connected_time":2404000000000,"state":"active","ping":52},{"user_id":213,"name":"bug:-)","steam_id":76561198027033926,"connected_time":345000000000,"state":"active","ping":58},{"user_id":187,"name":"XBOX Sturux","steam_id":76561198277644122,"connected_time":2132000000000,"state":"active","ping":90},{"user_id":191,"name":"ScarredPixel123","steam_id":76561199165112703,"connected_time":2086000000000,"state":"active","ping":85},{"user_id":171,"name":"womp","steam_id":76561198283192660,"connected_time":3058000000000,"state":"active","ping":81},{"user_id":210,"name":"Siroco","steam_id":76561198079249360,"connected_time":859000000000,"state":"active","ping":82}]},{"server_id":22,"name":"Uncletopia | London | 6 | All Maps","name_short":"lon-6","host":"lon-1.uk.uncletopia.com","port":27065,"enabled":true,"region":"eu","cc":"gb","latitude":51.509865,"longitude":-0.118092,"reserved":0,"last_update":"0001-01-01T00:00:00Z","name_a2s":"Uncletopia | London | 6 | All Maps","protocol":17,"map":"koth_highpass","folder":"tf","game":"Team Fortress","app_id":440,"player_count":0,"max_players":24,"Bots":0,"server_type":"Dedicated","server_os":"Linux","password":true,"vac":true,"version":"7882260","steam_id":85568392924742830,"keywords":["cp","nocrits","nodmgspread","uncletopia"],"game_id":440,"stv_port":27066,"stv_name":"Uncletopia | London | 6 | All Maps | STV","players":null},{"server_id":40,"name":"Uncletopia | London | 7 | No Payload","name_short":"lon-7","host":"lon-1.uk.uncletopia.com","port":27075,"enabled":true,"region":"eu","cc":"gb","latitude":51.509865,"longitude":-0.118092,"reserved":0,"last_update":"0001-01-01T00:00:00Z","name_a2s":"Uncletopia | London | 7 | No Payload","protocol":17,"map":"plr_nightfall_final","folder":"tf","game":"Team Fortress","app_id":440,"player_count":0,"max_players":24,"Bots":0,"server_type":"Dedicated","server_os":"Linux","password":true,"vac":true,"version":"7882260","steam_id":85568392924964314,"keywords":["nocrits","nodmgspread","payload","uncletopia"],"game_id":440,"stv_port":27076,"stv_name":"Uncletopia | London | 7 | No Payload | STV","players":null},{"server_id":41,"name":"Uncletopia | London | 8 | Community","name_short":"lon-8","host":"lon-1.uk.uncletopia.com","port":27085,"enabled":true,"region":"eu","cc":"gb","latitude":51.509865,"longitude":-0.118092,"reserved":0,"last_update":"0001-01-01T00:00:00Z","name_a2s":"Uncletopia | London | 8 | Community","protocol":17,"map":"workshop/koth_trenchfoot_b1a.ugc731436616","folder":"tf","game":"Team Fortress","app_id":440,"player_count":0,"max_players":24,"Bots":0,"server_type":"Dedicated","server_os":"Linux","password":true,"vac":true,"version":"7882260","steam_id":85568392924964315,"keywords":["cp","nocrits","nodmgspread","uncletopia"],"game_id":440,"stv_port":27086,"stv_name":"Uncletopia | London | 8 | Community | STV","players":null},{"server_id":300,"name":"Uncletopia | Montr√©al | 1 | All Maps","name_short":"mtl-1","host":"mtl-1.ca.uncletopia.com","port":27015,"enabled":true,"region":"us-east","cc":"ca","latitude":45.50889,"longitude":-73.56167,"reserved":0,"last_update":"0001-01-01T00:00:00Z","name_a2s":"Uncletopia | Montr√©al | 1 | All Maps","protocol":17,"map":"cp_mountainlab","folder":"tf","game":"Team Fortress","app_id":440,"player_count":0,"max_players":24,"Bots":0,"server_type":"Dedicated","server_os":"Linux","password":true,"vac":true,"version":"7882260","steam_id":85568392924500087,"keywords":["cp","nocrits","nodmgspread","uncletopia"],"game_id":440,"stv_port":27016,"stv_name":"Uncletopia | Montr√©al | 1 | All Maps | STV","players":null},{"server_id":301,"name":"Uncletopia | Montr√©al | 2 | All Maps","name_short":"mtl-2","host":"mtl-1.ca.uncletopia.com","port":27025,"enabled":true,"region":"us-east","cc":"ca","latitude":45.50889,"longitude":-73.56167,"reserved":0,"last_update":"0001-01-01T00:00:00Z","name_a2s":"Uncletopia | Montr√©al | 2 | All Maps","protocol":17,"map":"pl_barnblitz","folder":"tf","game":"Team Fortress","app_id":440,"player_count":0,"max_players":24,"Bots":0,"server_type":"Dedicated","server_os":"Linux","password":true,"vac":true,"version":"7882260","steam_id":85568392924500088,"keywords":["nocrits","nodmgspread","payload","uncletopia"],"game_id":440,"stv_port":27026,"stv_name":"Uncletopia | Montr√©al | 2 | All Maps | STV","players":null},{"server_id":302,"name":"Uncletopia | Montr√©al | 3 | All Maps","name_short":"mtl-3","host":"mtl-1.ca.uncletopia.com","port":27035,"enabled":true,"region":"us-east","cc":"ca","latitude":45.50889,"longitude":-73.56167,"reserved":0,"last_update":"0001-01-01T00:00:00Z","name_a2s":"Uncletopia | Montr√©al | 3 | All Maps","protocol":17,"map":"pl_borneo","folder":"tf","game":"Team Fortress","app_id":440,"player_count":0,"max_players":24,"Bots":0,"server_type":"Dedicated","server_os":"Linux","password":true,"vac":true,"version":"7882260","steam_id":85568392924500089,"keywords":["nocrits","nodmgspread","payload","uncletopia"],"game_id":440,"stv_port":27036,"stv_name":"Uncletopia | Montr√©al | 3 | All Maps | STV","players":null},{"server_id":303,"name":"Uncletopia | Montr√©al | 4 | No Payload","name_short":"mtl-4","host":"mtl-1.ca.uncletopia.com","port":27045,"enabled":true,"region":"us-east","cc":"ca","latitude":45.50889,"longitude":-73.56167,"reserved":0,"last_update":"0001-01-01T00:00:00Z","name_a2s":"Uncletopia | Montr√©al | 4 | No Payload","protocol":17,"map":"cp_altitude","folder":"tf","game":"Team Fortress","app_id":440,"player_count":0,"max_players":24,"Bots":0,"server_type":"Dedicated","server_os":"Linux","password":true,"vac":true,"version":"7882260","steam_id":85568392924500090,"keywords":["cp","nocrits","nodmgspread","uncletopia"],"game_id":440,"stv_port":27046,"stv_name":"Uncletopia | Montr√©al | 4 | No Payload | STV","players":null},{"server_id":13,"name":"Uncletopia | New York City | 1 | All Maps","name_short":"nyc-1","host":"nyc-1.us.uncletopia.com","port":27015,"enabled":true,"region":"us-east","cc":"us","latitude":40.73061,"longitude":-73.93524,"reserved":0,"last_update":"0001-01-01T00:00:00Z","name_a2s":"Uncletopia | New York City | 1 | All Maps","protocol":17,"map":"pl_barnblitz","folder":"tf","game":"Team Fortress","app_id":440,"player_count":24,"max_players":24,"Bots":0,"server_type":"Dedicated","server_os":"Linux","password":true,"vac":true,"version":"7882260","steam_id":85568392924469993,"keywords":["nocrits","nodmgspread","payload","uncletopia"],"game_id":440,"stv_port":27016,"stv_name":"Uncletopia | New York City | 1 | All Maps | STV","players":[{"user_id":187,"name":"Jasper Zawn","steam_id":76561198077651204,"connected_time":1097000000000,"state":"active","ping":74},{"user_id":166,"name":"Jonny","steam_id":76561198105764236,"connected_time":2890000000000,"state":"active","ping":106},{"user_id":200,"name":"Cedric","steam_id":76561198072090580,"connected_time":433000000000,"state":"active","ping":86},{"user_id":189,"name":"painting4","steam_id":76561198067554256,"connected_time":1071000000000,"state":"active","ping":122},{"user_id":192,"name":"lpk","steam_id":76561198025478698,"connected_time":1007000000000,"state":"active","ping":72},{"user_id":175,"name":"Arceus","steam_id":76561199146716278,"connected_time":2295000000000,"state":"active","ping":69},{"user_id":190,"name":"Sovereign","steam_id":76561198223959572,"connected_time":1059000000000,"state":"active","ping":94},{"user_id":201,"name":"carnal wizard","steam_id":76561198052431073,"connected_time":174000000000,"state":"active","ping":85},{"user_id":140,"name":"Mutt","steam_id":76561198113640643,"connected_time":3859000000000,"state":"active","ping":130},{"user_id":199,"name":"Stardustry","steam_id":76561198090010107,"connected_time":450000000000,"state":"active","ping":57},{"user_id":191,"name":"Drapph","steam_id":76561199384213314,"connected_time":1047000000000,"state":"active","ping":78},{"user_id":176,"name":"average rust player","steam_id":76561198047627340,"connected_time":2294000000000,"state":"active","ping":62},{"user_id":181,"name":"threshecutioner612","steam_id":76561199482933802,"connected_time":1748000000000,"state":"active","ping":70},{"user_id":184,"name":"bonehead","steam_id":76561198090002944,"connected_time":1290000000000,"state":"active","ping":71},{"user_id":153,"name":"Adonut","steam_id":76561198805858184,"connected_time":3416000000000,"state":"active","ping":121},{"user_id":194,"name":"BIG HOG","steam_id":76561198079923652,"connected_time":931000000000,"state":"active","ping":90},{"user_id":168,"name":"Jeremy","steam_id":76561198286240347,"connected_time":2844000000000,"state":"active","ping":75},{"user_id":183,"name":"Failtastic","steam_id":76561198994009973,"connected_time":1327000000000,"state":"active","ping":48},{"user_id":185,"name":"‡πñ√êiestow","steam_id":76561198046662484,"connected_time":1106000000000,"state":"active","ping":64},{"user_id":198,"name":"emilee (evil)","steam_id":76561198061455664,"connected_time":689000000000,"state":"active","ping":49},{"user_id":195,"name":"you forgot the sauce","steam_id":76561198387016713,"connected_time":903000000000,"state":"active","ping":53},{"user_id":178,"name":"EvesTheMonks","steam_id":76561198121842278,"connected_time":2176000000000,"state":"active","ping":61},{"user_id":158,"name":"nerd gaming","steam_id":76561198066018972,"connected_time":3246000000000,"state":"active","ping":85},{"user_id":180,"name":"gobbie FASTNESS","steam_id":76561198026865054,"connected_time":2129000000000,"state":"active","ping":56}]},{"server_id":14,"name":"Uncletopia | New York City | 2 | All Maps","name_short":"nyc-2","host":"nyc-1.us.uncletopia.com","port":27025,"enabled":true,"region":"us-east","cc":"us","latitude":40.73061,"longitude":-73.93524,"reserved":0,"last_update":"0001-01-01T00:00:00Z","name_a2s":"Uncletopia | New York City | 2 | All Maps","protocol":17,"map":"pl_barnblitz","folder":"tf","game":"Team Fortress","app_id":440,"player_count":24,"max_players":24,"Bots":0,"server_type":"Dedicated","server_os":"Linux","password":true,"vac":true,"version":"7882260","steam_id":85568392924469994,"keywords":["nocrits","nodmgspread","payload","uncletopia"],"game_id":440,"stv_port":27026,"stv_name":"Uncletopia | New York City | 2 | All Maps | STV","players":[{"user_id":42,"name":"walterhwhite","steam_id":76561199433675789,"connected_time":1410000000000,"state":"active","ping":114},{"user_id":61,"name":"Smug Pug","steam_id":76561198059423334,"connected_time":293000000000,"state":"active","ping":80},{"user_id":62,"name":"the222attacker","steam_id":76561198969690191,"connected_time":265000000000,"state":"active","ping":110},{"user_id":52,"name":"Nycto","steam_id":76561198050032617,"connected_time":923000000000,"state":"active","ping":86},{"user_id":68,"name":"mineblast99","steam_id":76561199065648954,"connected_time":53000000000,"state":"active","ping":77},{"user_id":46,"name":"Effie","steam_id":76561198261842068,"connected_time":1354000000000,"state":"active","ping":62},{"user_id":57,"name":"amaz","steam_id":76561198386233160,"connected_time":490000000000,"state":"active","ping":103},{"user_id":21,"name":"A Trigger Happy Chipmunk","steam_id":76561198013608736,"connected_time":1885000000000,"state":"active","ping":59},{"user_id":65,"name":"he was forced to play scout","steam_id":76561198170381402,"connected_time":190000000000,"state":"active","ping":46},{"user_id":27,"name":"cosmic pug23","steam_id":76561199083071013,"connected_time":1632000000000,"state":"active","ping":111},{"user_id":58,"name":"gabaghoulio","steam_id":76561198013650292,"connected_time":479000000000,"state":"active","ping":106},{"user_id":50,"name":"-W3E- grim10465","steam_id":76561198045698581,"connected_time":1093000000000,"state":"active","ping":31},{"user_id":56,"name":"BigDeac","steam_id":76561198091237274,"connected_time":579000000000,"state":"active","ping":70},{"user_id":32,"name":"mr beast","steam_id":76561199148187380,"connected_time":1570000000000,"state":"active","ping":97},{"user_id":59,"name":"night.light","steam_id":76561198014557455,"connected_time":471000000000,"state":"active","ping":85},{"user_id":36,"name":"LemonZest","steam_id":76561199196369249,"connected_time":1499000000000,"state":"active","ping":63},{"user_id":53,"name":"Bojo Kojo","steam_id":76561198141703138,"connected_time":917000000000,"state":"active","ping":106},{"user_id":55,"name":"Nesster","steam_id":76561198071688242,"connected_time":755000000000,"state":"active","ping":54},{"user_id":54,"name":"IanTheAwsm","steam_id":76561198093031738,"connected_time":915000000000,"state":"active","ping":83},{"user_id":41,"name":"beleaguered harlot","steam_id":76561198036884600,"connected_time":1428000000000,"state":"active","ping":57},{"user_id":44,"name":"ttv/Muenstier","steam_id":76561198312153623,"connected_time":1389000000000,"state":"active","ping":85},{"user_id":48,"name":"pogo","steam_id":76561198148913461,"connected_time":1339000000000,"state":"active","ping":45},{"user_id":49,"name":"CupOJo","steam_id":76561198067153390,"connected_time":1327000000000,"state":"active","ping":72},{"user_id":67,"name":"Alexthegreat","steam_id":76561197996796222,"connected_time":176000000000,"state":"active","ping":48}]},{"server_id":15,"name":"Uncletopia | New York City | 3 | Stopwatch Beta","name_short":"nyc-3","host":"nyc-1.us.uncletopia.com","port":27035,"enabled":true,"region":"us-east","cc":"us","latitude":40.73061,"longitude":-73.93524,"reserved":0,"last_update":"0001-01-01T00:00:00Z","name_a2s":"Uncletopia | New York City | 3 | Stopwatch Beta","protocol":17,"map":"cp_sunshine","folder":"tf","game":"Team Fortress","app_id":440,"player_count":0,"max_players":24,"Bots":0,"server_type":"Dedicated","server_os":"Linux","password":true,"vac":true,"version":"7882260","steam_id":85568392924742820,"keywords":["cp","nocrits","nodmgspread","uncletopia"],"game_id":440,"stv_port":27036,"stv_name":"Uncletopia | New York City | 3 | Stopwatch Beta | STV","players":null},{"server_id":16,"name":"Uncletopia | New York City | 4 | Community","name_short":"nyc-4","host":"nyc-1.us.uncletopia.com","port":27045,"enabled":true,"region":"us-east","cc":"us","latitude":40.73061,"longitude":-73.93524,"reserved":0,"last_update":"0001-01-01T00:00:00Z","name_a2s":"Uncletopia | New York City | 4 | Community","protocol":17,"map":"pl_badwater","folder":"tf","game":"Team Fortress","app_id":440,"player_count":2,"max_players":24,"Bots":0,"server_type":"Dedicated","server_os":"Linux","password":true,"vac":true,"version":"7882260","steam_id":85568392924742821,"keywords":["nocrits","nodmgspread","payload","uncletopia"],"game_id":440,"stv_port":27046,"stv_name":"Uncletopia | New York City | 4 | Community | STV","players":[{"user_id":3,"name":"Ketchup_No_Sauce","steam_id":76561198802121873,"connected_time":949000000000,"state":"active","ping":54},{"user_id":4,"name":"bababooey","steam_id":76561198198953963,"connected_time":917000000000,"state":"active","ping":82}]},{"server_id":142,"name":"Uncletopia | S√£o Paulo | 1 | All Maps","name_short":"sao-1","host":"sao-1.br.uncletopia.com","port":27015,"enabled":true,"region":"sa","cc":"br","latitude":-23.533773,"longitude":-46.62529,"reserved":0,"last_update":"0001-01-01T00:00:00Z","name_a2s":"Uncletopia | S√£o Paulo | 1 | All Maps","protocol":17,"map":"pl_swiftwater_final1","folder":"tf","game":"Team Fortress","app_id":440,"player_count":5,"max_players":24,"Bots":0,"server_type":"Dedicated","server_os":"Linux","password":true,"vac":true,"version":"7882260","steam_id":85568392924469996,"keywords":["nocrits","nodmgspread","payload","uncletopia"],"game_id":440,"stv_port":27016,"stv_name":"Uncletopia | S√£o Paulo | 1 | All Maps | STV","players":[{"user_id":5,"name":"GamireXD","steam_id":76561198927748948,"connected_time":1704000000000,"state":"active","ping":101},{"user_id":6,"name":"Songalongamon","steam_id":76561198114565169,"connected_time":1591000000000,"state":"active","ping":45},{"user_id":7,"name":"Abbysx","steam_id":76561199201525381,"connected_time":1486000000000,"state":"active","ping":108},{"user_id":8,"name":"eriquesaltos02","steam_id":76561199440339479,"connected_time":832000000000,"state":"active","ping":49},{"user_id":9,"name":"klas","steam_id":76561198848363987,"connected_time":146000000000,"state":"active","ping":31}]},{"server_id":143,"name":"Uncletopia | S√£o Paulo | 2 | All Maps","name_short":"sao-2","host":"sao-2.br.uncletopia.com","port":27015,"enabled":true,"region":"sa","cc":"br","latitude":-23.533773,"longitude":-46.62529,"reserved":0,"last_update":"0001-01-01T00:00:00Z","name_a2s":"Uncletopia | S√£o Paulo | 2 | All Maps","protocol":17,"map":"pl_borneo","folder":"tf","game":"Team Fortress","app_id":440,"player_count":0,"max_players":24,"Bots":0,"server_type":"Dedicated","server_os":"Linux","password":true,"vac":true,"version":"7882260","steam_id":85568392924485349,"keywords":["nocrits","nodmgspread","payload","uncletopia"],"game_id":440,"stv_port":27016,"stv_name":"Uncletopia | S√£o Paulo | 2 | All Maps | STV","players":null},{"server_id":7,"name":"Uncletopia | Seattle | 1 | All Maps","name_short":"sea-1","host":"sea-1.us.uncletopia.com","port":27015,"enabled":true,"region":"us-west","cc":"us","latitude":47.608013,"longitude":-122.33517,"reserved":0,"last_update":"0001-01-01T00:00:00Z","name_a2s":"Uncletopia | Seattle | 1 | All Maps","protocol":17,"map":"pl_pier","folder":"tf","game":"Team Fortress","app_id":440,"player_count":24,"max_players":24,"Bots":0,"server_type":"Dedicated","server_os":"Linux","password":true,"vac":true,"version":"7882260","steam_id":85568392924469997,"keywords":["nocrits","nodmgspread","payload","uncletopia"],"game_id":440,"stv_port":27016,"stv_name":"Uncletopia | Seattle | 1 | All Maps | STV","players":[{"user_id":173,"name":"duddlee","steam_id":76561198030052564,"connected_time":1190000000000,"state":"active","ping":59},{"user_id":169,"name":"Depths","steam_id":76561198343435310,"connected_time":1932000000000,"state":"active","ping":80},{"user_id":175,"name":"AmiableNebula","steam_id":76561198094306627,"connected_time":1111000000000,"state":"active","ping":73},{"user_id":183,"name":"Resh420","steam_id":76561198066619792,"connected_time":491000000000,"state":"active","ping":74},{"user_id":142,"name":"Fallen","steam_id":76561198206490352,"connected_time":4863000000000,"state":"active","ping":72},{"user_id":174,"name":"ror!","steam_id":76561198021227843,"connected_time":1157000000000,"state":"active","ping":81},{"user_id":145,"name":"SibilantSerpent","steam_id":76561198154488754,"connected_time":4639000000000,"state":"active","ping":57},{"user_id":186,"name":"mega","steam_id":76561198089520959,"connected_time":364000000000,"state":"active","ping":99},{"user_id":180,"name":"Bashar Al-Assuh dude","steam_id":76561198270999531,"connected_time":952000000000,"state":"active","ping":67},{"user_id":163,"name":"AceSea","steam_id":76561198851176490,"connected_time":2324000000000,"state":"active","ping":59},{"user_id":168,"name":"Mignyanne :3","steam_id":76561198048754056,"connected_time":2040000000000,"state":"active","ping":65},{"user_id":182,"name":"Shark Sandwich","steam_id":76561198025007938,"connected_time":895000000000,"state":"active","ping":57},{"user_id":159,"name":"Radio","steam_id":76561198194821053,"connected_time":2885000000000,"state":"active","ping":55},{"user_id":176,"name":"S Q U I S H E  T H A T  C A T","steam_id":76561198293865429,"connected_time":1104000000000,"state":"active","ping":40},{"user_id":147,"name":"toes","steam_id":76561198221151676,"connected_time":3934000000000,"state":"active","ping":60},{"user_id":181,"name":"COOL master_9","steam_id":76561198073041151,"connected_time":943000000000,"state":"active","ping":102},{"user_id":139,"name":"shiadyne","steam_id":76561198271939793,"connected_time":5695000000000,"state":"active","ping":58},{"user_id":141,"name":"camp3r","steam_id":76561197992870439,"connected_time":4875000000000,"state":"active","ping":43},{"user_id":157,"name":"charm quark","steam_id":76561198098770777,"connected_time":2960000000000,"state":"active","ping":50},{"user_id":172,"name":"RagingBagon","steam_id":76561198255453127,"connected_time":1393000000000,"state":"active","ping":75},{"user_id":161,"name":"liliLovesUnicorns83","steam_id":76561199391478575,"connected_time":2342000000000,"state":"active","ping":73},{"user_id":170,"name":"Nico The Cheese","steam_id":76561199065272792,"connected_time":1449000000000,"state":"active","ping":87},{"user_id":178,"name":"a chicken","steam_id":76561198313121580,"connected_time":1083000000000,"state":"active","ping":82},{"user_id":185,"name":"Yurei","steam_id":76561198088750661,"connected_time":476000000000,"state":"active","ping":81}]},{"server_id":119,"name":"Uncletopia | Seattle | 2 | All Maps","name_short":"sea-2","host":"sea-1.us.uncletopia.com","port":27025,"enabled":true,"region":"us-west","cc":"us","latitude":47.608013,"longitude":-122.33517,"reserved":0,"last_update":"0001-01-01T00:00:00Z","name_a2s":"Uncletopia | Seattle | 2 | All Maps","protocol":17,"map":"pl_snowycoast","folder":"tf","game":"Team Fortress","app_id":440,"player_count":0,"max_players":24,"Bots":0,"server_type":"Dedicated","server_os":"Linux","password":true,"vac":true,"version":"7882260","steam_id":85568392924469998,"keywords":["nocrits","nodmgspread","payload","uncletopia"],"game_id":440,"stv_port":27026,"stv_name":"Uncletopia | Seattle | 2 | All Maps | STV","players":null},{"server_id":406,"name":"Uncletopia | Seattle | 3 | Stopwatch Beta","name_short":"sea-3","host":"sea-1.us.uncletopia.com","port":27035,"enabled":true,"region":"us-west","cc":"us","latitude":47.608013,"longitude":-122.33517,"reserved":0,"last_update":"0001-01-01T00:00:00Z","name_a2s":"Uncletopia | Seattle | 3 | Stopwatch Beta","protocol":17,"map":"cp_snakewater_final1","folder":"tf","game":"Team Fortress","app_id":440,"player_count":0,"max_players":24,"Bots":0,"server_type":"Dedicated","server_os":"Linux","password":true,"vac":true,"version":"7882260","steam_id":85568392924515217,"keywords":["cp","nocrits","nodmgspread","uncletopia"],"game_id":440,"stv_port":27036,"stv_name":"Uncletopia | Seattle | 3 | Stopwatch Beta | STV","players":null},{"server_id":17,"name":"Uncletopia | San Francisco | 1 | All Maps","name_short":"sfo-1","host":"sfo-1.us.uncletopia.com","port":27015,"enabled":true,"region":"us-west","cc":"us","latitude":37.77397,"longitude":-122.4313,"reserved":0,"last_update":"0001-01-01T00:00:00Z","name_a2s":"Uncletopia | San Francisco | 1 | All Maps","protocol":17,"map":"cp_process_final","folder":"tf","game":"Team Fortress","app_id":440,"player_count":0,"max_players":24,"Bots":0,"server_type":"Dedicated","server_os":"Linux","password":true,"vac":true,"version":"7757534","steam_id":85568392924469999,"keywords":["cp","nocrits","nodmgspread","uncletopia"],"game_id":440,"stv_port":27016,"stv_name":"Uncletopia | San Francisco | 1 | All Maps | STV","players":null},{"server_id":18,"name":"Uncletopia | San Francisco | 2 | All Maps","name_short":"sfo-2","host":"sfo-1.us.uncletopia.com","port":27025,"enabled":true,"region":"us-west","cc":"us","latitude":37.77397,"longitude":-122.4313,"reserved":0,"last_update":"0001-01-01T00:00:00Z","name_a2s":"Uncletopia | San Francisco | 2 | All Maps","protocol":17,"map":"koth_highpass","folder":"tf","game":"Team Fortress","app_id":440,"player_count":0,"max_players":24,"Bots":0,"server_type":"Dedicated","server_os":"Linux","password":true,"vac":true,"version":"7757534","steam_id":85568392924470000,"keywords":["cp","nocrits","nodmgspread","uncletopia"],"game_id":440,"stv_port":27026,"stv_name":"Uncletopia | San Francisco | 2 | All Maps | STV","players":null},{"server_id":19,"name":"Uncletopia | San Francisco | 3 | Stopwatch Beta","name_short":"sfo-3","host":"sfo-1.us.uncletopia.com","port":27035,"enabled":true,"region":"us-west","cc":"us","latitude":37.77397,"longitude":-122.4313,"reserved":0,"last_update":"0001-01-01T00:00:00Z","name_a2s":"Uncletopia | San Francisco | 3 | Stopwatch Beta","protocol":17,"map":"koth_lakeside_final","folder":"tf","game":"Team Fortress","app_id":440,"player_count":0,"max_players":24,"Bots":0,"server_type":"Dedicated","server_os":"Linux","password":true,"vac":true,"version":"7757534","steam_id":85568392924742824,"keywords":["cp","nocrits","nodmgspread","uncletopia"],"game_id":440,"stv_port":27036,"stv_name":"Uncletopia | San Francisco | 3 | Stopwatch Beta | STV","players":null},{"server_id":20,"name":"Uncletopia | San Francisco | 4 | Community","name_short":"sfo-4","host":"sfo-1.us.uncletopia.com","port":27045,"enabled":true,"region":"us-west","cc":"us","latitude":37.77397,"longitude":-122.4313,"reserved":0,"last_update":"0001-01-01T00:00:00Z","name_a2s":"Uncletopia | San Francisco | 4 | Community","protocol":17,"map":"cp_altitude","folder":"tf","game":"Team Fortress","app_id":440,"player_count":0,"max_players":24,"Bots":0,"server_type":"Dedicated","server_os":"Linux","password":true,"vac":true,"version":"7757534","steam_id":85568392924742826,"keywords":["cp","nocrits","nodmgspread","uncletopia"],"game_id":440,"stv_port":27046,"stv_name":"Uncletopia | San Francisco | 4 | Community | STV","players":null},{"server_id":141,"name":"Uncletopia | Sydney | 1 | All Maps","name_short":"syd-1","host":"syd-1.au.uncletopia.com","port":27015,"enabled":true,"region":"au","cc":"au","latitude":-33.865143,"longitude":151.2099,"reserved":0,"last_update":"0001-01-01T00:00:00Z","name_a2s":"Uncletopia | Sydney | 1 | All Maps","protocol":17,"map":"cp_snakewater_final1","folder":"tf","game":"Team Fortress","app_id":440,"player_count":0,"max_players":24,"Bots":0,"server_type":"Dedicated","server_os":"Linux","password":true,"vac":true,"version":"7882260","steam_id":85568392924470001,"keywords":["cp","nocrits","nodmgspread","uncletopia"],"game_id":440,"stv_port":27016,"stv_name":"Uncletopia | Sydney | 1 | All Maps | STV","players":null},{"server_id":123,"name":"Uncletopia | Sydney | 2 | All Maps","name_short":"syd-2","host":"syd-1.au.uncletopia.com","port":27025,"enabled":true,"region":"au","cc":"au","latitude":-33.865143,"longitude":151.2099,"reserved":0,"last_update":"0001-01-01T00:00:00Z","name_a2s":"Uncletopia | Sydney | 2 | All Maps","protocol":17,"map":"pl_barnblitz","folder":"tf","game":"Team Fortress","app_id":440,"player_count":0,"max_players":24,"Bots":0,"server_type":"Dedicated","server_os":"Linux","password":true,"vac":true,"version":"7882260","steam_id":85568392924470002,"keywords":["nocrits","nodmgspread","payload","uncletopia"],"game_id":440,"stv_port":27026,"stv_name":"Uncletopia | Sydney | 2 | All Maps | STV","players":null},{"server_id":395,"name":"Uncletopia | Sydney | 3 | All Maps","name_short":"syd-3","host":"syd-1.au.uncletopia.com","port":27035,"enabled":true,"region":"au","cc":"au","latitude":-33.865143,"longitude":151.2099,"reserved":0,"last_update":"0001-01-01T00:00:00Z","name_a2s":"Uncletopia | Sydney | 3 | All Maps","protocol":17,"map":"pl_badwater","folder":"tf","game":"Team Fortress","app_id":440,"player_count":0,"max_players":24,"Bots":0,"server_type":"Dedicated","server_os":"Linux","password":true,"vac":true,"version":"7882260","steam_id":85568392925194467,"keywords":["nocrits","nodmgspread","payload","uncletopia"],"game_id":440,"stv_port":27036,"stv_name":"Uncletopia | Sydney | 3 | All Maps | STV","players":null},{"server_id":396,"name":"Uncletopia | Sydney | 4 | All Maps","name_short":"syd-4","host":"syd-1.au.uncletopia.com","port":27045,"enabled":true,"region":"au","cc":"au","latitude":-33.865143,"longitude":151.2099,"reserved":0,"last_update":"0001-01-01T00:00:00Z","name_a2s":"Uncletopia | Sydney | 4 | All Maps","protocol":17,"map":"cp_dustbowl","folder":"tf","game":"Team Fortress","app_id":440,"player_count":0,"max_players":24,"Bots":0,"server_type":"Dedicated","server_os":"Linux","password":true,"vac":true,"version":"7882260","steam_id":85568392925397958,"keywords":["cp","nocrits","nodmgspread","uncletopia"],"game_id":440,"stv_port":27046,"stv_name":"Uncletopia | Sydney | 4 | All Maps | STV","players":null},{"server_id":58,"name":"Uncletopia | Sydney | 5 | Stopwatch Beta","name_short":"syd-5","host":"syd-1.au.uncletopia.com","port":27055,"enabled":true,"region":"au","cc":"au","latitude":-33.865143,"longitude":151.2099,"reserved":0,"last_update":"0001-01-01T00:00:00Z","name_a2s":"Uncletopia | Sydney | 5 | Stopwatch Beta","protocol":17,"map":"workshop/pl_barnblitz_pro7.ugc582280235","folder":"tf","game":"Team Fortress","app_id":440,"player_count":0,"max_players":24,"Bots":0,"server_type":"Dedicated","server_os":"Linux","password":true,"vac":true,"version":"7882260","steam_id":85568392925397959,"keywords":["nocrits","nodmgspread","payload","uncletopia"],"game_id":440,"stv_port":27056,"stv_name":"Uncletopia | Sydney | 5 | Stopwatch Beta | STV","players":null},{"server_id":59,"name":"Uncletopia | Sydney | 6 | Community","name_short":"syd-6","host":"syd-1.au.uncletopia.com","port":27065,"enabled":true,"region":"au","cc":"au","latitude":-33.865143,"longitude":151.2099,"reserved":0,"last_update":"0001-01-01T00:00:00Z","name_a2s":"Uncletopia | Sydney | 6 | Community","protocol":17,"map":"pl_snowycoast","folder":"tf","game":"Team Fortress","app_id":440,"player_count":0,"max_players":24,"Bots":0,"server_type":"Dedicated","server_os":"Linux","password":true,"vac":true,"version":"7882260","steam_id":85568392925397960,"keywords":["nocrits","nodmgspread","payload","uncletopia"],"game_id":440,"stv_port":27066,"stv_name":"Uncletopia | Sydney | 6 | Community | STV","players":null},{"server_id":49,"name":"Uncletopia | Warsaw | 1 | All Maps","name_short":"waw-1","host":"waw-1.pl.uncletopia.com","port":27015,"enabled":true,"region":"eu","cc":"pl","latitude":52.2297,"longitude":21.017532,"reserved":0,"last_update":"0001-01-01T00:00:00Z","name_a2s":"","protocol":0,"map":"","folder":"","game":"","app_id":0,"player_count":0,"max_players":0,"Bots":0,"server_type":"","server_os":"","password":false,"vac":false,"version":"","steam_id":0,"keywords":null,"game_id":0,"stv_port":0,"stv_name":"","players":null},{"server_id":50,"name":"Uncletopia | Warsaw | 2 | All Maps","name_short":"waw-2","host":"waw-1.pl.uncletopia.com","port":27025,"enabled":true,"region":"eu","cc":"pl","latitude":52.2297,"longitude":21.017532,"reserved":0,"last_update":"0001-01-01T00:00:00Z","name_a2s":"Uncletopia | Warsaw | 2 | All Maps","protocol":17,"map":"koth_lakeside_final","folder":"tf","game":"Team Fortress","app_id":440,"player_count":0,"max_players":24,"Bots":0,"server_type":"Dedicated","server_os":"Linux","password":true,"vac":true,"version":"7882260","steam_id":85568392925397851,"keywords":["cp","nocrits","nodmgspread","uncletopia"],"game_id":440,"stv_port":27026,"stv_name":"Uncletopia | Warsaw | 2 | All Maps | STV","players":null},{"server_id":51,"name":"Uncletopia | Warsaw | 3 | All Maps","name_short":"waw-3","host":"waw-1.pl.uncletopia.com","port":27035,"enabled":true,"region":"eu","cc":"pl","latitude":52.2297,"longitude":21.017532,"reserved":0,"last_update":"0001-01-01T00:00:00Z","name_a2s":"Uncletopia | Warsaw | 3 | All Maps","protocol":17,"map":"koth_viaduct","folder":"tf","game":"Team Fortress","app_id":440,"player_count":0,"max_players":24,"Bots":0,"server_type":"Dedicated","server_os":"Linux","password":true,"vac":true,"version":"7882260","steam_id":85568392925397852,"keywords":["cp","nocrits","nodmgspread","uncletopia"],"game_id":440,"stv_port":27036,"stv_name":"Uncletopia | Warsaw | 3 | All Maps | STV","players":null},{"server_id":52,"name":"Uncletopia | Warsaw | 4 | All Maps","name_short":"waw-4","host":"waw-1.pl.uncletopia.com","port":27045,"enabled":true,"region":"eu","cc":"pl","latitude":52.2297,"longitude":21.017532,"reserved":0,"last_update":"0001-01-01T00:00:00Z","name_a2s":"Uncletopia | Warsaw | 4 | All Maps","protocol":17,"map":"koth_highpass","folder":"tf","game":"Team Fortress","app_id":440,"player_count":0,"max_players":24,"Bots":0,"server_type":"Dedicated","server_os":"Linux","password":true,"vac":true,"version":"7882260","steam_id":85568392925397853,"keywords":["cp","nocrits","nodmgspread","uncletopia"],"game_id":440,"stv_port":27046,"stv_name":"Uncletopia | Warsaw | 4 | All Maps | STV","players":null},{"server_id":53,"name":"Uncletopia | Warsaw | 5 | Stopwatch Beta","name_short":"waw-5","host":"waw-1.pl.uncletopia.com","port":27055,"enabled":true,"region":"eu","cc":"pl","latitude":52.2297,"longitude":21.017532,"reserved":0,"last_update":"0001-01-01T00:00:00Z","name_a2s":"Uncletopia | Warsaw | 5 | Stopwatch Beta","protocol":17,"map":"cp_mountainlab","folder":"tf","game":"Team Fortress","app_id":440,"player_count":0,"max_players":24,"Bots":0,"server_type":"Dedicated","server_os":"Linux","password":true,"vac":true,"version":"7882260","steam_id":85568392925397854,"keywords":["cp","nocrits","nodmgspread","uncletopia"],"game_id":440,"stv_port":27056,"stv_name":"Uncletopia | Warsaw | 5 | Stopwatch Beta | STV","players":null},{"server_id":54,"name":"Uncletopia | Warsaw | 6 | Community","name_short":"waw-6","host":"waw-1.pl.uncletopia.com","port":27065,"enabled":true,"region":"eu","cc":"pl","latitude":52.2297,"longitude":21.017532,"reserved":0,"last_update":"0001-01-01T00:00:00Z","name_a2s":"Uncletopia | Warsaw | 6 | Community","protocol":17,"map":"koth_viaduct","folder":"tf","game":"Team Fortress","app_id":440,"player_count":0,"max_players":24,"Bots":0,"server_type":"Dedicated","server_os":"Linux","password":true,"vac":true,"version":"7882260","steam_id":85568392925397856,"keywords":["cp","nocrits","nodmgspread","uncletopia"],"game_id":440,"stv_port":27066,"stv_name":"Uncletopia | Warsaw | 6 | Community | STV","players":null}]}