{"status":true,"message":"","result":[{"server_id":9,"name":"Uncletopia | Atlanta | 1 | All Maps","name_short":"atl-1","host":"atl-1.us.uncletopia.com","port":27015,"enabled":true,"region":"us-east","cc":"us","latitude":33.753746,"longitude":-84.38633,"reserved":0,"last_update":"0001-01-01T00:00:00Z","name_a2s":"Uncletopia | Atlanta | 1 | All Maps","protocol":17,"map":"pl_barnblitz","folder":"tf","game":"Team Fortress","app_id":440,"player_count":24,"max_players":24,"Bots":0,"server_type":"Dedicated","server_os":"Linux","password":true,"vac":true,"version":"7961495","steam_id":85568392924469982,"keywords":["nocrits","nodmgspread","payload","uncletopia"],"game_id":440,"stv_port":27016,"stv_name":"Uncletopia | Atlanta | 1 | All Maps | STV","players":[{"user_id":330,"name":"metalfan666","steam_id":76561198386344068,"connected_time":2938000000000,"state":"active","ping":73},{"user_id":356,"name":"kite","steam_id":76561198346516392,"connected_time":85000000000,"state":"active","ping":86},{"user_id":308,"name":"OdysseyTen","steam_id":76561198133082665,"connected_time":4493000000000,"state":"active","ping":71},{"user_id":332,"name":"BotchyAlarm8","steam_id":76561198092682129,"connected_time":2798000000000,"state":"active","ping":76},{"user_id":335,"name":"Woods","steam_id":76561198440012069,"connected_time":2128000000000,"state":"active","ping":77},{"user_id":329,"name":"PinkLemonade","steam_id":76561198799286228,"connected_time":2962000000000,"state":"active","ping":69},{"user_id":326,"name":"e0e0","steam_id":76561198293839750,"connected_time":3092000000000,"state":"active","ping":66},{"user_id":351,"name":"xxyzuha","steam_id":76561198059146405,"connected_time":378000000000,"state":"active","ping":68},{"user_id":304,"name":"Xavibite","steam_id":76561198209380493,"connected_time":4834000000000,"state":"active","ping":62},{"user_id":352,"name":"lu","steam_id":76561198080731872,"connected_time":332000000000,"state":"active","ping":72},{"user_id":336,"name":"DuckMann","steam_id":76561198197058638,"connected_time":2122000000000,"state":"active","ping":49},{"user_id":318,"name":"HarryjusttHarry","steam_id":76561198982810452,"connected_time":3924000000000,"state":"active","ping":79},{"user_id":322,"name":"CoffeeZombi","steam_id":76561198172708053,"connected_time":3257000000000,"state":"active","ping":65},{"user_id":341,"name":"awakelist","steam_id":76561199129744011,"connected_time":1284000000000,"state":"active","ping":109},{"user_id":342,"name":"Erchius (she/her)","steam_id":76561198256892300,"connected_time":1063000000000,"state":"active","ping":57},{"user_id":355,"name":"Crescent","steam_id":76561198095124633,"connected_time":217000000000,"state":"active","ping":64},{"user_id":307,"name":"trianamarco780","steam_id":76561199084319677,"connected_time":4540000000000,"state":"active","ping":111},{"user_id":327,"name":"Tanner Jarring","steam_id":76561198172024365,"connected_time":3080000000000,"state":"active","ping":73},{"user_id":331,"name":"broomy","steam_id":76561198066089504,"connected_time":2898000000000,"state":"active","ping":42},{"user_id":343,"name":"suns","steam_id":76561198079583278,"connected_time":1022000000000,"state":"active","ping":72},{"user_id":317,"name":"Sheembs","steam_id":76561199010524390,"connected_time":4062000000000,"state":"active","ping":44},{"user_id":339,"name":"DarkenedPolarity","steam_id":76561199073099596,"connected_time":1765000000000,"state":"active","ping":60},{"user_id":337,"name":"paetho YT","steam_id":76561198152690003,"connected_time":1981000000000,"state":"active","ping":50},{"user_id":350,"name":"thomasdee725???","steam_id":76561199189526173,"connected_time":389000000000,"state":"active","ping":100}]},{"server_id":104,"name":"Uncletopia | Atlanta | 2 | All Maps","name_short":"atl-2","host":"atl-1.us.uncletopia.com","port":27025,"enabled":true,"region":"us-east","cc":"us","latitude":33.753746,"longitude":-84.38633,"reserved":0,"last_update":"0001-01-01T00:00:00Z","name_a2s":"Uncletopia | Atlanta | 2 | All Maps","protocol":17,"map":"pl_frontier_final","folder":"tf","game":"Team Fortress","app_id":440,"player_count":24,"max_players":24,"Bots":0,"server_type":"Dedicated","server_os":"Linux","password":true,"vac":true,"version":"7961495","steam_id":85568392924469983,"keywords":["nocrits","nodmgspread","payload","uncletopia"],"game_id":440,"stv_port":27026,"stv_name":"Uncletopia | Atlanta | 2 | All Maps | STV","players":[{"user_id":304,"name":"Coup de Grass","steam_id":76561198011643226,"connected_time":3852000000000,"state":"active","ping":86},{"user_id":320,"name":"Tideflat","steam_id":76561198179850851,"connected_time":2171000000000,"state":"active","ping":125},{"user_id":314,"name":"biel","steam_id":76561199063153084,"connected_time":2497000000000,"state":"active","ping":182},{"user_id":306,"name":"Shank","steam_id":76561198039110658,"connected_time":3695000000000,"state":"active","ping":65},{"user_id":239,"name":"Baconator","steam_id":76561198941700660,"connected_time":8237000000000,"state":"active","ping":85},{"user_id":347,"name":"AXELORDX","steam_id":76561198136639581,"connected_time":834000000000,"state":"active","ping":59},{"user_id":324,"name":"milkmanjoe","steam_id":76561199273891607,"connected_time":2018000000000,"state":"active","ping":81},{"user_id":327,"name":"ragu","steam_id":76561198004882625,"connected_time":1619000000000,"state":"active","ping":104},{"user_id":312,"name":"Mer","steam_id":76561198192171041,"connected_time":2622000000000,"state":"active","ping":129},{"user_id":263,"name":"Draco6257","steam_id":76561199147322448,"connected_time":6317000000000,"state":"active","ping":56},{"user_id":280,"name":"Tying the knot","steam_id":76561198247794130,"connected_time":4934000000000,"state":"active","ping":42},{"user_id":328,"name":"KYLE KYLESON","steam_id":76561198021920887,"connected_time":1615000000000,"state":"active","ping":60},{"user_id":358,"name":"Verathragna","steam_id":76561198067215453,"connected_time":72000000000,"state":"active","ping":60},{"user_id":319,"name":"Birdcage","steam_id":76561198206673021,"connected_time":2244000000000,"state":"active","ping":53},{"user_id":351,"name":"Mikael_01","steam_id":76561199080253129,"connected_time":463000000000,"state":"active","ping":183},{"user_id":357,"name":"BrawlingBuckaroo","steam_id":76561199067026847,"connected_time":144000000000,"state":"active","ping":78},{"user_id":352,"name":"Ahaboda","steam_id":76561198987200640,"connected_time":454000000000,"state":"active","ping":88},{"user_id":329,"name":"pastry","steam_id":76561198038999341,"connected_time":1606000000000,"state":"active","ping":91},{"user_id":355,"name":"Punished Shitster","steam_id":76561198150452857,"connected_time":232000000000,"state":"active","ping":80},{"user_id":356,"name":"Top Frog","steam_id":76561198072793446,"connected_time":194000000000,"state":"active","ping":93},{"user_id":345,"name":"Pi Guy","steam_id":76561199071784224,"connected_time":969000000000,"state":"active","ping":98},{"user_id":342,"name":"Red on Red","steam_id":76561198802356746,"connected_time":1327000000000,"state":"active","ping":82},{"user_id":353,"name":"Griffin","steam_id":76561198159339442,"connected_time":449000000000,"state":"active","ping":99},{"user_id":331,"name":"Captain Demytri","steam_id":76561198097998607,"connected_time":1603000000000,"state":"active","ping":92}]},{"server_id":400,"name":"Uncletopia | Atlanta | 3 | Stopwatch","name_short":"atl-3","host":"atl-1.us.uncletopia.com","port":27035,"enabled":true,"region":"us-east","cc":"us","latitude":33.753746,"longitude":-84.38633,"reserved":0,"last_update":"0001-01-01T00:00:00Z","name_a2s":"Uncletopia | Atlanta | 3 | Stopwatch","protocol":17,"map":"workshop/cp_reckoner_rc6.ugc674719999","folder":"tf","game":"Team Fortress","app_id":440,"player_count":0,"max_players":24,"Bots":0,"server_type":"Dedicated","server_os":"Linux","password":true,"vac":true,"version":"7961495","steam_id":85568392924515187,"keywords":["cp","nocrits","nodmgspread","uncletopia"],"game_id":440,"stv_port":27036,"stv_name":"Uncletopia | Atlanta | 3 | Stopwatch | STV","players":null},{"server_id":401,"name":"Uncletopia | Atlanta | 4 | Community","name_short":"atl-4","host":"atl-1.us.uncletopia.com","port":27045,"enabled":true,"region":"us-east","cc":"us","latitude":33.753746,"longitude":-84.38633,"reserved":0,"last_update":"0001-01-01T00:00:00Z","name_a2s":"Uncletopia | Atlanta | 4 | Community","protocol":17,"map":"workshop/pl_barnblitz_pro7.ugc582280235","folder":"tf","game":"Team Fortress","app_id":440,"player_count":0,"max_players":24,"Bots":0,"server_type":"Dedicated","server_os":"Linux","password":true,"vac":true,"version":"7961495","steam_id":85568392924515188,"keywords":["nocrits","nodmgspread","payload","uncletopia"],"game_id":440,"stv_port":27046,"stv_name":"Uncletopia | Atlanta | 4 | Community | STV","players":null},{"server_id":2,"name":"Uncletopia | Chicago | 1 | All Maps","name_short":"chi-1","host":"chi-1.us.uncletopia.com","port":27015,"enabled":true,"region":"us-central","cc":"us","latitude":41.881832,"longitude":-87.62318,"reserved":0,"last_update":"0001-01-01T00:00:00Z","name_a2s":"Uncletopia | Chicago | 1 | All Maps","protocol":17,"map":"pl_badwater","folder":"tf","game":"Team Fortress","app_id":440,"player_count":24,"max_players":24,"Bots":0,"server_type":"Dedicated","server_os":"Linux","password":true,"vac":true,"version":"7961495","steam_id":85568392924469984,"keywords":["nocrits","nodmgspread","payload","uncletopia"],"game_id":440,"stv_port":27016,"stv_name":"Uncletopia | Chicago | 1 | All Maps | STV","players":[{"user_id":486,"name":"Daehypeels","steam_id":76561198268981599,"connected_time":3787000000000,"state":"active","ping":61},{"user_id":539,"name":"frank","steam_id":76561198045436159,"connected_time":314000000000,"state":"active","ping":73},{"user_id":538,"name":"Sone","steam_id":76561198069601032,"connected_time":488000000000,"state":"active","ping":73},{"user_id":474,"name":"rat eater","steam_id":76561199216874750,"connected_time":4549000000000,"state":"active","ping":54},{"user_id":532,"name":"Yam Jazzy Jim","steam_id":76561198000788950,"connected_time":680000000000,"state":"active","ping":65},{"user_id":506,"name":"tf2 moment","steam_id":76561199054660228,"connected_time":3021000000000,"state":"active","ping":50},{"user_id":523,"name":"Milkmur","steam_id":76561198210043821,"connected_time":1522000000000,"state":"active","ping":64},{"user_id":537,"name":"hue","steam_id":76561198009694550,"connected_time":504000000000,"state":"active","ping":45},{"user_id":540,"name":"[El Fail] MR.BadassMCLee","steam_id":76561198043787818,"connected_time":231000000000,"state":"active","ping":113},{"user_id":522,"name":"War on Drugs Fighter","steam_id":76561198103211035,"connected_time":1553000000000,"state":"active","ping":59},{"user_id":518,"name":"poorman #1 sniper","steam_id":76561198447884169,"connected_time":2255000000000,"state":"active","ping":53},{"user_id":525,"name":"Digit","steam_id":76561198156589157,"connected_time":1487000000000,"state":"active","ping":75},{"user_id":500,"name":"for the king","steam_id":76561197973488858,"connected_time":3113000000000,"state":"active","ping":61},{"user_id":528,"name":"DinkleBerg","steam_id":76561198891626233,"connected_time":1382000000000,"state":"active","ping":71},{"user_id":536,"name":"rin","steam_id":76561198155841915,"connected_time":507000000000,"state":"active","ping":71},{"user_id":529,"name":"Owen","steam_id":76561198025446908,"connected_time":1380000000000,"state":"active","ping":67},{"user_id":530,"name":"ivan","steam_id":76561198033001607,"connected_time":1368000000000,"state":"active","ping":87},{"user_id":470,"name":"Cliff Uppercut","steam_id":76561197999439391,"connected_time":5210000000000,"state":"active","ping":74},{"user_id":483,"name":"Voodo133","steam_id":76561198042670351,"connected_time":4221000000000,"state":"active","ping":90},{"user_id":531,"name":"yesoko","steam_id":76561198072917024,"connected_time":1283000000000,"state":"active","ping":58},{"user_id":526,"name":"Shulgin_4-HO_MET","steam_id":76561198038784254,"connected_time":1474000000000,"state":"active","ping":59},{"user_id":535,"name":"National anti-aerial defense","steam_id":76561198329179651,"connected_time":547000000000,"state":"active","ping":108},{"user_id":504,"name":"spy main (weeb trash)","steam_id":76561198300440953,"connected_time":3085000000000,"state":"active","ping":61},{"user_id":527,"name":"goallpeashooters222","steam_id":76561199443722096,"connected_time":1472000000000,"state":"active","ping":48}]},{"server_id":106,"name":"Uncletopia | Chicago | 2 | All Maps","name_short":"chi-2","host":"chi-1.us.uncletopia.com","port":27025,"enabled":true,"region":"us-central","cc":"us","latitude":41.881832,"longitude":-87.62318,"reserved":0,"last_update":"0001-01-01T00:00:00Z","name_a2s":"Uncletopia | Chicago | 2 | All Maps","protocol":17,"map":"pl_upward","folder":"tf","game":"Team Fortress","app_id":440,"player_count":24,"max_players":24,"Bots":0,"server_type":"Dedicated","server_os":"Linux","password":true,"vac":true,"version":"7961495","steam_id":85568392924469985,"keywords":["nocrits","nodmgspread","payload","uncletopia"],"game_id":440,"stv_port":27026,"stv_name":"Uncletopia | Chicago | 2 | All Maps | STV","players":[{"user_id":326,"name":"Thilo","steam_id":76561197987278784,"connected_time":381000000000,"state":"active","ping":68},{"user_id":327,"name":"Spearmint","steam_id":76561198134215373,"connected_time":253000000000,"state":"active","ping":63},{"user_id":307,"name":"Sigiferd","steam_id":76561198148788110,"connected_time":1287000000000,"state":"active","ping":120},{"user_id":298,"name":"emeraldrhymes","steam_id":76561198842486176,"connected_time":1584000000000,"state":"active","ping":91},{"user_id":286,"name":"cfamadas","steam_id":76561199055881965,"connected_time":1848000000000,"state":"active","ping":78},{"user_id":315,"name":"baunter","steam_id":76561198024311871,"connected_time":912000000000,"state":"active","ping":90},{"user_id":265,"name":"Fredrick","steam_id":76561197981419964,"connected_time":2234000000000,"state":"active","ping":65},{"user_id":312,"name":"Goomby","steam_id":76561198079416561,"connected_time":1114000000000,"state":"active","ping":110},{"user_id":255,"name":"OH BOY","steam_id":76561199052273428,"connected_time":2878000000000,"state":"active","ping":54},{"user_id":287,"name":"Ｓｈｎｅｓｈ","steam_id":76561198826005248,"connected_time":1842000000000,"state":"active","ping":158},{"user_id":325,"name":"moson","steam_id":76561198043943405,"connected_time":402000000000,"state":"active","ping":124},{"user_id":323,"name":"Glanderson booper","steam_id":76561198021223747,"connected_time":699000000000,"state":"active","ping":105},{"user_id":258,"name":"astrobob911","steam_id":76561199099110654,"connected_time":2789000000000,"state":"active","ping":73},{"user_id":310,"name":"Chris P. Bacon","steam_id":76561198000851038,"connected_time":1191000000000,"state":"active","ping":81},{"user_id":313,"name":"gamerfan539","steam_id":76561198803527852,"connected_time":1085000000000,"state":"active","ping":63},{"user_id":317,"name":"inshallah","steam_id":76561198165212575,"connected_time":889000000000,"state":"active","ping":69},{"user_id":262,"name":"biggerB","steam_id":76561199075318360,"connected_time":2403000000000,"state":"active","ping":112},{"user_id":318,"name":"sidhaktheguy","steam_id":76561198306006593,"connected_time":883000000000,"state":"active","ping":52},{"user_id":256,"name":"Zinc","steam_id":76561198025303928,"connected_time":2869000000000,"state":"active","ping":77},{"user_id":319,"name":"Hamlindigo Blue™","steam_id":76561198116337540,"connected_time":855000000000,"state":"active","ping":90},{"user_id":251,"name":"MoiMoi","steam_id":76561198873850038,"connected_time":3327000000000,"state":"active","ping":74},{"user_id":252,"name":"/G/ Punish ♥ 牧濑红莉栖","steam_id":76561198207987376,"connected_time":3316000000000,"state":"active","ping":49},{"user_id":264,"name":"Master Of Whales","steam_id":76561198349104889,"connected_time":2237000000000,"state":"active","ping":111},{"user_id":266,"name":"TheHumanTaco119","steam_id":76561198996107520,"connected_time":2225000000000,"state":"active","ping":121}]},{"server_id":402,"name":"Uncletopia | Chicago | 3 | All Maps","name_short":"chi-3","host":"chi-1.us.uncletopia.com","port":27035,"enabled":true,"region":"us-central","cc":"us","latitude":41.881832,"longitude":-87.62318,"reserved":0,"last_update":"0001-01-01T00:00:00Z","name_a2s":"Uncletopia | Chicago | 3 | All Maps","protocol":17,"map":"koth_nucleus","folder":"tf","game":"Team Fortress","app_id":440,"player_count":24,"max_players":24,"Bots":0,"server_type":"Dedicated","server_os":"Linux","password":true,"vac":true,"version":"7961495","steam_id":85568392924515191,"keywords":["cp","nocrits","nodmgspread","uncletopia"],"game_id":440,"stv_port":27036,"stv_name":"Uncletopia | Chicago | 3 | All Maps | STV","players":[{"user_id":25,"name":"Wild_Rumpus","steam_id":76561198066393719,"connected_time":7644000000000,"state":"active","ping":45},{"user_id":39,"name":"bane","steam_id":76561198196769297,"connected_time":5608000000000,"state":"active","ping":59},{"user_id":101,"name":"amaz","steam_id":76561198386233160,"connected_time":2128000000000,"state":"active","ping":75},{"user_id":108,"name":"Prsm","steam_id":76561198053344995,"connected_time":1824000000000,"state":"active","ping":59},{"user_id":128,"name":"Maid 'n' China","steam_id":76561198423392976,"connected_time":448000000000,"state":"active","ping":82},{"user_id":125,"name":"Kilian","steam_id":76561197964374101,"connected_time":772000000000,"state":"active","ping":101},{"user_id":85,"name":"slty.badwolf","steam_id":76561198025460913,"connected_time":2896000000000,"state":"active","ping":100},{"user_id":105,"name":"Mister36","steam_id":76561198019132100,"connected_time":1917000000000,"state":"active","ping":49},{"user_id":82,"name":"FROYO donovin","steam_id":76561198045679387,"connected_time":2969000000000,"state":"active","ping":45},{"user_id":83,"name":"Evelynn the Fox","steam_id":76561198050946208,"connected_time":2964000000000,"state":"active","ping":81},{"user_id":121,"name":"leumas","steam_id":76561198240408540,"connected_time":1140000000000,"state":"active","ping":75},{"user_id":87,"name":"IAmAProfesonal","steam_id":76561199171858953,"connected_time":2838000000000,"state":"active","ping":51},{"user_id":120,"name":"No, this is Patrick","steam_id":76561198058776774,"connected_time":1279000000000,"state":"active","ping":45},{"user_id":88,"name":"LerN","steam_id":76561198083463877,"connected_time":2828000000000,"state":"active","ping":56},{"user_id":45,"name":"Bluedemon","steam_id":76561199212058684,"connected_time":5187000000000,"state":"active","ping":111},{"user_id":89,"name":"Western_dragon","steam_id":76561198130456105,"connected_time":2826000000000,"state":"active","ping":105},{"user_id":126,"name":"shadow6","steam_id":76561197979807910,"connected_time":663000000000,"state":"active","ping":89},{"user_id":48,"name":"gta 6 $500","steam_id":76561198053967778,"connected_time":5140000000000,"state":"active","ping":58},{"user_id":96,"name":"DualiTea","steam_id":76561198081733870,"connected_time":2509000000000,"state":"active","ping":59},{"user_id":132,"name":"Melt","steam_id":76561197987214550,"connected_time":47000000000,"state":"active","ping":84},{"user_id":133,"name":"Candy Sparkles","steam_id":76561198126871264,"connected_time":24000000000,"state":"active","ping":79},{"user_id":134,"name":"kikikikoboy","steam_id":76561198073380271,"connected_time":2000000000,"state":"spawning","ping":63},{"user_id":117,"name":"Nite","steam_id":76561199014777092,"connected_time":1555000000000,"state":"active","ping":59},{"user_id":130,"name":"bomba","steam_id":76561198301585642,"connected_time":137000000000,"state":"active","ping":59}]},{"server_id":403,"name":"Uncletopia | Chicago | 4 | All Maps","name_short":"chi-4","host":"chi-1.us.uncletopia.com","port":27045,"enabled":true,"region":"us-central","cc":"us","latitude":41.881832,"longitude":-87.62318,"reserved":0,"last_update":"0001-01-01T00:00:00Z","name_a2s":"Uncletopia | Chicago | 4 | All Maps","protocol":17,"map":"pl_barnblitz","folder":"tf","game":"Team Fortress","app_id":440,"player_count":24,"max_players":24,"Bots":0,"server_type":"Dedicated","server_os":"Linux","password":true,"vac":true,"version":"7961495","steam_id":85568392924515193,"keywords":["nocrits","nodmgspread","payload","uncletopia"],"game_id":440,"stv_port":27046,"stv_name":"Uncletopia | Chicago | 4 | All Maps | STV","players":[{"user_id":372,"name":"may you be cursed","steam_id":76561198072179483,"connected_time":8000000000,"state":"spawning","ping":87},{"user_id":339,"name":"zacmattsmith","steam_id":76561199027704149,"connected_time":1964000000000,"state":"active","ping":73},{"user_id":361,"name":"Flavor-Blasted Femboy","steam_id":76561198798176670,"connected_time":699000000000,"state":"active","ping":46},{"user_id":336,"name":"Typh","steam_id":76561198315344079,"connected_time":2090000000000,"state":"active","ping":75},{"user_id":345,"name":"while(1)","steam_id":76561198000876529,"connected_time":1591000000000,"state":"active","ping":57},{"user_id":333,"name":"MedRed™ #IATAH","steam_id":76561198002962970,"connected_time":2542000000000,"state":"active","ping":90},{"user_id":364,"name":"orphan slayer","steam_id":76561199476198856,"connected_time":666000000000,"state":"active","ping":83},{"user_id":329,"name":"SirEverything","steam_id":76561199152393848,"connected_time":2687000000000,"state":"active","ping":76},{"user_id":353,"name":"BIG LION","steam_id":76561198091880358,"connected_time":983000000000,"state":"active","ping":45},{"user_id":348,"name":"SafetyInstructor","steam_id":76561199195205705,"connected_time":1261000000000,"state":"active","ping":74},{"user_id":371,"name":"big scary fish","steam_id":76561198073269122,"connected_time":418000000000,"state":"active","ping":61},{"user_id":269,"name":"lethargy incarnate","steam_id":76561198072095399,"connected_time":5656000000000,"state":"active","ping":55},{"user_id":362,"name":"Cynicalrage","steam_id":76561198085805532,"connected_time":698000000000,"state":"active","ping":45},{"user_id":359,"name":"jp","steam_id":76561198308103061,"connected_time":728000000000,"state":"active","ping":45},{"user_id":334,"name":"Wang of Wall St","steam_id":76561198047460598,"connected_time":2539000000000,"state":"active","ping":83},{"user_id":340,"name":"biden cart 15 dollars","steam_id":76561198253731826,"connected_time":1959000000000,"state":"active","ping":60},{"user_id":316,"name":"gasparmx","steam_id":76561197998611994,"connected_time":3602000000000,"state":"active","ping":102},{"user_id":370,"name":"Yankee_Pirate","steam_id":76561198260667117,"connected_time":466000000000,"state":"active","ping":74},{"user_id":366,"name":"Dom","steam_id":76561198156431338,"connected_time":662000000000,"state":"active","ping":64},{"user_id":325,"name":"Laventhey","steam_id":76561198977523626,"connected_time":3203000000000,"state":"active","ping":71},{"user_id":367,"name":"laskobr","steam_id":76561198858912567,"connected_time":662000000000,"state":"active","ping":61},{"user_id":368,"name":"JimboMcJimmy","steam_id":76561198030656209,"connected_time":641000000000,"state":"active","ping":145},{"user_id":347,"name":"Piss God","steam_id":76561198090504334,"connected_time":1312000000000,"state":"active","ping":70},{"user_id":350,"name":"RyCeBread","steam_id":76561198152822390,"connected_time":1247000000000,"state":"active","ping":59}]},{"server_id":36,"name":"Uncletopia | Chicago | 5 | All Maps","name_short":"chi-5","host":"chi-2.us.uncletopia.com","port":27015,"enabled":true,"region":"us-central","cc":"us","latitude":41.881832,"longitude":-87.62318,"reserved":0,"last_update":"0001-01-01T00:00:00Z","name_a2s":"Uncletopia | Chicago | 5 | All Maps","protocol":17,"map":"cp_dustbowl","folder":"tf","game":"Team Fortress","app_id":440,"player_count":19,"max_players":24,"Bots":0,"server_type":"Dedicated","server_os":"Linux","password":true,"vac":true,"version":"7961495","steam_id":85568392924866362,"keywords":["cp","nocrits","nodmgspread","uncletopia"],"game_id":440,"stv_port":27016,"stv_name":"Uncletopia | Chicago | 5 | All Maps | STV","players":[{"user_id":219,"name":"NotASliceOfToast","steam_id":76561199060935194,"connected_time":1459000000000,"state":"active","ping":45},{"user_id":205,"name":"Lv3 Kobold Shadow Sorcerer","steam_id":76561198042068995,"connected_time":3202000000000,"state":"active","ping":75},{"user_id":227,"name":"Um, cool!","steam_id":76561198129870038,"connected_time":370000000000,"state":"active","ping":100},{"user_id":206,"name":"Shmig","steam_id":76561199039358883,"connected_time":3202000000000,"state":"active","ping":66},{"user_id":157,"name":"Your Loyal Familiar","steam_id":76561198106476075,"connected_time":5857000000000,"state":"active","ping":77},{"user_id":142,"name":"V","steam_id":76561199223266577,"connected_time":7352000000000,"state":"active","ping":94},{"user_id":220,"name":"Keylix","steam_id":76561198040371331,"connected_time":1445000000000,"state":"active","ping":73},{"user_id":216,"name":"gothpapa","steam_id":76561198452122510,"connected_time":1522000000000,"state":"active","ping":55},{"user_id":225,"name":"PK","steam_id":76561198368722500,"connected_time":851000000000,"state":"active","ping":67},{"user_id":208,"name":"Just washed","steam_id":76561199030160932,"connected_time":3141000000000,"state":"active","ping":79},{"user_id":224,"name":"MeatGrinderGuy(Vegans Beware)","steam_id":76561198833470398,"connected_time":922000000000,"state":"active","ping":68},{"user_id":202,"name":"Miruko","steam_id":76561198014724033,"connected_time":3430000000000,"state":"active","ping":76},{"user_id":232,"name":"BlueSpy","steam_id":76561198134707089,"connected_time":12000000000,"state":"connecting","ping":0},{"user_id":233,"name":"erem2k","steam_id":76561198079020059,"connected_time":3000000000,"state":"spawning","ping":44},{"user_id":228,"name":"Sneed-poster","steam_id":76561198206198937,"connected_time":337000000000,"state":"active","ping":66},{"user_id":226,"name":"grape","steam_id":76561197993980328,"connected_time":517000000000,"state":"active","ping":112},{"user_id":231,"name":"gnome zone","steam_id":76561198883349445,"connected_time":42000000000,"state":"active","ping":109},{"user_id":189,"name":"Jay","steam_id":76561198055227546,"connected_time":4521000000000,"state":"active","ping":62},{"user_id":222,"name":"Mosh Ruum (Whydoitmc)","steam_id":76561198076328582,"connected_time":1384000000000,"state":"active","ping":47}]},{"server_id":37,"name":"Uncletopia | Chicago | 6 | All Maps","name_short":"chi-6","host":"chi-2.us.uncletopia.com","port":27025,"enabled":true,"region":"us-central","cc":"us","latitude":41.881832,"longitude":-87.62318,"reserved":0,"last_update":"0001-01-01T00:00:00Z","name_a2s":"Uncletopia | Chicago | 6 | All Maps","protocol":17,"map":"pl_borneo","folder":"tf","game":"Team Fortress","app_id":440,"player_count":0,"max_players":24,"Bots":0,"server_type":"Dedicated","server_os":"Linux","password":true,"vac":true,"version":"7961495","steam_id":85568392924866363,"keywords":["nocrits","nodmgspread","payload","uncletopia"],"game_id":440,"stv_port":27026,"stv_name":"Uncletopia | Chicago | 6 | All Maps | STV","players":null},{"server_id":38,"name":"Uncletopia | Chicago | 7 | Stopwatch","name_short":"chi-7","host":"chi-2.us.uncletopia.com","port":27035,"enabled":true,"region":"us-central","cc":"us","latitude":41.881832,"longitude":-87.62318,"reserved":0,"last_update":"0001-01-01T00:00:00Z","name_a2s":"Uncletopia | Chicago | 7 | Stopwatch","protocol":17,"map":"pl_upward","folder":"tf","game":"Team Fortress","app_id":440,"player_count":0,"max_players":24,"Bots":0,"server_type":"Dedicated","server_os":"Linux","password":true,"vac":true,"version":"7961495","steam_id":85568392924866364,"keywords":["nocrits","nodmgspread","payload","uncletopia"],"game_id":440,"stv_port":27036,"stv_name":"Uncletopia | Chicago | 7 | Stopwatch | STV","players":null},{"server_id":39,"name":"Uncletopia | Chicago | 8 | Community","name_short":"chi-8","host":"chi-2.us.uncletopia.com","port":27045,"enabled":true,"region":"us-central","cc":"us","latitude":41.881832,"longitude":-87.62318,"reserved":0,"last_update":"0001-01-01T00:00:00Z","name_a2s":"Uncletopia | Chicago | 8 | Community","protocol":17,"map":"workshop/cp_caldera_rc3.ugc2834196889","folder":"tf","game":"Team Fortress","app_id":440,"player_count":0,"max_players":24,"Bots":0,"server_type":"Dedicated","server_os":"Linux","password":true,"vac":true,"version":"7961495","steam_id":85568392924866365,"keywords":["cp","nocrits","nodmgspread","uncletopia"],"game_id":440,"stv_port":27046,"stv_name":"Uncletopia | Chicago | 8 | Community | STV","players":null},{"server_id":8,"name":"Uncletopia | Dallas | 1 | All Maps","name_short":"dal-1","host":"dal-1.us.uncletopia.com","port":27015,"enabled":true,"region":"us-central","cc":"us","latitude":32.779167,"longitude":-96.80889,"reserved":0,"last_update":"0001-01-01T00:00:00Z","name_a2s":"Uncletopia | Dallas | 1 | All Maps","protocol":17,"map":"pl_upward","folder":"tf","game":"Team Fortress","app_id":440,"player_count":24,"max_players":24,"Bots":0,"server_type":"Dedicated","server_os":"Linux","password":true,"vac":true,"version":"7961495","steam_id":85568392924469986,"keywords":["nocrits","nodmgspread","payload","uncletopia"],"game_id":440,"stv_port":27016,"stv_name":"Uncletopia | Dallas | 1 | All Maps | STV","players":[{"user_id":237,"name":"The Disciple","steam_id":76561198169219561,"connected_time":2186000000000,"state":"active","ping":68},{"user_id":276,"name":"Evan","steam_id":76561198822242810,"connected_time":255000000000,"state":"active","ping":65},{"user_id":263,"name":"owlbortch","steam_id":76561198042849350,"connected_time":871000000000,"state":"active","ping":77},{"user_id":253,"name":"capitalisM","steam_id":76561198058627210,"connected_time":1238000000000,"state":"active","ping":45},{"user_id":249,"name":"muhammed2010","steam_id":76561198969143876,"connected_time":1391000000000,"state":"active","ping":57},{"user_id":269,"name":"whitepharaohbustdown29","steam_id":76561198165899125,"connected_time":553000000000,"state":"active","ping":87},{"user_id":274,"name":"Mainbud","steam_id":76561198072252990,"connected_time":465000000000,"state":"active","ping":107},{"user_id":174,"name":"THE DARKNESS","steam_id":76561198311004039,"connected_time":5707000000000,"state":"active","ping":91},{"user_id":133,"name":"errant","steam_id":76561197961758410,"connected_time":8113000000000,"state":"active","ping":44},{"user_id":270,"name":"That one rocking chair","steam_id":76561197991063200,"connected_time":530000000000,"state":"active","ping":80},{"user_id":267,"name":"tsz","steam_id":76561199246231090,"connected_time":756000000000,"state":"active","ping":77},{"user_id":239,"name":"iCarly Lore Expert","steam_id":76561198111902910,"connected_time":2143000000000,"state":"active","ping":66},{"user_id":255,"name":"Chagalicious","steam_id":76561198044128240,"connected_time":1155000000000,"state":"active","ping":56},{"user_id":266,"name":"schoolboy leif","steam_id":76561198206662424,"connected_time":832000000000,"state":"active","ping":158},{"user_id":245,"name":"jayeezy","steam_id":76561198118562391,"connected_time":1616000000000,"state":"active","ping":55},{"user_id":279,"name":"Tuvok Shakur","steam_id":76561198018875334,"connected_time":137000000000,"state":"active","ping":69},{"user_id":178,"name":"goblin","steam_id":76561199004451589,"connected_time":5387000000000,"state":"active","ping":45},{"user_id":278,"name":"Blitzoetic","steam_id":76561198053239412,"connected_time":204000000000,"state":"active","ping":87},{"user_id":259,"name":"mkl","steam_id":76561197986401685,"connected_time":1031000000000,"state":"active","ping":59},{"user_id":280,"name":"McDonald","steam_id":76561199028533497,"connected_time":91000000000,"state":"active","ping":82},{"user_id":222,"name":"FreonAddict9x19","steam_id":76561198060010824,"connected_time":2654000000000,"state":"active","ping":93},{"user_id":260,"name":"ScoutSecoTF2","steam_id":76561198366212156,"connected_time":1021000000000,"state":"active","ping":82},{"user_id":224,"name":"bottom pride burger","steam_id":76561198322247602,"connected_time":2632000000000,"state":"active","ping":97},{"user_id":273,"name":"The Rat Bastard","steam_id":76561198112705880,"connected_time":488000000000,"state":"active","ping":84}]},{"server_id":108,"name":"Uncletopia | Dallas | 2 | All Maps","name_short":"dal-2","host":"dal-1.us.uncletopia.com","port":27025,"enabled":true,"region":"us-central","cc":"us","latitude":32.779167,"longitude":-96.80889,"reserved":0,"last_update":"0001-01-01T00:00:00Z","name_a2s":"Uncletopia | Dallas | 2 | All Maps","protocol":17,"map":"pl_pier","folder":"tf","game":"Team Fortress","app_id":440,"player_count":24,"max_players":24,"Bots":0,"server_type":"Dedicated","server_os":"Linux","password":true,"vac":true,"version":"7961495","steam_id":85568392924469988,"keywords":["nocrits","nodmgspread","payload","uncletopia"],"game_id":440,"stv_port":27026,"stv_name":"Uncletopia | Dallas | 2 | All Maps | STV","players":[{"user_id":304,"name":"badasscoolboy57","steam_id":76561198795412055,"connected_time":664000000000,"state":"active","ping":99},{"user_id":298,"name":"PostBASH","steam_id":76561199194134673,"connected_time":1404000000000,"state":"active","ping":46},{"user_id":317,"name":"SHADOW WIZARD MONEY GANG","steam_id":76561199297779078,"connected_time":182000000000,"state":"active","ping":45},{"user_id":305,"name":"brains","steam_id":76561198197388678,"connected_time":623000000000,"state":"active","ping":59},{"user_id":274,"name":"medic tf2","steam_id":76561198004065704,"connected_time":3552000000000,"state":"active","ping":97},{"user_id":301,"name":"The Announcer's Feet","steam_id":76561199501227879,"connected_time":1265000000000,"state":"active","ping":62},{"user_id":313,"name":"Tlaloc","steam_id":76561198375215983,"connected_time":387000000000,"state":"active","ping":125},{"user_id":275,"name":"Clear Sights","steam_id":76561198006215683,"connected_time":2924000000000,"state":"active","ping":88},{"user_id":256,"name":"witt","steam_id":76561198151616777,"connected_time":4059000000000,"state":"active","ping":89},{"user_id":308,"name":"CWCLONE","steam_id":76561198132459460,"connected_time":601000000000,"state":"active","ping":85},{"user_id":251,"name":"Pinetree w/ apples.","steam_id":76561198105411709,"connected_time":4720000000000,"state":"active","ping":101},{"user_id":295,"name":"SmiggleGiggle","steam_id":76561198171810677,"connected_time":1620000000000,"state":"active","ping":133},{"user_id":185,"name":"BriLLz","steam_id":76561198142440806,"connected_time":7781000000000,"state":"active","ping":191},{"user_id":221,"name":"doubledanage","steam_id":76561198418629356,"connected_time":6892000000000,"state":"active","ping":47},{"user_id":257,"name":"m.casey12","steam_id":76561198205400336,"connected_time":4058000000000,"state":"active","ping":93},{"user_id":278,"name":"Rob","steam_id":76561199187786660,"connected_time":2492000000000,"state":"active","ping":53},{"user_id":250,"name":"EMPTY WITCH","steam_id":76561198068800572,"connected_time":5026000000000,"state":"active","ping":82},{"user_id":300,"name":"Statewide ballistic booty bandi","steam_id":76561199016837140,"connected_time":1276000000000,"state":"active","ping":93},{"user_id":314,"name":"Mick","steam_id":76561198972619900,"connected_time":385000000000,"state":"active","ping":58},{"user_id":38,"name":"Tony","steam_id":76561198169799653,"connected_time":16368000000000,"state":"active","ping":61},{"user_id":293,"name":"liamtwok10","steam_id":76561198951344626,"connected_time":1688000000000,"state":"active","ping":73},{"user_id":288,"name":"ZombieSlayer77","steam_id":76561199023974356,"connected_time":2088000000000,"state":"active","ping":91},{"user_id":315,"name":"Constipated Barry","steam_id":76561198004482269,"connected_time":367000000000,"state":"active","ping":89},{"user_id":316,"name":"put fentanyl back in pepsi","steam_id":76561198238592900,"connected_time":344000000000,"state":"active","ping":81}]},{"server_id":404,"name":"Uncletopia | Dallas | 3 | All Maps","name_short":"dal-3","host":"dal-1.us.uncletopia.com","port":27035,"enabled":true,"region":"us-central","cc":"us","latitude":32.779167,"longitude":-96.80889,"reserved":0,"last_update":"0001-01-01T00:00:00Z","name_a2s":"Uncletopia | Dallas | 3 | All Maps","protocol":17,"map":"pl_borneo","folder":"tf","game":"Team Fortress","app_id":440,"player_count":24,"max_players":24,"Bots":0,"server_type":"Dedicated","server_os":"Linux","password":true,"vac":true,"version":"7961495","steam_id":85568392924515219,"keywords":["nocrits","nodmgspread","payload","uncletopia"],"game_id":440,"stv_port":27036,"stv_name":"Uncletopia | Dallas | 3 | All Maps | STV","players":[{"user_id":363,"name":"Certified Hood Classic","steam_id":76561199086159354,"connected_time":985000000000,"state":"active","ping":50},{"user_id":358,"name":"105 ° AntiCheatv4","steam_id":76561198408747483,"connected_time":1204000000000,"state":"active","ping":58},{"user_id":359,"name":"459d","steam_id":76561198336142389,"connected_time":1178000000000,"state":"active","ping":82},{"user_id":360,"name":"Predict Proyectiles 101","steam_id":76561198297223309,"connected_time":1161000000000,"state":"active","ping":99},{"user_id":322,"name":"Mayo Monkey","steam_id":76561198090023039,"connected_time":2966000000000,"state":"active","ping":140},{"user_id":355,"name":"sanxi's cave","steam_id":76561199034371191,"connected_time":1455000000000,"state":"active","ping":180},{"user_id":324,"name":"♥ Tomboy ♥","steam_id":76561198069881436,"connected_time":2873000000000,"state":"active","ping":186},{"user_id":361,"name":"milk then cereal","steam_id":76561198047168548,"connected_time":1074000000000,"state":"active","ping":80},{"user_id":357,"name":"Captain Malarkey","steam_id":76561198869924281,"connected_time":1353000000000,"state":"active","ping":72},{"user_id":368,"name":"The Ultimate Coomer","steam_id":76561199128833757,"connected_time":857000000000,"state":"active","ping":52},{"user_id":369,"name":"rilby","steam_id":76561198132755619,"connected_time":851000000000,"state":"active","ping":71},{"user_id":325,"name":"Old No. 7","steam_id":76561199496914117,"connected_time":2845000000000,"state":"active","ping":71},{"user_id":378,"name":"DMM","steam_id":76561198065426171,"connected_time":585000000000,"state":"active","ping":59},{"user_id":367,"name":"slowdance","steam_id":76561198097427947,"connected_time":898000000000,"state":"active","ping":130},{"user_id":155,"name":"Da Policia","steam_id":76561198012762789,"connected_time":17212000000000,"state":"active","ping":45},{"user_id":380,"name":"Ethanol Buttchugger","steam_id":76561199127590316,"connected_time":369000000000,"state":"active","ping":83},{"user_id":313,"name":"qwatta","steam_id":76561198064982327,"connected_time":3530000000000,"state":"active","ping":45},{"user_id":371,"name":"ODav","steam_id":76561198252522394,"connected_time":818000000000,"state":"active","ping":54},{"user_id":277,"name":"Crλf227","steam_id":76561198196211121,"connected_time":6297000000000,"state":"active","ping":62},{"user_id":372,"name":"GrantTheMedicYT","steam_id":76561199077176696,"connected_time":791000000000,"state":"active","ping":81},{"user_id":373,"name":"Soda","steam_id":76561198219209367,"connected_time":789000000000,"state":"active","ping":61},{"user_id":382,"name":"evan_is_sauce","steam_id":76561199086802383,"connected_time":136000000000,"state":"active","ping":78},{"user_id":374,"name":"ArcticScuba","steam_id":76561198329102404,"connected_time":785000000000,"state":"active","ping":163},{"user_id":347,"name":"CherryPieRed2023","steam_id":76561198998007496,"connected_time":2033000000000,"state":"active","ping":111}]},{"server_id":405,"name":"Uncletopia | Dallas | 4 | Community","name_short":"dal-4","host":"dal-1.us.uncletopia.com","port":27045,"enabled":true,"region":"us-central","cc":"us","latitude":32.779167,"longitude":-96.80889,"reserved":0,"last_update":"0001-01-01T00:00:00Z","name_a2s":"Uncletopia | Dallas | 4 | Community","protocol":17,"map":"workshop/cp_hazyfort_rc6.ugc1365963729","folder":"tf","game":"Team Fortress","app_id":440,"player_count":0,"max_players":24,"Bots":0,"server_type":"Dedicated","server_os":"Linux","password":true,"vac":true,"version":"7961495","steam_id":85568392924515220,"keywords":["cp","nocrits","nodmgspread","uncletopia"],"game_id":440,"stv_port":27046,"stv_name":"Uncletopia | Dallas | 4 | Community | STV","players":null},{"server_id":5,"name":"Uncletopia | Frankfurt | 1 | All Maps","name_short":"frk-1","host":"frk-1.de.uncletopia.com","port":27015,"enabled":true,"region":"eu","cc":"de","latitude":50.110924,"longitude":8.682127,"reserved":0,"last_update":"0001-01-01T00:00:00Z","name_a2s":"Uncletopia | Frankfurt | 1 | All Maps","protocol":17,"map":"koth_highpass","folder":"tf","game":"Team Fortress","app_id":440,"player_count":24,"max_players":24,"Bots":0,"server_type":"Dedicated","server_os":"Linux","password":true,"vac":true,"version":"7961495","steam_id":85568392924469989,"keywords":["cp","nocrits","nodmgspread","uncletopia"],"game_id":440,"stv_port":27016,"stv_name":"Uncletopia | Frankfurt | 1 | All Maps | STV","players":[{"user_id":563,"name":"Beng","steam_id":76561198127298137,"connected_time":1791000000000,"state":"active","ping":42},{"user_id":587,"name":"Chill Spirit","steam_id":76561198845001725,"connected_time":131000000000,"state":"active","ping":46},{"user_id":557,"name":"Kral1003","steam_id":76561198813600089,"connected_time":2524000000000,"state":"active","ping":79},{"user_id":486,"name":"Billy Herrington","steam_id":76561198205193503,"connected_time":7694000000000,"state":"active","ping":74},{"user_id":578,"name":"Kappa","steam_id":76561198089341471,"connected_time":591000000000,"state":"active","ping":72},{"user_id":583,"name":"siarczan (VI) miedzi (II)","steam_id":76561198327848460,"connected_time":417000000000,"state":"active","ping":66},{"user_id":573,"name":"Fedm","steam_id":76561199020090514,"connected_time":1049000000000,"state":"active","ping":72},{"user_id":536,"name":"Nittugai","steam_id":76561198067366462,"connected_time":4790000000000,"state":"active","ping":60},{"user_id":564,"name":"DoKo_O","steam_id":76561198028025069,"connected_time":1741000000000,"state":"active","ping":54},{"user_id":559,"name":"Henry","steam_id":76561198108018305,"connected_time":2278000000000,"state":"active","ping":73},{"user_id":582,"name":"The legendery balls","steam_id":76561199139344747,"connected_time":424000000000,"state":"active","ping":99},{"user_id":586,"name":"Mr_Joergen","steam_id":76561198364713702,"connected_time":200000000000,"state":"active","ping":63},{"user_id":577,"name":"Hahen","steam_id":76561198254271323,"connected_time":601000000000,"state":"active","ping":77},{"user_id":547,"name":"Captain Puddleboat","steam_id":76561198053913970,"connected_time":3474000000000,"state":"active","ping":67},{"user_id":566,"name":"R8N - Obismal","steam_id":76561198007482714,"connected_time":1656000000000,"state":"active","ping":64},{"user_id":585,"name":"Stefman","steam_id":76561199025104038,"connected_time":330000000000,"state":"active","ping":51},{"user_id":537,"name":"Xtis","steam_id":76561198043837480,"connected_time":4751000000000,"state":"active","ping":71},{"user_id":538,"name":"Egor Pomidor","steam_id":76561199175688390,"connected_time":4693000000000,"state":"active","ping":75},{"user_id":571,"name":"AsianPersuasion","steam_id":76561198202112536,"connected_time":1353000000000,"state":"active","ping":64},{"user_id":584,"name":"Stalol","steam_id":76561198063498206,"connected_time":355000000000,"state":"active","ping":61},{"user_id":588,"name":"Zephyr","steam_id":76561199116936359,"connected_time":73000000000,"state":"active","ping":67},{"user_id":482,"name":"PlasticVoid","steam_id":76561197997870306,"connected_time":7846000000000,"state":"active","ping":45},{"user_id":539,"name":"Fat Pigeon","steam_id":76561198817940142,"connected_time":4689000000000,"state":"active","ping":60},{"user_id":589,"name":"panakid","steam_id":76561198364121077,"connected_time":31000000000,"state":"active","ping":88}]},{"server_id":110,"name":"Uncletopia | Frankfurt | 2 | All Maps","name_short":"frk-2","host":"frk-1.de.uncletopia.com","port":27025,"enabled":true,"region":"eu","cc":"de","latitude":50.110924,"longitude":8.682127,"reserved":0,"last_update":"0001-01-01T00:00:00Z","name_a2s":"Uncletopia | Frankfurt | 2 | All Maps","protocol":17,"map":"pl_upward","folder":"tf","game":"Team Fortress","app_id":440,"player_count":22,"max_players":24,"Bots":0,"server_type":"Dedicated","server_os":"Linux","password":true,"vac":true,"version":"7961495","steam_id":85568392924469990,"keywords":["nocrits","nodmgspread","payload","uncletopia"],"game_id":440,"stv_port":27026,"stv_name":"Uncletopia | Frankfurt | 2 | All Maps | STV","players":[{"user_id":428,"name":"Choas","steam_id":76561198075500651,"connected_time":2734000000000,"state":"active","ping":36},{"user_id":448,"name":"Fazbear","steam_id":76561198406606196,"connected_time":1423000000000,"state":"active","ping":74},{"user_id":446,"name":"Just Navlis","steam_id":76561198090479609,"connected_time":1846000000000,"state":"active","ping":41},{"user_id":467,"name":"STiNGHAN","steam_id":76561198023989090,"connected_time":15000000000,"state":"active","ping":64},{"user_id":468,"name":"Artakir","steam_id":76561198291746440,"connected_time":10000000000,"state":"spawning","ping":81},{"user_id":461,"name":"Cabbch","steam_id":76561198045955679,"connected_time":766000000000,"state":"active","ping":60},{"user_id":464,"name":"Gen","steam_id":76561198021775885,"connected_time":256000000000,"state":"active","ping":47},{"user_id":353,"name":"DONK","steam_id":76561198109679698,"connected_time":8436000000000,"state":"active","ping":61},{"user_id":435,"name":"Gearless","steam_id":76561198362367074,"connected_time":2254000000000,"state":"active","ping":79},{"user_id":439,"name":"VAL⁧⁧快速播放器","steam_id":76561198868212278,"connected_time":2209000000000,"state":"active","ping":62},{"user_id":440,"name":"Sniper's Kangaroo Ex","steam_id":76561198334042273,"connected_time":2186000000000,"state":"active","ping":63},{"user_id":449,"name":"vile lemon giraffe","steam_id":76561198066074362,"connected_time":1362000000000,"state":"active","ping":107},{"user_id":455,"name":"Pilaarius","steam_id":76561198120273212,"connected_time":972000000000,"state":"active","ping":94},{"user_id":429,"name":"Hey, I´m Andy!","steam_id":76561198060337777,"connected_time":2722000000000,"state":"active","ping":70},{"user_id":328,"name":"Rodak","steam_id":76561199135986344,"connected_time":10206000000000,"state":"active","ping":57},{"user_id":457,"name":"lore","steam_id":76561198120984188,"connected_time":884000000000,"state":"active","ping":71},{"user_id":456,"name":"This is me. If you even care.","steam_id":76561198116223995,"connected_time":963000000000,"state":"active","ping":59},{"user_id":447,"name":"Çanak yalayıcı","steam_id":76561198113677852,"connected_time":1659000000000,"state":"active","ping":88},{"user_id":459,"name":"i do hard drugs on the regular","steam_id":76561198263228457,"connected_time":849000000000,"state":"active","ping":92},{"user_id":445,"name":"Shawty","steam_id":76561198256704286,"connected_time":2094000000000,"state":"active","ping":74},{"user_id":415,"name":"gagalak","steam_id":76561198089979108,"connected_time":4094000000000,"state":"active","ping":89},{"user_id":465,"name":"manure merchant","steam_id":76561198010109316,"connected_time":255000000000,"state":"active","ping":55}]},{"server_id":308,"name":"Uncletopia | Frankfurt | 3 | All Maps","name_short":"frk-3","host":"frk-1.de.uncletopia.com","port":27035,"enabled":true,"region":"eu","cc":"de","latitude":50.110924,"longitude":8.682127,"reserved":0,"last_update":"0001-01-01T00:00:00Z","name_a2s":"Uncletopia | Frankfurt | 3 | All Maps","protocol":17,"map":"cp_process_final","folder":"tf","game":"Team Fortress","app_id":440,"player_count":20,"max_players":24,"Bots":0,"server_type":"Dedicated","server_os":"Linux","password":true,"vac":true,"version":"7961495","steam_id":85568392924504274,"keywords":["cp","nocrits","nodmgspread","uncletopia"],"game_id":440,"stv_port":27036,"stv_name":"Uncletopia | Frankfurt | 3 | All Maps | STV","players":[{"user_id":323,"name":"tiia","steam_id":76561198046196005,"connected_time":759000000000,"state":"active","ping":39},{"user_id":326,"name":"lil ramen","steam_id":76561199258887253,"connected_time":552000000000,"state":"active","ping":101},{"user_id":324,"name":"Olaznot","steam_id":76561199111472610,"connected_time":694000000000,"state":"active","ping":88},{"user_id":302,"name":"Gantzero","steam_id":76561198046379464,"connected_time":2306000000000,"state":"active","ping":75},{"user_id":328,"name":"RAT BASTARD","steam_id":76561199195985387,"connected_time":532000000000,"state":"active","ping":76},{"user_id":329,"name":"only1indigo","steam_id":76561198380193071,"connected_time":488000000000,"state":"active","ping":63},{"user_id":332,"name":"Bombilla","steam_id":76561198084281798,"connected_time":412000000000,"state":"active","ping":75},{"user_id":333,"name":"Aisforlike","steam_id":76561199482110668,"connected_time":402000000000,"state":"active","ping":154},{"user_id":334,"name":"[AXG] PK Blizzard","steam_id":76561198039836567,"connected_time":402000000000,"state":"active","ping":60},{"user_id":322,"name":"Average Chinese Man","steam_id":76561199076883472,"connected_time":959000000000,"state":"active","ping":75},{"user_id":335,"name":"odacovA","steam_id":76561199383345208,"connected_time":386000000000,"state":"active","ping":156},{"user_id":337,"name":"0x01A4","steam_id":76561199038801888,"connected_time":345000000000,"state":"active","ping":61},{"user_id":314,"name":"tallen","steam_id":76561198061708595,"connected_time":1858000000000,"state":"active","ping":79},{"user_id":339,"name":"squidly","steam_id":76561198331480295,"connected_time":314000000000,"state":"active","ping":64},{"user_id":344,"name":"unnam3d","steam_id":76561198286257338,"connected_time":241000000000,"state":"active","ping":60},{"user_id":341,"name":"fartificial insmelligence","steam_id":76561198350442800,"connected_time":295000000000,"state":"active","ping":63},{"user_id":343,"name":"HazelForest","steam_id":76561198171827033,"connected_time":274000000000,"state":"active","ping":63},{"user_id":346,"name":"my mom","steam_id":76561199225201569,"connected_time":223000000000,"state":"active","ping":129},{"user_id":347,"name":"Hnreeee","steam_id":76561198332936466,"connected_time":218000000000,"state":"active","ping":47},{"user_id":348,"name":"slnc","steam_id":76561198041151496,"connected_time":188000000000,"state":"active","ping":66}]},{"server_id":309,"name":"Uncletopia | Frankfurt | 4 | All Maps","name_short":"frk-4","host":"frk-1.de.uncletopia.com","port":27045,"enabled":true,"region":"eu","cc":"de","latitude":50.110924,"longitude":8.682127,"reserved":0,"last_update":"0001-01-01T00:00:00Z","name_a2s":"Uncletopia | Frankfurt | 4 | All Maps","protocol":17,"map":"pl_upward","folder":"tf","game":"Team Fortress","app_id":440,"player_count":1,"max_players":24,"Bots":0,"server_type":"Dedicated","server_os":"Linux","password":true,"vac":true,"version":"7961495","steam_id":85568392924504275,"keywords":["nocrits","nodmgspread","payload","uncletopia"],"game_id":440,"stv_port":27046,"stv_name":"Uncletopia | Frankfurt | 4 | All Maps | STV","players":[{"user_id":406,"name":"Plazet","steam_id":76561198998524346,"connected_time":63000000000,"state":"spawning","ping":339}]},{"server_id":310,"name":"Uncletopia | Frankfurt | 5 | All Maps","name_short":"frk-5","host":"frk-1.de.uncletopia.com","port":27055,"enabled":true,"region":"eu","cc":"de","latitude":50.110924,"longitude":8.682127,"reserved":0,"last_update":"0001-01-01T00:00:00Z","name_a2s":"Uncletopia | Frankfurt | 5 | All Maps","protocol":17,"map":"pl_frontier_final","folder":"tf","game":"Team Fortress","app_id":440,"player_count":24,"max_players":24,"Bots":0,"server_type":"Dedicated","server_os":"Linux","password":true,"vac":true,"version":"7961495","steam_id":85568392924504277,"keywords":["nocrits","nodmgspread","payload","uncletopia"],"game_id":440,"stv_port":27056,"stv_name":"Uncletopia | Frankfurt | 5 | All Maps | STV","players":[{"user_id":626,"name":"trainlover27","steam_id":76561198366599617,"connected_time":605000000000,"state":"active","ping":59},{"user_id":624,"name":"The flying Drunksman","steam_id":76561198966358094,"connected_time":660000000000,"state":"active","ping":45},{"user_id":614,"name":"Damin","steam_id":76561198288156612,"connected_time":1338000000000,"state":"active","ping":39},{"user_id":619,"name":"IT'S OVER","steam_id":76561198808871349,"connected_time":854000000000,"state":"active","ping":59},{"user_id":620,"name":"taffer","steam_id":76561199480942903,"connected_time":844000000000,"state":"active","ping":63},{"user_id":625,"name":"crystal kerosene","steam_id":76561198963378933,"connected_time":613000000000,"state":"active","ping":54},{"user_id":597,"name":"gaming (official)","steam_id":76561198106012909,"connected_time":1939000000000,"state":"active","ping":66},{"user_id":545,"name":"Teecho","steam_id":76561197995269610,"connected_time":5652000000000,"state":"active","ping":72},{"user_id":588,"name":"Müesli","steam_id":76561198183105149,"connected_time":3113000000000,"state":"active","ping":34},{"user_id":610,"name":"cockroach","steam_id":76561198841841656,"connected_time":1737000000000,"state":"active","ping":62},{"user_id":601,"name":"mini","steam_id":76561199373020994,"connected_time":1857000000000,"state":"active","ping":104},{"user_id":559,"name":"Horo","steam_id":76561198009504508,"connected_time":5214000000000,"state":"active","ping":70},{"user_id":613,"name":"M1","steam_id":76561198392997232,"connected_time":1488000000000,"state":"active","ping":87},{"user_id":575,"name":"Keffals Bully (aka Null)","steam_id":76561198050374170,"connected_time":3864000000000,"state":"active","ping":63},{"user_id":636,"name":"travis","steam_id":76561198138119811,"connected_time":29000000000,"state":"active","ping":60},{"user_id":627,"name":"vurtun","steam_id":76561198857395274,"connected_time":584000000000,"state":"active","ping":50},{"user_id":570,"name":"Keyo","steam_id":76561198018887589,"connected_time":4323000000000,"state":"active","ping":67},{"user_id":628,"name":"gizmo","steam_id":76561198047782441,"connected_time":561000000000,"state":"active","ping":60},{"user_id":606,"name":"Dairo","steam_id":76561197961707932,"connected_time":1791000000000,"state":"active","ping":48},{"user_id":612,"name":"Reihenhausbewohner","steam_id":76561198049820307,"connected_time":1607000000000,"state":"active","ping":33},{"user_id":632,"name":"Snowmotion","steam_id":76561198075022454,"connected_time":456000000000,"state":"active","ping":55},{"user_id":634,"name":"simpleaspossible","steam_id":76561198044827000,"connected_time":442000000000,"state":"active","ping":52},{"user_id":630,"name":"Big Mean Muther Hubbard","steam_id":76561199223016965,"connected_time":554000000000,"state":"active","ping":54},{"user_id":635,"name":"Cold Beverage Enjoyer","steam_id":76561198060638325,"connected_time":369000000000,"state":"active","ping":44}]},{"server_id":311,"name":"Uncletopia | Frankfurt | 6 | All Maps","name_short":"frk-6","host":"frk-1.de.uncletopia.com","port":27065,"enabled":true,"region":"eu","cc":"de","latitude":50.110924,"longitude":8.682127,"reserved":0,"last_update":"0001-01-01T00:00:00Z","name_a2s":"Uncletopia | Frankfurt | 6 | All Maps","protocol":17,"map":"pl_borneo","folder":"tf","game":"Team Fortress","app_id":440,"player_count":24,"max_players":24,"Bots":0,"server_type":"Dedicated","server_os":"Linux","password":true,"vac":true,"version":"7961495","steam_id":85568392924504278,"keywords":["nocrits","nodmgspread","payload","uncletopia"],"game_id":440,"stv_port":27066,"stv_name":"Uncletopia | Frankfurt | 6 | All Maps | STV","players":[{"user_id":389,"name":"fr3fou","steam_id":76561198070932683,"connected_time":5067000000000,"state":"active","ping":60},{"user_id":390,"name":"G-Dawg","steam_id":76561198127490266,"connected_time":5025000000000,"state":"active","ping":67},{"user_id":416,"name":"ayy 🍋","steam_id":76561198033695429,"connected_time":3846000000000,"state":"active","ping":60},{"user_id":468,"name":"Baba","steam_id":76561198214034403,"connected_time":247000000000,"state":"active","ping":78},{"user_id":469,"name":"bottomest g","steam_id":76561198138928548,"connected_time":236000000000,"state":"active","ping":47},{"user_id":419,"name":"mexswall","steam_id":76561198075748245,"connected_time":3695000000000,"state":"active","ping":57},{"user_id":428,"name":"sup3rfr3ddy.","steam_id":76561198119371683,"connected_time":3223000000000,"state":"active","ping":58},{"user_id":421,"name":"donatofina","steam_id":76561198353497885,"connected_time":3620000000000,"state":"active","ping":84},{"user_id":382,"name":"Jemixz","steam_id":76561198075766516,"connected_time":5643000000000,"state":"active","ping":61},{"user_id":460,"name":"hgvgdwa","steam_id":76561198156499356,"connected_time":757000000000,"state":"active","ping":60},{"user_id":395,"name":"Man","steam_id":76561197964776022,"connected_time":4768000000000,"state":"active","ping":36},{"user_id":461,"name":"yush","steam_id":76561198121688934,"connected_time":732000000000,"state":"active","ping":75},{"user_id":431,"name":"Dizzy","steam_id":76561198010192462,"connected_time":3211000000000,"state":"active","ping":40},{"user_id":462,"name":"Razor","steam_id":76561197973965174,"connected_time":730000000000,"state":"active","ping":48},{"user_id":444,"name":"Quartzy","steam_id":76561198313301520,"connected_time":2173000000000,"state":"active","ping":48},{"user_id":410,"name":"Indomitable Truck-sama","steam_id":76561198826861582,"connected_time":4198000000000,"state":"active","ping":72},{"user_id":451,"name":"Welder","steam_id":76561198355300561,"connected_time":1603000000000,"state":"active","ping":67},{"user_id":463,"name":"Gangwolf","steam_id":76561198043868575,"connected_time":722000000000,"state":"active","ping":51},{"user_id":464,"name":"akciq ⁧⁧respect","steam_id":76561198390963456,"connected_time":711000000000,"state":"active","ping":78},{"user_id":470,"name":"blank","steam_id":76561198805181599,"connected_time":218000000000,"state":"active","ping":66},{"user_id":456,"name":"moss","steam_id":76561198970737500,"connected_time":1440000000000,"state":"active","ping":60},{"user_id":466,"name":"Skelet","steam_id":76561198051685232,"connected_time":706000000000,"state":"active","ping":45},{"user_id":467,"name":"WaiGee♡✰","steam_id":76561198072293341,"connected_time":705000000000,"state":"active","ping":66},{"user_id":459,"name":"Poule De Combat","steam_id":76561198002108430,"connected_time":1102000000000,"state":"active","ping":70}]},{"server_id":23,"name":"Uncletopia | Frankfurt | 7 | Stopwatch","name_short":"frk-7","host":"frk-1.de.uncletopia.com","port":27075,"enabled":true,"region":"eu","cc":"de","latitude":50.110924,"longitude":8.682127,"reserved":0,"last_update":"0001-01-01T00:00:00Z","name_a2s":"Uncletopia | Frankfurt | 7 | Stopwatch","protocol":17,"map":"workshop/koth_bagel_rc6.ugc2514036946","folder":"tf","game":"Team Fortress","app_id":440,"player_count":0,"max_players":24,"Bots":0,"server_type":"Dedicated","server_os":"Linux","password":true,"vac":true,"version":"7961495","steam_id":85568392924742827,"keywords":["cp","nocrits","nodmgspread","uncletopia"],"game_id":440,"stv_port":27076,"stv_name":"Uncletopia | Frankfurt | 7 | Stopwatch | STV","players":null},{"server_id":24,"name":"Uncletopia | Frankfurt | 8 | Community","name_short":"frk-8","host":"frk-1.de.uncletopia.com","port":27085,"enabled":true,"region":"eu","cc":"de","latitude":50.110924,"longitude":8.682127,"reserved":0,"last_update":"0001-01-01T00:00:00Z","name_a2s":"Uncletopia | Frankfurt | 8 | Community","protocol":17,"map":"workshop/rd_asteroid_redux_b1.ugc2154902912","folder":"tf","game":"Team Fortress","app_id":440,"player_count":0,"max_players":24,"Bots":0,"server_type":"Dedicated","server_os":"Linux","password":true,"vac":true,"version":"7961495","steam_id":85568392924742828,"keywords":["beta","nocrits","nodmgspread","rd","uncletopia"],"game_id":440,"stv_port":27086,"stv_name":"Uncletopia | Frankfurt | 8 | Community | STV","players":null},{"server_id":202,"name":"Uncletopia | Hong Kong | 1 | All Maps","name_short":"hgk-1","host":"hgk-1.hk.uncletopia.com","port":27015,"enabled":true,"region":"asia","cc":"hk","latitude":22.302711,"longitude":114.177216,"reserved":0,"last_update":"0001-01-01T00:00:00Z","name_a2s":"Uncletopia | Hong Kong | 1 | All Maps","protocol":17,"map":"pl_pier","folder":"tf","game":"Team Fortress","app_id":440,"player_count":0,"max_players":24,"Bots":0,"server_type":"Dedicated","server_os":"Linux","password":true,"vac":true,"version":"7961495","steam_id":85568392924494504,"keywords":["nocrits","nodmgspread","payload","uncletopia"],"game_id":440,"stv_port":27016,"stv_name":"Uncletopia | Hong Kong | 1 | All Maps | STV","players":null},{"server_id":1,"name":"Uncletopia | Los Angeles | 1 | All Maps","name_short":"lax-1","host":"lax-1.us.uncletopia.com","port":27015,"enabled":true,"region":"us-west","cc":"us","latitude":33.94279,"longitude":-118.41004,"reserved":0,"last_update":"0001-01-01T00:00:00Z","name_a2s":"Uncletopia | Los Angeles | 1 | All Maps","protocol":17,"map":"koth_lakeside_final","folder":"tf","game":"Team Fortress","app_id":440,"player_count":0,"max_players":24,"Bots":0,"server_type":"Dedicated","server_os":"Linux","password":true,"vac":true,"version":"7961495","steam_id":85568392924469991,"keywords":["cp","nocrits","nodmgspread","uncletopia"],"game_id":440,"stv_port":27016,"stv_name":"Uncletopia | Los Angeles | 1 | All Maps | STV","players":null},{"server_id":112,"name":"Uncletopia | Los Angeles | 2 | All Maps","name_short":"lax-2","host":"lax-1.us.uncletopia.com","port":27025,"enabled":true,"region":"us-west","cc":"us","latitude":33.94279,"longitude":-118.41004,"reserved":0,"last_update":"0001-01-01T00:00:00Z","name_a2s":"Uncletopia | Los Angeles | 2 | All Maps","protocol":17,"map":"koth_lazarus","folder":"tf","game":"Team Fortress","app_id":440,"player_count":0,"max_players":24,"Bots":0,"server_type":"Dedicated","server_os":"Linux","password":true,"vac":true,"version":"7961495","steam_id":85568392924469992,"keywords":["cp","nocrits","nodmgspread","uncletopia"],"game_id":440,"stv_port":27026,"stv_name":"Uncletopia | Los Angeles | 2 | All Maps | STV","players":null},{"server_id":324,"name":"Uncletopia | Los Angeles | 3 | All Maps","name_short":"lax-3","host":"lax-1.us.uncletopia.com","port":27035,"enabled":true,"region":"us-west","cc":"us","latitude":33.94279,"longitude":-118.41004,"reserved":0,"last_update":"0001-01-01T00:00:00Z","name_a2s":"Uncletopia | Los Angeles | 3 | All Maps","protocol":17,"map":"pl_frontier_final","folder":"tf","game":"Team Fortress","app_id":440,"player_count":0,"max_players":24,"Bots":0,"server_type":"Dedicated","server_os":"Linux","password":true,"vac":true,"version":"7961495","steam_id":85568392924510198,"keywords":["nocrits","nodmgspread","payload","uncletopia"],"game_id":440,"stv_port":27036,"stv_name":"Uncletopia | Los Angeles | 3 | All Maps | STV","players":null},{"server_id":25,"name":"Uncletopia | Los Angeles | 4 | Stopwatch","name_short":"lax-4","host":"lax-1.us.uncletopia.com","port":27045,"enabled":true,"region":"us-west","cc":"us","latitude":33.94279,"longitude":-118.41004,"reserved":0,"last_update":"0001-01-01T00:00:00Z","name_a2s":"Uncletopia | Los Angeles | 4 | Stopwatch","protocol":17,"map":"workshop/koth_bagel_rc6.ugc2514036946","folder":"tf","game":"Team Fortress","app_id":440,"player_count":0,"max_players":24,"Bots":0,"server_type":"Dedicated","server_os":"Linux","password":true,"vac":true,"version":"7961495","steam_id":85568392924510199,"keywords":["cp","nocrits","nodmgspread","uncletopia"],"game_id":440,"stv_port":27046,"stv_name":"Uncletopia | Los Angeles | 4 | Stopwatch | STV","players":null},{"server_id":11,"name":"Uncletopia | London | 1 | All Maps","name_short":"lon-1","host":"lon-1.uk.uncletopia.com","port":27015,"enabled":true,"region":"eu","cc":"gb","latitude":51.509865,"longitude":-0.118092,"reserved":0,"last_update":"0001-01-01T00:00:00Z","name_a2s":"Uncletopia | London | 1 | All Maps","protocol":17,"map":"pl_badwater","folder":"tf","game":"Team Fortress","app_id":440,"player_count":23,"max_players":24,"Bots":0,"server_type":"Dedicated","server_os":"Linux","password":true,"vac":true,"version":"7961495","steam_id":85568392924367362,"keywords":["nocrits","nodmgspread","payload","uncletopia"],"game_id":440,"stv_port":27016,"stv_name":"Uncletopia | London | 1 | All Maps | STV","players":[{"user_id":489,"name":"gnarly business","steam_id":76561198832688767,"connected_time":107000000000,"state":"active","ping":47},{"user_id":474,"name":"Paint","steam_id":76561198166823873,"connected_time":1393000000000,"state":"active","ping":47},{"user_id":485,"name":"sora","steam_id":76561198096547662,"connected_time":483000000000,"state":"active","ping":49},{"user_id":455,"name":"sHIFTINGvORTEX","steam_id":76561198231648332,"connected_time":3455000000000,"state":"active","ping":59},{"user_id":488,"name":"⸸aura⸸","steam_id":76561198066258544,"connected_time":179000000000,"state":"active","ping":60},{"user_id":408,"name":"H the Creator","steam_id":76561198335971475,"connected_time":9241000000000,"state":"active","ping":52},{"user_id":478,"name":"Pickle_pic","steam_id":76561198414455440,"connected_time":1224000000000,"state":"active","ping":62},{"user_id":491,"name":"chonkster","steam_id":76561198316059681,"connected_time":70000000000,"state":"active","ping":57},{"user_id":487,"name":"JaneDoe","steam_id":76561198067081506,"connected_time":277000000000,"state":"active","ping":85},{"user_id":463,"name":"Ozzie","steam_id":76561197992915315,"connected_time":2766000000000,"state":"active","ping":60},{"user_id":434,"name":"Speed-Dial","steam_id":76561198012428315,"connected_time":5178000000000,"state":"active","ping":50},{"user_id":480,"name":"whimsy.","steam_id":76561198878171763,"connected_time":1187000000000,"state":"active","ping":51},{"user_id":475,"name":"Whoguru5","steam_id":76561198043997516,"connected_time":1355000000000,"state":"active","ping":71},{"user_id":493,"name":"Leviin_","steam_id":76561198066978511,"connected_time":10000000000,"state":"spawning","ping":44},{"user_id":445,"name":"Dan Dan the Furious","steam_id":76561198091032527,"connected_time":4409000000000,"state":"active","ping":41},{"user_id":452,"name":"Janneke Maan","steam_id":76561198069290924,"connected_time":3756000000000,"state":"active","ping":70},{"user_id":453,"name":"Kahvi","steam_id":76561198723244199,"connected_time":3622000000000,"state":"active","ping":84},{"user_id":393,"name":"Anri Okita's Massive Milkers","steam_id":76561199186352720,"connected_time":11824000000000,"state":"active","ping":52},{"user_id":483,"name":"sword machine","steam_id":76561198895235231,"connected_time":1137000000000,"state":"active","ping":58},{"user_id":456,"name":"Nerdy","steam_id":76561198113844379,"connected_time":3408000000000,"state":"active","ping":103},{"user_id":466,"name":"Shapeshifter","steam_id":76561197999453583,"connected_time":2442000000000,"state":"active","ping":98},{"user_id":484,"name":"ber.","steam_id":76561197993892057,"connected_time":1081000000000,"state":"active","ping":90},{"user_id":486,"name":"Daiito","steam_id":76561199075576606,"connected_time":331000000000,"state":"active","ping":73}]},{"server_id":114,"name":"Uncletopia | London | 2 | All Maps","name_short":"lon-2","host":"lon-1.uk.uncletopia.com","port":27025,"enabled":true,"region":"eu","cc":"gb","latitude":51.509865,"longitude":-0.118092,"reserved":0,"last_update":"0001-01-01T00:00:00Z","name_a2s":"Uncletopia | London | 2 | All Maps","protocol":17,"map":"cp_process_final","folder":"tf","game":"Team Fortress","app_id":440,"player_count":24,"max_players":24,"Bots":0,"server_type":"Dedicated","server_os":"Linux","password":true,"vac":true,"version":"7961495","steam_id":85568392924470941,"keywords":["cp","nocrits","nodmgspread","uncletopia"],"game_id":440,"stv_port":27026,"stv_name":"Uncletopia | London | 2 | All Maps | STV","players":[{"user_id":22,"name":"rgb4","steam_id":76561198267916695,"connected_time":6225000000000,"state":"active","ping":43},{"user_id":23,"name":"Tiad","steam_id":76561198283421457,"connected_time":6189000000000,"state":"active","ping":60},{"user_id":92,"name":".bAruch","steam_id":76561198046673026,"connected_time":593000000000,"state":"active","ping":99},{"user_id":96,"name":"David Random","steam_id":76561198144497918,"connected_time":309000000000,"state":"active","ping":69},{"user_id":26,"name":"disabled chimp","steam_id":76561198132062857,"connected_time":6157000000000,"state":"active","ping":70},{"user_id":88,"name":"tapeworms!","steam_id":76561198069649097,"connected_time":741000000000,"state":"active","ping":47},{"user_id":65,"name":"❤ [HoneyBe_] ❤","steam_id":76561198288930154,"connected_time":2279000000000,"state":"active","ping":59},{"user_id":58,"name":"mumbler","steam_id":76561197970641239,"connected_time":2419000000000,"state":"active","ping":58},{"user_id":91,"name":"Locke","steam_id":76561198339408300,"connected_time":606000000000,"state":"active","ping":60},{"user_id":51,"name":"James","steam_id":76561198168882012,"connected_time":2570000000000,"state":"active","ping":54},{"user_id":66,"name":"(1) TSM Garp","steam_id":76561198261795972,"connected_time":2272000000000,"state":"active","ping":58},{"user_id":93,"name":"Monkey Friend","steam_id":76561198144403074,"connected_time":541000000000,"state":"active","ping":60},{"user_id":90,"name":"Zamorocian","steam_id":76561198076604017,"connected_time":642000000000,"state":"active","ping":42},{"user_id":84,"name":"Oak","steam_id":76561198067315672,"connected_time":1089000000000,"state":"active","ping":46},{"user_id":53,"name":"DrRavioli","steam_id":76561198170822595,"connected_time":2515000000000,"state":"active","ping":64},{"user_id":89,"name":"Ullr","steam_id":76561198140547483,"connected_time":738000000000,"state":"active","ping":37},{"user_id":98,"name":"Lewylow","steam_id":76561198005425686,"connected_time":207000000000,"state":"active","ping":56},{"user_id":97,"name":"Sun Tzu's Fun Zoo","steam_id":76561198051129831,"connected_time":288000000000,"state":"active","ping":66},{"user_id":86,"name":"ChPerette 🎮","steam_id":76561198060004887,"connected_time":982000000000,"state":"active","ping":45},{"user_id":82,"name":"PsychoПАТ","steam_id":76561198074777220,"connected_time":1546000000000,"state":"active","ping":103},{"user_id":61,"name":"Nonok","steam_id":76561199480685498,"connected_time":2405000000000,"state":"active","ping":64},{"user_id":95,"name":"fl1p","steam_id":76561198148565659,"connected_time":437000000000,"state":"active","ping":75},{"user_id":79,"name":"hananamanna","steam_id":76561198006570285,"connected_time":1650000000000,"state":"active","ping":119},{"user_id":72,"name":"Rock..","steam_id":76561198004641963,"connected_time":2188000000000,"state":"active","ping":84}]},{"server_id":320,"name":"Uncletopia | London | 3 | All Maps","name_short":"lon-3","host":"lon-1.uk.uncletopia.com","port":27035,"enabled":true,"region":"eu","cc":"gb","latitude":51.509865,"longitude":-0.118092,"reserved":0,"last_update":"0001-01-01T00:00:00Z","name_a2s":"Uncletopia | London | 3 | All Maps","protocol":17,"map":"pl_borneo","folder":"tf","game":"Team Fortress","app_id":440,"player_count":11,"max_players":24,"Bots":0,"server_type":"Dedicated","server_os":"Linux","password":true,"vac":true,"version":"7961495","steam_id":85568392924510192,"keywords":["nocrits","nodmgspread","payload","uncletopia"],"game_id":440,"stv_port":27036,"stv_name":"Uncletopia | London | 3 | All Maps | STV","players":[{"user_id":541,"name":"Lyell","steam_id":76561198350329389,"connected_time":1776000000000,"state":"active","ping":72},{"user_id":542,"name":"Watermelon","steam_id":76561198078349914,"connected_time":1742000000000,"state":"active","ping":50},{"user_id":532,"name":"luma","steam_id":76561198081649669,"connected_time":2628000000000,"state":"active","ping":72},{"user_id":480,"name":"Efeca","steam_id":76561198018923829,"connected_time":6733000000000,"state":"active","ping":67},{"user_id":556,"name":"Anti-Capitalist Weapon","steam_id":76561198143526071,"connected_time":855000000000,"state":"active","ping":47},{"user_id":518,"name":"Doctor Marijuana","steam_id":76561198288289879,"connected_time":4029000000000,"state":"active","ping":45},{"user_id":504,"name":"This is bat country","steam_id":76561199067658590,"connected_time":4819000000000,"state":"active","ping":122},{"user_id":525,"name":"Huskai","steam_id":76561198141512362,"connected_time":3667000000000,"state":"active","ping":44},{"user_id":540,"name":"Kummerspeck","steam_id":76561198151952677,"connected_time":1789000000000,"state":"active","ping":44},{"user_id":554,"name":"Fizz","steam_id":76561197994814990,"connected_time":1207000000000,"state":"active","ping":67},{"user_id":524,"name":"LiterallyRyanGosling","steam_id":76561199017856691,"connected_time":3682000000000,"state":"active","ping":55}]},{"server_id":321,"name":"Uncletopia | London | 4 | All Maps","name_short":"lon-4","host":"lon-1.uk.uncletopia.com","port":27045,"enabled":true,"region":"eu","cc":"gb","latitude":51.509865,"longitude":-0.118092,"reserved":0,"last_update":"0001-01-01T00:00:00Z","name_a2s":"Uncletopia | London | 4 | All Maps","protocol":17,"map":"pl_barnblitz","folder":"tf","game":"Team Fortress","app_id":440,"player_count":26,"max_players":24,"Bots":0,"server_type":"Dedicated","server_os":"Linux","password":true,"vac":true,"version":"7961495","steam_id":85568392924510193,"keywords":["nocrits","nodmgspread","payload","uncletopia"],"game_id":440,"stv_port":27046,"stv_name":"Uncletopia | London | 4 | All Maps | STV","players":[{"user_id":758,"name":"Froenzi","steam_id":76561198168841723,"connected_time":743000000000,"state":"active","ping":83},{"user_id":759,"name":"M Nsky","steam_id":76561198011749653,"connected_time":737000000000,"state":"active","ping":49},{"user_id":803,"name":"SuperBob103","steam_id":76561199175360012,"connected_time":205000000000,"state":"active","ping":89},{"user_id":737,"name":"ThornDrayton","steam_id":76561198141985675,"connected_time":1394000000000,"state":"active","ping":52},{"user_id":487,"name":"bigwish | bmod.tf","steam_id":76561197997859723,"connected_time":6403000000000,"state":"active","ping":85},{"user_id":756,"name":"psu","steam_id":76561198094652091,"connected_time":829000000000,"state":"active","ping":81},{"user_id":682,"name":"RubyTheUnicorn","steam_id":76561198091772218,"connected_time":2786000000000,"state":"active","ping":61},{"user_id":712,"name":"ROX","steam_id":76561198272289320,"connected_time":2215000000000,"state":"active","ping":57},{"user_id":508,"name":"CalzoneCarl456","steam_id":76561198846982793,"connected_time":6151000000000,"state":"active","ping":47},{"user_id":579,"name":"cister0","steam_id":76561198130195469,"connected_time":4320000000000,"state":"active","ping":86},{"user_id":801,"name":"Ëmprëss★Cåkyヅ","steam_id":76561198174621178,"connected_time":219000000000,"state":"active","ping":62},{"user_id":551,"name":"Borat","steam_id":76561198122226417,"connected_time":5082000000000,"state":"active","ping":41},{"user_id":672,"name":"dochris.2","steam_id":76561198026478625,"connected_time":2901000000000,"state":"active","ping":52},{"user_id":766,"name":"Minimi","steam_id":76561198873850443,"connected_time":677000000000,"state":"active","ping":48},{"user_id":755,"name":"Boo","steam_id":76561198068748584,"connected_time":847000000000,"state":"active","ping":46},{"user_id":802,"name":"cinny","steam_id":76561198832112629,"connected_time":217000000000,"state":"active","ping":93},{"user_id":611,"name":"Mastuck","steam_id":76561198014218916,"connected_time":3575000000000,"state":"active","ping":68},{"user_id":717,"name":"Darkusto","steam_id":76561198294456531,"connected_time":2109000000000,"state":"active","ping":56},{"user_id":562,"name":"A Table","steam_id":76561198056456470,"connected_time":4834000000000,"state":"active","ping":67},{"user_id":506,"name":"ｄｅｓｋｒａｙ","steam_id":76561198805536170,"connected_time":6179000000000,"state":"active","ping":83},{"user_id":644,"name":"sareena","steam_id":76561198810194062,"connected_time":3138000000000,"state":"active","ping":75},{"user_id":806,"name":"Pimpin' \u0026 Blimpin'","steam_id":76561198326776107,"connected_time":162000000000,"state":"connecting","ping":0},{"user_id":729,"name":"Astral1ty","steam_id":76561198035287995,"connected_time":1742000000000,"state":"active","ping":84},{"user_id":471,"name":"medick","steam_id":76561199380849468,"connected_time":7804000000000,"state":"active","ping":67},{"user_id":808,"name":"Qbe","steam_id":76561198009654837,"connected_time":59000000000,"state":"spawning","ping":63},{"user_id":707,"name":"Qwertuss","steam_id":76561198026305366,"connected_time":2303000000000,"state":"active","ping":54}]},{"server_id":21,"name":"Uncletopia | London | 5 | All Maps","name_short":"lon-5","host":"lon-1.uk.uncletopia.com","port":27055,"enabled":true,"region":"eu","cc":"gb","latitude":51.509865,"longitude":-0.118092,"reserved":0,"last_update":"0001-01-01T00:00:00Z","name_a2s":"Uncletopia | London | 5 | All Maps","protocol":17,"map":"koth_viaduct","folder":"tf","game":"Team Fortress","app_id":440,"player_count":0,"max_players":24,"Bots":0,"server_type":"Dedicated","server_os":"Linux","password":true,"vac":true,"version":"7961495","steam_id":85568392924742829,"keywords":["cp","nocrits","nodmgspread","uncletopia"],"game_id":440,"stv_port":27056,"stv_name":"Uncletopia | London | 5 | All Maps | STV","players":null},{"server_id":22,"name":"Uncletopia | London | 6 | All Maps","name_short":"lon-6","host":"lon-1.uk.uncletopia.com","port":27065,"enabled":true,"region":"eu","cc":"gb","latitude":51.509865,"longitude":-0.118092,"reserved":0,"last_update":"0001-01-01T00:00:00Z","name_a2s":"Uncletopia | London | 6 | All Maps","protocol":17,"map":"cp_gorge","folder":"tf","game":"Team Fortress","app_id":440,"player_count":0,"max_players":24,"Bots":0,"server_type":"Dedicated","server_os":"Linux","password":true,"vac":true,"version":"7961495","steam_id":85568392924742830,"keywords":["cp","nocrits","nodmgspread","uncletopia"],"game_id":440,"stv_port":27066,"stv_name":"Uncletopia | London | 6 | All Maps | STV","players":null},{"server_id":40,"name":"Uncletopia | London | 7 | Stopwatch","name_short":"lon-7","host":"lon-1.uk.uncletopia.com","port":27075,"enabled":true,"region":"eu","cc":"gb","latitude":51.509865,"longitude":-0.118092,"reserved":0,"last_update":"0001-01-01T00:00:00Z","name_a2s":"Uncletopia | London | 7 | Stopwatch","protocol":17,"map":"workshop/koth_ashville_final.ugc2130459942","folder":"tf","game":"Team Fortress","app_id":440,"player_count":0,"max_players":24,"Bots":0,"server_type":"Dedicated","server_os":"Linux","password":true,"vac":true,"version":"7961495","steam_id":85568392924964314,"keywords":["cp","nocrits","nodmgspread","uncletopia"],"game_id":440,"stv_port":27076,"stv_name":"Uncletopia | London | 7 | Stopwatch | STV","players":null},{"server_id":41,"name":"Uncletopia | London | 8 | Community","name_short":"lon-8","host":"lon-1.uk.uncletopia.com","port":27085,"enabled":true,"region":"eu","cc":"gb","latitude":51.509865,"longitude":-0.118092,"reserved":0,"last_update":"0001-01-01T00:00:00Z","name_a2s":"Uncletopia | London | 8 | Community","protocol":17,"map":"workshop/pl_corrode_rc2.ugc546577989","folder":"tf","game":"Team Fortress","app_id":440,"player_count":0,"max_players":24,"Bots":0,"server_type":"Dedicated","server_os":"Linux","password":true,"vac":true,"version":"7961495","steam_id":85568392924964315,"keywords":["nocrits","nodmgspread","payload","uncletopia"],"game_id":440,"stv_port":27086,"stv_name":"Uncletopia | London | 8 | Community | STV","players":null},{"server_id":300,"name":"Uncletopia | Montréal | 1 | One Thousand Uncles","name_short":"mtl-1","host":"mtl-1.ca.uncletopia.com","port":27015,"enabled":true,"region":"us-east","cc":"ca","latitude":45.50889,"longitude":-73.56167,"reserved":0,"last_update":"0001-01-01T00:00:00Z","name_a2s":"Uncletopia | Montréal | 1 | One Thousand Uncles","protocol":17,"map":"pl_pier","folder":"tf","game":"Team Fortress","app_id":440,"player_count":25,"max_players":32,"Bots":20,"server_type":"Dedicated","server_os":"Linux","password":true,"vac":true,"version":"7961495","steam_id":85568392924500087,"keywords":["alltalk","bots","danepve","increased_maxplayers","norespawntime","payload","uncletopia"],"game_id":440,"stv_port":0,"stv_name":"","players":[{"user_id":203,"name":"Go1deN","steam_id":76561198889933398,"connected_time":2183000000000,"state":"active","ping":99},{"user_id":217,"name":"Wooper","steam_id":76561198047491931,"connected_time":272000000000,"state":"active","ping":45},{"user_id":205,"name":"MC_Void_0","steam_id":76561199148827012,"connected_time":1635000000000,"state":"active","ping":118},{"user_id":207,"name":"SwordNoob","steam_id":76561199380395734,"connected_time":1597000000000,"state":"active","ping":315},{"user_id":209,"name":"Waning Sanity","steam_id":76561197963089845,"connected_time":1142000000000,"state":"active","ping":71}]},{"server_id":301,"name":"Uncletopia | Montréal | 2 | One Thousand Uncles","name_short":"mtl-2","host":"mtl-1.ca.uncletopia.com","port":27025,"enabled":true,"region":"us-east","cc":"ca","latitude":45.50889,"longitude":-73.56167,"reserved":0,"last_update":"0001-01-01T00:00:00Z","name_a2s":"Uncletopia | Montréal | 2 | One Thousand Uncles","protocol":17,"map":"cp_mossrock","folder":"tf","game":"Team Fortress","app_id":440,"player_count":0,"max_players":32,"Bots":0,"server_type":"Dedicated","server_os":"Linux","password":true,"vac":true,"version":"7961495","steam_id":85568392924500088,"keywords":["alltalk","cp","danepve","increased_maxplayers","norespawntime","uncletopia"],"game_id":440,"stv_port":0,"stv_name":"","players":null},{"server_id":302,"name":"Uncletopia | Montréal | 3 | One Thousand Uncles","name_short":"mtl-3","host":"mtl-1.ca.uncletopia.com","port":27035,"enabled":true,"region":"us-east","cc":"ca","latitude":45.50889,"longitude":-73.56167,"reserved":0,"last_update":"0001-01-01T00:00:00Z","name_a2s":"Uncletopia | Montréal | 3 | One Thousand Uncles","protocol":17,"map":"cp_dustbowl","folder":"tf","game":"Team Fortress","app_id":440,"player_count":0,"max_players":32,"Bots":0,"server_type":"Dedicated","server_os":"Linux","password":true,"vac":true,"version":"7961495","steam_id":85568392924500089,"keywords":["alltalk","cp","danepve","increased_maxplayers","norespawntime","uncletopia"],"game_id":440,"stv_port":0,"stv_name":"","players":null},{"server_id":13,"name":"Uncletopia | New York City | 1 | All Maps","name_short":"nyc-1","host":"nyc-1.us.uncletopia.com","port":27015,"enabled":true,"region":"us-east","cc":"us","latitude":40.73061,"longitude":-73.93524,"reserved":0,"last_update":"0001-01-01T00:00:00Z","name_a2s":"Uncletopia | New York City | 1 | All Maps","protocol":17,"map":"koth_sawmill","folder":"tf","game":"Team Fortress","app_id":440,"player_count":15,"max_players":24,"Bots":0,"server_type":"Dedicated","server_os":"Linux","password":true,"vac":true,"version":"7961495","steam_id":85568392924469993,"keywords":["cp","nocrits","nodmgspread","uncletopia"],"game_id":440,"stv_port":27016,"stv_name":"Uncletopia | New York City | 1 | All Maps | STV","players":[{"user_id":494,"name":"MaxTheRetroGuy","steam_id":76561198845344731,"connected_time":325000000000,"state":"active","ping":56},{"user_id":444,"name":"MAXIMUS","steam_id":76561198085809453,"connected_time":5161000000000,"state":"active","ping":89},{"user_id":495,"name":"Windup Monkey in a Human Suit","steam_id":76561198119501444,"connected_time":270000000000,"state":"active","ping":83},{"user_id":496,"name":"D.T. Katze","steam_id":76561198002280813,"connected_time":248000000000,"state":"active","ping":144},{"user_id":468,"name":"BiggSlorp","steam_id":76561199130776156,"connected_time":2791000000000,"state":"active","ping":65},{"user_id":389,"name":"stormfoam","steam_id":76561198936871387,"connected_time":10243000000000,"state":"active","ping":66},{"user_id":497,"name":"LPenne","steam_id":76561198072972471,"connected_time":222000000000,"state":"active","ping":60},{"user_id":491,"name":"sam","steam_id":76561198217362968,"connected_time":588000000000,"state":"active","ping":64},{"user_id":498,"name":"KrashBoomBang","steam_id":76561199002978777,"connected_time":131000000000,"state":"active","ping":52},{"user_id":499,"name":"4Lukaska","steam_id":76561198083515060,"connected_time":79000000000,"state":"active","ping":47},{"user_id":500,"name":"↑Slimbro","steam_id":76561198088926489,"connected_time":52000000000,"state":"active","ping":48},{"user_id":501,"name":"cowboy leon","steam_id":76561198007464245,"connected_time":22000000000,"state":"active","ping":71},{"user_id":502,"name":"two_chans","steam_id":76561198837793098,"connected_time":14000000000,"state":"spawning","ping":89},{"user_id":493,"name":"XtraCrums","steam_id":76561199230212648,"connected_time":528000000000,"state":"active","ping":63},{"user_id":488,"name":"Grimm - (RIP Rick May/Kitty0706","steam_id":76561199050642411,"connected_time":809000000000,"state":"active","ping":86}]},{"server_id":14,"name":"Uncletopia | New York City | 2 | All Maps","name_short":"nyc-2","host":"nyc-1.us.uncletopia.com","port":27025,"enabled":true,"region":"us-east","cc":"us","latitude":40.73061,"longitude":-73.93524,"reserved":0,"last_update":"0001-01-01T00:00:00Z","name_a2s":"Uncletopia | New York City | 2 | All Maps","protocol":17,"map":"koth_sawmill","folder":"tf","game":"Team Fortress","app_id":440,"player_count":0,"max_players":24,"Bots":0,"server_type":"Dedicated","server_os":"Linux","password":true,"vac":true,"version":"7961495","steam_id":85568392924469994,"keywords":["cp","nocrits","nodmgspread","uncletopia"],"game_id":440,"stv_port":27026,"stv_name":"Uncletopia | New York City | 2 | All Maps | STV","players":null},{"server_id":15,"name":"Uncletopia | New York City | 3 | Stopwatch","name_short":"nyc-3","host":"nyc-1.us.uncletopia.com","port":27035,"enabled":true,"region":"us-east","cc":"us","latitude":40.73061,"longitude":-73.93524,"reserved":0,"last_update":"0001-01-01T00:00:00Z","name_a2s":"Uncletopia | New York City | 3 | Stopwatch","protocol":17,"map":"workshop/pl_vigil_rc10.ugc1266210012","folder":"tf","game":"Team Fortress","app_id":440,"player_count":0,"max_players":24,"Bots":0,"server_type":"Dedicated","server_os":"Linux","password":true,"vac":true,"version":"7961495","steam_id":85568392924742820,"keywords":["nocrits","nodmgspread","payload","uncletopia"],"game_id":440,"stv_port":27036,"stv_name":"Uncletopia | New York City | 3 | Stopwatch | STV","players":null},{"server_id":16,"name":"Uncletopia | New York City | 4 | Community","name_short":"nyc-4","host":"nyc-1.us.uncletopia.com","port":27045,"enabled":true,"region":"us-east","cc":"us","latitude":40.73061,"longitude":-73.93524,"reserved":0,"last_update":"0001-01-01T00:00:00Z","name_a2s":"Uncletopia | New York City | 4 | Community","protocol":17,"map":"workshop/koth_kemptown_rc1.ugc767410655","folder":"tf","game":"Team Fortress","app_id":440,"player_count":3,"max_players":24,"Bots":0,"server_type":"Dedicated","server_os":"Linux","password":true,"vac":true,"version":"7961495","steam_id":85568392924742821,"keywords":["cp","nocrits","nodmgspread","uncletopia"],"game_id":440,"stv_port":27046,"stv_name":"Uncletopia | New York City | 4 | Community | STV","players":[{"user_id":6,"name":"Suu","steam_id":76561198332072536,"connected_time":676000000000,"state":"active","ping":41},{"user_id":7,"name":"NovaSphericool","steam_id":76561198998629759,"connected_time":672000000000,"state":"active","ping":59},{"user_id":8,"name":"EPICAlbert777","steam_id":76561198093718909,"connected_time":638000000000,"state":"active","ping":57}]},{"server_id":142,"name":"Uncletopia | São Paulo | 1 | All Maps","name_short":"sao-1","host":"sao-1.br.uncletopia.com","port":27015,"enabled":true,"region":"sa","cc":"br","latitude":-23.533773,"longitude":-46.62529,"reserved":0,"last_update":"0001-01-01T00:00:00Z","name_a2s":"Uncletopia | São Paulo | 1 | All Maps","protocol":17,"map":"cp_sunshine","folder":"tf","game":"Team Fortress","app_id":440,"player_count":0,"max_players":24,"Bots":0,"server_type":"Dedicated","server_os":"Linux","password":true,"vac":true,"version":"7961495","steam_id":85568392924469996,"keywords":["cp","nocrits","nodmgspread","uncletopia"],"game_id":440,"stv_port":27016,"stv_name":"Uncletopia | São Paulo | 1 | All Maps | STV","players":null},{"server_id":143,"name":"Uncletopia | São Paulo | 2 | Community","name_short":"sao-2","host":"sao-2.br.uncletopia.com","port":27015,"enabled":true,"region":"sa","cc":"br","latitude":-23.533773,"longitude":-46.62529,"reserved":0,"last_update":"0001-01-01T00:00:00Z","name_a2s":"Uncletopia | São Paulo | 2 | Community","protocol":17,"map":"workshop/koth_slaughter_rc1.ugc1712845210","folder":"tf","game":"Team Fortress","app_id":440,"player_count":0,"max_players":24,"Bots":0,"server_type":"Dedicated","server_os":"Linux","password":true,"vac":true,"version":"7961495","steam_id":85568392924485349,"keywords":["cp","nocrits","nodmgspread","uncletopia"],"game_id":440,"stv_port":27016,"stv_name":"Uncletopia | São Paulo | 2 | Community | STV","players":null},{"server_id":7,"name":"Uncletopia | Seattle | 1 | All Maps","name_short":"sea-1","host":"sea-1.us.uncletopia.com","port":27015,"enabled":true,"region":"us-west","cc":"us","latitude":47.608013,"longitude":-122.33517,"reserved":0,"last_update":"0001-01-01T00:00:00Z","name_a2s":"Uncletopia | Seattle | 1 | All Maps","protocol":17,"map":"pl_snowycoast","folder":"tf","game":"Team Fortress","app_id":440,"player_count":24,"max_players":24,"Bots":0,"server_type":"Dedicated","server_os":"Linux","password":true,"vac":true,"version":"7961495","steam_id":85568392924469997,"keywords":["nocrits","nodmgspread","payload","uncletopia"],"game_id":440,"stv_port":27016,"stv_name":"Uncletopia | Seattle | 1 | All Maps | STV","players":[{"user_id":441,"name":"Skribbles","steam_id":76561198373073766,"connected_time":383000000000,"state":"active","ping":80},{"user_id":389,"name":"👁 sumixodic","steam_id":76561198090770710,"connected_time":4566000000000,"state":"active","ping":46},{"user_id":422,"name":"Soft copper wings","steam_id":76561198092317849,"connected_time":2499000000000,"state":"active","ping":75},{"user_id":408,"name":"Drive-By-Fish-Guy","steam_id":76561198105513652,"connected_time":3521000000000,"state":"active","ping":92},{"user_id":374,"name":"mega","steam_id":76561198089520959,"connected_time":5412000000000,"state":"active","ping":75},{"user_id":449,"name":"The Benefactor","steam_id":76561198307247913,"connected_time":251000000000,"state":"active","ping":87},{"user_id":453,"name":"Macro","steam_id":76561199442846226,"connected_time":124000000000,"state":"active","ping":127},{"user_id":447,"name":"Tom Buckle","steam_id":76561198870649125,"connected_time":272000000000,"state":"active","ping":89},{"user_id":446,"name":"John Calibur","steam_id":76561197999986606,"connected_time":291000000000,"state":"active","ping":73},{"user_id":396,"name":"Kelladrin","steam_id":76561198040727880,"connected_time":4449000000000,"state":"active","ping":62},{"user_id":430,"name":"Keamy","steam_id":76561199471434875,"connected_time":1540000000000,"state":"active","ping":45},{"user_id":402,"name":"you just got dyked on","steam_id":76561198018977723,"connected_time":4276000000000,"state":"active","ping":66},{"user_id":438,"name":"Oldengie","steam_id":76561199074712665,"connected_time":748000000000,"state":"active","ping":129},{"user_id":450,"name":"AntiocoG","steam_id":76561199060853099,"connected_time":239000000000,"state":"active","ping":69},{"user_id":415,"name":"BIG NOSE","steam_id":76561199374905157,"connected_time":3130000000000,"state":"active","ping":81},{"user_id":414,"name":"Perfume Department","steam_id":76561198128299594,"connected_time":3425000000000,"state":"active","ping":80},{"user_id":451,"name":"A UsedNom","steam_id":76561198402832756,"connected_time":131000000000,"state":"active","ping":57},{"user_id":452,"name":"YoyoMama","steam_id":76561198260113828,"connected_time":130000000000,"state":"active","ping":76},{"user_id":424,"name":"Dextersbrain","steam_id":76561198011831579,"connected_time":2214000000000,"state":"active","ping":63},{"user_id":454,"name":"Boxcars","steam_id":76561198120978767,"connected_time":61000000000,"state":"active","ping":82},{"user_id":436,"name":"買不起陶朱隱園戶？別\ufffd","steam_id":76561198068672882,"connected_time":858000000000,"state":"active","ping":74},{"user_id":401,"name":"Many Bees' Chilling","steam_id":76561198079641282,"connected_time":4379000000000,"state":"active","ping":68},{"user_id":443,"name":"resting neutral face","steam_id":76561197999259502,"connected_time":307000000000,"state":"active","ping":60},{"user_id":440,"name":"Engynier Gaimeang (F2P)","steam_id":76561199013888779,"connected_time":665000000000,"state":"active","ping":72}]},{"server_id":119,"name":"Uncletopia | Seattle | 2 | All Maps","name_short":"sea-2","host":"sea-1.us.uncletopia.com","port":27025,"enabled":true,"region":"us-west","cc":"us","latitude":47.608013,"longitude":-122.33517,"reserved":0,"last_update":"0001-01-01T00:00:00Z","name_a2s":"Uncletopia | Seattle | 2 | All Maps","protocol":17,"map":"cp_snakewater_final1","folder":"tf","game":"Team Fortress","app_id":440,"player_count":24,"max_players":24,"Bots":0,"server_type":"Dedicated","server_os":"Linux","password":true,"vac":true,"version":"7961495","steam_id":85568392924469998,"keywords":["cp","nocrits","nodmgspread","uncletopia"],"game_id":440,"stv_port":27026,"stv_name":"Uncletopia | Seattle | 2 | All Maps | STV","players":[{"user_id":192,"name":"Razorblade166","steam_id":76561198035303249,"connected_time":124000000000,"state":"active","ping":46},{"user_id":194,"name":"MaxMekker","steam_id":76561198036579839,"connected_time":0,"state":"spawning","ping":0},{"user_id":189,"name":"A Human-Shaped Set of Pixels","steam_id":76561198043589323,"connected_time":261000000000,"state":"active","ping":124},{"user_id":148,"name":"rad killl raccoon","steam_id":76561198980975595,"connected_time":2405000000000,"state":"active","ping":60},{"user_id":190,"name":"SketchyEtchaSketch","steam_id":76561198143747486,"connected_time":229000000000,"state":"active","ping":165},{"user_id":173,"name":"Saltine Cracker","steam_id":76561198889144728,"connected_time":1522000000000,"state":"active","ping":69},{"user_id":174,"name":"Yackaboi","steam_id":76561199444911765,"connected_time":1521000000000,"state":"active","ping":103},{"user_id":167,"name":"vacachimuela","steam_id":76561198297332421,"connected_time":1657000000000,"state":"active","ping":65},{"user_id":186,"name":"Trips","steam_id":76561198054581597,"connected_time":751000000000,"state":"active","ping":64},{"user_id":163,"name":"Unwavering Flavor","steam_id":76561198053306065,"connected_time":1927000000000,"state":"active","ping":97},{"user_id":177,"name":"UltimaA","steam_id":76561198083618022,"connected_time":1357000000000,"state":"active","ping":80},{"user_id":146,"name":"SkobeBeef","steam_id":76561198078638948,"connected_time":2508000000000,"state":"active","ping":62},{"user_id":131,"name":"Type Three Dabeetus","steam_id":76561198062710038,"connected_time":4270000000000,"state":"active","ping":74},{"user_id":182,"name":"ShoddyBog","steam_id":76561199043208281,"connected_time":949000000000,"state":"active","ping":102},{"user_id":170,"name":"OldCheese","steam_id":76561199208623418,"connected_time":1629000000000,"state":"active","ping":93},{"user_id":187,"name":"The dreaded jar","steam_id":76561199087010656,"connected_time":648000000000,"state":"active","ping":59},{"user_id":175,"name":"Mii Guest C, From Wii Sports","steam_id":76561198197964803,"connected_time":1466000000000,"state":"active","ping":60},{"user_id":117,"name":"PhD Flopper","steam_id":76561198961051809,"connected_time":5244000000000,"state":"active","ping":106},{"user_id":143,"name":"DawnNannas","steam_id":76561198042915117,"connected_time":2882000000000,"state":"active","ping":120},{"user_id":162,"name":"Firedust19","steam_id":76561198153238631,"connected_time":2023000000000,"state":"active","ping":88},{"user_id":178,"name":"A Turtle","steam_id":76561198060194520,"connected_time":1296000000000,"state":"active","ping":73},{"user_id":183,"name":"sans undertale","steam_id":76561199128903858,"connected_time":788000000000,"state":"active","ping":93},{"user_id":172,"name":"Krispy","steam_id":76561198127005410,"connected_time":1569000000000,"state":"active","ping":76},{"user_id":136,"name":"Why Me...","steam_id":76561199124019937,"connected_time":3297000000000,"state":"active","ping":76}]},{"server_id":406,"name":"Uncletopia | Seattle | 3 | Stopwatch","name_short":"sea-3","host":"sea-1.us.uncletopia.com","port":27035,"enabled":true,"region":"us-west","cc":"us","latitude":47.608013,"longitude":-122.33517,"reserved":0,"last_update":"0001-01-01T00:00:00Z","name_a2s":"Uncletopia | Seattle | 3 | Stopwatch","protocol":17,"map":"workshop/pl_vigil_rc10.ugc1266210012","folder":"tf","game":"Team Fortress","app_id":440,"player_count":0,"max_players":24,"Bots":0,"server_type":"Dedicated","server_os":"Linux","password":true,"vac":true,"version":"7961495","steam_id":85568392924515217,"keywords":["nocrits","nodmgspread","payload","uncletopia"],"game_id":440,"stv_port":27036,"stv_name":"Uncletopia | Seattle | 3 | Stopwatch | STV","players":null},{"server_id":17,"name":"Uncletopia | San Francisco | 1 | All Maps","name_short":"sfo-1","host":"sfo-1.us.uncletopia.com","port":27015,"enabled":true,"region":"us-west","cc":"us","latitude":37.77397,"longitude":-122.4313,"reserved":0,"last_update":"0001-01-01T00:00:00Z","name_a2s":"Uncletopia | San Francisco | 1 | All Maps","protocol":17,"map":"cp_dustbowl","folder":"tf","game":"Team Fortress","app_id":440,"player_count":0,"max_players":24,"Bots":0,"server_type":"Dedicated","server_os":"Linux","password":true,"vac":true,"version":"7961495","steam_id":85568392924469999,"keywords":["cp","nocrits","nodmgspread","uncletopia"],"game_id":440,"stv_port":27016,"stv_name":"Uncletopia | San Francisco | 1 | All Maps | STV","players":null},{"server_id":18,"name":"Uncletopia | San Francisco | 2 | All Maps","name_short":"sfo-2","host":"sfo-1.us.uncletopia.com","port":27025,"enabled":true,"region":"us-west","cc":"us","latitude":37.77397,"longitude":-122.4313,"reserved":0,"last_update":"0001-01-01T00:00:00Z","name_a2s":"Uncletopia | San Francisco | 2 | All Maps","protocol":17,"map":"cp_sunshine","folder":"tf","game":"Team Fortress","app_id":440,"player_count":0,"max_players":24,"Bots":0,"server_type":"Dedicated","server_os":"Linux","password":true,"vac":true,"version":"7961495","steam_id":85568392924470000,"keywords":["cp","nocrits","nodmgspread","uncletopia"],"game_id":440,"stv_port":27026,"stv_name":"Uncletopia | San Francisco | 2 | All Maps | STV","players":null},{"server_id":19,"name":"Uncletopia | San Francisco | 3 | Stopwatch","name_short":"sfo-3","host":"sfo-1.us.uncletopia.com","port":27035,"enabled":true,"region":"us-west","cc":"us","latitude":37.77397,"longitude":-122.4313,"reserved":0,"last_update":"0001-01-01T00:00:00Z","name_a2s":"Uncletopia | San Francisco | 3 | Stopwatch","protocol":17,"map":"workshop/koth_clearcut_b15.ugc2107050255","folder":"tf","game":"Team Fortress","app_id":440,"player_count":0,"max_players":24,"Bots":0,"server_type":"Dedicated","server_os":"Linux","password":true,"vac":true,"version":"7961495","steam_id":85568392924742824,"keywords":["cp","nocrits","nodmgspread","uncletopia"],"game_id":440,"stv_port":27036,"stv_name":"Uncletopia | San Francisco | 3 | Stopwatch | STV","players":null},{"server_id":20,"name":"Uncletopia | San Francisco | 4 | Community","name_short":"sfo-4","host":"sfo-1.us.uncletopia.com","port":27045,"enabled":true,"region":"us-west","cc":"us","latitude":37.77397,"longitude":-122.4313,"reserved":0,"last_update":"0001-01-01T00:00:00Z","name_a2s":"Uncletopia | San Francisco | 4 | Community","protocol":17,"map":"workshop/koth_product_final.ugc454272353","folder":"tf","game":"Team Fortress","app_id":440,"player_count":0,"max_players":24,"Bots":0,"server_type":"Dedicated","server_os":"Linux","password":true,"vac":true,"version":"7961495","steam_id":85568392924742826,"keywords":["cp","nocrits","nodmgspread","uncletopia"],"game_id":440,"stv_port":27046,"stv_name":"Uncletopia | San Francisco | 4 | Community | STV","players":null},{"server_id":141,"name":"Uncletopia | Sydney | 1 | All Maps","name_short":"syd-1","host":"syd-1.au.uncletopia.com","port":27015,"enabled":true,"region":"au","cc":"au","latitude":-33.865143,"longitude":151.2099,"reserved":0,"last_update":"0001-01-01T00:00:00Z","name_a2s":"Uncletopia | Sydney | 1 | All Maps","protocol":17,"map":"cp_mountainlab","folder":"tf","game":"Team Fortress","app_id":440,"player_count":0,"max_players":24,"Bots":0,"server_type":"Dedicated","server_os":"Linux","password":true,"vac":true,"version":"7961495","steam_id":85568392924470001,"keywords":["cp","nocrits","nodmgspread","uncletopia"],"game_id":440,"stv_port":27016,"stv_name":"Uncletopia | Sydney | 1 | All Maps | STV","players":null},{"server_id":123,"name":"Uncletopia | Sydney | 2 | All Maps","name_short":"syd-2","host":"syd-1.au.uncletopia.com","port":27025,"enabled":true,"region":"au","cc":"au","latitude":-33.865143,"longitude":151.2099,"reserved":0,"last_update":"0001-01-01T00:00:00Z","name_a2s":"Uncletopia | Sydney | 2 | All Maps","protocol":17,"map":"cp_mercenarypark","folder":"tf","game":"Team Fortress","app_id":440,"player_count":0,"max_players":24,"Bots":0,"server_type":"Dedicated","server_os":"Linux","password":true,"vac":true,"version":"7961495","steam_id":85568392924470002,"keywords":["cp","nocrits","nodmgspread","uncletopia"],"game_id":440,"stv_port":27026,"stv_name":"Uncletopia | Sydney | 2 | All Maps | STV","players":null},{"server_id":395,"name":"Uncletopia | Sydney | 3 | All Maps","name_short":"syd-3","host":"syd-1.au.uncletopia.com","port":27035,"enabled":true,"region":"au","cc":"au","latitude":-33.865143,"longitude":151.2099,"reserved":0,"last_update":"0001-01-01T00:00:00Z","name_a2s":"Uncletopia | Sydney | 3 | All Maps","protocol":17,"map":"koth_brazil","folder":"tf","game":"Team Fortress","app_id":440,"player_count":0,"max_players":24,"Bots":0,"server_type":"Dedicated","server_os":"Linux","password":true,"vac":true,"version":"7961495","steam_id":85568392925194467,"keywords":["cp","nocrits","nodmgspread","uncletopia"],"game_id":440,"stv_port":27036,"stv_name":"Uncletopia | Sydney | 3 | All Maps | STV","players":null},{"server_id":396,"name":"Uncletopia | Sydney | 4 | All Maps","name_short":"syd-4","host":"syd-1.au.uncletopia.com","port":27045,"enabled":true,"region":"au","cc":"au","latitude":-33.865143,"longitude":151.2099,"reserved":0,"last_update":"0001-01-01T00:00:00Z","name_a2s":"Uncletopia | Sydney | 4 | All Maps","protocol":17,"map":"cp_standin_final","folder":"tf","game":"Team Fortress","app_id":440,"player_count":0,"max_players":24,"Bots":0,"server_type":"Dedicated","server_os":"Linux","password":true,"vac":true,"version":"7961495","steam_id":85568392925397958,"keywords":["cp","nocrits","nodmgspread","uncletopia"],"game_id":440,"stv_port":27046,"stv_name":"Uncletopia | Sydney | 4 | All Maps | STV","players":null},{"server_id":58,"name":"Uncletopia | Sydney | 5 | Stopwatch","name_short":"syd-5","host":"syd-1.au.uncletopia.com","port":27055,"enabled":true,"region":"au","cc":"au","latitude":-33.865143,"longitude":151.2099,"reserved":0,"last_update":"0001-01-01T00:00:00Z","name_a2s":"Uncletopia | Sydney | 5 | Stopwatch","protocol":17,"map":"koth_highpass","folder":"tf","game":"Team Fortress","app_id":440,"player_count":0,"max_players":24,"Bots":0,"server_type":"Dedicated","server_os":"Linux","password":true,"vac":true,"version":"7961495","steam_id":85568392925397959,"keywords":["cp","nocrits","nodmgspread","uncletopia"],"game_id":440,"stv_port":27056,"stv_name":"Uncletopia | Sydney | 5 | Stopwatch | STV","players":null},{"server_id":59,"name":"Uncletopia | Sydney | 6 | Community","name_short":"syd-6","host":"syd-1.au.uncletopia.com","port":27065,"enabled":true,"region":"au","cc":"au","latitude":-33.865143,"longitude":151.2099,"reserved":0,"last_update":"0001-01-01T00:00:00Z","name_a2s":"Uncletopia | Sydney | 6 | Community","protocol":17,"map":"workshop/koth_soot_final1.ugc2969540689","folder":"tf","game":"Team Fortress","app_id":440,"player_count":0,"max_players":24,"Bots":0,"server_type":"Dedicated","server_os":"Linux","password":true,"vac":true,"version":"7961495","steam_id":85568392925397960,"keywords":["cp","nocrits","nodmgspread","uncletopia"],"game_id":440,"stv_port":27066,"stv_name":"Uncletopia | Sydney | 6 | Community | STV","players":null},{"server_id":49,"name":"Uncletopia | Warsaw | 1 | One Thousand Uncles","name_short":"waw-1","host":"waw-1.pl.uncletopia.com","port":27015,"enabled":true,"region":"eu","cc":"pl","latitude":52.2297,"longitude":21.017532,"reserved":0,"last_update":"0001-01-01T00:00:00Z","name_a2s":"Uncletopia | Warsaw | 1 | One Thousand Uncles","protocol":17,"map":"pl_badwater","folder":"tf","game":"Team Fortress","app_id":440,"player_count":23,"max_players":32,"Bots":20,"server_type":"Dedicated","server_os":"Linux","password":true,"vac":true,"version":"7961495","steam_id":85568392925397850,"keywords":["alltalk","bots","danepve","increased_maxplayers","norespawntime","payload","uncletopia"],"game_id":440,"stv_port":0,"stv_name":"","players":[{"user_id":446,"name":"Dell \"Vermineer\" LaFontant","steam_id":76561198371872022,"connected_time":7545000000000,"state":"active","ping":99},{"user_id":482,"name":"G.L.O.R.I.","steam_id":76561198134414380,"connected_time":4155000000000,"state":"active","ping":72},{"user_id":469,"name":"nguyen.minh.phuc3966","steam_id":76561199254042753,"connected_time":6858000000000,"state":"active","ping":352}]},{"server_id":50,"name":"Uncletopia | Warsaw | 2 | One Thousand Uncles","name_short":"waw-2","host":"waw-1.pl.uncletopia.com","port":27025,"enabled":true,"region":"eu","cc":"pl","latitude":52.2297,"longitude":21.017532,"reserved":0,"last_update":"0001-01-01T00:00:00Z","name_a2s":"Uncletopia | Warsaw | 2 | One Thousand Uncles","protocol":17,"map":"pl_hoodoo_final","folder":"tf","game":"Team Fortress","app_id":440,"player_count":27,"max_players":32,"Bots":20,"server_type":"Dedicated","server_os":"Linux","password":true,"vac":true,"version":"7961495","steam_id":85568392925397851,"keywords":["alltalk","bots","danepve","increased_maxplayers","norespawntime","payload","uncletopia"],"game_id":440,"stv_port":0,"stv_name":"","players":[{"user_id":302,"name":"sotry","steam_id":76561198098107663,"connected_time":322000000000,"state":"active","ping":71},{"user_id":303,"name":"Goblin","steam_id":76561198153545458,"connected_time":211000000000,"state":"active","ping":98},{"user_id":242,"name":"Mr_Pulse_","steam_id":76561198095001602,"connected_time":5046000000000,"state":"active","ping":114},{"user_id":301,"name":"Dirtier Harry","steam_id":76561198134378108,"connected_time":876000000000,"state":"active","ping":98},{"user_id":246,"name":"SansaKissa326","steam_id":76561199189803939,"connected_time":3444000000000,"state":"active","ping":94},{"user_id":272,"name":"[T]aKer","steam_id":76561198001778013,"connected_time":3078000000000,"state":"active","ping":71},{"user_id":278,"name":"jackthegreenlade","steam_id":76561199468264132,"connected_time":1824000000000,"state":"active","ping":122}]},{"server_id":51,"name":"Uncletopia | Warsaw | 3 | All Maps","name_short":"waw-3","host":"waw-1.pl.uncletopia.com","port":27035,"enabled":true,"region":"eu","cc":"pl","latitude":52.2297,"longitude":21.017532,"reserved":0,"last_update":"0001-01-01T00:00:00Z","name_a2s":"Uncletopia | Warsaw | 3 | All Maps","protocol":17,"map":"koth_highpass","folder":"tf","game":"Team Fortress","app_id":440,"player_count":0,"max_players":24,"Bots":0,"server_type":"Dedicated","server_os":"Linux","password":true,"vac":true,"version":"7961495","steam_id":85568392925397852,"keywords":["cp","nocrits","nodmgspread","uncletopia"],"game_id":440,"stv_port":27036,"stv_name":"Uncletopia | Warsaw | 3 | All Maps | STV","players":null},{"server_id":52,"name":"Uncletopia | Warsaw | 4 | All Maps","name_short":"waw-4","host":"waw-1.pl.uncletopia.com","port":27045,"enabled":true,"region":"eu","cc":"pl","latitude":52.2297,"longitude":21.017532,"reserved":0,"last_update":"0001-01-01T00:00:00Z","name_a2s":"Uncletopia | Warsaw | 4 | All Maps","protocol":17,"map":"koth_highpass","folder":"tf","game":"Team Fortress","app_id":440,"player_count":0,"max_players":24,"Bots":0,"server_type":"Dedicated","server_os":"Linux","password":true,"vac":true,"version":"7961495","steam_id":85568392925397853,"keywords":["cp","nocrits","nodmgspread","uncletopia"],"game_id":440,"stv_port":27046,"stv_name":"Uncletopia | Warsaw | 4 | All Maps | STV","players":null},{"server_id":53,"name":"Uncletopia | Warsaw | 5 | Stopwatch","name_short":"waw-5","host":"waw-1.pl.uncletopia.com","port":27055,"enabled":true,"region":"eu","cc":"pl","latitude":52.2297,"longitude":21.017532,"reserved":0,"last_update":"0001-01-01T00:00:00Z","name_a2s":"Uncletopia | Warsaw | 5 | Stopwatch","protocol":17,"map":"koth_lakeside_final","folder":"tf","game":"Team Fortress","app_id":440,"player_count":0,"max_players":24,"Bots":0,"server_type":"Dedicated","server_os":"Linux","password":true,"vac":true,"version":"7961495","steam_id":85568392925397854,"keywords":["cp","nocrits","nodmgspread","uncletopia"],"game_id":440,"stv_port":27056,"stv_name":"Uncletopia | Warsaw | 5 | Stopwatch | STV","players":null},{"server_id":54,"name":"Uncletopia | Warsaw | 6 | Community","name_short":"waw-6","host":"waw-1.pl.uncletopia.com","port":27065,"enabled":true,"region":"eu","cc":"pl","latitude":52.2297,"longitude":21.017532,"reserved":0,"last_update":"0001-01-01T00:00:00Z","name_a2s":"Uncletopia | Warsaw | 6 | Community","protocol":17,"map":"workshop/koth_product_final.ugc454272353","folder":"tf","game":"Team Fortress","app_id":440,"player_count":0,"max_players":24,"Bots":0,"server_type":"Dedicated","server_os":"Linux","password":true,"vac":true,"version":"7961495","steam_id":85568392925397856,"keywords":["cp","nocrits","nodmgspread","uncletopia"],"game_id":440,"stv_port":27066,"stv_name":"Uncletopia | Warsaw | 6 | Community | STV","players":null}]}