{"status":true,"message":"","result":[{"server_id":9,"name":"Uncletopia | Atlanta | 1 | All Maps","name_short":"atl-1","host":"atl-1.us.uncletopia.com","port":27015,"enabled":true,"region":"us-east","cc":"us","latitude":33.753746,"longitude":-84.38633,"reserved":0,"last_update":"0001-01-01T00:00:00Z","name_a2s":"Uncletopia | Atlanta | 1 | All Maps","protocol":17,"map":"cp_process_final","folder":"tf","game":"Team Fortress","app_id":440,"player_count":24,"max_players":24,"Bots":0,"server_type":"Dedicated","server_os":"Linux","password":true,"vac":true,"version":"7961495","steam_id":85568392924469982,"keywords":["cp","nocrits","nodmgspread","uncletopia"],"game_id":440,"stv_port":27016,"stv_name":"Uncletopia | Atlanta | 1 | All Maps | STV","players":[{"user_id":121,"name":"guh!!!","steam_id":76561199018321159,"connected_time":1131000000000,"state":"active","ping":70},{"user_id":134,"name":"Oopsie Daisy ‚ùã","steam_id":76561198042144492,"connected_time":548000000000,"state":"active","ping":45},{"user_id":127,"name":"Eightypical","steam_id":76561198045885732,"connected_time":872000000000,"state":"active","ping":99},{"user_id":142,"name":"fishies :)","steam_id":76561198317943203,"connected_time":110000000000,"state":"active","ping":66},{"user_id":141,"name":"Sylvain","steam_id":76561198113385271,"connected_time":237000000000,"state":"active","ping":70},{"user_id":49,"name":"Broadsword #LGM","steam_id":76561198011160411,"connected_time":6009000000000,"state":"active","ping":61},{"user_id":45,"name":"Phos","steam_id":76561198122339506,"connected_time":6515000000000,"state":"active","ping":89},{"user_id":72,"name":"RaWe ceek","steam_id":76561198075555478,"connected_time":3932000000000,"state":"active","ping":109},{"user_id":124,"name":"Smorph","steam_id":76561197980279026,"connected_time":1071000000000,"state":"active","ping":71},{"user_id":125,"name":"TMKPresents","steam_id":76561198118999995,"connected_time":1006000000000,"state":"active","ping":58},{"user_id":140,"name":"TheBrocklobster","steam_id":76561198039682984,"connected_time":245000000000,"state":"active","ping":111},{"user_id":112,"name":"DuckKey","steam_id":76561198904477889,"connected_time":1922000000000,"state":"active","ping":60},{"user_id":126,"name":"Mrs.FatPussayyyyy","steam_id":76561198004882625,"connected_time":1001000000000,"state":"active","ping":105},{"user_id":84,"name":"Intrepid","steam_id":76561198125321034,"connected_time":3483000000000,"state":"active","ping":61},{"user_id":119,"name":"Aym","steam_id":76561198023968909,"connected_time":1329000000000,"state":"active","ping":64},{"user_id":46,"name":"omg","steam_id":76561198197058638,"connected_time":6347000000000,"state":"active","ping":49},{"user_id":120,"name":"je4nned4rc","steam_id":76561199489797367,"connected_time":1289000000000,"state":"active","ping":74},{"user_id":138,"name":"The Apoleon","steam_id":76561198870709855,"connected_time":317000000000,"state":"active","ping":97},{"user_id":130,"name":"redshelljelly","steam_id":76561198203149635,"connected_time":757000000000,"state":"active","ping":61},{"user_id":143,"name":"JayTheNoob247_","steam_id":76561199348803437,"connected_time":2000000000,"state":"spawning","ping":50},{"user_id":110,"name":"-W3E- grim10465","steam_id":76561198045698581,"connected_time":2099000000000,"state":"active","ping":60},{"user_id":117,"name":"s","steam_id":76561198755643381,"connected_time":1407000000000,"state":"active","ping":84},{"user_id":96,"name":"Night time Dan","steam_id":76561199022178492,"connected_time":3079000000000,"state":"active","ping":46},{"user_id":133,"name":"Hankel Tom (The Hankeler)","steam_id":76561199446367874,"connected_time":646000000000,"state":"active","ping":70}]},{"server_id":104,"name":"Uncletopia | Atlanta | 2 | All Maps","name_short":"atl-2","host":"atl-1.us.uncletopia.com","port":27025,"enabled":true,"region":"us-east","cc":"us","latitude":33.753746,"longitude":-84.38633,"reserved":0,"last_update":"0001-01-01T00:00:00Z","name_a2s":"Uncletopia | Atlanta | 2 | All Maps","protocol":17,"map":"cp_altitude","folder":"tf","game":"Team Fortress","app_id":440,"player_count":0,"max_players":24,"Bots":0,"server_type":"Dedicated","server_os":"Linux","password":true,"vac":true,"version":"7961495","steam_id":85568392924469983,"keywords":["cp","nocrits","nodmgspread","uncletopia"],"game_id":440,"stv_port":27026,"stv_name":"Uncletopia | Atlanta | 2 | All Maps | STV","players":null},{"server_id":400,"name":"Uncletopia | Atlanta | 3 | Stopwatch","name_short":"atl-3","host":"atl-1.us.uncletopia.com","port":27035,"enabled":true,"region":"us-east","cc":"us","latitude":33.753746,"longitude":-84.38633,"reserved":0,"last_update":"0001-01-01T00:00:00Z","name_a2s":"Uncletopia | Atlanta | 3 | Stopwatch","protocol":17,"map":"workshop/koth_product_final.ugc454272353","folder":"tf","game":"Team Fortress","app_id":440,"player_count":0,"max_players":24,"Bots":0,"server_type":"Dedicated","server_os":"Linux","password":true,"vac":true,"version":"7961495","steam_id":85568392924515187,"keywords":["cp","nocrits","nodmgspread","uncletopia"],"game_id":440,"stv_port":27036,"stv_name":"Uncletopia | Atlanta | 3 | Stopwatch | STV","players":null},{"server_id":401,"name":"Uncletopia | Atlanta | 4 | Community","name_short":"atl-4","host":"atl-1.us.uncletopia.com","port":27045,"enabled":true,"region":"us-east","cc":"us","latitude":33.753746,"longitude":-84.38633,"reserved":0,"last_update":"0001-01-01T00:00:00Z","name_a2s":"Uncletopia | Atlanta | 4 | Community","protocol":17,"map":"workshop/cp_glassworks_rc7a.ugc454118349","folder":"tf","game":"Team Fortress","app_id":440,"player_count":0,"max_players":24,"Bots":0,"server_type":"Dedicated","server_os":"Linux","password":true,"vac":true,"version":"7961495","steam_id":85568392924515188,"keywords":["cp","nocrits","nodmgspread","uncletopia"],"game_id":440,"stv_port":27046,"stv_name":"Uncletopia | Atlanta | 4 | Community | STV","players":null},{"server_id":2,"name":"Uncletopia | Chicago | 1 | All Maps","name_short":"chi-1","host":"chi-1.us.uncletopia.com","port":27015,"enabled":true,"region":"us-central","cc":"us","latitude":41.881832,"longitude":-87.62318,"reserved":0,"last_update":"0001-01-01T00:00:00Z","name_a2s":"Uncletopia | Chicago | 1 | All Maps","protocol":17,"map":"pl_badwater","folder":"tf","game":"Team Fortress","app_id":440,"player_count":20,"max_players":24,"Bots":0,"server_type":"Dedicated","server_os":"Linux","password":true,"vac":true,"version":"7961495","steam_id":85568392924469984,"keywords":["nocrits","nodmgspread","payload","uncletopia"],"game_id":440,"stv_port":27016,"stv_name":"Uncletopia | Chicago | 1 | All Maps | STV","players":[{"user_id":130,"name":"Intro Bonito","steam_id":76561198119478838,"connected_time":2998000000000,"state":"active","ping":65},{"user_id":169,"name":"The Gentrified Urge","steam_id":76561198073314154,"connected_time":51000000000,"state":"active","ping":45},{"user_id":156,"name":"leesh","steam_id":76561198079603938,"connected_time":1777000000000,"state":"active","ping":63},{"user_id":81,"name":"Decolour","steam_id":76561199045608372,"connected_time":7471000000000,"state":"active","ping":60},{"user_id":99,"name":"Tuvok Shakur","steam_id":76561198018875334,"connected_time":5809000000000,"state":"active","ping":90},{"user_id":167,"name":"Ryzema","steam_id":76561198165594229,"connected_time":120000000000,"state":"active","ping":71},{"user_id":125,"name":"Albino Jellyfish","steam_id":76561198208561097,"connected_time":3858000000000,"state":"active","ping":57},{"user_id":85,"name":"shaderoses","steam_id":76561198070800500,"connected_time":7031000000000,"state":"active","ping":62},{"user_id":164,"name":"yomommasabitch","steam_id":76561198323217150,"connected_time":375000000000,"state":"active","ping":58},{"user_id":124,"name":"cyborgor","steam_id":76561198040782513,"connected_time":4021000000000,"state":"active","ping":90},{"user_id":128,"name":"rat eater","steam_id":76561199216874750,"connected_time":3694000000000,"state":"active","ping":33},{"user_id":114,"name":"Veee (very cool)","steam_id":76561198330432889,"connected_time":4736000000000,"state":"active","ping":75},{"user_id":155,"name":"Yarn","steam_id":76561199227148369,"connected_time":1785000000000,"state":"active","ping":75},{"user_id":165,"name":"Mage","steam_id":76561198285026879,"connected_time":163000000000,"state":"active","ping":66},{"user_id":153,"name":"Bonk","steam_id":76561198116945752,"connected_time":1801000000000,"state":"active","ping":62},{"user_id":168,"name":"Pango","steam_id":76561198069811545,"connected_time":105000000000,"state":"active","ping":78},{"user_id":136,"name":"Trapilicious","steam_id":76561198061430457,"connected_time":2724000000000,"state":"active","ping":72},{"user_id":163,"name":"serendipity","steam_id":76561198095087127,"connected_time":1233000000000,"state":"active","ping":77},{"user_id":166,"name":"xX_HimboSwallower_Xx","steam_id":76561198016029965,"connected_time":163000000000,"state":"active","ping":43},{"user_id":78,"name":"pea ttv/peabeanz","steam_id":76561198119551968,"connected_time":7498000000000,"state":"active","ping":70}]},{"server_id":106,"name":"Uncletopia | Chicago | 2 | All Maps","name_short":"chi-2","host":"chi-1.us.uncletopia.com","port":27025,"enabled":true,"region":"us-central","cc":"us","latitude":41.881832,"longitude":-87.62318,"reserved":0,"last_update":"0001-01-01T00:00:00Z","name_a2s":"Uncletopia | Chicago | 2 | All Maps","protocol":17,"map":"cp_dustbowl","folder":"tf","game":"Team Fortress","app_id":440,"player_count":24,"max_players":24,"Bots":0,"server_type":"Dedicated","server_os":"Linux","password":true,"vac":true,"version":"7961495","steam_id":85568392924469985,"keywords":["cp","nocrits","nodmgspread","uncletopia"],"game_id":440,"stv_port":27026,"stv_name":"Uncletopia | Chicago | 2 | All Maps | STV","players":[{"user_id":82,"name":"Petty and Cheap","steam_id":76561199039249396,"connected_time":131000000000,"state":"active","ping":64},{"user_id":62,"name":"Chaos","steam_id":76561199068325065,"connected_time":511000000000,"state":"active","ping":80},{"user_id":51,"name":"Lemonade Juice","steam_id":76561198402892608,"connected_time":1028000000000,"state":"active","ping":103},{"user_id":43,"name":"N4G4S4K1 1S K4RK4L1C1OUS","steam_id":76561199031772797,"connected_time":1201000000000,"state":"active","ping":76},{"user_id":52,"name":"Dr. unknow horror","steam_id":76561199192920486,"connected_time":979000000000,"state":"active","ping":50},{"user_id":61,"name":"feeple murphy","steam_id":76561199069482101,"connected_time":641000000000,"state":"active","ping":91},{"user_id":27,"name":"crushy spike ceiling","steam_id":76561198241793002,"connected_time":1678000000000,"state":"active","ping":55},{"user_id":28,"name":"WWWWWWWWWWWWWWWWWWWWWWWWWWWWWWW","steam_id":76561199051587231,"connected_time":1645000000000,"state":"active","ping":74},{"user_id":29,"name":"azufelt","steam_id":76561199259331226,"connected_time":1637000000000,"state":"active","ping":61},{"user_id":31,"name":"Lukin","steam_id":76561198032698561,"connected_time":1469000000000,"state":"active","ping":59},{"user_id":32,"name":"Finalspy","steam_id":76561198247761520,"connected_time":1388000000000,"state":"active","ping":61},{"user_id":33,"name":"LazeKaL","steam_id":76561199073866617,"connected_time":1381000000000,"state":"active","ping":104},{"user_id":60,"name":"blackjar98","steam_id":76561198377254125,"connected_time":668000000000,"state":"active","ping":85},{"user_id":54,"name":"Kedata","steam_id":76561198047750050,"connected_time":888000000000,"state":"active","ping":50},{"user_id":36,"name":"Ccurry66","steam_id":76561199094251029,"connected_time":1338000000000,"state":"active","ping":170},{"user_id":55,"name":"namesaretoohard","steam_id":76561198070837837,"connected_time":864000000000,"state":"active","ping":45},{"user_id":38,"name":"Sweet Tooth","steam_id":76561198830158092,"connected_time":1309000000000,"state":"active","ping":91},{"user_id":56,"name":"Snekk","steam_id":76561198123468439,"connected_time":857000000000,"state":"active","ping":60},{"user_id":48,"name":"Y Dough","steam_id":76561198003827633,"connected_time":1130000000000,"state":"active","ping":81},{"user_id":80,"name":"Mr. Tickle","steam_id":76561198126684647,"connected_time":155000000000,"state":"active","ping":58},{"user_id":49,"name":"JohnFMX","steam_id":76561198175608097,"connected_time":1126000000000,"state":"active","ping":64},{"user_id":59,"name":"Lia_Rein","steam_id":76561198151569597,"connected_time":769000000000,"state":"active","ping":148},{"user_id":58,"name":"TheMadHattah","steam_id":76561198066587266,"connected_time":811000000000,"state":"active","ping":69},{"user_id":81,"name":"Letters","steam_id":76561198035508148,"connected_time":155000000000,"state":"active","ping":60}]},{"server_id":402,"name":"Uncletopia | Chicago | 3 | All Maps","name_short":"chi-3","host":"chi-1.us.uncletopia.com","port":27035,"enabled":true,"region":"us-central","cc":"us","latitude":41.881832,"longitude":-87.62318,"reserved":0,"last_update":"0001-01-01T00:00:00Z","name_a2s":"Uncletopia | Chicago | 3 | All Maps","protocol":17,"map":"koth_viaduct","folder":"tf","game":"Team Fortress","app_id":440,"player_count":5,"max_players":24,"Bots":0,"server_type":"Dedicated","server_os":"Linux","password":true,"vac":true,"version":"7961495","steam_id":85568392924515191,"keywords":["cp","nocrits","nodmgspread","uncletopia"],"game_id":440,"stv_port":27036,"stv_name":"Uncletopia | Chicago | 3 | All Maps | STV","players":[{"user_id":7,"name":"Shark In Awe","steam_id":76561198032663494,"connected_time":3960000000000,"state":"active","ping":67},{"user_id":13,"name":"barbecuesteve","steam_id":76561198048819671,"connected_time":1117000000000,"state":"active","ping":57},{"user_id":18,"name":"tiny chimp","steam_id":76561199009589097,"connected_time":97000000000,"state":"active","ping":60},{"user_id":16,"name":"ADrunkCaliburn","steam_id":76561198390889014,"connected_time":280000000000,"state":"active","ping":43},{"user_id":17,"name":"asm_ghost","steam_id":76561199205363547,"connected_time":250000000000,"state":"active","ping":105}]},{"server_id":403,"name":"Uncletopia | Chicago | 4 | All Maps","name_short":"chi-4","host":"chi-1.us.uncletopia.com","port":27045,"enabled":true,"region":"us-central","cc":"us","latitude":41.881832,"longitude":-87.62318,"reserved":0,"last_update":"0001-01-01T00:00:00Z","name_a2s":"Uncletopia | Chicago | 4 | All Maps","protocol":17,"map":"pl_rumford_event","folder":"tf","game":"Team Fortress","app_id":440,"player_count":0,"max_players":24,"Bots":0,"server_type":"Dedicated","server_os":"Linux","password":true,"vac":true,"version":"7961495","steam_id":85568392924515193,"keywords":["nocrits","nodmgspread","payload","uncletopia"],"game_id":440,"stv_port":27046,"stv_name":"Uncletopia | Chicago | 4 | All Maps | STV","players":null},{"server_id":36,"name":"Uncletopia | Chicago | 5 | All Maps","name_short":"chi-5","host":"chi-2.us.uncletopia.com","port":27015,"enabled":true,"region":"us-central","cc":"us","latitude":41.881832,"longitude":-87.62318,"reserved":0,"last_update":"0001-01-01T00:00:00Z","name_a2s":"Uncletopia | Chicago | 5 | All Maps","protocol":17,"map":"koth_suijin","folder":"tf","game":"Team Fortress","app_id":440,"player_count":24,"max_players":24,"Bots":0,"server_type":"Dedicated","server_os":"Linux","password":true,"vac":true,"version":"7961495","steam_id":85568392924866362,"keywords":["cp","nocrits","nodmgspread","uncletopia"],"game_id":440,"stv_port":27016,"stv_name":"Uncletopia | Chicago | 5 | All Maps | STV","players":[{"user_id":135,"name":"duBstep","steam_id":76561198353928965,"connected_time":1297000000000,"state":"active","ping":66},{"user_id":140,"name":"pathetic pancreas","steam_id":76561198861595100,"connected_time":910000000000,"state":"active","ping":145},{"user_id":139,"name":"wdmut","steam_id":76561198133994925,"connected_time":1009000000000,"state":"active","ping":65},{"user_id":113,"name":"Jerk Tryhard (roleplay)","steam_id":76561199470538309,"connected_time":2128000000000,"state":"active","ping":59},{"user_id":159,"name":"NERV","steam_id":76561198111023744,"connected_time":75000000000,"state":"active","ping":64},{"user_id":144,"name":"FedSmoker","steam_id":76561198255854081,"connected_time":808000000000,"state":"active","ping":100},{"user_id":157,"name":"CherriKat","steam_id":76561198821297512,"connected_time":232000000000,"state":"active","ping":102},{"user_id":101,"name":"Nukem","steam_id":76561198166236574,"connected_time":3818000000000,"state":"active","ping":87},{"user_id":112,"name":"poe.ai","steam_id":76561198155720118,"connected_time":2163000000000,"state":"active","ping":50},{"user_id":103,"name":"Duncan Slamwell, B-Ball Attorne","steam_id":76561197994924793,"connected_time":3679000000000,"state":"active","ping":57},{"user_id":132,"name":"Maker‚Äôs_Mark","steam_id":76561198198371445,"connected_time":1709000000000,"state":"active","ping":76},{"user_id":160,"name":"Dirtbike rider","steam_id":76561198030457066,"connected_time":1000000000,"state":"spawning","ping":40},{"user_id":105,"name":"GreySweaterCat","steam_id":76561198351860293,"connected_time":3379000000000,"state":"active","ping":91},{"user_id":152,"name":"The Chrisind","steam_id":76561198024980467,"connected_time":601000000000,"state":"active","ping":58},{"user_id":142,"name":"Mijailos","steam_id":76561198810347790,"connected_time":874000000000,"state":"active","ping":170},{"user_id":79,"name":"Buddygong","steam_id":76561198092433363,"connected_time":5821000000000,"state":"active","ping":98},{"user_id":151,"name":"RollingCow","steam_id":76561198067114237,"connected_time":651000000000,"state":"active","ping":78},{"user_id":141,"name":"skooks","steam_id":76561198008716921,"connected_time":895000000000,"state":"active","ping":71},{"user_id":147,"name":"Ultrasonic Dog Repellent","steam_id":76561198040939246,"connected_time":731000000000,"state":"active","ping":48},{"user_id":153,"name":"Lamb Chopper","steam_id":76561198851872554,"connected_time":533000000000,"state":"active","ping":75},{"user_id":156,"name":"Teenage Pubant Ninja Turtles","steam_id":76561198004998877,"connected_time":438000000000,"state":"active","ping":79},{"user_id":83,"name":"raspy","steam_id":76561198027298961,"connected_time":5487000000000,"state":"active","ping":60},{"user_id":149,"name":"carrot cake","steam_id":76561198055174915,"connected_time":716000000000,"state":"active","ping":72},{"user_id":158,"name":"ClayTougher (Spring Version)","steam_id":76561199135235387,"connected_time":232000000000,"state":"active","ping":70}]},{"server_id":37,"name":"Uncletopia | Chicago | 6 | All Maps","name_short":"chi-6","host":"chi-2.us.uncletopia.com","port":27025,"enabled":true,"region":"us-central","cc":"us","latitude":41.881832,"longitude":-87.62318,"reserved":0,"last_update":"0001-01-01T00:00:00Z","name_a2s":"Uncletopia | Chicago | 6 | All Maps","protocol":17,"map":"pl_badwater","folder":"tf","game":"Team Fortress","app_id":440,"player_count":22,"max_players":24,"Bots":0,"server_type":"Dedicated","server_os":"Linux","password":true,"vac":true,"version":"7961495","steam_id":85568392924866363,"keywords":["nocrits","nodmgspread","payload","uncletopia"],"game_id":440,"stv_port":27026,"stv_name":"Uncletopia | Chicago | 6 | All Maps | STV","players":[{"user_id":243,"name":"Kartyac","steam_id":76561197991069005,"connected_time":820000000000,"state":"active","ping":78},{"user_id":192,"name":"Kuyumiester","steam_id":76561198126835302,"connected_time":5224000000000,"state":"active","ping":62},{"user_id":245,"name":"Gamering_funy","steam_id":76561199006503777,"connected_time":724000000000,"state":"active","ping":47},{"user_id":205,"name":"mr.videogame","steam_id":76561198119558096,"connected_time":4116000000000,"state":"active","ping":55},{"user_id":234,"name":"Jacio | the one who games.","steam_id":76561199491964000,"connected_time":1895000000000,"state":"active","ping":127},{"user_id":126,"name":"moon","steam_id":76561198181153199,"connected_time":8741000000000,"state":"active","ping":87},{"user_id":175,"name":"Alpine","steam_id":76561198436177465,"connected_time":6589000000000,"state":"active","ping":55},{"user_id":226,"name":"jg125","steam_id":76561198824953530,"connected_time":2809000000000,"state":"active","ping":143},{"user_id":214,"name":"Pacts Gornax","steam_id":76561198066256419,"connected_time":3514000000000,"state":"active","ping":78},{"user_id":247,"name":"firetamer2","steam_id":76561198040886980,"connected_time":438000000000,"state":"active","ping":64},{"user_id":233,"name":"The_Epic_Conclusion","steam_id":76561198084250179,"connected_time":2085000000000,"state":"active","ping":64},{"user_id":246,"name":"krd","steam_id":76561198347660282,"connected_time":565000000000,"state":"active","ping":104},{"user_id":217,"name":"Yeti‚Ñ¢","steam_id":76561199151545966,"connected_time":3120000000000,"state":"active","ping":60},{"user_id":248,"name":"freesia","steam_id":76561198127525888,"connected_time":380000000000,"state":"active","ping":75},{"user_id":242,"name":"FirewithFire","steam_id":76561199102484544,"connected_time":1088000000000,"state":"active","ping":45},{"user_id":244,"name":"Olly","steam_id":76561198054273611,"connected_time":739000000000,"state":"active","ping":68},{"user_id":188,"name":"gaming elliptical","steam_id":76561198013456569,"connected_time":5716000000000,"state":"active","ping":45},{"user_id":239,"name":"Functional Progaming","steam_id":76561198032310210,"connected_time":1172000000000,"state":"active","ping":63},{"user_id":184,"name":"roblox.god.2012","steam_id":76561198057553641,"connected_time":6556000000000,"state":"active","ping":59},{"user_id":240,"name":"GreenBoots_","steam_id":76561198042897590,"connected_time":1157000000000,"state":"active","ping":72},{"user_id":223,"name":"fresco","steam_id":76561199101199477,"connected_time":3026000000000,"state":"active","ping":54},{"user_id":193,"name":"Lovedaddy","steam_id":76561198006569710,"connected_time":5073000000000,"state":"active","ping":75}]},{"server_id":38,"name":"Uncletopia | Chicago | 7 | Stopwatch","name_short":"chi-7","host":"chi-2.us.uncletopia.com","port":27035,"enabled":true,"region":"us-central","cc":"us","latitude":41.881832,"longitude":-87.62318,"reserved":0,"last_update":"0001-01-01T00:00:00Z","name_a2s":"Uncletopia | Chicago | 7 | Stopwatch","protocol":17,"map":"cp_snakewater_final1","folder":"tf","game":"Team Fortress","app_id":440,"player_count":0,"max_players":24,"Bots":0,"server_type":"Dedicated","server_os":"Linux","password":true,"vac":true,"version":"7961495","steam_id":85568392924866364,"keywords":["cp","nocrits","nodmgspread","uncletopia"],"game_id":440,"stv_port":27036,"stv_name":"Uncletopia | Chicago | 7 | Stopwatch | STV","players":null},{"server_id":39,"name":"Uncletopia | Chicago | 8 | Community","name_short":"chi-8","host":"chi-2.us.uncletopia.com","port":27045,"enabled":true,"region":"us-central","cc":"us","latitude":41.881832,"longitude":-87.62318,"reserved":0,"last_update":"0001-01-01T00:00:00Z","name_a2s":"Uncletopia | Chicago | 8 | Community","protocol":17,"map":"workshop/koth_slaughter_rc1.ugc1712845210","folder":"tf","game":"Team Fortress","app_id":440,"player_count":0,"max_players":24,"Bots":0,"server_type":"Dedicated","server_os":"Linux","password":true,"vac":true,"version":"7961495","steam_id":85568392924866365,"keywords":["cp","nocrits","nodmgspread","uncletopia"],"game_id":440,"stv_port":27046,"stv_name":"Uncletopia | Chicago | 8 | Community | STV","players":null},{"server_id":8,"name":"Uncletopia | Dallas | 1 | All Maps","name_short":"dal-1","host":"dal-1.us.uncletopia.com","port":27015,"enabled":true,"region":"us-central","cc":"us","latitude":32.779167,"longitude":-96.80889,"reserved":0,"last_update":"0001-01-01T00:00:00Z","name_a2s":"Uncletopia | Dallas | 1 | All Maps","protocol":17,"map":"pl_frontier_final","folder":"tf","game":"Team Fortress","app_id":440,"player_count":1,"max_players":24,"Bots":0,"server_type":"Dedicated","server_os":"Linux","password":true,"vac":true,"version":"7961495","steam_id":85568392924469986,"keywords":["nocrits","nodmgspread","payload","uncletopia"],"game_id":440,"stv_port":27016,"stv_name":"Uncletopia | Dallas | 1 | All Maps | STV","players":[{"user_id":11,"name":"QCubic","steam_id":76561199010248465,"connected_time":310000000000,"state":"active","ping":46}]},{"server_id":108,"name":"Uncletopia | Dallas | 2 | All Maps","name_short":"dal-2","host":"dal-1.us.uncletopia.com","port":27025,"enabled":true,"region":"us-central","cc":"us","latitude":32.779167,"longitude":-96.80889,"reserved":0,"last_update":"0001-01-01T00:00:00Z","name_a2s":"Uncletopia | Dallas | 2 | All Maps","protocol":17,"map":"pl_barnblitz","folder":"tf","game":"Team Fortress","app_id":440,"player_count":0,"max_players":24,"Bots":0,"server_type":"Dedicated","server_os":"Linux","password":true,"vac":true,"version":"7961495","steam_id":85568392924469988,"keywords":["nocrits","nodmgspread","payload","uncletopia"],"game_id":440,"stv_port":27026,"stv_name":"Uncletopia | Dallas | 2 | All Maps | STV","players":null},{"server_id":404,"name":"Uncletopia | Dallas | 3 | All Maps","name_short":"dal-3","host":"dal-1.us.uncletopia.com","port":27035,"enabled":true,"region":"us-central","cc":"us","latitude":32.779167,"longitude":-96.80889,"reserved":0,"last_update":"0001-01-01T00:00:00Z","name_a2s":"Uncletopia | Dallas | 3 | All Maps","protocol":17,"map":"cp_coldfront","folder":"tf","game":"Team Fortress","app_id":440,"player_count":0,"max_players":24,"Bots":0,"server_type":"Dedicated","server_os":"Linux","password":true,"vac":true,"version":"7961495","steam_id":85568392924515219,"keywords":["cp","nocrits","nodmgspread","uncletopia"],"game_id":440,"stv_port":27036,"stv_name":"Uncletopia | Dallas | 3 | All Maps | STV","players":null},{"server_id":405,"name":"Uncletopia | Dallas | 4 | Community","name_short":"dal-4","host":"dal-1.us.uncletopia.com","port":27045,"enabled":true,"region":"us-central","cc":"us","latitude":32.779167,"longitude":-96.80889,"reserved":0,"last_update":"0001-01-01T00:00:00Z","name_a2s":"Uncletopia | Dallas | 4 | Community","protocol":17,"map":"workshop/koth_synthetic_rc6a.ugc1549817316","folder":"tf","game":"Team Fortress","app_id":440,"player_count":0,"max_players":24,"Bots":0,"server_type":"Dedicated","server_os":"Linux","password":true,"vac":true,"version":"7961495","steam_id":85568392924515220,"keywords":["cp","nocrits","nodmgspread","uncletopia"],"game_id":440,"stv_port":27046,"stv_name":"Uncletopia | Dallas | 4 | Community | STV","players":null},{"server_id":5,"name":"Uncletopia | Frankfurt | 1 | All Maps","name_short":"frk-1","host":"frk-1.de.uncletopia.com","port":27015,"enabled":true,"region":"eu","cc":"de","latitude":50.110924,"longitude":8.682127,"reserved":0,"last_update":"0001-01-01T00:00:00Z","name_a2s":"Uncletopia | Frankfurt | 1 | All Maps","protocol":17,"map":"koth_highpass","folder":"tf","game":"Team Fortress","app_id":440,"player_count":24,"max_players":24,"Bots":0,"server_type":"Dedicated","server_os":"Linux","password":true,"vac":true,"version":"7961495","steam_id":85568392924469989,"keywords":["cp","nocrits","nodmgspread","uncletopia"],"game_id":440,"stv_port":27016,"stv_name":"Uncletopia | Frankfurt | 1 | All Maps | STV","players":[{"user_id":399,"name":"le big mac","steam_id":76561199026378253,"connected_time":6566000000000,"state":"active","ping":48},{"user_id":467,"name":"ToniGAM3S","steam_id":76561198128605351,"connected_time":1070000000000,"state":"active","ping":59},{"user_id":487,"name":"Marukuso","steam_id":76561198154229845,"connected_time":136000000000,"state":"active","ping":58},{"user_id":485,"name":"Lucan","steam_id":76561198219195135,"connected_time":239000000000,"state":"active","ping":49},{"user_id":450,"name":"Sham!","steam_id":76561198050434275,"connected_time":2189000000000,"state":"active","ping":53},{"user_id":462,"name":"Red Dynamite","steam_id":76561199073167935,"connected_time":1612000000000,"state":"active","ping":168},{"user_id":475,"name":"Neact0r","steam_id":76561198035118773,"connected_time":529000000000,"state":"active","ping":54},{"user_id":452,"name":"El_Kommadante","steam_id":76561198079551685,"connected_time":2184000000000,"state":"active","ping":129},{"user_id":469,"name":"Shroomstein","steam_id":76561198151521658,"connected_time":924000000000,"state":"active","ping":63},{"user_id":482,"name":"Turecki Go≈ÇƒÖb","steam_id":76561199116183115,"connected_time":322000000000,"state":"active","ping":74},{"user_id":478,"name":"Brazil n√ºmerus 1","steam_id":76561199214163032,"connected_time":442000000000,"state":"active","ping":89},{"user_id":444,"name":"Mischievous maiden","steam_id":76561198353065570,"connected_time":2987000000000,"state":"active","ping":72},{"user_id":466,"name":"Alegz","steam_id":76561198287810139,"connected_time":1359000000000,"state":"active","ping":56},{"user_id":488,"name":"dfcv rftgvb ghtb","steam_id":76561198397764042,"connected_time":98000000000,"state":"active","ping":74},{"user_id":448,"name":"Vene","steam_id":76561198018116338,"connected_time":2537000000000,"state":"active","ping":90},{"user_id":438,"name":"totis","steam_id":76561198968410569,"connected_time":3479000000000,"state":"active","ping":100},{"user_id":483,"name":"Skeletros","steam_id":76561198130969152,"connected_time":306000000000,"state":"active","ping":122},{"user_id":463,"name":"crit hit!","steam_id":76561198112693639,"connected_time":1566000000000,"state":"active","ping":60},{"user_id":428,"name":"Temp0_ ‚ô•","steam_id":76561198162068639,"connected_time":4365000000000,"state":"active","ping":54},{"user_id":470,"name":"Mr_Joergen","steam_id":76561198364713702,"connected_time":720000000000,"state":"active","ping":51},{"user_id":389,"name":"kana munn","steam_id":76561198059762111,"connected_time":7001000000000,"state":"active","ping":68},{"user_id":473,"name":"Ross from F.R.I.E.N.D.S.","steam_id":76561198008511665,"connected_time":668000000000,"state":"active","ping":59},{"user_id":480,"name":"typicalcrimson","steam_id":76561198295439747,"connected_time":417000000000,"state":"active","ping":61},{"user_id":486,"name":"racist spy","steam_id":76561198091462641,"connected_time":198000000000,"state":"active","ping":74}]},{"server_id":110,"name":"Uncletopia | Frankfurt | 2 | All Maps","name_short":"frk-2","host":"frk-1.de.uncletopia.com","port":27025,"enabled":true,"region":"eu","cc":"de","latitude":50.110924,"longitude":8.682127,"reserved":0,"last_update":"0001-01-01T00:00:00Z","name_a2s":"Uncletopia | Frankfurt | 2 | All Maps","protocol":17,"map":"pl_snowycoast","folder":"tf","game":"Team Fortress","app_id":440,"player_count":23,"max_players":24,"Bots":0,"server_type":"Dedicated","server_os":"Linux","password":true,"vac":true,"version":"7961495","steam_id":85568392924469990,"keywords":["nocrits","nodmgspread","payload","uncletopia"],"game_id":440,"stv_port":27026,"stv_name":"Uncletopia | Frankfurt | 2 | All Maps | STV","players":[{"user_id":371,"name":"anders McFlanders","steam_id":76561198022811995,"connected_time":1652000000000,"state":"active","ping":50},{"user_id":319,"name":"sneakysneaky","steam_id":76561198010662796,"connected_time":5367000000000,"state":"active","ping":47},{"user_id":381,"name":"Maske","steam_id":76561198078100812,"connected_time":972000000000,"state":"active","ping":41},{"user_id":387,"name":"hmm","steam_id":76561199388213538,"connected_time":806000000000,"state":"active","ping":107},{"user_id":399,"name":"LordTrap.exe","steam_id":76561198318089716,"connected_time":319000000000,"state":"active","ping":60},{"user_id":364,"name":"not a nihilist","steam_id":76561198004340466,"connected_time":2598000000000,"state":"active","ping":45},{"user_id":388,"name":"sword machine","steam_id":76561198895235231,"connected_time":792000000000,"state":"active","ping":65},{"user_id":404,"name":"gET OFF ME!!!!","steam_id":76561198076219289,"connected_time":162000000000,"state":"active","ping":46},{"user_id":406,"name":"LightSatbyDark","steam_id":76561199067457696,"connected_time":12000000000,"state":"spawning","ping":293},{"user_id":401,"name":"skeleton_archer_1","steam_id":76561198407636430,"connected_time":259000000000,"state":"active","ping":86},{"user_id":343,"name":"* _ * + _ + ()_()","steam_id":76561198046873337,"connected_time":3681000000000,"state":"active","ping":60},{"user_id":377,"name":"Hillox","steam_id":76561198429203213,"connected_time":1175000000000,"state":"active","ping":80},{"user_id":390,"name":"Bombilla","steam_id":76561198084281798,"connected_time":788000000000,"state":"active","ping":76},{"user_id":405,"name":"Joo ‚ô¶","steam_id":76561197987609203,"connected_time":105000000000,"state":"active","ping":75},{"user_id":395,"name":"Ahhok","steam_id":76561198197609818,"connected_time":628000000000,"state":"active","ping":72},{"user_id":314,"name":"FlyingObject71","steam_id":76561198801490317,"connected_time":5464000000000,"state":"active","ping":106},{"user_id":353,"name":"peggy","steam_id":76561198136609791,"connected_time":3162000000000,"state":"active","ping":48},{"user_id":403,"name":"mc.balthabuddy","steam_id":76561198106225372,"connected_time":247000000000,"state":"active","ping":40},{"user_id":362,"name":"General Grievous","steam_id":76561198087800030,"connected_time":2669000000000,"state":"active","ping":45},{"user_id":315,"name":"shlongy bongy","steam_id":76561198015876799,"connected_time":5457000000000,"state":"active","ping":62},{"user_id":386,"name":"orange","steam_id":76561198153181940,"connected_time":853000000000,"state":"active","ping":66},{"user_id":335,"name":"stefanbejenari","steam_id":76561199466718294,"connected_time":4548000000000,"state":"active","ping":61},{"user_id":337,"name":"willus212","steam_id":76561199182615246,"connected_time":4331000000000,"state":"active","ping":73}]},{"server_id":308,"name":"Uncletopia | Frankfurt | 3 | All Maps","name_short":"frk-3","host":"frk-1.de.uncletopia.com","port":27035,"enabled":true,"region":"eu","cc":"de","latitude":50.110924,"longitude":8.682127,"reserved":0,"last_update":"0001-01-01T00:00:00Z","name_a2s":"Uncletopia | Frankfurt | 3 | All Maps","protocol":17,"map":"pl_badwater","folder":"tf","game":"Team Fortress","app_id":440,"player_count":24,"max_players":24,"Bots":0,"server_type":"Dedicated","server_os":"Linux","password":true,"vac":true,"version":"7961495","steam_id":85568392924504274,"keywords":["nocrits","nodmgspread","payload","uncletopia"],"game_id":440,"stv_port":27036,"stv_name":"Uncletopia | Frankfurt | 3 | All Maps | STV","players":[{"user_id":150,"name":"confusion","steam_id":76561199199499453,"connected_time":1952000000000,"state":"active","ping":76},{"user_id":99,"name":"max","steam_id":76561198039534890,"connected_time":4957000000000,"state":"active","ping":45},{"user_id":164,"name":"rob","steam_id":76561198122211848,"connected_time":1160000000000,"state":"active","ping":97},{"user_id":146,"name":"Dellty","steam_id":76561198173944065,"connected_time":2023000000000,"state":"active","ping":49},{"user_id":154,"name":"Papasha1950","steam_id":76561198272626529,"connected_time":1808000000000,"state":"active","ping":78},{"user_id":107,"name":"JustItalianHam","steam_id":76561198202237959,"connected_time":4459000000000,"state":"active","ping":74},{"user_id":178,"name":"6bIK_0CeMEHuTEJIb","steam_id":76561198992528373,"connected_time":77000000000,"state":"active","ping":194},{"user_id":140,"name":"Sergeant Gunnery WhiteCock","steam_id":76561199508067959,"connected_time":2097000000000,"state":"active","ping":99},{"user_id":177,"name":"Mr. Mundy","steam_id":76561198132008918,"connected_time":197000000000,"state":"active","ping":73},{"user_id":155,"name":"FUKAYOU","steam_id":76561198380484033,"connected_time":1801000000000,"state":"active","ping":55},{"user_id":141,"name":"ETphoneHOME88","steam_id":76561199500944459,"connected_time":2095000000000,"state":"active","ping":186},{"user_id":145,"name":"Fingortar","steam_id":76561198277143302,"connected_time":2045000000000,"state":"active","ping":66},{"user_id":174,"name":"Hexagon","steam_id":76561198151205758,"connected_time":662000000000,"state":"active","ping":52},{"user_id":156,"name":"Swedde","steam_id":76561198297296440,"connected_time":1799000000000,"state":"active","ping":66},{"user_id":162,"name":"10 Years in the joint","steam_id":76561198371280938,"connected_time":1273000000000,"state":"active","ping":60},{"user_id":167,"name":"meriones","steam_id":76561198034234373,"connected_time":1112000000000,"state":"active","ping":58},{"user_id":173,"name":"Jortand","steam_id":76561198066057807,"connected_time":745000000000,"state":"active","ping":46},{"user_id":135,"name":"monsterISfun","steam_id":76561198121734867,"connected_time":2802000000000,"state":"active","ping":70},{"user_id":153,"name":"ThatWeiss","steam_id":76561199012300202,"connected_time":1903000000000,"state":"active","ping":75},{"user_id":121,"name":"Haren som har","steam_id":76561198130191090,"connected_time":3922000000000,"state":"active","ping":63},{"user_id":165,"name":"kaigis","steam_id":76561199028415076,"connected_time":1155000000000,"state":"active","ping":81},{"user_id":120,"name":"compact disc","steam_id":76561198154677956,"connected_time":3947000000000,"state":"active","ping":61},{"user_id":175,"name":"LOBZIK","steam_id":76561198114830120,"connected_time":517000000000,"state":"active","ping":77},{"user_id":172,"name":"bbc cockfilth","steam_id":76561199502059898,"connected_time":897000000000,"state":"active","ping":99}]},{"server_id":309,"name":"Uncletopia | Frankfurt | 4 | All Maps","name_short":"frk-4","host":"frk-1.de.uncletopia.com","port":27045,"enabled":true,"region":"eu","cc":"de","latitude":50.110924,"longitude":8.682127,"reserved":0,"last_update":"0001-01-01T00:00:00Z","name_a2s":"Uncletopia | Frankfurt | 4 | All Maps","protocol":17,"map":"cp_vanguard","folder":"tf","game":"Team Fortress","app_id":440,"player_count":24,"max_players":24,"Bots":0,"server_type":"Dedicated","server_os":"Linux","password":true,"vac":true,"version":"7961495","steam_id":85568392924504275,"keywords":["cp","nocrits","nodmgspread","uncletopia"],"game_id":440,"stv_port":27046,"stv_name":"Uncletopia | Frankfurt | 4 | All Maps | STV","players":[{"user_id":282,"name":"WIZARD","steam_id":76561198199570742,"connected_time":2680000000000,"state":"active","ping":91},{"user_id":301,"name":"maxx","steam_id":76561198260625229,"connected_time":2344000000000,"state":"active","ping":51},{"user_id":283,"name":"k.","steam_id":76561198258197649,"connected_time":2671000000000,"state":"active","ping":74},{"user_id":337,"name":"Shoe Gayser","steam_id":76561198063127464,"connected_time":1158000000000,"state":"active","ping":69},{"user_id":352,"name":"Malai","steam_id":76561198062537014,"connected_time":92000000000,"state":"active","ping":58},{"user_id":321,"name":"Xydran","steam_id":76561198042397402,"connected_time":1487000000000,"state":"active","ping":58},{"user_id":289,"name":"K.V. #RemoveRandomCrits","steam_id":76561197994832993,"connected_time":2565000000000,"state":"active","ping":76},{"user_id":215,"name":"i like pan","steam_id":76561199057658921,"connected_time":6944000000000,"state":"active","ping":118},{"user_id":300,"name":"PENGUN","steam_id":76561199015156956,"connected_time":2409000000000,"state":"active","ping":98},{"user_id":343,"name":"bruh","steam_id":76561198109262927,"connected_time":608000000000,"state":"active","ping":68},{"user_id":353,"name":"TheKerhard","steam_id":76561198086772002,"connected_time":47000000000,"state":"active","ping":112},{"user_id":322,"name":"0x01A4","steam_id":76561199038801888,"connected_time":1486000000000,"state":"active","ping":63},{"user_id":347,"name":"≈†varcas","steam_id":76561198841646694,"connected_time":509000000000,"state":"active","ping":74},{"user_id":354,"name":"bricküß±","steam_id":76561198410706584,"connected_time":21000000000,"state":"active","ping":81},{"user_id":326,"name":"–®–∞–ø–∫–∞ #TF2Center","steam_id":76561198368792603,"connected_time":1402000000000,"state":"active","ping":69},{"user_id":315,"name":"Malo","steam_id":76561198119273845,"connected_time":1644000000000,"state":"active","ping":45},{"user_id":316,"name":"thwee","steam_id":76561199133739473,"connected_time":1590000000000,"state":"active","ping":75},{"user_id":345,"name":"Thundercracker__","steam_id":76561199163505476,"connected_time":541000000000,"state":"active","ping":70},{"user_id":346,"name":"Jamfri","steam_id":76561198000364059,"connected_time":538000000000,"state":"active","ping":69},{"user_id":339,"name":"demoman_laughlong02.wav","steam_id":76561198257158275,"connected_time":1126000000000,"state":"active","ping":141},{"user_id":350,"name":"a pan furry","steam_id":76561199445662628,"connected_time":439000000000,"state":"active","ping":73},{"user_id":330,"name":"Joe12000","steam_id":76561198160817969,"connected_time":1312000000000,"state":"active","ping":60},{"user_id":344,"name":"Out of Touch","steam_id":76561199175959277,"connected_time":602000000000,"state":"active","ping":104},{"user_id":340,"name":"grass hater","steam_id":76561198123386541,"connected_time":1086000000000,"state":"active","ping":89}]},{"server_id":310,"name":"Uncletopia | Frankfurt | 5 | All Maps","name_short":"frk-5","host":"frk-1.de.uncletopia.com","port":27055,"enabled":true,"region":"eu","cc":"de","latitude":50.110924,"longitude":8.682127,"reserved":0,"last_update":"0001-01-01T00:00:00Z","name_a2s":"Uncletopia | Frankfurt | 5 | All Maps","protocol":17,"map":"pl_badwater","folder":"tf","game":"Team Fortress","app_id":440,"player_count":24,"max_players":24,"Bots":0,"server_type":"Dedicated","server_os":"Linux","password":true,"vac":true,"version":"7961495","steam_id":85568392924504277,"keywords":["nocrits","nodmgspread","payload","uncletopia"],"game_id":440,"stv_port":27056,"stv_name":"Uncletopia | Frankfurt | 5 | All Maps | STV","players":[{"user_id":285,"name":"CabboCoio","steam_id":76561198935946144,"connected_time":2187000000000,"state":"active","ping":60},{"user_id":291,"name":"\u003e\u003c\u003e","steam_id":76561198152392309,"connected_time":1889000000000,"state":"active","ping":59},{"user_id":239,"name":"kevinus","steam_id":76561198059722457,"connected_time":5203000000000,"state":"active","ping":44},{"user_id":307,"name":"snake kryptonite","steam_id":76561197998673784,"connected_time":1222000000000,"state":"active","ping":47},{"user_id":308,"name":"Lynx","steam_id":76561199274008207,"connected_time":1216000000000,"state":"active","ping":72},{"user_id":312,"name":"Mr. Hunts","steam_id":76561197981910397,"connected_time":662000000000,"state":"active","ping":70},{"user_id":257,"name":"Nittugai","steam_id":76561198067366462,"connected_time":3338000000000,"state":"active","ping":66},{"user_id":262,"name":"monocle chicken","steam_id":76561199020106029,"connected_time":3025000000000,"state":"active","ping":78},{"user_id":313,"name":"ThatOneMedic","steam_id":76561199044419505,"connected_time":83000000000,"state":"active","ping":61},{"user_id":304,"name":"Maxin","steam_id":76561197999923364,"connected_time":1263000000000,"state":"active","ping":62},{"user_id":310,"name":"Gbus","steam_id":76561198072335838,"connected_time":1198000000000,"state":"active","ping":50},{"user_id":290,"name":"RIBS GROW BACK","steam_id":76561198123659806,"connected_time":2001000000000,"state":"active","ping":80},{"user_id":297,"name":"boxama","steam_id":76561198040721321,"connected_time":1706000000000,"state":"active","ping":60},{"user_id":278,"name":"spy","steam_id":76561199402711007,"connected_time":2709000000000,"state":"active","ping":113},{"user_id":314,"name":"vurtun","steam_id":76561198857395274,"connected_time":30000000000,"state":"active","ping":41},{"user_id":298,"name":"V@nn1e","steam_id":76561199099194994,"connected_time":1682000000000,"state":"active","ping":171},{"user_id":276,"name":"kirkan","steam_id":76561198029873185,"connected_time":2753000000000,"state":"active","ping":56},{"user_id":299,"name":"Unsalted Butter","steam_id":76561198053118190,"connected_time":1672000000000,"state":"active","ping":46},{"user_id":267,"name":"Triploon","steam_id":76561198173304074,"connected_time":2959000000000,"state":"active","ping":64},{"user_id":315,"name":"Master Peace","steam_id":76561198056434693,"connected_time":3000000000,"state":"spawning","ping":48},{"user_id":300,"name":"Siegmeyer","steam_id":76561198328543549,"connected_time":1645000000000,"state":"active","ping":81},{"user_id":301,"name":"Optimist 50","steam_id":76561198039631442,"connected_time":1635000000000,"state":"active","ping":82},{"user_id":303,"name":"Pats (Gifted items Collector)","steam_id":76561198418538887,"connected_time":1585000000000,"state":"active","ping":87},{"user_id":306,"name":"dog?","steam_id":76561199232839385,"connected_time":1259000000000,"state":"active","ping":91}]},{"server_id":311,"name":"Uncletopia | Frankfurt | 6 | All Maps","name_short":"frk-6","host":"frk-1.de.uncletopia.com","port":27065,"enabled":true,"region":"eu","cc":"de","latitude":50.110924,"longitude":8.682127,"reserved":0,"last_update":"0001-01-01T00:00:00Z","name_a2s":"Uncletopia | Frankfurt | 6 | All Maps","protocol":17,"map":"koth_lakeside_final","folder":"tf","game":"Team Fortress","app_id":440,"player_count":0,"max_players":24,"Bots":0,"server_type":"Dedicated","server_os":"Linux","password":true,"vac":true,"version":"7961495","steam_id":85568392924504278,"keywords":["cp","nocrits","nodmgspread","uncletopia"],"game_id":440,"stv_port":27066,"stv_name":"Uncletopia | Frankfurt | 6 | All Maps | STV","players":null},{"server_id":23,"name":"Uncletopia | Frankfurt | 7 | Stopwatch","name_short":"frk-7","host":"frk-1.de.uncletopia.com","port":27075,"enabled":true,"region":"eu","cc":"de","latitude":50.110924,"longitude":8.682127,"reserved":0,"last_update":"0001-01-01T00:00:00Z","name_a2s":"Uncletopia | Frankfurt | 7 | Stopwatch","protocol":17,"map":"cp_process_final","folder":"tf","game":"Team Fortress","app_id":440,"player_count":11,"max_players":24,"Bots":0,"server_type":"Dedicated","server_os":"Linux","password":true,"vac":true,"version":"7961495","steam_id":85568392924742827,"keywords":["cp","nocrits","nodmgspread","uncletopia"],"game_id":440,"stv_port":27076,"stv_name":"Uncletopia | Frankfurt | 7 | Stopwatch | STV","players":[{"user_id":181,"name":"Mario Judah","steam_id":76561197971514714,"connected_time":90000000000,"state":"active","ping":49},{"user_id":125,"name":"DeterminedXD[HUN]","steam_id":76561199469006453,"connected_time":3608000000000,"state":"active","ping":72},{"user_id":113,"name":"ran is running","steam_id":76561199443185667,"connected_time":5641000000000,"state":"active","ping":118},{"user_id":130,"name":"vert2spooky","steam_id":76561198914976373,"connected_time":3068000000000,"state":"active","ping":51},{"user_id":180,"name":"kill_me","steam_id":76561199204934483,"connected_time":217000000000,"state":"active","ping":84},{"user_id":182,"name":"KUDAR","steam_id":76561198382794964,"connected_time":22000000000,"state":"active","ping":238},{"user_id":177,"name":"Pyrolander","steam_id":76561198050785450,"connected_time":649000000000,"state":"active","ping":46},{"user_id":150,"name":"vi","steam_id":76561198303147966,"connected_time":1563000000000,"state":"active","ping":58},{"user_id":145,"name":"Zozo_alsghan(KSA)","steam_id":76561199087703209,"connected_time":1680000000000,"state":"active","ping":144},{"user_id":151,"name":"Xipheria","steam_id":76561198077414706,"connected_time":1443000000000,"state":"active","ping":77},{"user_id":155,"name":"TECHnoMITE","steam_id":76561198066443315,"connected_time":1260000000000,"state":"active","ping":50}]},{"server_id":24,"name":"Uncletopia | Frankfurt | 8 | Community","name_short":"frk-8","host":"frk-1.de.uncletopia.com","port":27085,"enabled":true,"region":"eu","cc":"de","latitude":50.110924,"longitude":8.682127,"reserved":0,"last_update":"0001-01-01T00:00:00Z","name_a2s":"Uncletopia | Frankfurt | 8 | Community","protocol":17,"map":"workshop/koth_synthetic_rc6a.ugc1549817316","folder":"tf","game":"Team Fortress","app_id":440,"player_count":0,"max_players":24,"Bots":0,"server_type":"Dedicated","server_os":"Linux","password":true,"vac":true,"version":"7961495","steam_id":85568392924742828,"keywords":["cp","nocrits","nodmgspread","uncletopia"],"game_id":440,"stv_port":27086,"stv_name":"Uncletopia | Frankfurt | 8 | Community | STV","players":null},{"server_id":202,"name":"Uncletopia | Hong Kong | 1 | All Maps","name_short":"hgk-1","host":"hgk-1.hk.uncletopia.com","port":27015,"enabled":true,"region":"asia","cc":"hk","latitude":22.302711,"longitude":114.177216,"reserved":0,"last_update":"0001-01-01T00:00:00Z","name_a2s":"Uncletopia | Hong Kong | 1 | All Maps","protocol":17,"map":"koth_nucleus","folder":"tf","game":"Team Fortress","app_id":440,"player_count":20,"max_players":24,"Bots":0,"server_type":"Dedicated","server_os":"Linux","password":true,"vac":true,"version":"7961495","steam_id":85568392924494504,"keywords":["cp","nocrits","nodmgspread","uncletopia"],"game_id":440,"stv_port":27016,"stv_name":"Uncletopia | Hong Kong | 1 | All Maps | STV","players":[{"user_id":513,"name":"leemo","steam_id":76561199508142075,"connected_time":38000000000,"state":"active","ping":37},{"user_id":484,"name":"Grifter","steam_id":76561198092369812,"connected_time":1575000000000,"state":"active","ping":78},{"user_id":469,"name":"Not Stir-fried Aliens SselmaN","steam_id":76561198075479294,"connected_time":2861000000000,"state":"active","ping":75},{"user_id":452,"name":"Variety","steam_id":76561198047396742,"connected_time":4689000000000,"state":"active","ping":55},{"user_id":493,"name":"Elhemage","steam_id":76561198105902121,"connected_time":1203000000000,"state":"active","ping":53},{"user_id":480,"name":"ZED","steam_id":76561198247502982,"connected_time":2106000000000,"state":"active","ping":82},{"user_id":249,"name":"xPhid","steam_id":76561199080808930,"connected_time":17406000000000,"state":"active","ping":65},{"user_id":444,"name":"Ïø†ÌÇ§","steam_id":76561197997220367,"connected_time":5724000000000,"state":"active","ping":44},{"user_id":459,"name":"ÊØç„ÅÆËÇâÂõ£Â≠ê@hao123.com","steam_id":76561198069561896,"connected_time":4389000000000,"state":"active","ping":38},{"user_id":412,"name":"Á¥îÊ≠£ÁöÑËêåÊñ∞QWQ","steam_id":76561198333268163,"connected_time":7745000000000,"state":"active","ping":70},{"user_id":506,"name":"PulsarÔºà‰∏≠ÊåáÊòüÔºâ","steam_id":76561198201338439,"connected_time":605000000000,"state":"active","ping":44},{"user_id":510,"name":"toad‚ô°","steam_id":76561198082199290,"connected_time":313000000000,"state":"active","ping":42},{"user_id":473,"name":"villy","steam_id":76561198169263597,"connected_time":2467000000000,"state":"active","ping":36},{"user_id":512,"name":"Gab","steam_id":76561198863909723,"connected_time":57000000000,"state":"active","ping":65},{"user_id":508,"name":"Ë†¢ËÑ∏È™ëÂ£´ËÑ∏‰∏çË†¢","steam_id":76561198422372840,"connected_time":510000000000,"state":"active","ping":51},{"user_id":483,"name":"Lunacia","steam_id":76561198429887240,"connected_time":1668000000000,"state":"active","ping":77},{"user_id":507,"name":"vanan9205","steam_id":76561199081213252,"connected_time":566000000000,"state":"active","ping":61},{"user_id":453,"name":"Teddie","steam_id":76561198150433935,"connected_time":4619000000000,"state":"active","ping":99},{"user_id":467,"name":"SoN","steam_id":76561198087127915,"connected_time":3276000000000,"state":"active","ping":77},{"user_id":471,"name":"boom","steam_id":76561199084484236,"connected_time":2853000000000,"state":"active","ping":65}]},{"server_id":1,"name":"Uncletopia | Los Angeles | 1 | All Maps","name_short":"lax-1","host":"lax-1.us.uncletopia.com","port":27015,"enabled":true,"region":"us-west","cc":"us","latitude":33.94279,"longitude":-118.41004,"reserved":0,"last_update":"0001-01-01T00:00:00Z","name_a2s":"Uncletopia | Los Angeles | 1 | All Maps","protocol":17,"map":"koth_lakeside_final","folder":"tf","game":"Team Fortress","app_id":440,"player_count":0,"max_players":24,"Bots":0,"server_type":"Dedicated","server_os":"Linux","password":true,"vac":true,"version":"7961495","steam_id":85568392924469991,"keywords":["cp","nocrits","nodmgspread","uncletopia"],"game_id":440,"stv_port":27016,"stv_name":"Uncletopia | Los Angeles | 1 | All Maps | STV","players":null},{"server_id":112,"name":"Uncletopia | Los Angeles | 2 | All Maps","name_short":"lax-2","host":"lax-1.us.uncletopia.com","port":27025,"enabled":true,"region":"us-west","cc":"us","latitude":33.94279,"longitude":-118.41004,"reserved":0,"last_update":"0001-01-01T00:00:00Z","name_a2s":"Uncletopia | Los Angeles | 2 | All Maps","protocol":17,"map":"cp_process_final","folder":"tf","game":"Team Fortress","app_id":440,"player_count":0,"max_players":24,"Bots":0,"server_type":"Dedicated","server_os":"Linux","password":true,"vac":true,"version":"7961495","steam_id":85568392924469992,"keywords":["cp","nocrits","nodmgspread","uncletopia"],"game_id":440,"stv_port":27026,"stv_name":"Uncletopia | Los Angeles | 2 | All Maps | STV","players":null},{"server_id":324,"name":"Uncletopia | Los Angeles | 3 | All Maps","name_short":"lax-3","host":"lax-1.us.uncletopia.com","port":27035,"enabled":true,"region":"us-west","cc":"us","latitude":33.94279,"longitude":-118.41004,"reserved":0,"last_update":"0001-01-01T00:00:00Z","name_a2s":"Uncletopia | Los Angeles | 3 | All Maps","protocol":17,"map":"pl_swiftwater_final1","folder":"tf","game":"Team Fortress","app_id":440,"player_count":0,"max_players":24,"Bots":0,"server_type":"Dedicated","server_os":"Linux","password":true,"vac":true,"version":"7961495","steam_id":85568392924510198,"keywords":["nocrits","nodmgspread","payload","uncletopia"],"game_id":440,"stv_port":27036,"stv_name":"Uncletopia | Los Angeles | 3 | All Maps | STV","players":null},{"server_id":25,"name":"Uncletopia | Los Angeles | 4 | Stopwatch","name_short":"lax-4","host":"lax-1.us.uncletopia.com","port":27045,"enabled":true,"region":"us-west","cc":"us","latitude":33.94279,"longitude":-118.41004,"reserved":0,"last_update":"0001-01-01T00:00:00Z","name_a2s":"Uncletopia | Los Angeles | 4 | Stopwatch","protocol":17,"map":"pl_upward","folder":"tf","game":"Team Fortress","app_id":440,"player_count":0,"max_players":24,"Bots":0,"server_type":"Dedicated","server_os":"Linux","password":true,"vac":true,"version":"7961495","steam_id":85568392924510199,"keywords":["nocrits","nodmgspread","payload","uncletopia"],"game_id":440,"stv_port":27046,"stv_name":"Uncletopia | Los Angeles | 4 | Stopwatch | STV","players":null},{"server_id":11,"name":"Uncletopia | London | 1 | All Maps","name_short":"lon-1","host":"lon-1.uk.uncletopia.com","port":27015,"enabled":true,"region":"eu","cc":"gb","latitude":51.509865,"longitude":-0.118092,"reserved":0,"last_update":"0001-01-01T00:00:00Z","name_a2s":"Uncletopia | London | 1 | All Maps","protocol":17,"map":"cp_junction_final","folder":"tf","game":"Team Fortress","app_id":440,"player_count":23,"max_players":24,"Bots":0,"server_type":"Dedicated","server_os":"Linux","password":true,"vac":true,"version":"7961495","steam_id":85568392924367362,"keywords":["cp","nocrits","nodmgspread","uncletopia"],"game_id":440,"stv_port":27016,"stv_name":"Uncletopia | London | 1 | All Maps | STV","players":[{"user_id":337,"name":"Grim the lemon","steam_id":76561199083433988,"connected_time":410000000000,"state":"active","ping":46},{"user_id":176,"name":"Anri Okita's Massive Milkers","steam_id":76561199186352720,"connected_time":12669000000000,"state":"active","ping":66},{"user_id":332,"name":"Minimi","steam_id":76561198873850443,"connected_time":785000000000,"state":"active","ping":43},{"user_id":340,"name":"L0KI","steam_id":76561198267562366,"connected_time":345000000000,"state":"active","ping":33},{"user_id":341,"name":"Ozzie","steam_id":76561197992915315,"connected_time":285000000000,"state":"active","ping":75},{"user_id":313,"name":"Slifer the Egyptian God Furry","steam_id":76561198062255803,"connected_time":2475000000000,"state":"active","ping":72},{"user_id":325,"name":"Dr Schmeltz","steam_id":76561198030453054,"connected_time":1098000000000,"state":"active","ping":47},{"user_id":209,"name":"Laru","steam_id":76561197998838438,"connected_time":10547000000000,"state":"active","ping":75},{"user_id":314,"name":"mertefe","steam_id":76561199237126613,"connected_time":2442000000000,"state":"active","ping":95},{"user_id":281,"name":"ashley","steam_id":76561198448551449,"connected_time":4544000000000,"state":"active","ping":37},{"user_id":305,"name":"the knight","steam_id":76561198368975915,"connected_time":3215000000000,"state":"active","ping":47},{"user_id":277,"name":"Mea","steam_id":76561198353496134,"connected_time":4573000000000,"state":"active","ping":51},{"user_id":294,"name":"A Table","steam_id":76561198056456470,"connected_time":3958000000000,"state":"active","ping":64},{"user_id":324,"name":"ein","steam_id":76561198152162834,"connected_time":1104000000000,"state":"active","ping":99},{"user_id":328,"name":"ber","steam_id":76561197993892057,"connected_time":1073000000000,"state":"active","ping":90},{"user_id":339,"name":"Sebastian","steam_id":76561197996502215,"connected_time":370000000000,"state":"active","ping":81},{"user_id":287,"name":"beebo","steam_id":76561199120277007,"connected_time":4299000000000,"state":"active","ping":52},{"user_id":319,"name":"Purple Soup :D","steam_id":76561198985100366,"connected_time":1925000000000,"state":"active","ping":78},{"user_id":279,"name":"trite","steam_id":76561197983765323,"connected_time":4551000000000,"state":"active","ping":45},{"user_id":285,"name":"Dzieciol","steam_id":76561198160237556,"connected_time":4428000000000,"state":"active","ping":75},{"user_id":338,"name":"snek","steam_id":76561198393655249,"connected_time":404000000000,"state":"active","ping":71},{"user_id":227,"name":"whimsy.","steam_id":76561198878171763,"connected_time":9073000000000,"state":"active","ping":48}]},{"server_id":114,"name":"Uncletopia | London | 2 | All Maps","name_short":"lon-2","host":"lon-1.uk.uncletopia.com","port":27025,"enabled":true,"region":"eu","cc":"gb","latitude":51.509865,"longitude":-0.118092,"reserved":0,"last_update":"0001-01-01T00:00:00Z","name_a2s":"Uncletopia | London | 2 | All Maps","protocol":17,"map":"cp_dustbowl","folder":"tf","game":"Team Fortress","app_id":440,"player_count":22,"max_players":24,"Bots":0,"server_type":"Dedicated","server_os":"Linux","password":true,"vac":true,"version":"7961495","steam_id":85568392924470941,"keywords":["cp","nocrits","nodmgspread","uncletopia"],"game_id":440,"stv_port":27026,"stv_name":"Uncletopia | London | 2 | All Maps | STV","players":[{"user_id":314,"name":"Pumpnik","steam_id":76561199083796274,"connected_time":177000000000,"state":"active","ping":81},{"user_id":300,"name":"Pyro Knight","steam_id":76561198071504997,"connected_time":741000000000,"state":"active","ping":65},{"user_id":313,"name":"Soulman25 (FIN)","steam_id":76561198103611974,"connected_time":317000000000,"state":"active","ping":90},{"user_id":301,"name":"( Õ°¬∞ Õú ñ Õ°¬∞)","steam_id":76561199196316280,"connected_time":639000000000,"state":"active","ping":77},{"user_id":288,"name":"co","steam_id":76561198188225497,"connected_time":2136000000000,"state":"active","ping":49},{"user_id":241,"name":"Zel","steam_id":76561198284520120,"connected_time":4689000000000,"state":"active","ping":45},{"user_id":266,"name":"aochte^","steam_id":76561198018507987,"connected_time":3064000000000,"state":"active","ping":69},{"user_id":315,"name":"_Context_","steam_id":76561199163359312,"connected_time":161000000000,"state":"active","ping":48},{"user_id":319,"name":"AlanWillson","steam_id":76561198043975413,"connected_time":35000000000,"state":"spawning","ping":118},{"user_id":317,"name":"worgeral","steam_id":76561198050781898,"connected_time":105000000000,"state":"active","ping":62},{"user_id":318,"name":"orge","steam_id":76561198358173553,"connected_time":58000000000,"state":"active","ping":88},{"user_id":296,"name":"BELADIT","steam_id":76561198011911501,"connected_time":1357000000000,"state":"active","ping":82},{"user_id":306,"name":"ŒöŒüŒ•ŒõŒóŒ£ ŒúŒ•ŒûŒüŒ§ŒëŒöŒóŒ£","steam_id":76561198042593027,"connected_time":558000000000,"state":"active","ping":88},{"user_id":320,"name":"spy's arent real","steam_id":76561198165871469,"connected_time":26000000000,"state":"spawning","ping":67},{"user_id":215,"name":"Wayan","steam_id":76561198354695464,"connected_time":7065000000000,"state":"active","ping":126},{"user_id":279,"name":"GhastlyPann","steam_id":76561198825373404,"connected_time":2286000000000,"state":"active","ping":112},{"user_id":308,"name":"‚àÜ","steam_id":76561199042470246,"connected_time":551000000000,"state":"active","ping":69},{"user_id":310,"name":"Pinte ti√®de de chouffe dachouf","steam_id":76561198203256418,"connected_time":508000000000,"state":"active","ping":66},{"user_id":312,"name":"Potato gaming trade.tf","steam_id":76561199110725402,"connected_time":424000000000,"state":"active","ping":76},{"user_id":299,"name":"Ivarr","steam_id":76561198115629118,"connected_time":1076000000000,"state":"active","ping":45},{"user_id":294,"name":"Bob1y","steam_id":76561199113762786,"connected_time":1428000000000,"state":"active","ping":83},{"user_id":292,"name":"Gibbo","steam_id":76561198021814576,"connected_time":1769000000000,"state":"active","ping":42}]},{"server_id":320,"name":"Uncletopia | London | 3 | All Maps","name_short":"lon-3","host":"lon-1.uk.uncletopia.com","port":27035,"enabled":true,"region":"eu","cc":"gb","latitude":51.509865,"longitude":-0.118092,"reserved":0,"last_update":"0001-01-01T00:00:00Z","name_a2s":"Uncletopia | London | 3 | All Maps","protocol":17,"map":"pl_upward","folder":"tf","game":"Team Fortress","app_id":440,"player_count":24,"max_players":24,"Bots":0,"server_type":"Dedicated","server_os":"Linux","password":true,"vac":true,"version":"7961495","steam_id":85568392924510192,"keywords":["nocrits","nodmgspread","payload","uncletopia"],"game_id":440,"stv_port":27036,"stv_name":"Uncletopia | London | 3 | All Maps | STV","players":[{"user_id":326,"name":"Birch","steam_id":76561197998712822,"connected_time":344000000000,"state":"active","ping":45},{"user_id":328,"name":"Tenshi","steam_id":76561197964915322,"connected_time":224000000000,"state":"active","ping":90},{"user_id":137,"name":"Ôº≠ÔΩÅÔΩÉÔΩâÔΩéÔΩîÔΩèÔΩìÔΩà","steam_id":76561198074294565,"connected_time":11327000000000,"state":"active","ping":75},{"user_id":225,"name":"cockroach","steam_id":76561198841841656,"connected_time":6574000000000,"state":"active","ping":70},{"user_id":329,"name":"skai","steam_id":76561198184881255,"connected_time":203000000000,"state":"active","ping":74},{"user_id":317,"name":"virgin gaming","steam_id":76561199038154024,"connected_time":1574000000000,"state":"active","ping":98},{"user_id":319,"name":"‚ú™Beer‚ò≠","steam_id":76561198129884760,"connected_time":823000000000,"state":"active","ping":53},{"user_id":309,"name":"Wardan","steam_id":76561199215041772,"connected_time":1910000000000,"state":"active","ping":36},{"user_id":330,"name":"GregerUlander","steam_id":76561198152375055,"connected_time":176000000000,"state":"active","ping":76},{"user_id":311,"name":"zzz","steam_id":76561199167288279,"connected_time":1870000000000,"state":"active","ping":61},{"user_id":313,"name":"highest noon","steam_id":76561199103959197,"connected_time":1849000000000,"state":"active","ping":87},{"user_id":252,"name":"Penis Contortionist","steam_id":76561198073663784,"connected_time":5048000000000,"state":"active","ping":37},{"user_id":331,"name":"Frust","steam_id":76561198009785922,"connected_time":145000000000,"state":"active","ping":119},{"user_id":257,"name":"clunk","steam_id":76561198836460767,"connected_time":4863000000000,"state":"active","ping":81},{"user_id":332,"name":"Hurans","steam_id":76561198064853199,"connected_time":108000000000,"state":"active","ping":62},{"user_id":321,"name":"BRICK TOP","steam_id":76561198014366715,"connected_time":687000000000,"state":"active","ping":46},{"user_id":307,"name":"NESS","steam_id":76561197995225318,"connected_time":2088000000000,"state":"active","ping":41},{"user_id":323,"name":"Doohickey mechanic","steam_id":76561198146180114,"connected_time":479000000000,"state":"active","ping":82},{"user_id":314,"name":"Froenzi","steam_id":76561198168841723,"connected_time":1840000000000,"state":"active","ping":60},{"user_id":322,"name":"Heller","steam_id":76561198033694102,"connected_time":672000000000,"state":"active","ping":79},{"user_id":318,"name":"Ullr","steam_id":76561198140547483,"connected_time":942000000000,"state":"active","ping":44},{"user_id":333,"name":"one medic (f2p)","steam_id":76561198403449689,"connected_time":106000000000,"state":"active","ping":150},{"user_id":334,"name":"tea","steam_id":76561199218227502,"connected_time":96000000000,"state":"active","ping":110},{"user_id":325,"name":"Flank","steam_id":76561198098731156,"connected_time":349000000000,"state":"active","ping":66}]},{"server_id":321,"name":"Uncletopia | London | 4 | All Maps","name_short":"lon-4","host":"lon-1.uk.uncletopia.com","port":27045,"enabled":true,"region":"eu","cc":"gb","latitude":51.509865,"longitude":-0.118092,"reserved":0,"last_update":"0001-01-01T00:00:00Z","name_a2s":"Uncletopia | London | 4 | All Maps","protocol":17,"map":"pl_upward","folder":"tf","game":"Team Fortress","app_id":440,"player_count":24,"max_players":24,"Bots":0,"server_type":"Dedicated","server_os":"Linux","password":true,"vac":true,"version":"7961495","steam_id":85568392924510193,"keywords":["nocrits","nodmgspread","payload","uncletopia"],"game_id":440,"stv_port":27046,"stv_name":"Uncletopia | London | 4 | All Maps | STV","players":[{"user_id":487,"name":"After8","steam_id":76561198090750865,"connected_time":3279000000000,"state":"active","ping":75},{"user_id":485,"name":"Swayer","steam_id":76561198056192460,"connected_time":3480000000000,"state":"active","ping":52},{"user_id":531,"name":"Tort","steam_id":76561198329646769,"connected_time":892000000000,"state":"active","ping":46},{"user_id":535,"name":"obi","steam_id":76561198040154461,"connected_time":660000000000,"state":"active","ping":63},{"user_id":498,"name":"TonyGappa","steam_id":76561197969011707,"connected_time":2726000000000,"state":"active","ping":47},{"user_id":479,"name":"loli generator","steam_id":76561198279621400,"connected_time":4223000000000,"state":"active","ping":91},{"user_id":454,"name":"Beauf de France","steam_id":76561198799097492,"connected_time":5461000000000,"state":"active","ping":48},{"user_id":504,"name":"bid","steam_id":76561198083863043,"connected_time":2219000000000,"state":"active","ping":43},{"user_id":536,"name":"THE POPE","steam_id":76561199157577009,"connected_time":593000000000,"state":"active","ping":47},{"user_id":525,"name":"Volloxh","steam_id":76561198085583848,"connected_time":1121000000000,"state":"active","ping":89},{"user_id":541,"name":"Phinton","steam_id":76561198014690842,"connected_time":327000000000,"state":"active","ping":83},{"user_id":539,"name":"Mateusz «∑Œ±œÅ≈ïœÉœÑŒ∑Œπ“ù","steam_id":76561198420162435,"connected_time":383000000000,"state":"active","ping":87},{"user_id":472,"name":"KEYMASTER","steam_id":76561199053214638,"connected_time":4377000000000,"state":"active","ping":57},{"user_id":540,"name":"Dankstein","steam_id":76561198122662378,"connected_time":361000000000,"state":"active","ping":71},{"user_id":542,"name":"Spinya","steam_id":76561198086653667,"connected_time":306000000000,"state":"active","ping":56},{"user_id":518,"name":"Grimm","steam_id":76561198044684227,"connected_time":1704000000000,"state":"active","ping":46},{"user_id":489,"name":"kluri","steam_id":76561198084518962,"connected_time":3106000000000,"state":"active","ping":77},{"user_id":490,"name":"silicon based life form","steam_id":76561199127121346,"connected_time":3031000000000,"state":"active","ping":45},{"user_id":436,"name":"Tryrn","steam_id":76561198075487436,"connected_time":7110000000000,"state":"active","ping":76},{"user_id":544,"name":"CrangSign","steam_id":76561198370580355,"connected_time":146000000000,"state":"active","ping":60},{"user_id":419,"name":"DudeoftheRock","steam_id":76561198059401865,"connected_time":8961000000000,"state":"active","ping":59},{"user_id":543,"name":"$t@lker_Tim","steam_id":76561198963658042,"connected_time":298000000000,"state":"active","ping":108},{"user_id":501,"name":"Nugget","steam_id":76561198338916407,"connected_time":2618000000000,"state":"active","ping":61},{"user_id":508,"name":"Pinkchup","steam_id":76561198106802803,"connected_time":1993000000000,"state":"active","ping":88}]},{"server_id":21,"name":"Uncletopia | London | 5 | All Maps","name_short":"lon-5","host":"lon-1.uk.uncletopia.com","port":27055,"enabled":true,"region":"eu","cc":"gb","latitude":51.509865,"longitude":-0.118092,"reserved":0,"last_update":"0001-01-01T00:00:00Z","name_a2s":"Uncletopia | London | 5 | All Maps","protocol":17,"map":"cp_sunshine","folder":"tf","game":"Team Fortress","app_id":440,"player_count":19,"max_players":24,"Bots":0,"server_type":"Dedicated","server_os":"Linux","password":true,"vac":true,"version":"7961495","steam_id":85568392924742829,"keywords":["cp","nocrits","nodmgspread","uncletopia"],"game_id":440,"stv_port":27056,"stv_name":"Uncletopia | London | 5 | All Maps | STV","players":[{"user_id":22,"name":"Tx_madmash","steam_id":76561198924656512,"connected_time":3345000000000,"state":"active","ping":64},{"user_id":62,"name":"Cooki","steam_id":76561198051705314,"connected_time":49000000000,"state":"active","ping":133},{"user_id":26,"name":"Crazyyk","steam_id":76561198882313836,"connected_time":1590000000000,"state":"active","ping":52},{"user_id":56,"name":"hmm yes","steam_id":76561198170322809,"connected_time":355000000000,"state":"active","ping":42},{"user_id":36,"name":"GaudyCipress660","steam_id":76561199222810631,"connected_time":1023000000000,"state":"active","ping":64},{"user_id":63,"name":"Xoriss","steam_id":76561198045892147,"connected_time":49000000000,"state":"spawning","ping":76},{"user_id":39,"name":"AddyD","steam_id":76561198201834415,"connected_time":879000000000,"state":"active","ping":61},{"user_id":48,"name":"Entvari","steam_id":76561198186639563,"connected_time":671000000000,"state":"active","ping":51},{"user_id":35,"name":"sniper's kangaroo wife","steam_id":76561198334042273,"connected_time":1068000000000,"state":"active","ping":37},{"user_id":50,"name":"HOI","steam_id":76561198061182117,"connected_time":661000000000,"state":"active","ping":46},{"user_id":57,"name":"tony wheels","steam_id":76561198842444831,"connected_time":345000000000,"state":"active","ping":45},{"user_id":43,"name":"billy","steam_id":76561198328711914,"connected_time":769000000000,"state":"active","ping":39},{"user_id":44,"name":"Tenchberry","steam_id":76561198064584801,"connected_time":752000000000,"state":"active","ping":50},{"user_id":47,"name":"ROX","steam_id":76561198272289320,"connected_time":706000000000,"state":"active","ping":46},{"user_id":49,"name":"Get Spooked","steam_id":76561198924141466,"connected_time":665000000000,"state":"active","ping":60},{"user_id":54,"name":"Milo","steam_id":76561198407461881,"connected_time":593000000000,"state":"active","ping":73},{"user_id":61,"name":"R8N - Obismal","steam_id":76561198007482714,"connected_time":152000000000,"state":"active","ping":76},{"user_id":58,"name":"doodgie","steam_id":76561198264934115,"connected_time":304000000000,"state":"active","ping":48},{"user_id":60,"name":"Mikhaila (She/Her)","steam_id":76561198065005979,"connected_time":190000000000,"state":"active","ping":150}]},{"server_id":22,"name":"Uncletopia | London | 6 | All Maps","name_short":"lon-6","host":"lon-1.uk.uncletopia.com","port":27065,"enabled":true,"region":"eu","cc":"gb","latitude":51.509865,"longitude":-0.118092,"reserved":0,"last_update":"0001-01-01T00:00:00Z","name_a2s":"Uncletopia | London | 6 | All Maps","protocol":17,"map":"cp_sunshine","folder":"tf","game":"Team Fortress","app_id":440,"player_count":0,"max_players":24,"Bots":0,"server_type":"Dedicated","server_os":"Linux","password":true,"vac":true,"version":"7961495","steam_id":85568392924742830,"keywords":["cp","nocrits","nodmgspread","uncletopia"],"game_id":440,"stv_port":27066,"stv_name":"Uncletopia | London | 6 | All Maps | STV","players":null},{"server_id":40,"name":"Uncletopia | London | 7 | Stopwatch","name_short":"lon-7","host":"lon-1.uk.uncletopia.com","port":27075,"enabled":true,"region":"eu","cc":"gb","latitude":51.509865,"longitude":-0.118092,"reserved":0,"last_update":"0001-01-01T00:00:00Z","name_a2s":"Uncletopia | London | 7 | Stopwatch","protocol":17,"map":"pl_borneo","folder":"tf","game":"Team Fortress","app_id":440,"player_count":0,"max_players":24,"Bots":0,"server_type":"Dedicated","server_os":"Linux","password":true,"vac":true,"version":"7961495","steam_id":85568392924964314,"keywords":["nocrits","nodmgspread","payload","uncletopia"],"game_id":440,"stv_port":27076,"stv_name":"Uncletopia | London | 7 | Stopwatch | STV","players":null},{"server_id":41,"name":"Uncletopia | London | 8 | Community","name_short":"lon-8","host":"lon-1.uk.uncletopia.com","port":27085,"enabled":true,"region":"eu","cc":"gb","latitude":51.509865,"longitude":-0.118092,"reserved":0,"last_update":"0001-01-01T00:00:00Z","name_a2s":"Uncletopia | London | 8 | Community","protocol":17,"map":"workshop/cp_villa_b19.ugc2113052569","folder":"tf","game":"Team Fortress","app_id":440,"player_count":0,"max_players":24,"Bots":0,"server_type":"Dedicated","server_os":"Linux","password":true,"vac":true,"version":"7961495","steam_id":85568392924964315,"keywords":["cp","nocrits","nodmgspread","uncletopia"],"game_id":440,"stv_port":27086,"stv_name":"Uncletopia | London | 8 | Community | STV","players":null},{"server_id":300,"name":"Uncletopia | Montr√©al | 1 | One Thousand Uncles","name_short":"mtl-1","host":"mtl-1.ca.uncletopia.com","port":27015,"enabled":true,"region":"us-east","cc":"ca","latitude":45.50889,"longitude":-73.56167,"reserved":0,"last_update":"0001-01-01T00:00:00Z","name_a2s":"Uncletopia | Montr√©al | 1 | One Thousand Uncles","protocol":17,"map":"pl_swiftwater_final1","folder":"tf","game":"Team Fortress","app_id":440,"player_count":0,"max_players":32,"Bots":0,"server_type":"Dedicated","server_os":"Linux","password":true,"vac":true,"version":"7961495","steam_id":85568392924500087,"keywords":["alltalk","danepve","increased_maxplayers","norespawntime","payload","uncletopia"],"game_id":440,"stv_port":0,"stv_name":"","players":null},{"server_id":301,"name":"Uncletopia | Montr√©al | 2 | One Thousand Uncles","name_short":"mtl-2","host":"mtl-1.ca.uncletopia.com","port":27025,"enabled":true,"region":"us-east","cc":"ca","latitude":45.50889,"longitude":-73.56167,"reserved":0,"last_update":"0001-01-01T00:00:00Z","name_a2s":"Uncletopia | Montr√©al | 2 | One Thousand Uncles","protocol":17,"map":"pl_chilly","folder":"tf","game":"Team Fortress","app_id":440,"player_count":19,"max_players":32,"Bots":16,"server_type":"Dedicated","server_os":"Linux","password":true,"vac":true,"version":"7961495","steam_id":85568392924500088,"keywords":["alltalk","bots","danepve","increased_maxplayers","norespawntime","payload","uncletopia"],"game_id":440,"stv_port":0,"stv_name":"","players":[{"user_id":20,"name":"Bulldozer","steam_id":76561198886468318,"connected_time":1588000000000,"state":"active","ping":206},{"user_id":38,"name":"Yankee_Pirate","steam_id":76561198260667117,"connected_time":855000000000,"state":"active","ping":46},{"user_id":40,"name":"MattJettskie","steam_id":76561199229493583,"connected_time":48000000000,"state":"active","ping":87}]},{"server_id":302,"name":"Uncletopia | Montr√©al | 3 | One Thousand Uncles","name_short":"mtl-3","host":"mtl-1.ca.uncletopia.com","port":27035,"enabled":true,"region":"us-east","cc":"ca","latitude":45.50889,"longitude":-73.56167,"reserved":0,"last_update":"0001-01-01T00:00:00Z","name_a2s":"Uncletopia | Montr√©al | 3 | One Thousand Uncles","protocol":17,"map":"pl_upward","folder":"tf","game":"Team Fortress","app_id":440,"player_count":0,"max_players":32,"Bots":0,"server_type":"Dedicated","server_os":"Linux","password":true,"vac":true,"version":"7961495","steam_id":85568392924500089,"keywords":["alltalk","danepve","increased_maxplayers","norespawntime","payload","uncletopia"],"game_id":440,"stv_port":0,"stv_name":"","players":null},{"server_id":13,"name":"Uncletopia | New York City | 1 | All Maps","name_short":"nyc-1","host":"nyc-1.us.uncletopia.com","port":27015,"enabled":true,"region":"us-east","cc":"us","latitude":40.73061,"longitude":-73.93524,"reserved":0,"last_update":"0001-01-01T00:00:00Z","name_a2s":"Uncletopia | New York City | 1 | All Maps","protocol":17,"map":"pl_borneo","folder":"tf","game":"Team Fortress","app_id":440,"player_count":18,"max_players":24,"Bots":0,"server_type":"Dedicated","server_os":"Linux","password":true,"vac":true,"version":"7961495","steam_id":85568392924469993,"keywords":["nocrits","nodmgspread","payload","uncletopia"],"game_id":440,"stv_port":27016,"stv_name":"Uncletopia | New York City | 1 | All Maps | STV","players":[{"user_id":69,"name":"dax","steam_id":76561198045335319,"connected_time":1367000000000,"state":"active","ping":68},{"user_id":18,"name":"KrashBoomBang","steam_id":76561199002978777,"connected_time":3394000000000,"state":"active","ping":30},{"user_id":41,"name":"dan","steam_id":76561197984998426,"connected_time":2853000000000,"state":"active","ping":67},{"user_id":88,"name":"Flaccid Snake","steam_id":76561199028424036,"connected_time":95000000000,"state":"active","ping":52},{"user_id":23,"name":"Sammich","steam_id":76561198010543087,"connected_time":3321000000000,"state":"active","ping":57},{"user_id":25,"name":"Icypoisonfang","steam_id":76561199212238402,"connected_time":3210000000000,"state":"active","ping":89},{"user_id":86,"name":"Krysys","steam_id":76561198059740403,"connected_time":425000000000,"state":"active","ping":37},{"user_id":27,"name":"The Fool","steam_id":76561198081397523,"connected_time":3173000000000,"state":"spawning","ping":49},{"user_id":67,"name":"bony","steam_id":76561198241893988,"connected_time":1739000000000,"state":"active","ping":52},{"user_id":77,"name":"Lanky Kong","steam_id":76561198142455488,"connected_time":976000000000,"state":"active","ping":40},{"user_id":79,"name":"Helmet Hands","steam_id":76561197961141994,"connected_time":930000000000,"state":"active","ping":137},{"user_id":35,"name":"Bigsumoslammer","steam_id":76561198044505076,"connected_time":3012000000000,"state":"active","ping":30},{"user_id":80,"name":"Cthulwho?","steam_id":76561198165550810,"connected_time":910000000000,"state":"active","ping":60},{"user_id":38,"name":"gorilla","steam_id":76561199059768776,"connected_time":2957000000000,"state":"active","ping":88},{"user_id":56,"name":"barry steakfries","steam_id":76561199472218520,"connected_time":2627000000000,"state":"active","ping":54},{"user_id":84,"name":"Relic","steam_id":76561198071200441,"connected_time":572000000000,"state":"active","ping":89},{"user_id":45,"name":"vom","steam_id":76561198070311363,"connected_time":2831000000000,"state":"active","ping":53},{"user_id":70,"name":"bingus :3","steam_id":76561199198633203,"connected_time":1363000000000,"state":"active","ping":121}]},{"server_id":14,"name":"Uncletopia | New York City | 2 | All Maps","name_short":"nyc-2","host":"nyc-1.us.uncletopia.com","port":27025,"enabled":true,"region":"us-east","cc":"us","latitude":40.73061,"longitude":-73.93524,"reserved":0,"last_update":"0001-01-01T00:00:00Z","name_a2s":"Uncletopia | New York City | 2 | All Maps","protocol":17,"map":"pl_borneo","folder":"tf","game":"Team Fortress","app_id":440,"player_count":20,"max_players":24,"Bots":0,"server_type":"Dedicated","server_os":"Linux","password":true,"vac":true,"version":"7961495","steam_id":85568392924469994,"keywords":["nocrits","nodmgspread","payload","uncletopia"],"game_id":440,"stv_port":27026,"stv_name":"Uncletopia | New York City | 2 | All Maps | STV","players":[{"user_id":235,"name":"RudyRoar","steam_id":76561199081611335,"connected_time":542000000000,"state":"active","ping":43},{"user_id":227,"name":"I shovel mayonnaise in mouth","steam_id":76561199123118241,"connected_time":1299000000000,"state":"active","ping":109},{"user_id":234,"name":"foob","steam_id":76561198960311420,"connected_time":557000000000,"state":"active","ping":34},{"user_id":99,"name":"Orange Triangle","steam_id":76561198320498182,"connected_time":4840000000000,"state":"active","ping":64},{"user_id":218,"name":"when","steam_id":76561198443289583,"connected_time":1687000000000,"state":"active","ping":54},{"user_id":236,"name":"jorjor wells","steam_id":76561199073429082,"connected_time":444000000000,"state":"active","ping":56},{"user_id":241,"name":"Peepster","steam_id":76561198297854733,"connected_time":298000000000,"state":"active","ping":70},{"user_id":248,"name":"VioletSpecs (She/Her)","steam_id":76561198089366466,"connected_time":16000000000,"state":"active","ping":55},{"user_id":242,"name":"wendigo","steam_id":76561197994528974,"connected_time":256000000000,"state":"active","ping":109},{"user_id":246,"name":"Prsm","steam_id":76561198053344995,"connected_time":159000000000,"state":"active","ping":31},{"user_id":19,"name":"Boofenshmirtz","steam_id":76561198071649858,"connected_time":6249000000000,"state":"active","ping":74},{"user_id":240,"name":"Lil-Chanka","steam_id":76561199009724257,"connected_time":302000000000,"state":"active","ping":122},{"user_id":22,"name":"SkarloeyFell","steam_id":76561199183127174,"connected_time":6193000000000,"state":"active","ping":47},{"user_id":243,"name":"Sucsubot","steam_id":76561198106456128,"connected_time":252000000000,"state":"active","ping":75},{"user_id":220,"name":"Void","steam_id":76561198046418244,"connected_time":1644000000000,"state":"active","ping":70},{"user_id":216,"name":"general.b","steam_id":76561198162480519,"connected_time":1743000000000,"state":"active","ping":50},{"user_id":223,"name":"Im totally a hacker","steam_id":76561198888005736,"connected_time":1485000000000,"state":"active","ping":74},{"user_id":229,"name":"Tylogaming","steam_id":76561198025181395,"connected_time":961000000000,"state":"active","ping":82},{"user_id":247,"name":"Adawnby","steam_id":76561198103057295,"connected_time":154000000000,"state":"active","ping":78},{"user_id":212,"name":"Dareu","steam_id":76561198081781710,"connected_time":2239000000000,"state":"active","ping":57}]},{"server_id":15,"name":"Uncletopia | New York City | 3 | Stopwatch","name_short":"nyc-3","host":"nyc-1.us.uncletopia.com","port":27035,"enabled":true,"region":"us-east","cc":"us","latitude":40.73061,"longitude":-73.93524,"reserved":0,"last_update":"0001-01-01T00:00:00Z","name_a2s":"Uncletopia | New York City | 3 | Stopwatch","protocol":17,"map":"workshop/cp_reckoner_rc6.ugc674719999","folder":"tf","game":"Team Fortress","app_id":440,"player_count":0,"max_players":24,"Bots":0,"server_type":"Dedicated","server_os":"Linux","password":true,"vac":true,"version":"7961495","steam_id":85568392924742820,"keywords":["cp","nocrits","nodmgspread","uncletopia"],"game_id":440,"stv_port":27036,"stv_name":"Uncletopia | New York City | 3 | Stopwatch | STV","players":null},{"server_id":16,"name":"Uncletopia | New York City | 4 | Community","name_short":"nyc-4","host":"nyc-1.us.uncletopia.com","port":27045,"enabled":true,"region":"us-east","cc":"us","latitude":40.73061,"longitude":-73.93524,"reserved":0,"last_update":"0001-01-01T00:00:00Z","name_a2s":"Uncletopia | New York City | 4 | Community","protocol":17,"map":"workshop/cp_propaganda_b18.ugc1603743849","folder":"tf","game":"Team Fortress","app_id":440,"player_count":0,"max_players":24,"Bots":0,"server_type":"Dedicated","server_os":"Linux","password":true,"vac":true,"version":"7961495","steam_id":85568392924742821,"keywords":["cp","nocrits","nodmgspread","uncletopia"],"game_id":440,"stv_port":27046,"stv_name":"Uncletopia | New York City | 4 | Community | STV","players":null},{"server_id":142,"name":"Uncletopia | S√£o Paulo | 1 | All Maps","name_short":"sao-1","host":"sao-1.br.uncletopia.com","port":27015,"enabled":true,"region":"sa","cc":"br","latitude":-23.533773,"longitude":-46.62529,"reserved":0,"last_update":"0001-01-01T00:00:00Z","name_a2s":"Uncletopia | S√£o Paulo | 1 | All Maps","protocol":17,"map":"koth_cascade","folder":"tf","game":"Team Fortress","app_id":440,"player_count":0,"max_players":24,"Bots":0,"server_type":"Dedicated","server_os":"Linux","password":true,"vac":true,"version":"7961495","steam_id":85568392924469996,"keywords":["cp","nocrits","nodmgspread","uncletopia"],"game_id":440,"stv_port":27016,"stv_name":"Uncletopia | S√£o Paulo | 1 | All Maps | STV","players":null},{"server_id":143,"name":"Uncletopia | S√£o Paulo | 2 | Community","name_short":"sao-2","host":"sao-2.br.uncletopia.com","port":27015,"enabled":true,"region":"sa","cc":"br","latitude":-23.533773,"longitude":-46.62529,"reserved":0,"last_update":"0001-01-01T00:00:00Z","name_a2s":"Uncletopia | S√£o Paulo | 2 | Community","protocol":17,"map":"workshop/cp_croissant_final.ugc458840209","folder":"tf","game":"Team Fortress","app_id":440,"player_count":0,"max_players":24,"Bots":0,"server_type":"Dedicated","server_os":"Linux","password":true,"vac":true,"version":"7961495","steam_id":85568392924485349,"keywords":["cp","nocrits","nodmgspread","uncletopia"],"game_id":440,"stv_port":27016,"stv_name":"Uncletopia | S√£o Paulo | 2 | Community | STV","players":null},{"server_id":7,"name":"Uncletopia | Seattle | 1 | All Maps","name_short":"sea-1","host":"sea-1.us.uncletopia.com","port":27015,"enabled":true,"region":"us-west","cc":"us","latitude":47.608013,"longitude":-122.33517,"reserved":0,"last_update":"0001-01-01T00:00:00Z","name_a2s":"Uncletopia | Seattle | 1 | All Maps","protocol":17,"map":"pl_snowycoast","folder":"tf","game":"Team Fortress","app_id":440,"player_count":23,"max_players":24,"Bots":0,"server_type":"Dedicated","server_os":"Linux","password":true,"vac":true,"version":"7961495","steam_id":85568392924469997,"keywords":["nocrits","nodmgspread","payload","uncletopia"],"game_id":440,"stv_port":27016,"stv_name":"Uncletopia | Seattle | 1 | All Maps | STV","players":[{"user_id":99,"name":"SibilantSerpent","steam_id":76561198154488754,"connected_time":381000000000,"state":"active","ping":43},{"user_id":68,"name":"BreadQuest","steam_id":76561198082425960,"connected_time":2493000000000,"state":"active","ping":43},{"user_id":35,"name":"Gary","steam_id":76561199466597572,"connected_time":4284000000000,"state":"active","ping":96},{"user_id":101,"name":"Gogle","steam_id":76561198857237473,"connected_time":250000000000,"state":"active","ping":54},{"user_id":102,"name":"Natsuki the Scunt","steam_id":76561199175922684,"connected_time":244000000000,"state":"active","ping":86},{"user_id":76,"name":"Onion My Ate Dog My","steam_id":76561198155848925,"connected_time":2175000000000,"state":"active","ping":122},{"user_id":84,"name":"FezRequiem","steam_id":76561198070066667,"connected_time":1652000000000,"state":"active","ping":76},{"user_id":100,"name":"SnArCAsTiC","steam_id":76561198084340386,"connected_time":313000000000,"state":"active","ping":69},{"user_id":108,"name":"Wang of Wall St","steam_id":76561198047460598,"connected_time":120000000000,"state":"active","ping":127},{"user_id":72,"name":"AuraBraixen_4412","steam_id":76561198120668769,"connected_time":2269000000000,"state":"active","ping":102},{"user_id":104,"name":"Oktayey","steam_id":76561198143213426,"connected_time":180000000000,"state":"active","ping":63},{"user_id":109,"name":"MancalaMadMan","steam_id":76561198347324053,"connected_time":107000000000,"state":"active","ping":102},{"user_id":63,"name":"Hazel (Medical)","steam_id":76561199247095754,"connected_time":3049000000000,"state":"active","ping":57},{"user_id":112,"name":"DeltaForce4Life","steam_id":76561198355534614,"connected_time":62000000000,"state":"active","ping":111},{"user_id":38,"name":"yepter","steam_id":76561198270967793,"connected_time":4229000000000,"state":"active","ping":41},{"user_id":83,"name":"Winter the Witchie","steam_id":76561198151971178,"connected_time":1794000000000,"state":"active","ping":105},{"user_id":110,"name":"goobis","steam_id":76561198166119691,"connected_time":97000000000,"state":"active","ping":177},{"user_id":96,"name":"the keebler","steam_id":76561199486326945,"connected_time":743000000000,"state":"active","ping":122},{"user_id":87,"name":"spes","steam_id":76561198081496581,"connected_time":1605000000000,"state":"active","ping":45},{"user_id":65,"name":"@   ‰∫∫   @","steam_id":76561198043684960,"connected_time":2755000000000,"state":"active","ping":120},{"user_id":97,"name":"zinnk","steam_id":76561198092081825,"connected_time":717000000000,"state":"active","ping":61},{"user_id":98,"name":"dust | it/she","steam_id":76561198045218909,"connected_time":684000000000,"state":"active","ping":42},{"user_id":64,"name":"Mediocre Gaming","steam_id":76561199230467980,"connected_time":3017000000000,"state":"active","ping":92}]},{"server_id":119,"name":"Uncletopia | Seattle | 2 | All Maps","name_short":"sea-2","host":"sea-1.us.uncletopia.com","port":27025,"enabled":true,"region":"us-west","cc":"us","latitude":47.608013,"longitude":-122.33517,"reserved":0,"last_update":"0001-01-01T00:00:00Z","name_a2s":"Uncletopia | Seattle | 2 | All Maps","protocol":17,"map":"koth_lakeside_final","folder":"tf","game":"Team Fortress","app_id":440,"player_count":0,"max_players":24,"Bots":0,"server_type":"Dedicated","server_os":"Linux","password":true,"vac":true,"version":"7961495","steam_id":85568392924469998,"keywords":["cp","nocrits","nodmgspread","uncletopia"],"game_id":440,"stv_port":27026,"stv_name":"Uncletopia | Seattle | 2 | All Maps | STV","players":null},{"server_id":406,"name":"Uncletopia | Seattle | 3 | Stopwatch","name_short":"sea-3","host":"sea-1.us.uncletopia.com","port":27035,"enabled":true,"region":"us-west","cc":"us","latitude":47.608013,"longitude":-122.33517,"reserved":0,"last_update":"0001-01-01T00:00:00Z","name_a2s":"Uncletopia | Seattle | 3 | Stopwatch","protocol":17,"map":"cp_gullywash_final1","folder":"tf","game":"Team Fortress","app_id":440,"player_count":0,"max_players":24,"Bots":0,"server_type":"Dedicated","server_os":"Linux","password":true,"vac":true,"version":"7961495","steam_id":85568392924515217,"keywords":["cp","nocrits","nodmgspread","uncletopia"],"game_id":440,"stv_port":27036,"stv_name":"Uncletopia | Seattle | 3 | Stopwatch | STV","players":null},{"server_id":17,"name":"Uncletopia | San Francisco | 1 | All Maps","name_short":"sfo-1","host":"sfo-1.us.uncletopia.com","port":27015,"enabled":true,"region":"us-west","cc":"us","latitude":37.77397,"longitude":-122.4313,"reserved":0,"last_update":"0001-01-01T00:00:00Z","name_a2s":"Uncletopia | San Francisco | 1 | All Maps","protocol":17,"map":"koth_highpass","folder":"tf","game":"Team Fortress","app_id":440,"player_count":0,"max_players":24,"Bots":0,"server_type":"Dedicated","server_os":"Linux","password":true,"vac":true,"version":"7961495","steam_id":85568392924469999,"keywords":["cp","nocrits","nodmgspread","uncletopia"],"game_id":440,"stv_port":27016,"stv_name":"Uncletopia | San Francisco | 1 | All Maps | STV","players":null},{"server_id":18,"name":"Uncletopia | San Francisco | 2 | All Maps","name_short":"sfo-2","host":"sfo-1.us.uncletopia.com","port":27025,"enabled":true,"region":"us-west","cc":"us","latitude":37.77397,"longitude":-122.4313,"reserved":0,"last_update":"0001-01-01T00:00:00Z","name_a2s":"Uncletopia | San Francisco | 2 | All Maps","protocol":17,"map":"cp_freight_final1","folder":"tf","game":"Team Fortress","app_id":440,"player_count":0,"max_players":24,"Bots":0,"server_type":"Dedicated","server_os":"Linux","password":true,"vac":true,"version":"7961495","steam_id":85568392924470000,"keywords":["cp","nocrits","nodmgspread","uncletopia"],"game_id":440,"stv_port":27026,"stv_name":"Uncletopia | San Francisco | 2 | All Maps | STV","players":null},{"server_id":19,"name":"Uncletopia | San Francisco | 3 | Stopwatch","name_short":"sfo-3","host":"sfo-1.us.uncletopia.com","port":27035,"enabled":true,"region":"us-west","cc":"us","latitude":37.77397,"longitude":-122.4313,"reserved":0,"last_update":"0001-01-01T00:00:00Z","name_a2s":"Uncletopia | San Francisco | 3 | Stopwatch","protocol":17,"map":"workshop/koth_product_final.ugc454272353","folder":"tf","game":"Team Fortress","app_id":440,"player_count":0,"max_players":24,"Bots":0,"server_type":"Dedicated","server_os":"Linux","password":true,"vac":true,"version":"7961495","steam_id":85568392924742824,"keywords":["cp","nocrits","nodmgspread","uncletopia"],"game_id":440,"stv_port":27036,"stv_name":"Uncletopia | San Francisco | 3 | Stopwatch | STV","players":null},{"server_id":20,"name":"Uncletopia | San Francisco | 4 | Community","name_short":"sfo-4","host":"sfo-1.us.uncletopia.com","port":27045,"enabled":true,"region":"us-west","cc":"us","latitude":37.77397,"longitude":-122.4313,"reserved":0,"last_update":"0001-01-01T00:00:00Z","name_a2s":"Uncletopia | San Francisco | 4 | Community","protocol":17,"map":"workshop/pl_cactuscanyon_redux_final2.ugc2579644293","folder":"tf","game":"Team Fortress","app_id":440,"player_count":0,"max_players":24,"Bots":0,"server_type":"Dedicated","server_os":"Linux","password":true,"vac":true,"version":"7961495","steam_id":85568392924742826,"keywords":["nocrits","nodmgspread","payload","uncletopia"],"game_id":440,"stv_port":27046,"stv_name":"Uncletopia | San Francisco | 4 | Community | STV","players":null},{"server_id":141,"name":"Uncletopia | Sydney | 1 | All Maps","name_short":"syd-1","host":"syd-1.au.uncletopia.com","port":27015,"enabled":true,"region":"au","cc":"au","latitude":-33.865143,"longitude":151.2099,"reserved":0,"last_update":"0001-01-01T00:00:00Z","name_a2s":"Uncletopia | Sydney | 1 | All Maps","protocol":17,"map":"pl_borneo","folder":"tf","game":"Team Fortress","app_id":440,"player_count":0,"max_players":24,"Bots":0,"server_type":"Dedicated","server_os":"Linux","password":true,"vac":true,"version":"7961495","steam_id":85568392924470001,"keywords":["nocrits","nodmgspread","payload","uncletopia"],"game_id":440,"stv_port":27016,"stv_name":"Uncletopia | Sydney | 1 | All Maps | STV","players":null},{"server_id":123,"name":"Uncletopia | Sydney | 2 | All Maps","name_short":"syd-2","host":"syd-1.au.uncletopia.com","port":27025,"enabled":true,"region":"au","cc":"au","latitude":-33.865143,"longitude":151.2099,"reserved":0,"last_update":"0001-01-01T00:00:00Z","name_a2s":"Uncletopia | Sydney | 2 | All Maps","protocol":17,"map":"cp_mountainlab","folder":"tf","game":"Team Fortress","app_id":440,"player_count":19,"max_players":24,"Bots":0,"server_type":"Dedicated","server_os":"Linux","password":true,"vac":true,"version":"7961495","steam_id":85568392924470002,"keywords":["cp","nocrits","nodmgspread","uncletopia"],"game_id":440,"stv_port":27026,"stv_name":"Uncletopia | Sydney | 2 | All Maps | STV","players":[{"user_id":370,"name":"Mutha Bukka","steam_id":76561198072964708,"connected_time":4231000000000,"state":"active","ping":44},{"user_id":197,"name":"DKC","steam_id":76561198313578155,"connected_time":14394000000000,"state":"active","ping":44},{"user_id":331,"name":"will smith","steam_id":76561198112980997,"connected_time":7031000000000,"state":"active","ping":46},{"user_id":400,"name":"Plushie","steam_id":76561198043226890,"connected_time":1091000000000,"state":"active","ping":47},{"user_id":396,"name":"little raw meat boy","steam_id":76561199248254676,"connected_time":1618000000000,"state":"active","ping":59},{"user_id":290,"name":"Crystal Bathtub Rub","steam_id":76561198011764631,"connected_time":8827000000000,"state":"active","ping":59},{"user_id":372,"name":"Steve","steam_id":76561198429235506,"connected_time":3964000000000,"state":"active","ping":51},{"user_id":394,"name":"Miles Morales","steam_id":76561198071086727,"connected_time":1804000000000,"state":"active","ping":73},{"user_id":374,"name":"bandicootbill","steam_id":76561198066913399,"connected_time":3936000000000,"state":"active","ping":57},{"user_id":319,"name":"Chowdermonkey","steam_id":76561198990121068,"connected_time":7383000000000,"state":"active","ping":56},{"user_id":344,"name":"zinks","steam_id":76561198338774398,"connected_time":6407000000000,"state":"active","ping":105},{"user_id":390,"name":"Unholy Diver","steam_id":76561198081298968,"connected_time":2740000000000,"state":"active","ping":78},{"user_id":405,"name":"beesha","steam_id":76561198092473954,"connected_time":28000000000,"state":"active","ping":103},{"user_id":404,"name":"No","steam_id":76561199092881389,"connected_time":230000000000,"state":"active","ping":44},{"user_id":382,"name":"Torex","steam_id":76561198163286049,"connected_time":3412000000000,"state":"active","ping":45},{"user_id":358,"name":"Shaquille Oatmeal","steam_id":76561198282647334,"connected_time":5350000000000,"state":"active","ping":87},{"user_id":312,"name":"Legin","steam_id":76561198070479508,"connected_time":7560000000000,"state":"active","ping":83},{"user_id":360,"name":"moist","steam_id":76561198065846127,"connected_time":5269000000000,"state":"active","ping":43},{"user_id":338,"name":"Wat The Snek","steam_id":76561198290380602,"connected_time":6719000000000,"state":"active","ping":147}]},{"server_id":395,"name":"Uncletopia | Sydney | 3 | All Maps","name_short":"syd-3","host":"syd-1.au.uncletopia.com","port":27035,"enabled":true,"region":"au","cc":"au","latitude":-33.865143,"longitude":151.2099,"reserved":0,"last_update":"0001-01-01T00:00:00Z","name_a2s":"Uncletopia | Sydney | 3 | All Maps","protocol":17,"map":"pl_swiftwater_final1","folder":"tf","game":"Team Fortress","app_id":440,"player_count":0,"max_players":24,"Bots":0,"server_type":"Dedicated","server_os":"Linux","password":true,"vac":true,"version":"7961495","steam_id":85568392925194467,"keywords":["nocrits","nodmgspread","payload","uncletopia"],"game_id":440,"stv_port":27036,"stv_name":"Uncletopia | Sydney | 3 | All Maps | STV","players":null},{"server_id":396,"name":"Uncletopia | Sydney | 4 | All Maps","name_short":"syd-4","host":"syd-1.au.uncletopia.com","port":27045,"enabled":true,"region":"au","cc":"au","latitude":-33.865143,"longitude":151.2099,"reserved":0,"last_update":"0001-01-01T00:00:00Z","name_a2s":"Uncletopia | Sydney | 4 | All Maps","protocol":17,"map":"cp_sunshine","folder":"tf","game":"Team Fortress","app_id":440,"player_count":0,"max_players":24,"Bots":0,"server_type":"Dedicated","server_os":"Linux","password":true,"vac":true,"version":"7961495","steam_id":85568392925397958,"keywords":["cp","nocrits","nodmgspread","uncletopia"],"game_id":440,"stv_port":27046,"stv_name":"Uncletopia | Sydney | 4 | All Maps | STV","players":null},{"server_id":58,"name":"Uncletopia | Sydney | 5 | Stopwatch","name_short":"syd-5","host":"syd-1.au.uncletopia.com","port":27055,"enabled":true,"region":"au","cc":"au","latitude":-33.865143,"longitude":151.2099,"reserved":0,"last_update":"0001-01-01T00:00:00Z","name_a2s":"Uncletopia | Sydney | 5 | Stopwatch","protocol":17,"map":"pl_swiftwater_final1","folder":"tf","game":"Team Fortress","app_id":440,"player_count":0,"max_players":24,"Bots":0,"server_type":"Dedicated","server_os":"Linux","password":true,"vac":true,"version":"7961495","steam_id":85568392925397959,"keywords":["nocrits","nodmgspread","payload","uncletopia"],"game_id":440,"stv_port":27056,"stv_name":"Uncletopia | Sydney | 5 | Stopwatch | STV","players":null},{"server_id":59,"name":"Uncletopia | Sydney | 6 | Community","name_short":"syd-6","host":"syd-1.au.uncletopia.com","port":27065,"enabled":true,"region":"au","cc":"au","latitude":-33.865143,"longitude":151.2099,"reserved":0,"last_update":"0001-01-01T00:00:00Z","name_a2s":"Uncletopia | Sydney | 6 | Community","protocol":17,"map":"workshop/koth_trenchfoot_ab1.ugc731436616","folder":"tf","game":"Team Fortress","app_id":440,"player_count":0,"max_players":24,"Bots":0,"server_type":"Dedicated","server_os":"Linux","password":true,"vac":true,"version":"7961495","steam_id":85568392925397960,"keywords":["cp","nocrits","nodmgspread","uncletopia"],"game_id":440,"stv_port":27066,"stv_name":"Uncletopia | Sydney | 6 | Community | STV","players":null},{"server_id":49,"name":"Uncletopia | Warsaw | 1 | One Thousand Uncles","name_short":"waw-1","host":"waw-1.pl.uncletopia.com","port":27015,"enabled":true,"region":"eu","cc":"pl","latitude":52.2297,"longitude":21.017532,"reserved":0,"last_update":"0001-01-01T00:00:00Z","name_a2s":"Uncletopia | Warsaw | 1 | One Thousand Uncles","protocol":17,"map":"koth_highpass","folder":"tf","game":"Team Fortress","app_id":440,"player_count":20,"max_players":32,"Bots":16,"server_type":"Dedicated","server_os":"Linux","password":true,"vac":true,"version":"7961495","steam_id":85568392925397850,"keywords":["alltalk","bots","cp","danepve","increased_maxplayers","norespawntime","uncletopia"],"game_id":440,"stv_port":0,"stv_name":"","players":[{"user_id":463,"name":"Celiek","steam_id":76561198179319610,"connected_time":168000000000,"state":"active","ping":53},{"user_id":451,"name":"LightBulbGlue #SaveTF2","steam_id":76561198329573529,"connected_time":2132000000000,"state":"active","ping":174},{"user_id":452,"name":"historykwojen","steam_id":76561198322049922,"connected_time":2106000000000,"state":"active","ping":33},{"user_id":458,"name":"LizardMilk_19","steam_id":76561199435002235,"connected_time":1134000000000,"state":"active","ping":283}]},{"server_id":50,"name":"Uncletopia | Warsaw | 2 | One Thousand Uncles","name_short":"waw-2","host":"waw-1.pl.uncletopia.com","port":27025,"enabled":true,"region":"eu","cc":"pl","latitude":52.2297,"longitude":21.017532,"reserved":0,"last_update":"0001-01-01T00:00:00Z","name_a2s":"Uncletopia | Warsaw | 2 | One Thousand Uncles","protocol":17,"map":"cp_egypt_final","folder":"tf","game":"Team Fortress","app_id":440,"player_count":25,"max_players":32,"Bots":16,"server_type":"Dedicated","server_os":"Linux","password":true,"vac":true,"version":"7961495","steam_id":85568392925397851,"keywords":["alltalk","bots","cp","danepve","increased_maxplayers","norespawntime","uncletopia"],"game_id":440,"stv_port":0,"stv_name":"","players":[{"user_id":550,"name":"Pain in a Box","steam_id":76561197990777173,"connected_time":9000000000,"state":"spawning","ping":77},{"user_id":546,"name":"hehshsdh90","steam_id":76561199507835917,"connected_time":615000000000,"state":"active","ping":53},{"user_id":503,"name":"MrHenry","steam_id":76561199249662743,"connected_time":3734000000000,"state":"active","ping":149},{"user_id":534,"name":"MrDUB","steam_id":76561199131642284,"connected_time":2036000000000,"state":"active","ping":76},{"user_id":540,"name":"The Card","steam_id":76561198345150562,"connected_time":1644000000000,"state":"active","ping":108},{"user_id":547,"name":"Riky95","steam_id":76561198095289436,"connected_time":521000000000,"state":"active","ping":60},{"user_id":484,"name":"JayMaloney","steam_id":76561198050173547,"connected_time":5758000000000,"state":"active","ping":75},{"user_id":539,"name":"Zodaick","steam_id":76561198083662129,"connected_time":1842000000000,"state":"active","ping":60},{"user_id":506,"name":"Ukr–•–ª—î–±","steam_id":76561198388896707,"connected_time":3556000000000,"state":"active","ping":76}]},{"server_id":51,"name":"Uncletopia | Warsaw | 3 | All Maps","name_short":"waw-3","host":"waw-1.pl.uncletopia.com","port":27035,"enabled":true,"region":"eu","cc":"pl","latitude":52.2297,"longitude":21.017532,"reserved":0,"last_update":"0001-01-01T00:00:00Z","name_a2s":"Uncletopia | Warsaw | 3 | All Maps","protocol":17,"map":"koth_highpass","folder":"tf","game":"Team Fortress","app_id":440,"player_count":0,"max_players":24,"Bots":0,"server_type":"Dedicated","server_os":"Linux","password":true,"vac":true,"version":"7961495","steam_id":85568392925397852,"keywords":["cp","nocrits","nodmgspread","uncletopia"],"game_id":440,"stv_port":27036,"stv_name":"Uncletopia | Warsaw | 3 | All Maps | STV","players":null},{"server_id":52,"name":"Uncletopia | Warsaw | 4 | All Maps","name_short":"waw-4","host":"waw-1.pl.uncletopia.com","port":27045,"enabled":true,"region":"eu","cc":"pl","latitude":52.2297,"longitude":21.017532,"reserved":0,"last_update":"0001-01-01T00:00:00Z","name_a2s":"Uncletopia | Warsaw | 4 | All Maps","protocol":17,"map":"koth_cascade","folder":"tf","game":"Team Fortress","app_id":440,"player_count":15,"max_players":24,"Bots":0,"server_type":"Dedicated","server_os":"Linux","password":true,"vac":true,"version":"7961495","steam_id":85568392925397853,"keywords":["cp","nocrits","nodmgspread","uncletopia"],"game_id":440,"stv_port":27046,"stv_name":"Uncletopia | Warsaw | 4 | All Maps | STV","players":[{"user_id":203,"name":"business is good","steam_id":76561198070954045,"connected_time":1548000000000,"state":"active","ping":72},{"user_id":207,"name":"Nag","steam_id":76561197970488206,"connected_time":1489000000000,"state":"active","ping":96},{"user_id":221,"name":"HueJazz","steam_id":76561198168125993,"connected_time":525000000000,"state":"active","ping":47},{"user_id":220,"name":"[1VS23] BAKELITE","steam_id":76561198190816499,"connected_time":544000000000,"state":"active","ping":50},{"user_id":205,"name":"M√©bh √ìg MacT√≠re","steam_id":76561198346399624,"connected_time":1537000000000,"state":"active","ping":37},{"user_id":190,"name":"makaronrycy","steam_id":76561198018208790,"connected_time":2127000000000,"state":"active","ping":51},{"user_id":226,"name":"Civilian","steam_id":76561199217529645,"connected_time":78000000000,"state":"active","ping":97},{"user_id":157,"name":"Henriette","steam_id":76561198176069630,"connected_time":3396000000000,"state":"active","ping":53},{"user_id":176,"name":"Lord Foog the 2st","steam_id":76561198061176825,"connected_time":2771000000000,"state":"active","ping":76},{"user_id":222,"name":"Abudabec","steam_id":76561199110975331,"connected_time":463000000000,"state":"active","ping":117},{"user_id":224,"name":"mimek","steam_id":76561198072690572,"connected_time":274000000000,"state":"active","ping":60},{"user_id":206,"name":"t","steam_id":76561198256619964,"connected_time":1530000000000,"state":"active","ping":76},{"user_id":177,"name":"Jonis","steam_id":76561198055182880,"connected_time":2748000000000,"state":"active","ping":59},{"user_id":202,"name":"Mr.Krecken","steam_id":76561198218880707,"connected_time":1733000000000,"state":"active","ping":70},{"user_id":193,"name":"psycho","steam_id":76561198145620441,"connected_time":2107000000000,"state":"active","ping":59}]},{"server_id":53,"name":"Uncletopia | Warsaw | 5 | Stopwatch","name_short":"waw-5","host":"waw-1.pl.uncletopia.com","port":27055,"enabled":true,"region":"eu","cc":"pl","latitude":52.2297,"longitude":21.017532,"reserved":0,"last_update":"0001-01-01T00:00:00Z","name_a2s":"Uncletopia | Warsaw | 5 | Stopwatch","protocol":17,"map":"workshop/koth_clearcut_b15.ugc2107050255","folder":"tf","game":"Team Fortress","app_id":440,"player_count":0,"max_players":24,"Bots":0,"server_type":"Dedicated","server_os":"Linux","password":true,"vac":true,"version":"7961495","steam_id":85568392925397854,"keywords":["cp","nocrits","nodmgspread","uncletopia"],"game_id":440,"stv_port":27056,"stv_name":"Uncletopia | Warsaw | 5 | Stopwatch | STV","players":null},{"server_id":54,"name":"Uncletopia | Warsaw | 6 | Community","name_short":"waw-6","host":"waw-1.pl.uncletopia.com","port":27065,"enabled":true,"region":"eu","cc":"pl","latitude":52.2297,"longitude":21.017532,"reserved":0,"last_update":"0001-01-01T00:00:00Z","name_a2s":"Uncletopia | Warsaw | 6 | Community","protocol":17,"map":"workshop/cp_fulgur_rc2a.ugc2068252300","folder":"tf","game":"Team Fortress","app_id":440,"player_count":0,"max_players":24,"Bots":0,"server_type":"Dedicated","server_os":"Linux","password":true,"vac":true,"version":"7961495","steam_id":85568392925397856,"keywords":["cp","nocrits","nodmgspread","uncletopia"],"game_id":440,"stv_port":27066,"stv_name":"Uncletopia | Warsaw | 6 | Community | STV","players":null}]}