{"status":true,"message":"","result":[{"server_id":9,"name":"Uncletopia | Atlanta | 1 | All Maps","name_short":"atl-1","host":"atl-1.us.uncletopia.com","port":27015,"enabled":true,"region":"us-east","cc":"us","latitude":33.753746,"longitude":-84.38633,"reserved":0,"last_update":"0001-01-01T00:00:00Z","name_a2s":"Uncletopia | Atlanta | 1 | All Maps","protocol":17,"map":"pl_pier","folder":"tf","game":"Team Fortress","app_id":440,"player_count":9,"max_players":24,"Bots":0,"server_type":"Dedicated","server_os":"Linux","password":true,"vac":true,"version":"7932396","steam_id":85568392924469982,"keywords":["nocrits","nodmgspread","payload","uncletopia"],"game_id":440,"stv_port":27016,"stv_name":"Uncletopia | Atlanta | 1 | All Maps | STV","players":[{"user_id":505,"name":"√áAFFIEND","steam_id":76561198062993241,"connected_time":2064000000000,"state":"active","ping":73},{"user_id":400,"name":"GibbusGod","steam_id":76561199232436690,"connected_time":4951000000000,"state":"active","ping":76},{"user_id":521,"name":"oof aim small brain","steam_id":76561198079925551,"connected_time":757000000000,"state":"active","ping":74},{"user_id":514,"name":"Ghost","steam_id":76561198426370628,"connected_time":1295000000000,"state":"active","ping":47},{"user_id":516,"name":"Bitter","steam_id":76561198146532457,"connected_time":1122000000000,"state":"active","ping":98},{"user_id":525,"name":"Intex the Paw Slut","steam_id":76561198231061660,"connected_time":36000000000,"state":"spawning","ping":151},{"user_id":427,"name":"gon","steam_id":76561198341171295,"connected_time":4630000000000,"state":"active","ping":97},{"user_id":332,"name":"FOrce of nature","steam_id":76561198390522839,"connected_time":6005000000000,"state":"active","ping":90},{"user_id":377,"name":"iclark5","steam_id":76561199256588354,"connected_time":5266000000000,"state":"active","ping":98}]},{"server_id":104,"name":"Uncletopia | Atlanta | 2 | All Maps","name_short":"atl-2","host":"atl-1.us.uncletopia.com","port":27025,"enabled":true,"region":"us-east","cc":"us","latitude":33.753746,"longitude":-84.38633,"reserved":0,"last_update":"0001-01-01T00:00:00Z","name_a2s":"Uncletopia | Atlanta | 2 | All Maps","protocol":17,"map":"pl_borneo","folder":"tf","game":"Team Fortress","app_id":440,"player_count":0,"max_players":24,"Bots":0,"server_type":"Dedicated","server_os":"Linux","password":true,"vac":true,"version":"7932396","steam_id":85568392924469983,"keywords":["nocrits","nodmgspread","payload","uncletopia"],"game_id":440,"stv_port":27026,"stv_name":"Uncletopia | Atlanta | 2 | All Maps | STV","players":null},{"server_id":400,"name":"Uncletopia | Atlanta | 3 | Community","name_short":"atl-3","host":"atl-1.us.uncletopia.com","port":27035,"enabled":true,"region":"us-east","cc":"us","latitude":33.753746,"longitude":-84.38633,"reserved":0,"last_update":"0001-01-01T00:00:00Z","name_a2s":"Uncletopia | Atlanta | 3 | Community","protocol":17,"map":"workshop/koth_trenchfoot_b1a.ugc731436616","folder":"tf","game":"Team Fortress","app_id":440,"player_count":0,"max_players":24,"Bots":0,"server_type":"Dedicated","server_os":"Linux","password":true,"vac":true,"version":"7932396","steam_id":85568392924515187,"keywords":["cp","nocrits","nodmgspread","uncletopia"],"game_id":440,"stv_port":27036,"stv_name":"Uncletopia | Atlanta | 3 | Community | STV","players":null},{"server_id":401,"name":"Uncletopia | Atlanta | 4 | No Payload","name_short":"atl-4","host":"atl-1.us.uncletopia.com","port":27045,"enabled":true,"region":"us-east","cc":"us","latitude":33.753746,"longitude":-84.38633,"reserved":0,"last_update":"0001-01-01T00:00:00Z","name_a2s":"","protocol":0,"map":"","folder":"","game":"","app_id":0,"player_count":0,"max_players":0,"Bots":0,"server_type":"","server_os":"","password":false,"vac":false,"version":"","steam_id":0,"keywords":null,"game_id":0,"stv_port":0,"stv_name":"","players":null},{"server_id":2,"name":"Uncletopia | Chicago | 1 | All Maps","name_short":"chi-1","host":"chi-1.us.uncletopia.com","port":27015,"enabled":true,"region":"us-central","cc":"us","latitude":41.881832,"longitude":-87.62318,"reserved":0,"last_update":"0001-01-01T00:00:00Z","name_a2s":"Uncletopia | Chicago | 1 | All Maps","protocol":17,"map":"cp_dustbowl","folder":"tf","game":"Team Fortress","app_id":440,"player_count":24,"max_players":24,"Bots":0,"server_type":"Dedicated","server_os":"Linux","password":true,"vac":true,"version":"7932396","steam_id":85568392924469984,"keywords":["cp","nocrits","nodmgspread","uncletopia"],"game_id":440,"stv_port":27016,"stv_name":"Uncletopia | Chicago | 1 | All Maps | STV","players":[{"user_id":828,"name":"kite","steam_id":76561198346516392,"connected_time":76000000000,"state":"active","ping":71},{"user_id":824,"name":"Method Mon Mothma","steam_id":76561197976110189,"connected_time":967000000000,"state":"active","ping":57},{"user_id":814,"name":"Flora","steam_id":76561198358547464,"connected_time":1260000000000,"state":"active","ping":89},{"user_id":817,"name":"Herdez Hot Salsa","steam_id":76561197991740906,"connected_time":1221000000000,"state":"active","ping":61},{"user_id":822,"name":"Tots","steam_id":76561198027485007,"connected_time":1166000000000,"state":"active","ping":65},{"user_id":781,"name":"loser","steam_id":76561198259380127,"connected_time":4185000000000,"state":"active","ping":60},{"user_id":830,"name":"Snom","steam_id":76561198333827920,"connected_time":5000000000,"state":"spawning","ping":83},{"user_id":773,"name":"Lost","steam_id":76561198093713427,"connected_time":4405000000000,"state":"active","ping":60},{"user_id":819,"name":"only a spoonful","steam_id":76561198113180616,"connected_time":1191000000000,"state":"active","ping":66},{"user_id":827,"name":"Mank","steam_id":76561198189421005,"connected_time":532000000000,"state":"active","ping":45},{"user_id":825,"name":"chilis baby back ribs","steam_id":76561198813516435,"connected_time":912000000000,"state":"active","ping":97},{"user_id":816,"name":"Grilled Jizo","steam_id":76561199250875340,"connected_time":1246000000000,"state":"active","ping":79},{"user_id":823,"name":"Whip_the_Rabbit","steam_id":76561198049896057,"connected_time":1120000000000,"state":"active","ping":124},{"user_id":826,"name":"car","steam_id":76561198999217575,"connected_time":589000000000,"state":"active","ping":63},{"user_id":774,"name":"Skinny pete","steam_id":76561198801608576,"connected_time":4392000000000,"state":"active","ping":73},{"user_id":818,"name":"Jelqing Table","steam_id":76561198051373750,"connected_time":1209000000000,"state":"active","ping":70},{"user_id":829,"name":"Sophie","steam_id":76561198170408057,"connected_time":11000000000,"state":"spawning","ping":60},{"user_id":802,"name":"DinoGoof","steam_id":76561198998427283,"connected_time":1869000000000,"state":"active","ping":71},{"user_id":776,"name":"FHC | Nyle","steam_id":76561198045652639,"connected_time":4326000000000,"state":"active","ping":133},{"user_id":727,"name":"Wizard Raccoon","steam_id":76561198072562591,"connected_time":8877000000000,"state":"active","ping":83},{"user_id":728,"name":"L + Ratio","steam_id":76561198263786953,"connected_time":8876000000000,"state":"active","ping":81},{"user_id":808,"name":"Kindagoodplayer","steam_id":76561198814625843,"connected_time":1447000000000,"state":"active","ping":73},{"user_id":806,"name":"Chemist","steam_id":76561198175623743,"connected_time":1479000000000,"state":"active","ping":84},{"user_id":792,"name":"DiGiorno's Pizza","steam_id":76561198142244035,"connected_time":2769000000000,"state":"active","ping":56}]},{"server_id":106,"name":"Uncletopia | Chicago | 2 | All Maps","name_short":"chi-2","host":"chi-1.us.uncletopia.com","port":27025,"enabled":true,"region":"us-central","cc":"us","latitude":41.881832,"longitude":-87.62318,"reserved":0,"last_update":"0001-01-01T00:00:00Z","name_a2s":"Uncletopia | Chicago | 2 | All Maps","protocol":17,"map":"cp_metalworks","folder":"tf","game":"Team Fortress","app_id":440,"player_count":25,"max_players":24,"Bots":0,"server_type":"Dedicated","server_os":"Linux","password":true,"vac":true,"version":"7932396","steam_id":85568392924469985,"keywords":["cp","nocrits","nodmgspread","uncletopia"],"game_id":440,"stv_port":27026,"stv_name":"Uncletopia | Chicago | 2 | All Maps | STV","players":[{"user_id":771,"name":"cucumper","steam_id":76561198079504588,"connected_time":3827000000000,"state":"active","ping":75},{"user_id":766,"name":"SpongedSocks","steam_id":76561198374009086,"connected_time":4578000000000,"state":"active","ping":68},{"user_id":783,"name":"Six Piece Chicken McNobody","steam_id":76561198129848222,"connected_time":2204000000000,"state":"active","ping":66},{"user_id":717,"name":"xX_HimboSwallower_Xx","steam_id":76561198016029965,"connected_time":8523000000000,"state":"active","ping":67},{"user_id":781,"name":"Albino Jellyfish","steam_id":76561198208561097,"connected_time":2628000000000,"state":"active","ping":65},{"user_id":810,"name":"Herr M√ºller","steam_id":76561198064876829,"connected_time":630000000000,"state":"active","ping":85},{"user_id":791,"name":"pregame looser","steam_id":76561198075216115,"connected_time":1960000000000,"state":"active","ping":140},{"user_id":819,"name":"DolphiN | RGL.gg","steam_id":76561198048614515,"connected_time":176000000000,"state":"active","ping":51},{"user_id":811,"name":"mdharsy","steam_id":76561198065831053,"connected_time":616000000000,"state":"active","ping":75},{"user_id":803,"name":"TehWhaffle","steam_id":76561198392672410,"connected_time":857000000000,"state":"active","ping":63},{"user_id":817,"name":"checkswing","steam_id":76561198999816132,"connected_time":408000000000,"state":"active","ping":71},{"user_id":800,"name":"Cheers! I'll drink to that","steam_id":76561198112705880,"connected_time":954000000000,"state":"active","ping":89},{"user_id":795,"name":"orangesuit1","steam_id":76561199020443017,"connected_time":1517000000000,"state":"active","ping":111},{"user_id":805,"name":"ermmmmm pipebomb!!!","steam_id":76561198089638718,"connected_time":814000000000,"state":"active","ping":59},{"user_id":646,"name":"Unholy","steam_id":76561198058312481,"connected_time":13853000000000,"state":"active","ping":69},{"user_id":806,"name":"Paulie Walnuts","steam_id":76561198252901165,"connected_time":800000000000,"state":"active","ping":111},{"user_id":778,"name":"co)))))ne","steam_id":76561198053967778,"connected_time":2770000000000,"state":"active","ping":57},{"user_id":801,"name":"McKraken","steam_id":76561198080478933,"connected_time":941000000000,"state":"active","ping":57},{"user_id":807,"name":"CrunchCisco","steam_id":76561199162724832,"connected_time":793000000000,"state":"active","ping":83},{"user_id":789,"name":"St. Bimmius","steam_id":76561198013595716,"connected_time":2130000000000,"state":"active","ping":102},{"user_id":818,"name":"Lindes","steam_id":76561198132472867,"connected_time":208000000000,"state":"active","ping":36},{"user_id":820,"name":"Lincs","steam_id":76561198049851872,"connected_time":55000000000,"state":"connecting","ping":0},{"user_id":814,"name":"Icedtornado","steam_id":76561198308303560,"connected_time":543000000000,"state":"active","ping":79},{"user_id":816,"name":"Oddball","steam_id":76561198040440984,"connected_time":484000000000,"state":"active","ping":66},{"user_id":821,"name":"heartcey","steam_id":76561198101585918,"connected_time":22000000000,"state":"active","ping":70}]},{"server_id":402,"name":"Uncletopia | Chicago | 3 | All Maps","name_short":"chi-3","host":"chi-1.us.uncletopia.com","port":27035,"enabled":true,"region":"us-central","cc":"us","latitude":41.881832,"longitude":-87.62318,"reserved":0,"last_update":"0001-01-01T00:00:00Z","name_a2s":"Uncletopia | Chicago | 3 | All Maps","protocol":17,"map":"koth_suijin","folder":"tf","game":"Team Fortress","app_id":440,"player_count":24,"max_players":24,"Bots":0,"server_type":"Dedicated","server_os":"Linux","password":true,"vac":true,"version":"7932396","steam_id":85568392924515191,"keywords":["cp","nocrits","nodmgspread","uncletopia"],"game_id":440,"stv_port":27036,"stv_name":"Uncletopia | Chicago | 3 | All Maps | STV","players":[{"user_id":327,"name":"JDM Street Cred","steam_id":76561198033035560,"connected_time":5064000000000,"state":"active","ping":59},{"user_id":251,"name":"DoubleX2000","steam_id":76561198164134387,"connected_time":11401000000000,"state":"active","ping":110},{"user_id":386,"name":"milo","steam_id":76561198296269087,"connected_time":484000000000,"state":"active","ping":134},{"user_id":397,"name":"skizzy","steam_id":76561199229318347,"connected_time":156000000000,"state":"active","ping":43},{"user_id":368,"name":"Pourpel","steam_id":76561198059125470,"connected_time":1753000000000,"state":"active","ping":70},{"user_id":378,"name":"Law","steam_id":76561199059063560,"connected_time":945000000000,"state":"active","ping":72},{"user_id":344,"name":"Cassius Money","steam_id":76561197979696414,"connected_time":4215000000000,"state":"active","ping":51},{"user_id":387,"name":"TheMakoshark","steam_id":76561198332393945,"connected_time":479000000000,"state":"active","ping":61},{"user_id":354,"name":"Alecto","steam_id":76561198042476864,"connected_time":2610000000000,"state":"active","ping":45},{"user_id":240,"name":"Digitic","steam_id":76561198080295536,"connected_time":12016000000000,"state":"active","ping":78},{"user_id":389,"name":"farfalle","steam_id":76561198882758067,"connected_time":421000000000,"state":"active","ping":40},{"user_id":390,"name":"Thrackzog","steam_id":76561198183203745,"connected_time":360000000000,"state":"active","ping":58},{"user_id":391,"name":"The Fighter Fly‚Ñ¢ (She/Her)","steam_id":76561199187213184,"connected_time":356000000000,"state":"active","ping":93},{"user_id":366,"name":"Snowy 79","steam_id":76561198944639546,"connected_time":1885000000000,"state":"active","ping":67},{"user_id":367,"name":"MarsionQuin","steam_id":76561199086790535,"connected_time":1842000000000,"state":"active","ping":80},{"user_id":379,"name":"Skendiesel","steam_id":76561198015497676,"connected_time":918000000000,"state":"active","ping":50},{"user_id":392,"name":"Menthol Cop","steam_id":76561198179817985,"connected_time":351000000000,"state":"active","ping":80},{"user_id":396,"name":"haxxorman","steam_id":76561199155156400,"connected_time":226000000000,"state":"active","ping":59},{"user_id":383,"name":"Your Loyal Familiar","steam_id":76561198106476075,"connected_time":687000000000,"state":"active","ping":83},{"user_id":394,"name":"Raypit","steam_id":76561198312371871,"connected_time":331000000000,"state":"active","ping":132},{"user_id":345,"name":"dailyspesh","steam_id":76561197988072369,"connected_time":4167000000000,"state":"active","ping":76},{"user_id":395,"name":"Katy","steam_id":76561198079395814,"connected_time":300000000000,"state":"active","ping":71},{"user_id":380,"name":"smoking on bhutanese shadow pac","steam_id":76561198095313463,"connected_time":912000000000,"state":"active","ping":89},{"user_id":398,"name":"ElZeto","steam_id":76561198252322622,"connected_time":39000000000,"state":"active","ping":102}]},{"server_id":403,"name":"Uncletopia | Chicago | 4 | All Maps","name_short":"chi-4","host":"chi-1.us.uncletopia.com","port":27045,"enabled":true,"region":"us-central","cc":"us","latitude":41.881832,"longitude":-87.62318,"reserved":0,"last_update":"0001-01-01T00:00:00Z","name_a2s":"Uncletopia | Chicago | 4 | All Maps","protocol":17,"map":"pl_frontier_final","folder":"tf","game":"Team Fortress","app_id":440,"player_count":21,"max_players":24,"Bots":0,"server_type":"Dedicated","server_os":"Linux","password":true,"vac":true,"version":"7932396","steam_id":85568392924515193,"keywords":["nocrits","nodmgspread","payload","uncletopia"],"game_id":440,"stv_port":27046,"stv_name":"Uncletopia | Chicago | 4 | All Maps | STV","players":[{"user_id":433,"name":"eish","steam_id":76561198089463603,"connected_time":26000000000,"state":"spawning","ping":123},{"user_id":420,"name":"Horrizan","steam_id":76561197965028480,"connected_time":1006000000000,"state":"active","ping":89},{"user_id":416,"name":"Sprit ‚ô•","steam_id":76561198268780781,"connected_time":1604000000000,"state":"active","ping":50},{"user_id":330,"name":"hej","steam_id":76561197996366940,"connected_time":8036000000000,"state":"active","ping":60},{"user_id":414,"name":"wunkem","steam_id":76561198055948497,"connected_time":1710000000000,"state":"active","ping":63},{"user_id":375,"name":"duck, duck, LOVE","steam_id":76561198010706701,"connected_time":5164000000000,"state":"active","ping":69},{"user_id":376,"name":"gorf?","steam_id":76561198142286417,"connected_time":5162000000000,"state":"active","ping":55},{"user_id":425,"name":"Stranger in a Strange Land","steam_id":76561198049843671,"connected_time":734000000000,"state":"active","ping":63},{"user_id":432,"name":"Ash40000","steam_id":76561198092841526,"connected_time":79000000000,"state":"active","ping":61},{"user_id":427,"name":"Goldensliv","steam_id":76561198161673891,"connected_time":639000000000,"state":"active","ping":90},{"user_id":388,"name":"Morgster","steam_id":76561198131697761,"connected_time":4780000000000,"state":"active","ping":73},{"user_id":431,"name":"An Erect Penis :)","steam_id":76561198086477485,"connected_time":224000000000,"state":"active","ping":38},{"user_id":419,"name":"Truly Cryo","steam_id":76561198347497484,"connected_time":1423000000000,"state":"active","ping":80},{"user_id":402,"name":"Ayylmao","steam_id":76561198104780147,"connected_time":2350000000000,"state":"active","ping":43},{"user_id":429,"name":"EddieTheScrub","steam_id":76561198928903110,"connected_time":554000000000,"state":"active","ping":56},{"user_id":362,"name":"Swash","steam_id":76561197969421355,"connected_time":6494000000000,"state":"active","ping":46},{"user_id":415,"name":"Commodore","steam_id":76561198042112852,"connected_time":1661000000000,"state":"active","ping":75},{"user_id":406,"name":"SIN K4RMA","steam_id":76561198869287223,"connected_time":2071000000000,"state":"active","ping":66},{"user_id":400,"name":"chunguspilled","steam_id":76561198263122601,"connected_time":2513000000000,"state":"active","ping":44},{"user_id":329,"name":"MedRed‚Ñ¢ #IATAH","steam_id":76561198002962970,"connected_time":8158000000000,"state":"active","ping":91},{"user_id":366,"name":"Lia_Rein","steam_id":76561198151569597,"connected_time":6098000000000,"state":"active","ping":150}]},{"server_id":36,"name":"Uncletopia | Chicago | 5 | All Maps","name_short":"chi-5","host":"chi-2.us.uncletopia.com","port":27015,"enabled":true,"region":"us-central","cc":"us","latitude":41.881832,"longitude":-87.62318,"reserved":0,"last_update":"0001-01-01T00:00:00Z","name_a2s":"Uncletopia | Chicago | 5 | All Maps","protocol":17,"map":"pl_borneo","folder":"tf","game":"Team Fortress","app_id":440,"player_count":24,"max_players":24,"Bots":0,"server_type":"Dedicated","server_os":"Linux","password":true,"vac":true,"version":"7932396","steam_id":85568392924866362,"keywords":["nocrits","nodmgspread","payload","uncletopia"],"game_id":440,"stv_port":27016,"stv_name":"Uncletopia | Chicago | 5 | All Maps | STV","players":[{"user_id":418,"name":"wheresgeorge","steam_id":76561198986281248,"connected_time":2123000000000,"state":"active","ping":86},{"user_id":438,"name":"msay","steam_id":76561198170888029,"connected_time":1162000000000,"state":"active","ping":92},{"user_id":449,"name":"benadryl hitin","steam_id":76561198089097688,"connected_time":357000000000,"state":"active","ping":71},{"user_id":444,"name":"oomper","steam_id":76561199189982701,"connected_time":555000000000,"state":"active","ping":69},{"user_id":431,"name":"[DOOR] Jacob","steam_id":76561198004630011,"connected_time":1917000000000,"state":"active","ping":45},{"user_id":445,"name":"Viokik","steam_id":76561198408846602,"connected_time":512000000000,"state":"active","ping":62},{"user_id":446,"name":"Ceige","steam_id":76561198068538473,"connected_time":424000000000,"state":"active","ping":79},{"user_id":433,"name":"Techo","steam_id":76561199169405285,"connected_time":1734000000000,"state":"active","ping":104},{"user_id":414,"name":"Stapler","steam_id":76561198099295077,"connected_time":2526000000000,"state":"active","ping":90},{"user_id":394,"name":"6t26j","steam_id":76561198278282836,"connected_time":4034000000000,"state":"active","ping":45},{"user_id":447,"name":"noah","steam_id":76561198173310157,"connected_time":413000000000,"state":"active","ping":45},{"user_id":426,"name":"Joey Lemons","steam_id":76561198068104187,"connected_time":2005000000000,"state":"active","ping":30},{"user_id":457,"name":"Limitless","steam_id":76561198057139998,"connected_time":1000000000,"state":"spawning","ping":65},{"user_id":442,"name":"LProduct","steam_id":76561199442139670,"connected_time":873000000000,"state":"active","ping":158},{"user_id":455,"name":"frick off law enforcement","steam_id":76561198255022731,"connected_time":113000000000,"state":"active","ping":84},{"user_id":422,"name":"pajayay","steam_id":76561198065040540,"connected_time":2039000000000,"state":"active","ping":60},{"user_id":451,"name":"lytewerk","steam_id":76561198002819791,"connected_time":195000000000,"state":"active","ping":74},{"user_id":452,"name":"Snake Handler","steam_id":76561198027198306,"connected_time":167000000000,"state":"active","ping":50},{"user_id":453,"name":"SMGenius","steam_id":76561197985247696,"connected_time":166000000000,"state":"active","ping":111},{"user_id":375,"name":"Java_Siege_","steam_id":76561199090000728,"connected_time":6287000000000,"state":"active","ping":81},{"user_id":454,"name":"GoldtoothFour","steam_id":76561198055529332,"connected_time":148000000000,"state":"active","ping":47},{"user_id":427,"name":"The Law","steam_id":76561198202209948,"connected_time":2003000000000,"state":"active","ping":54},{"user_id":456,"name":"hashmap","steam_id":76561198043794014,"connected_time":80000000000,"state":"active","ping":51},{"user_id":429,"name":"the Light Beast","steam_id":76561198111975583,"connected_time":1984000000000,"state":"active","ping":83}]},{"server_id":37,"name":"Uncletopia | Chicago | 6 | All Maps","name_short":"chi-6","host":"chi-2.us.uncletopia.com","port":27025,"enabled":true,"region":"us-central","cc":"us","latitude":41.881832,"longitude":-87.62318,"reserved":0,"last_update":"0001-01-01T00:00:00Z","name_a2s":"Uncletopia | Chicago | 6 | All Maps","protocol":17,"map":"koth_nucleus","folder":"tf","game":"Team Fortress","app_id":440,"player_count":24,"max_players":24,"Bots":0,"server_type":"Dedicated","server_os":"Linux","password":true,"vac":true,"version":"7932396","steam_id":85568392924866363,"keywords":["cp","nocrits","nodmgspread","uncletopia"],"game_id":440,"stv_port":27026,"stv_name":"Uncletopia | Chicago | 6 | All Maps | STV","players":[{"user_id":543,"name":"Ghost","steam_id":76561198110914180,"connected_time":94000000000,"state":"active","ping":174},{"user_id":529,"name":"Vladikr1","steam_id":76561198401495362,"connected_time":1504000000000,"state":"active","ping":63},{"user_id":538,"name":"lcy13vv","steam_id":76561197995997446,"connected_time":598000000000,"state":"active","ping":57},{"user_id":501,"name":"ky jelly packing","steam_id":76561198240906222,"connected_time":3338000000000,"state":"active","ping":73},{"user_id":528,"name":"fish LFT :)","steam_id":76561198054070811,"connected_time":1813000000000,"state":"active","ping":104},{"user_id":531,"name":"katryna","steam_id":76561198023440304,"connected_time":1175000000000,"state":"active","ping":51},{"user_id":544,"name":"Galmart","steam_id":76561199122036524,"connected_time":65000000000,"state":"spawning","ping":72},{"user_id":545,"name":"Lincs","steam_id":76561198049851872,"connected_time":7000000000,"state":"spawning","ping":60},{"user_id":472,"name":"IMM0RTAL","steam_id":76561198013747901,"connected_time":5669000000000,"state":"active","ping":64},{"user_id":509,"name":"Walrusto","steam_id":76561198829644616,"connected_time":2856000000000,"state":"active","ping":81},{"user_id":537,"name":"Nortel Network Telephone T7316","steam_id":76561198399261089,"connected_time":1037000000000,"state":"active","ping":89},{"user_id":534,"name":"carrot cake","steam_id":76561198055174915,"connected_time":1093000000000,"state":"active","ping":66},{"user_id":491,"name":"trappy (washed)","steam_id":76561198402801140,"connected_time":4038000000000,"state":"active","ping":57},{"user_id":539,"name":"Wyvern","steam_id":76561198392331213,"connected_time":592000000000,"state":"active","ping":109},{"user_id":527,"name":"Xx_haZe_xX","steam_id":76561198243743666,"connected_time":2146000000000,"state":"active","ping":90},{"user_id":536,"name":"Lo-Pan","steam_id":76561198085670133,"connected_time":1041000000000,"state":"active","ping":85},{"user_id":386,"name":"daemon","steam_id":76561198001541433,"connected_time":12725000000000,"state":"active","ping":60},{"user_id":483,"name":"squash the beef","steam_id":76561198277163301,"connected_time":4824000000000,"state":"active","ping":61},{"user_id":496,"name":"Skeleton Hotel","steam_id":76561198041704727,"connected_time":3920000000000,"state":"active","ping":49},{"user_id":521,"name":"baba -IYSMITL-","steam_id":76561198105065307,"connected_time":2430000000000,"state":"active","ping":48},{"user_id":540,"name":"Double Dip","steam_id":76561198067483536,"connected_time":407000000000,"state":"active","ping":43},{"user_id":522,"name":"AnonymousCritter","steam_id":76561198864475187,"connected_time":2405000000000,"state":"active","ping":51},{"user_id":542,"name":"V!CT!M","steam_id":76561198962721502,"connected_time":302000000000,"state":"active","ping":63},{"user_id":524,"name":"Vega","steam_id":76561198057374871,"connected_time":2379000000000,"state":"active","ping":61}]},{"server_id":38,"name":"Uncletopia | Chicago | 7 | Stopwatch Beta","name_short":"chi-7","host":"chi-2.us.uncletopia.com","port":27035,"enabled":true,"region":"us-central","cc":"us","latitude":41.881832,"longitude":-87.62318,"reserved":0,"last_update":"0001-01-01T00:00:00Z","name_a2s":"Uncletopia | Chicago | 7 | Stopwatch Beta","protocol":17,"map":"pl_borneo","folder":"tf","game":"Team Fortress","app_id":440,"player_count":0,"max_players":24,"Bots":0,"server_type":"Dedicated","server_os":"Linux","password":true,"vac":true,"version":"7932396","steam_id":85568392924866364,"keywords":["nocrits","nodmgspread","payload","uncletopia"],"game_id":440,"stv_port":27036,"stv_name":"Uncletopia | Chicago | 7 | Stopwatch Beta | STV","players":null},{"server_id":39,"name":"Uncletopia | Chicago | 8 | Community","name_short":"chi-8","host":"chi-2.us.uncletopia.com","port":27045,"enabled":true,"region":"us-central","cc":"us","latitude":41.881832,"longitude":-87.62318,"reserved":0,"last_update":"0001-01-01T00:00:00Z","name_a2s":"Uncletopia | Chicago | 8 | Community","protocol":17,"map":"workshop/cp_villa_b19.ugc2113052569","folder":"tf","game":"Team Fortress","app_id":440,"player_count":22,"max_players":24,"Bots":0,"server_type":"Dedicated","server_os":"Linux","password":true,"vac":true,"version":"7932396","steam_id":85568392924866365,"keywords":["cp","nocrits","nodmgspread","uncletopia"],"game_id":440,"stv_port":27046,"stv_name":"Uncletopia | Chicago | 8 | Community | STV","players":[{"user_id":547,"name":"SleepyCanary","steam_id":76561198071770434,"connected_time":2353000000000,"state":"active","ping":112},{"user_id":540,"name":"The Incredible Fem Boy","steam_id":76561198355754259,"connected_time":2747000000000,"state":"active","ping":71},{"user_id":568,"name":"Nessie is my Waifu","steam_id":76561198076021620,"connected_time":818000000000,"state":"active","ping":66},{"user_id":514,"name":"Kalmaro","steam_id":76561198097425350,"connected_time":5599000000000,"state":"active","ping":45},{"user_id":571,"name":"Actually a Shoggoth","steam_id":76561198065857964,"connected_time":86000000000,"state":"active","ping":71},{"user_id":530,"name":"J76_","steam_id":76561199224457967,"connected_time":3278000000000,"state":"active","ping":120},{"user_id":564,"name":"Person","steam_id":76561198093244204,"connected_time":1198000000000,"state":"active","ping":71},{"user_id":557,"name":"AudaCD","steam_id":76561198202775853,"connected_time":1623000000000,"state":"active","ping":66},{"user_id":558,"name":"Antoni Wannabe","steam_id":76561199047187302,"connected_time":1370000000000,"state":"active","ping":53},{"user_id":534,"name":"Tom Cr√∫aich","steam_id":76561197999439911,"connected_time":3055000000000,"state":"active","ping":72},{"user_id":535,"name":"Tis_Me_Hacksoulslayer1","steam_id":76561198340064206,"connected_time":2970000000000,"state":"active","ping":87},{"user_id":536,"name":"Ace Chromatica","steam_id":76561198042211131,"connected_time":2951000000000,"state":"active","ping":54},{"user_id":562,"name":"Charlotte","steam_id":76561199084344266,"connected_time":1244000000000,"state":"active","ping":58},{"user_id":548,"name":"Eggregis-Thumbs","steam_id":76561198310566277,"connected_time":2352000000000,"state":"active","ping":59},{"user_id":549,"name":"SodaKid_7","steam_id":76561198079419485,"connected_time":2325000000000,"state":"active","ping":99},{"user_id":544,"name":"smef","steam_id":76561198321385895,"connected_time":2611000000000,"state":"active","ping":58},{"user_id":566,"name":"Necrohexen kitten69","steam_id":76561199152270059,"connected_time":935000000000,"state":"active","ping":59},{"user_id":572,"name":"Leg dealer","steam_id":76561198805497603,"connected_time":16000000000,"state":"spawning","ping":276},{"user_id":555,"name":"Big Oil","steam_id":76561199238964574,"connected_time":2038000000000,"state":"active","ping":68},{"user_id":554,"name":"irritable vowel syndrome","steam_id":76561198117033273,"connected_time":2148000000000,"state":"active","ping":137},{"user_id":570,"name":"Gues","steam_id":76561198058022955,"connected_time":574000000000,"state":"active","ping":72},{"user_id":565,"name":"OttotheTomato","steam_id":76561198272610597,"connected_time":1090000000000,"state":"active","ping":68}]},{"server_id":8,"name":"Uncletopia | Dallas | 1 | All Maps","name_short":"dal-1","host":"dal-1.us.uncletopia.com","port":27015,"enabled":true,"region":"us-central","cc":"us","latitude":32.779167,"longitude":-96.80889,"reserved":0,"last_update":"0001-01-01T00:00:00Z","name_a2s":"Uncletopia | Dallas | 1 | All Maps","protocol":17,"map":"pl_borneo","folder":"tf","game":"Team Fortress","app_id":440,"player_count":25,"max_players":24,"Bots":0,"server_type":"Dedicated","server_os":"Linux","password":true,"vac":true,"version":"7932396","steam_id":85568392924469986,"keywords":["nocrits","nodmgspread","payload","uncletopia"],"game_id":440,"stv_port":27016,"stv_name":"Uncletopia | Dallas | 1 | All Maps | STV","players":[{"user_id":340,"name":"Greg Boberton 2012","steam_id":76561198983566026,"connected_time":7488000000000,"state":"active","ping":76},{"user_id":420,"name":"Ping","steam_id":76561198072947773,"connected_time":690000000000,"state":"active","ping":60},{"user_id":434,"name":"ShapedSilver","steam_id":76561199073305310,"connected_time":337000000000,"state":"active","ping":43},{"user_id":419,"name":"Flint","steam_id":76561198148412420,"connected_time":711000000000,"state":"active","ping":73},{"user_id":392,"name":"Pight","steam_id":76561198823422389,"connected_time":3410000000000,"state":"active","ping":84},{"user_id":396,"name":"Fletcher","steam_id":76561198317846538,"connected_time":3327000000000,"state":"active","ping":77},{"user_id":410,"name":"Broken Cereal‚àö","steam_id":76561198087489795,"connected_time":1919000000000,"state":"active","ping":77},{"user_id":433,"name":"Ghetto Smosh Fan","steam_id":76561198097272509,"connected_time":345000000000,"state":"active","ping":56},{"user_id":380,"name":"Snorps","steam_id":76561198964516229,"connected_time":4404000000000,"state":"active","ping":79},{"user_id":409,"name":"Holp","steam_id":76561199019186848,"connected_time":1922000000000,"state":"active","ping":85},{"user_id":417,"name":"GLG.Liz","steam_id":76561198021957956,"connected_time":1314000000000,"state":"active","ping":43},{"user_id":422,"name":"BurritoCat","steam_id":76561198059822805,"connected_time":654000000000,"state":"active","ping":89},{"user_id":429,"name":"Squiliam","steam_id":76561198025278006,"connected_time":519000000000,"state":"active","ping":48},{"user_id":360,"name":"get with it","steam_id":76561198286627157,"connected_time":6204000000000,"state":"active","ping":85},{"user_id":413,"name":"Sup m8","steam_id":76561198081659121,"connected_time":1829000000000,"state":"active","ping":41},{"user_id":423,"name":"Kushkatt","steam_id":76561198058397659,"connected_time":643000000000,"state":"active","ping":75},{"user_id":424,"name":"REspecWizard","steam_id":76561198097950624,"connected_time":642000000000,"state":"active","ping":87},{"user_id":425,"name":"mer5277","steam_id":76561198192171041,"connected_time":609000000000,"state":"active","ping":113},{"user_id":400,"name":"LittleFieryOne","steam_id":76561198107463724,"connected_time":3261000000000,"state":"active","ping":89},{"user_id":414,"name":"Crispy","steam_id":76561198037481161,"connected_time":1819000000000,"state":"active","ping":68},{"user_id":379,"name":"Reague","steam_id":76561199092175631,"connected_time":4439000000000,"state":"active","ping":72},{"user_id":436,"name":"webaline","steam_id":76561199052450127,"connected_time":165000000000,"state":"active","ping":79},{"user_id":439,"name":"Some Stupid Name","steam_id":76561198065575548,"connected_time":9000000000,"state":"spawning","ping":67},{"user_id":431,"name":"cypherzero","steam_id":76561199182960322,"connected_time":494000000000,"state":"active","ping":48},{"user_id":440,"name":"Frank Fortain","steam_id":76561198953613972,"connected_time":9000000000,"state":"spawning","ping":78}]},{"server_id":108,"name":"Uncletopia | Dallas | 2 | All Maps","name_short":"dal-2","host":"dal-1.us.uncletopia.com","port":27025,"enabled":true,"region":"us-central","cc":"us","latitude":32.779167,"longitude":-96.80889,"reserved":0,"last_update":"0001-01-01T00:00:00Z","name_a2s":"Uncletopia | Dallas | 2 | All Maps","protocol":17,"map":"pl_snowycoast","folder":"tf","game":"Team Fortress","app_id":440,"player_count":24,"max_players":24,"Bots":0,"server_type":"Dedicated","server_os":"Linux","password":true,"vac":true,"version":"7932396","steam_id":85568392924469988,"keywords":["nocrits","nodmgspread","payload","uncletopia"],"game_id":440,"stv_port":27026,"stv_name":"Uncletopia | Dallas | 2 | All Maps | STV","players":[{"user_id":195,"name":"Redguardowen","steam_id":76561198176957862,"connected_time":5874000000000,"state":"active","ping":55},{"user_id":260,"name":"creed98100","steam_id":76561198076800822,"connected_time":579000000000,"state":"active","ping":89},{"user_id":199,"name":"aisu","steam_id":76561198043768507,"connected_time":5522000000000,"state":"active","ping":90},{"user_id":188,"name":"Agent Bowtie","steam_id":76561198175839279,"connected_time":6792000000000,"state":"active","ping":57},{"user_id":224,"name":"Fig Newton","steam_id":76561198064255155,"connected_time":3984000000000,"state":"active","ping":68},{"user_id":216,"name":"carrotcake","steam_id":76561198030997761,"connected_time":4647000000000,"state":"active","ping":45},{"user_id":229,"name":"Mile S","steam_id":76561198163238434,"connected_time":3629000000000,"state":"active","ping":97},{"user_id":235,"name":"HOODOO_LOVER_2007","steam_id":76561199087691214,"connected_time":3074000000000,"state":"active","ping":99},{"user_id":239,"name":"Clumsy","steam_id":76561198056345245,"connected_time":2754000000000,"state":"active","ping":72},{"user_id":257,"name":"HAT-WEARING‚Ñ¢ Maggot Gamer Cat","steam_id":76561197973992705,"connected_time":1262000000000,"state":"active","ping":95},{"user_id":255,"name":"Sax","steam_id":76561198055425123,"connected_time":1492000000000,"state":"active","ping":121},{"user_id":236,"name":"SizableChap","steam_id":76561199148162904,"connected_time":2962000000000,"state":"active","ping":71},{"user_id":251,"name":"Mail Delivery","steam_id":76561198290046318,"connected_time":1705000000000,"state":"active","ping":64},{"user_id":253,"name":"InvaderAlex","steam_id":76561198039232451,"connected_time":1630000000000,"state":"active","ping":63},{"user_id":256,"name":"ConnorBruh","steam_id":76561198869159718,"connected_time":1482000000000,"state":"active","ping":64},{"user_id":259,"name":"ChicoTopic","steam_id":76561198327083342,"connected_time":612000000000,"state":"active","ping":43},{"user_id":246,"name":"5mech","steam_id":76561198979167520,"connected_time":2207000000000,"state":"active","ping":55},{"user_id":261,"name":"bendera","steam_id":76561197965486503,"connected_time":532000000000,"state":"active","ping":110},{"user_id":197,"name":"MeMyBongusAndTheGreatOutdoors","steam_id":76561198097708978,"connected_time":5840000000000,"state":"active","ping":53},{"user_id":228,"name":"WashingMachine","steam_id":76561198318572060,"connected_time":3809000000000,"state":"active","ping":63},{"user_id":242,"name":"RockMan","steam_id":76561199228684720,"connected_time":2570000000000,"state":"active","ping":58},{"user_id":247,"name":"DragonHunter994","steam_id":76561199076203907,"connected_time":2083000000000,"state":"active","ping":66},{"user_id":250,"name":"crunchy obama","steam_id":76561198044485217,"connected_time":1805000000000,"state":"active","ping":105},{"user_id":88,"name":"nori_420","steam_id":76561199117134203,"connected_time":15116000000000,"state":"active","ping":83}]},{"server_id":5,"name":"Uncletopia | Frankfurt | 1 | All Maps","name_short":"frk-1","host":"frk-1.de.uncletopia.com","port":27015,"enabled":true,"region":"eu","cc":"de","latitude":50.110924,"longitude":8.682127,"reserved":0,"last_update":"0001-01-01T00:00:00Z","name_a2s":"Uncletopia | Frankfurt | 1 | All Maps","protocol":17,"map":"koth_highpass","folder":"tf","game":"Team Fortress","app_id":440,"player_count":0,"max_players":24,"Bots":0,"server_type":"Dedicated","server_os":"Linux","password":true,"vac":true,"version":"7932396","steam_id":85568392924469989,"keywords":["cp","nocrits","nodmgspread","uncletopia"],"game_id":440,"stv_port":27016,"stv_name":"Uncletopia | Frankfurt | 1 | All Maps | STV","players":null},{"server_id":110,"name":"Uncletopia | Frankfurt | 2 | All Maps","name_short":"frk-2","host":"frk-1.de.uncletopia.com","port":27025,"enabled":true,"region":"eu","cc":"de","latitude":50.110924,"longitude":8.682127,"reserved":0,"last_update":"0001-01-01T00:00:00Z","name_a2s":"Uncletopia | Frankfurt | 2 | All Maps","protocol":17,"map":"pl_pier","folder":"tf","game":"Team Fortress","app_id":440,"player_count":0,"max_players":24,"Bots":0,"server_type":"Dedicated","server_os":"Linux","password":true,"vac":true,"version":"7932396","steam_id":85568392924469990,"keywords":["nocrits","nodmgspread","payload","uncletopia"],"game_id":440,"stv_port":27026,"stv_name":"Uncletopia | Frankfurt | 2 | All Maps | STV","players":null},{"server_id":308,"name":"Uncletopia | Frankfurt | 3 | All Maps","name_short":"frk-3","host":"frk-1.de.uncletopia.com","port":27035,"enabled":true,"region":"eu","cc":"de","latitude":50.110924,"longitude":8.682127,"reserved":0,"last_update":"0001-01-01T00:00:00Z","name_a2s":"Uncletopia | Frankfurt | 3 | All Maps","protocol":17,"map":"koth_cascade","folder":"tf","game":"Team Fortress","app_id":440,"player_count":0,"max_players":24,"Bots":0,"server_type":"Dedicated","server_os":"Linux","password":true,"vac":true,"version":"7932396","steam_id":85568392924504274,"keywords":["cp","nocrits","nodmgspread","uncletopia"],"game_id":440,"stv_port":27036,"stv_name":"Uncletopia | Frankfurt | 3 | All Maps | STV","players":null},{"server_id":309,"name":"Uncletopia | Frankfurt | 4 | All Maps","name_short":"frk-4","host":"frk-1.de.uncletopia.com","port":27045,"enabled":true,"region":"eu","cc":"de","latitude":50.110924,"longitude":8.682127,"reserved":0,"last_update":"0001-01-01T00:00:00Z","name_a2s":"Uncletopia | Frankfurt | 4 | All Maps","protocol":17,"map":"pl_snowycoast","folder":"tf","game":"Team Fortress","app_id":440,"player_count":0,"max_players":24,"Bots":0,"server_type":"Dedicated","server_os":"Linux","password":true,"vac":true,"version":"7932396","steam_id":85568392924504275,"keywords":["nocrits","nodmgspread","payload","uncletopia"],"game_id":440,"stv_port":27046,"stv_name":"Uncletopia | Frankfurt | 4 | All Maps | STV","players":null},{"server_id":310,"name":"Uncletopia | Frankfurt | 5 | All Maps","name_short":"frk-5","host":"frk-1.de.uncletopia.com","port":27055,"enabled":true,"region":"eu","cc":"de","latitude":50.110924,"longitude":8.682127,"reserved":0,"last_update":"0001-01-01T00:00:00Z","name_a2s":"Uncletopia | Frankfurt | 5 | All Maps","protocol":17,"map":"koth_highpass","folder":"tf","game":"Team Fortress","app_id":440,"player_count":0,"max_players":24,"Bots":0,"server_type":"Dedicated","server_os":"Linux","password":true,"vac":true,"version":"7932396","steam_id":85568392924504277,"keywords":["cp","nocrits","nodmgspread","uncletopia"],"game_id":440,"stv_port":27056,"stv_name":"Uncletopia | Frankfurt | 5 | All Maps | STV","players":null},{"server_id":311,"name":"Uncletopia | Frankfurt | 6 | All Maps","name_short":"frk-6","host":"frk-1.de.uncletopia.com","port":27065,"enabled":true,"region":"eu","cc":"de","latitude":50.110924,"longitude":8.682127,"reserved":0,"last_update":"0001-01-01T00:00:00Z","name_a2s":"Uncletopia | Frankfurt | 6 | All Maps","protocol":17,"map":"koth_highpass","folder":"tf","game":"Team Fortress","app_id":440,"player_count":0,"max_players":24,"Bots":0,"server_type":"Dedicated","server_os":"Linux","password":true,"vac":true,"version":"7932396","steam_id":85568392924504278,"keywords":["cp","nocrits","nodmgspread","uncletopia"],"game_id":440,"stv_port":27066,"stv_name":"Uncletopia | Frankfurt | 6 | All Maps | STV","players":null},{"server_id":23,"name":"Uncletopia | Frankfurt | 7 | Stopwatch Beta","name_short":"frk-7","host":"frk-1.de.uncletopia.com","port":27075,"enabled":true,"region":"eu","cc":"de","latitude":50.110924,"longitude":8.682127,"reserved":0,"last_update":"0001-01-01T00:00:00Z","name_a2s":"Uncletopia | Frankfurt | 7 | Stopwatch Beta","protocol":17,"map":"pl_snowycoast","folder":"tf","game":"Team Fortress","app_id":440,"player_count":0,"max_players":24,"Bots":0,"server_type":"Dedicated","server_os":"Linux","password":true,"vac":true,"version":"7932396","steam_id":85568392924742827,"keywords":["nocrits","nodmgspread","payload","uncletopia"],"game_id":440,"stv_port":27076,"stv_name":"Uncletopia | Frankfurt | 7 | Stopwatch Beta | STV","players":null},{"server_id":24,"name":"Uncletopia | Frankfurt | 8 | Community","name_short":"frk-8","host":"frk-1.de.uncletopia.com","port":27085,"enabled":true,"region":"eu","cc":"de","latitude":50.110924,"longitude":8.682127,"reserved":0,"last_update":"0001-01-01T00:00:00Z","name_a2s":"Uncletopia | Frankfurt | 8 | Community","protocol":17,"map":"workshop/koth_ashville_final.ugc2130459942","folder":"tf","game":"Team Fortress","app_id":440,"player_count":0,"max_players":24,"Bots":0,"server_type":"Dedicated","server_os":"Linux","password":true,"vac":true,"version":"7932396","steam_id":85568392924742828,"keywords":["cp","nocrits","nodmgspread","uncletopia"],"game_id":440,"stv_port":27086,"stv_name":"Uncletopia | Frankfurt | 8 | Community | STV","players":null},{"server_id":202,"name":"Uncletopia | Hong Kong | 1 | All Maps","name_short":"hgk-1","host":"hgk-1.hk.uncletopia.com","port":27015,"enabled":true,"region":"asia","cc":"hk","latitude":22.302711,"longitude":114.177216,"reserved":0,"last_update":"0001-01-01T00:00:00Z","name_a2s":"Uncletopia | Hong Kong | 1 | All Maps","protocol":17,"map":"koth_cascade","folder":"tf","game":"Team Fortress","app_id":440,"player_count":0,"max_players":24,"Bots":0,"server_type":"Dedicated","server_os":"Linux","password":true,"vac":true,"version":"7932396","steam_id":85568392924494504,"keywords":["cp","nocrits","nodmgspread","uncletopia"],"game_id":440,"stv_port":27016,"stv_name":"Uncletopia | Hong Kong | 1 | All Maps | STV","players":null},{"server_id":1,"name":"Uncletopia | Los Angeles | 1 | All Maps","name_short":"lax-1","host":"lax-1.us.uncletopia.com","port":27015,"enabled":true,"region":"us-west","cc":"us","latitude":33.94279,"longitude":-118.41004,"reserved":0,"last_update":"0001-01-01T00:00:00Z","name_a2s":"Uncletopia | Los Angeles | 1 | All Maps","protocol":17,"map":"pl_borneo","folder":"tf","game":"Team Fortress","app_id":440,"player_count":24,"max_players":24,"Bots":0,"server_type":"Dedicated","server_os":"Linux","password":true,"vac":true,"version":"7932396","steam_id":85568392924469991,"keywords":["nocrits","nodmgspread","payload","uncletopia"],"game_id":440,"stv_port":27016,"stv_name":"Uncletopia | Los Angeles | 1 | All Maps | STV","players":[{"user_id":205,"name":"donkeyballs2007","steam_id":76561199466298683,"connected_time":4261000000000,"state":"active","ping":44},{"user_id":275,"name":"Branz","steam_id":76561198076632143,"connected_time":891000000000,"state":"active","ping":85},{"user_id":269,"name":"desk","steam_id":76561199115711719,"connected_time":1294000000000,"state":"active","ping":35},{"user_id":258,"name":"Disciple of Crazy Steve","steam_id":76561198870068763,"connected_time":1418000000000,"state":"active","ping":132},{"user_id":259,"name":"UnusualTofu","steam_id":76561198060103750,"connected_time":1399000000000,"state":"active","ping":60},{"user_id":242,"name":"Ralph Kramden (Slim Charles)","steam_id":76561197981687895,"connected_time":2135000000000,"state":"active","ping":59},{"user_id":255,"name":"sirkelilimon","steam_id":76561199012980765,"connected_time":1532000000000,"state":"active","ping":59},{"user_id":276,"name":"frozenwasanokmovie","steam_id":76561198157407952,"connected_time":333000000000,"state":"active","ping":54},{"user_id":260,"name":"Malevo","steam_id":76561198148606522,"connected_time":1392000000000,"state":"active","ping":78},{"user_id":271,"name":"Nitroh","steam_id":76561199152983394,"connected_time":1266000000000,"state":"active","ping":115},{"user_id":225,"name":"SkyBoundCaptain","steam_id":76561198045494959,"connected_time":2634000000000,"state":"active","ping":61},{"user_id":263,"name":"..flop","steam_id":76561197989058876,"connected_time":1362000000000,"state":"active","ping":80},{"user_id":265,"name":"Ajax","steam_id":76561198071310833,"connected_time":1340000000000,"state":"active","ping":80},{"user_id":277,"name":"MacxNxCheese80","steam_id":76561198923725480,"connected_time":322000000000,"state":"active","ping":118},{"user_id":234,"name":"Gimli","steam_id":76561198153729934,"connected_time":2454000000000,"state":"active","ping":87},{"user_id":280,"name":"vioxynteris","steam_id":76561198161428666,"connected_time":228000000000,"state":"active","ping":31},{"user_id":278,"name":"skinhub.com Pretz","steam_id":76561198801873766,"connected_time":308000000000,"state":"active","ping":116},{"user_id":268,"name":"CollDragon","steam_id":76561198067534450,"connected_time":1317000000000,"state":"active","ping":110},{"user_id":274,"name":"Walrus","steam_id":76561198001799905,"connected_time":1208000000000,"state":"active","ping":52},{"user_id":236,"name":"Dreamzapp","steam_id":76561199084936632,"connected_time":2420000000000,"state":"active","ping":66},{"user_id":272,"name":"Derpguyy2","steam_id":76561199465788973,"connected_time":1257000000000,"state":"active","ping":129},{"user_id":238,"name":"WaveSmash","steam_id":76561198208785485,"connected_time":2348000000000,"state":"active","ping":86},{"user_id":273,"name":"Âí†ÊÄ°","steam_id":76561198147029746,"connected_time":1241000000000,"state":"active","ping":83},{"user_id":279,"name":"cupnoodles","steam_id":76561198076137957,"connected_time":269000000000,"state":"active","ping":45}]},{"server_id":112,"name":"Uncletopia | Los Angeles | 2 | All Maps","name_short":"lax-2","host":"lax-1.us.uncletopia.com","port":27025,"enabled":true,"region":"us-west","cc":"us","latitude":33.94279,"longitude":-118.41004,"reserved":0,"last_update":"0001-01-01T00:00:00Z","name_a2s":"Uncletopia | Los Angeles | 2 | All Maps","protocol":17,"map":"pl_borneo","folder":"tf","game":"Team Fortress","app_id":440,"player_count":22,"max_players":24,"Bots":0,"server_type":"Dedicated","server_os":"Linux","password":true,"vac":true,"version":"7932396","steam_id":85568392924469992,"keywords":["nocrits","nodmgspread","payload","uncletopia"],"game_id":440,"stv_port":27026,"stv_name":"Uncletopia | Los Angeles | 2 | All Maps | STV","players":[{"user_id":397,"name":"fire","steam_id":76561198044354279,"connected_time":176000000000,"state":"active","ping":46},{"user_id":398,"name":"Waffle Boy","steam_id":76561198404883652,"connected_time":174000000000,"state":"active","ping":53},{"user_id":389,"name":"FaceLaces","steam_id":76561198194417725,"connected_time":1219000000000,"state":"active","ping":58},{"user_id":339,"name":"LordKirby","steam_id":76561198006938286,"connected_time":4104000000000,"state":"active","ping":102},{"user_id":399,"name":"DarkMewMew","steam_id":76561199471715552,"connected_time":93000000000,"state":"active","ping":65},{"user_id":338,"name":"Kip üêá","steam_id":76561198075476523,"connected_time":4123000000000,"state":"active","ping":60},{"user_id":376,"name":"franky","steam_id":76561198070903328,"connected_time":1745000000000,"state":"active","ping":120},{"user_id":371,"name":"123","steam_id":76561198106308056,"connected_time":1924000000000,"state":"active","ping":179},{"user_id":340,"name":"Grognak","steam_id":76561198044710527,"connected_time":4075000000000,"state":"active","ping":70},{"user_id":394,"name":"CrystalClear","steam_id":76561198210417120,"connected_time":590000000000,"state":"active","ping":62},{"user_id":364,"name":"bladees saddest, realest verse","steam_id":76561198098099826,"connected_time":2891000000000,"state":"active","ping":46},{"user_id":378,"name":"breakfast","steam_id":76561198043712978,"connected_time":1722000000000,"state":"active","ping":70},{"user_id":374,"name":"riSygneD","steam_id":76561198331618687,"connected_time":1840000000000,"state":"active","ping":31},{"user_id":396,"name":"uhoh","steam_id":76561198136967934,"connected_time":392000000000,"state":"active","ping":82},{"user_id":390,"name":"ILLVZN","steam_id":76561199065961083,"connected_time":1166000000000,"state":"active","ping":41},{"user_id":395,"name":"lord setch","steam_id":76561198252328518,"connected_time":518000000000,"state":"active","ping":57},{"user_id":383,"name":"cataconik","steam_id":76561198145530829,"connected_time":1620000000000,"state":"active","ping":118},{"user_id":361,"name":"johnnajojonna","steam_id":76561199488883432,"connected_time":3348000000000,"state":"active","ping":108},{"user_id":393,"name":"Bodhisattva","steam_id":76561198085228896,"connected_time":1024000000000,"state":"active","ping":45},{"user_id":392,"name":"rhen","steam_id":76561198085256979,"connected_time":1110000000000,"state":"active","ping":75},{"user_id":281,"name":"[Champ] Marssygurl","steam_id":76561198014928241,"connected_time":7787000000000,"state":"active","ping":127},{"user_id":363,"name":"[El Fail] MR.BadassMCLee","steam_id":76561198043787818,"connected_time":3240000000000,"state":"active","ping":90}]},{"server_id":324,"name":"Uncletopia | Los Angeles | 3 | All Maps","name_short":"lax-3","host":"lax-1.us.uncletopia.com","port":27035,"enabled":true,"region":"us-west","cc":"us","latitude":33.94279,"longitude":-118.41004,"reserved":0,"last_update":"0001-01-01T00:00:00Z","name_a2s":"Uncletopia | Los Angeles | 3 | All Maps","protocol":17,"map":"pl_badwater","folder":"tf","game":"Team Fortress","app_id":440,"player_count":24,"max_players":24,"Bots":0,"server_type":"Dedicated","server_os":"Linux","password":true,"vac":true,"version":"7932396","steam_id":85568392924510198,"keywords":["nocrits","nodmgspread","payload","uncletopia"],"game_id":440,"stv_port":27036,"stv_name":"Uncletopia | Los Angeles | 3 | All Maps | STV","players":[{"user_id":354,"name":"MayKaye","steam_id":76561199016092265,"connected_time":826000000000,"state":"active","ping":61},{"user_id":332,"name":"Nyges","steam_id":76561198139236154,"connected_time":3058000000000,"state":"active","ping":46},{"user_id":343,"name":"minerkid2004","steam_id":76561198044262827,"connected_time":2337000000000,"state":"active","ping":57},{"user_id":346,"name":"adolf tickler","steam_id":76561198163120788,"connected_time":1452000000000,"state":"active","ping":53},{"user_id":376,"name":"LatinRhythms - 4 ref","steam_id":76561198025110751,"connected_time":35000000000,"state":"active","ping":199},{"user_id":351,"name":"Excrement","steam_id":76561198167740127,"connected_time":906000000000,"state":"active","ping":71},{"user_id":373,"name":"RipHunter77","steam_id":76561198272973014,"connected_time":239000000000,"state":"active","ping":109},{"user_id":355,"name":"Maid Knight","steam_id":76561198214370515,"connected_time":818000000000,"state":"active","ping":113},{"user_id":348,"name":"milk","steam_id":76561198168114366,"connected_time":1308000000000,"state":"active","ping":120},{"user_id":357,"name":"DoctorDucky","steam_id":76561198356434380,"connected_time":774000000000,"state":"active","ping":51},{"user_id":368,"name":"BLU Payload Cart","steam_id":76561198352427247,"connected_time":526000000000,"state":"active","ping":74},{"user_id":374,"name":"KaleScrooge","steam_id":76561199229442595,"connected_time":138000000000,"state":"active","ping":131},{"user_id":321,"name":"gunch","steam_id":76561198109948247,"connected_time":4228000000000,"state":"active","ping":91},{"user_id":359,"name":"slowdance","steam_id":76561198097427947,"connected_time":730000000000,"state":"active","ping":95},{"user_id":337,"name":"SanitysEdge","steam_id":76561198130732813,"connected_time":2585000000000,"state":"active","ping":49},{"user_id":371,"name":"luigiclub","steam_id":76561198180548194,"connected_time":409000000000,"state":"active","ping":106},{"user_id":341,"name":"-L","steam_id":76561198046074220,"connected_time":2461000000000,"state":"active","ping":36},{"user_id":375,"name":"HeHedron","steam_id":76561199199667164,"connected_time":75000000000,"state":"active","ping":73},{"user_id":316,"name":"raya","steam_id":76561198051504581,"connected_time":4693000000000,"state":"active","ping":75},{"user_id":363,"name":"pandoRA","steam_id":76561198075490385,"connected_time":683000000000,"state":"active","ping":56},{"user_id":326,"name":"selling rice","steam_id":76561198063357023,"connected_time":3370000000000,"state":"active","ping":59},{"user_id":369,"name":"porksoda","steam_id":76561198021451377,"connected_time":490000000000,"state":"active","ping":77},{"user_id":372,"name":"HummusAndGuac","steam_id":76561199129769262,"connected_time":403000000000,"state":"active","ping":61},{"user_id":370,"name":"Zoro01","steam_id":76561198407989540,"connected_time":481000000000,"state":"active","ping":131}]},{"server_id":25,"name":"Uncletopia | Los Angeles | 4 | Stopwatch Beta","name_short":"lax-4","host":"lax-1.us.uncletopia.com","port":27045,"enabled":true,"region":"us-west","cc":"us","latitude":33.94279,"longitude":-118.41004,"reserved":0,"last_update":"0001-01-01T00:00:00Z","name_a2s":"Uncletopia | Los Angeles | 4 | Stopwatch Beta","protocol":17,"map":"cp_sunshine","folder":"tf","game":"Team Fortress","app_id":440,"player_count":17,"max_players":24,"Bots":0,"server_type":"Dedicated","server_os":"Linux","password":true,"vac":true,"version":"7932396","steam_id":85568392924510199,"keywords":["cp","nocrits","nodmgspread","uncletopia"],"game_id":440,"stv_port":27046,"stv_name":"Uncletopia | Los Angeles | 4 | Stopwatch Beta | STV","players":[{"user_id":83,"name":"speed","steam_id":76561198074489549,"connected_time":823000000000,"state":"active","ping":45},{"user_id":84,"name":"Berd","steam_id":76561198373079031,"connected_time":773000000000,"state":"active","ping":69},{"user_id":82,"name":"Axelonemillion15","steam_id":76561198421342282,"connected_time":965000000000,"state":"active","ping":57},{"user_id":86,"name":"Misty Blu ‚úø","steam_id":76561198011442255,"connected_time":666000000000,"state":"active","ping":45},{"user_id":88,"name":"Bnuuy","steam_id":76561198288696308,"connected_time":391000000000,"state":"active","ping":67},{"user_id":19,"name":"Oatmeal","steam_id":76561199378924674,"connected_time":6691000000000,"state":"active","ping":132},{"user_id":89,"name":"weckingball?","steam_id":76561198880557329,"connected_time":317000000000,"state":"active","ping":46},{"user_id":92,"name":"Joe Nathan","steam_id":76561198041030399,"connected_time":197000000000,"state":"active","ping":88},{"user_id":78,"name":"MiserableBaldguy","steam_id":76561199139669907,"connected_time":1944000000000,"state":"active","ping":250},{"user_id":28,"name":"Agent Q","steam_id":76561198830829003,"connected_time":4830000000000,"state":"active","ping":69},{"user_id":91,"name":"nicok04.gamer","steam_id":76561198423082703,"connected_time":240000000000,"state":"active","ping":331},{"user_id":68,"name":"Mr_Moose","steam_id":76561198152815154,"connected_time":2937000000000,"state":"active","ping":82},{"user_id":94,"name":"baldo","steam_id":76561198178431338,"connected_time":177000000000,"state":"active","ping":49},{"user_id":59,"name":"babywizard","steam_id":76561198097757862,"connected_time":3309000000000,"state":"active","ping":52},{"user_id":96,"name":"Weiner Cleaner","steam_id":76561198147514577,"connected_time":13000000000,"state":"active","ping":73},{"user_id":38,"name":"Allison Ghost ‚∏ª‚∏ª‚∏ª‚∏∫‚∏∫","steam_id":76561198053851548,"connected_time":4562000000000,"state":"active","ping":76},{"user_id":42,"name":"Battle Engineer","steam_id":76561198145396989,"connected_time":4459000000000,"state":"active","ping":45}]},{"server_id":11,"name":"Uncletopia | London | 1 | All Maps","name_short":"lon-1","host":"lon-1.uk.uncletopia.com","port":27015,"enabled":true,"region":"eu","cc":"gb","latitude":51.509865,"longitude":-0.118092,"reserved":0,"last_update":"0001-01-01T00:00:00Z","name_a2s":"Uncletopia | London | 1 | All Maps","protocol":17,"map":"koth_cascade","folder":"tf","game":"Team Fortress","app_id":440,"player_count":0,"max_players":24,"Bots":0,"server_type":"Dedicated","server_os":"Linux","password":true,"vac":true,"version":"7932396","steam_id":85568392924367362,"keywords":["cp","nocrits","nodmgspread","uncletopia"],"game_id":440,"stv_port":27016,"stv_name":"Uncletopia | London | 1 | All Maps | STV","players":null},{"server_id":114,"name":"Uncletopia | London | 2 | All Maps","name_short":"lon-2","host":"lon-1.uk.uncletopia.com","port":27025,"enabled":true,"region":"eu","cc":"gb","latitude":51.509865,"longitude":-0.118092,"reserved":0,"last_update":"0001-01-01T00:00:00Z","name_a2s":"Uncletopia | London | 2 | All Maps","protocol":17,"map":"koth_lakeside_final","folder":"tf","game":"Team Fortress","app_id":440,"player_count":0,"max_players":24,"Bots":0,"server_type":"Dedicated","server_os":"Linux","password":true,"vac":true,"version":"7932396","steam_id":85568392924470941,"keywords":["cp","nocrits","nodmgspread","uncletopia"],"game_id":440,"stv_port":27026,"stv_name":"Uncletopia | London | 2 | All Maps | STV","players":null},{"server_id":320,"name":"Uncletopia | London | 3 | All Maps","name_short":"lon-3","host":"lon-1.uk.uncletopia.com","port":27035,"enabled":true,"region":"eu","cc":"gb","latitude":51.509865,"longitude":-0.118092,"reserved":0,"last_update":"0001-01-01T00:00:00Z","name_a2s":"Uncletopia | London | 3 | All Maps","protocol":17,"map":"cp_dustbowl","folder":"tf","game":"Team Fortress","app_id":440,"player_count":2,"max_players":24,"Bots":0,"server_type":"Dedicated","server_os":"Linux","password":true,"vac":true,"version":"7932396","steam_id":85568392924510192,"keywords":["cp","nocrits","nodmgspread","uncletopia"],"game_id":440,"stv_port":27036,"stv_name":"Uncletopia | London | 3 | All Maps | STV","players":[{"user_id":1018,"name":"SirDapperBirb","steam_id":76561198978305181,"connected_time":5902000000000,"state":"active","ping":126},{"user_id":1016,"name":"Dr.Doc","steam_id":76561198981911429,"connected_time":6184000000000,"state":"active","ping":155}]},{"server_id":321,"name":"Uncletopia | London | 4 | All Maps","name_short":"lon-4","host":"lon-1.uk.uncletopia.com","port":27045,"enabled":true,"region":"eu","cc":"gb","latitude":51.509865,"longitude":-0.118092,"reserved":0,"last_update":"0001-01-01T00:00:00Z","name_a2s":"Uncletopia | London | 4 | All Maps","protocol":17,"map":"pl_barnblitz","folder":"tf","game":"Team Fortress","app_id":440,"player_count":0,"max_players":24,"Bots":0,"server_type":"Dedicated","server_os":"Linux","password":true,"vac":true,"version":"7932396","steam_id":85568392924510193,"keywords":["nocrits","nodmgspread","payload","uncletopia"],"game_id":440,"stv_port":27046,"stv_name":"Uncletopia | London | 4 | All Maps | STV","players":null},{"server_id":21,"name":"Uncletopia | London | 5 | All Maps","name_short":"lon-5","host":"lon-1.uk.uncletopia.com","port":27055,"enabled":true,"region":"eu","cc":"gb","latitude":51.509865,"longitude":-0.118092,"reserved":0,"last_update":"0001-01-01T00:00:00Z","name_a2s":"Uncletopia | London | 5 | All Maps","protocol":17,"map":"pl_badwater","folder":"tf","game":"Team Fortress","app_id":440,"player_count":0,"max_players":24,"Bots":0,"server_type":"Dedicated","server_os":"Linux","password":true,"vac":true,"version":"7932396","steam_id":85568392924742829,"keywords":["nocrits","nodmgspread","payload","uncletopia"],"game_id":440,"stv_port":27056,"stv_name":"Uncletopia | London | 5 | All Maps | STV","players":null},{"server_id":22,"name":"Uncletopia | London | 6 | All Maps","name_short":"lon-6","host":"lon-1.uk.uncletopia.com","port":27065,"enabled":true,"region":"eu","cc":"gb","latitude":51.509865,"longitude":-0.118092,"reserved":0,"last_update":"0001-01-01T00:00:00Z","name_a2s":"Uncletopia | London | 6 | All Maps","protocol":17,"map":"pl_upward","folder":"tf","game":"Team Fortress","app_id":440,"player_count":0,"max_players":24,"Bots":0,"server_type":"Dedicated","server_os":"Linux","password":true,"vac":true,"version":"7932396","steam_id":85568392924742830,"keywords":["nocrits","nodmgspread","payload","uncletopia"],"game_id":440,"stv_port":27066,"stv_name":"Uncletopia | London | 6 | All Maps | STV","players":null},{"server_id":40,"name":"Uncletopia | London | 7 | No Payload","name_short":"lon-7","host":"lon-1.uk.uncletopia.com","port":27075,"enabled":true,"region":"eu","cc":"gb","latitude":51.509865,"longitude":-0.118092,"reserved":0,"last_update":"0001-01-01T00:00:00Z","name_a2s":"Uncletopia | London | 7 | No Payload","protocol":17,"map":"koth_lazarus","folder":"tf","game":"Team Fortress","app_id":440,"player_count":0,"max_players":24,"Bots":0,"server_type":"Dedicated","server_os":"Linux","password":true,"vac":true,"version":"7932396","steam_id":85568392924964314,"keywords":["cp","nocrits","nodmgspread","uncletopia"],"game_id":440,"stv_port":27076,"stv_name":"Uncletopia | London | 7 | No Payload | STV","players":null},{"server_id":41,"name":"Uncletopia | London | 8 | Community","name_short":"lon-8","host":"lon-1.uk.uncletopia.com","port":27085,"enabled":true,"region":"eu","cc":"gb","latitude":51.509865,"longitude":-0.118092,"reserved":0,"last_update":"0001-01-01T00:00:00Z","name_a2s":"Uncletopia | London | 8 | Community","protocol":17,"map":"workshop/koth_trenchfoot_b1a.ugc731436616","folder":"tf","game":"Team Fortress","app_id":440,"player_count":0,"max_players":24,"Bots":0,"server_type":"Dedicated","server_os":"Linux","password":true,"vac":true,"version":"7932396","steam_id":85568392924964315,"keywords":["cp","nocrits","nodmgspread","uncletopia"],"game_id":440,"stv_port":27086,"stv_name":"Uncletopia | London | 8 | Community | STV","players":null},{"server_id":300,"name":"Uncletopia | Montr√©al | 1 | All Maps","name_short":"mtl-1","host":"mtl-1.ca.uncletopia.com","port":27015,"enabled":true,"region":"us-east","cc":"ca","latitude":45.50889,"longitude":-73.56167,"reserved":0,"last_update":"0001-01-01T00:00:00Z","name_a2s":"Uncletopia | Montr√©al | 1 | All Maps","protocol":17,"map":"koth_cascade","folder":"tf","game":"Team Fortress","app_id":440,"player_count":0,"max_players":24,"Bots":0,"server_type":"Dedicated","server_os":"Linux","password":true,"vac":true,"version":"7932396","steam_id":85568392924500087,"keywords":["cp","nocrits","nodmgspread","uncletopia"],"game_id":440,"stv_port":27016,"stv_name":"Uncletopia | Montr√©al | 1 | All Maps | STV","players":null},{"server_id":301,"name":"Uncletopia | Montr√©al | 2 | All Maps","name_short":"mtl-2","host":"mtl-1.ca.uncletopia.com","port":27025,"enabled":true,"region":"us-east","cc":"ca","latitude":45.50889,"longitude":-73.56167,"reserved":0,"last_update":"0001-01-01T00:00:00Z","name_a2s":"Uncletopia | Montr√©al | 2 | All Maps","protocol":17,"map":"koth_lakeside_final","folder":"tf","game":"Team Fortress","app_id":440,"player_count":0,"max_players":24,"Bots":0,"server_type":"Dedicated","server_os":"Linux","password":true,"vac":true,"version":"7932396","steam_id":85568392924500088,"keywords":["cp","nocrits","nodmgspread","uncletopia"],"game_id":440,"stv_port":27026,"stv_name":"Uncletopia | Montr√©al | 2 | All Maps | STV","players":null},{"server_id":302,"name":"Uncletopia | Montr√©al | 3 | All Maps","name_short":"mtl-3","host":"mtl-1.ca.uncletopia.com","port":27035,"enabled":true,"region":"us-east","cc":"ca","latitude":45.50889,"longitude":-73.56167,"reserved":0,"last_update":"0001-01-01T00:00:00Z","name_a2s":"Uncletopia | Montr√©al | 3 | All Maps","protocol":17,"map":"koth_cascade","folder":"tf","game":"Team Fortress","app_id":440,"player_count":0,"max_players":24,"Bots":0,"server_type":"Dedicated","server_os":"Linux","password":true,"vac":true,"version":"7932396","steam_id":85568392924500089,"keywords":["cp","nocrits","nodmgspread","uncletopia"],"game_id":440,"stv_port":27036,"stv_name":"Uncletopia | Montr√©al | 3 | All Maps | STV","players":null},{"server_id":303,"name":"Uncletopia | Montr√©al | 4 | No Payload","name_short":"mtl-4","host":"mtl-1.ca.uncletopia.com","port":27045,"enabled":true,"region":"us-east","cc":"ca","latitude":45.50889,"longitude":-73.56167,"reserved":0,"last_update":"0001-01-01T00:00:00Z","name_a2s":"Uncletopia | Montr√©al | 4 | No Payload","protocol":17,"map":"cp_dustbowl","folder":"tf","game":"Team Fortress","app_id":440,"player_count":0,"max_players":24,"Bots":0,"server_type":"Dedicated","server_os":"Linux","password":true,"vac":true,"version":"7932396","steam_id":85568392924500090,"keywords":["cp","nocrits","nodmgspread","uncletopia"],"game_id":440,"stv_port":27046,"stv_name":"Uncletopia | Montr√©al | 4 | No Payload | STV","players":null},{"server_id":13,"name":"Uncletopia | New York City | 1 | All Maps","name_short":"nyc-1","host":"nyc-1.us.uncletopia.com","port":27015,"enabled":true,"region":"us-east","cc":"us","latitude":40.73061,"longitude":-73.93524,"reserved":0,"last_update":"0001-01-01T00:00:00Z","name_a2s":"Uncletopia | New York City | 1 | All Maps","protocol":17,"map":"pl_borneo","folder":"tf","game":"Team Fortress","app_id":440,"player_count":23,"max_players":24,"Bots":0,"server_type":"Dedicated","server_os":"Linux","password":true,"vac":true,"version":"7932396","steam_id":85568392924469993,"keywords":["nocrits","nodmgspread","payload","uncletopia"],"game_id":440,"stv_port":27016,"stv_name":"Uncletopia | New York City | 1 | All Maps | STV","players":[{"user_id":482,"name":"totally not a pile of beans","steam_id":76561198119851931,"connected_time":1016000000000,"state":"active","ping":68},{"user_id":464,"name":"canadian birds","steam_id":76561198059466588,"connected_time":2452000000000,"state":"active","ping":54},{"user_id":484,"name":"Randumb","steam_id":76561199083286636,"connected_time":982000000000,"state":"active","ping":66},{"user_id":485,"name":"mm","steam_id":76561198841559088,"connected_time":890000000000,"state":"active","ping":46},{"user_id":451,"name":"Snoogs","steam_id":76561198444880931,"connected_time":3926000000000,"state":"active","ping":73},{"user_id":452,"name":"A very nice man","steam_id":76561198165472253,"connected_time":3907000000000,"state":"active","ping":70},{"user_id":467,"name":"‚ô¶‚ô£Quadric‚ô•‚ô†","steam_id":76561198061003853,"connected_time":2221000000000,"state":"active","ping":55},{"user_id":478,"name":"Spy (I Love spy)","steam_id":76561199138738952,"connected_time":1191000000000,"state":"active","ping":127},{"user_id":397,"name":"Wique","steam_id":76561198071217597,"connected_time":8600000000000,"state":"active","ping":70},{"user_id":479,"name":"Jaydyn","steam_id":76561198140326797,"connected_time":1189000000000,"state":"active","ping":67},{"user_id":445,"name":"gamer girl looking for a bf","steam_id":76561198279901162,"connected_time":4280000000000,"state":"active","ping":73},{"user_id":481,"name":"Zigadox","steam_id":76561198079813479,"connected_time":1164000000000,"state":"active","ping":80},{"user_id":483,"name":"Constipated Barry","steam_id":76561198004482269,"connected_time":995000000000,"state":"active","ping":112},{"user_id":486,"name":"H‚ÇÇSeGamez","steam_id":76561198250471340,"connected_time":884000000000,"state":"active","ping":67},{"user_id":492,"name":"Yoshimelon","steam_id":76561198253054325,"connected_time":608000000000,"state":"active","ping":75},{"user_id":386,"name":"Periculosum PhD in Funny","steam_id":76561198123370914,"connected_time":9745000000000,"state":"active","ping":91},{"user_id":476,"name":"Dynamite-DC","steam_id":76561198132300175,"connected_time":1209000000000,"state":"active","ping":97},{"user_id":487,"name":"-W3E- grim10465","steam_id":76561198045698581,"connected_time":881000000000,"state":"active","ping":32},{"user_id":493,"name":"∆ê’å—¥∆≥","steam_id":76561198099470277,"connected_time":556000000000,"state":"active","ping":92},{"user_id":473,"name":"Croakacola","steam_id":76561199184411105,"connected_time":1540000000000,"state":"active","ping":51},{"user_id":489,"name":"Alice in Rubberland","steam_id":76561198087328346,"connected_time":857000000000,"state":"active","ping":61},{"user_id":404,"name":"Bee_Pirate","steam_id":76561199000599111,"connected_time":8364000000000,"state":"active","ping":67},{"user_id":490,"name":"1-800-GHOST-DANCE","steam_id":76561198835430429,"connected_time":854000000000,"state":"active","ping":70}]},{"server_id":14,"name":"Uncletopia | New York City | 2 | All Maps","name_short":"nyc-2","host":"nyc-1.us.uncletopia.com","port":27025,"enabled":true,"region":"us-east","cc":"us","latitude":40.73061,"longitude":-73.93524,"reserved":0,"last_update":"0001-01-01T00:00:00Z","name_a2s":"Uncletopia | New York City | 2 | All Maps","protocol":17,"map":"koth_viaduct","folder":"tf","game":"Team Fortress","app_id":440,"player_count":24,"max_players":24,"Bots":0,"server_type":"Dedicated","server_os":"Linux","password":true,"vac":true,"version":"7932396","steam_id":85568392924469994,"keywords":["cp","nocrits","nodmgspread","uncletopia"],"game_id":440,"stv_port":27026,"stv_name":"Uncletopia | New York City | 2 | All Maps | STV","players":[{"user_id":361,"name":"Aristotle Voulton","steam_id":76561198100174923,"connected_time":4812000000000,"state":"active","ping":68},{"user_id":396,"name":"Rock Lee in a Bikini","steam_id":76561198011204478,"connected_time":1787000000000,"state":"active","ping":58},{"user_id":408,"name":"A Rope, for big pits","steam_id":76561198068044782,"connected_time":498000000000,"state":"active","ping":59},{"user_id":382,"name":"tim-","steam_id":76561199119101315,"connected_time":2350000000000,"state":"active","ping":55},{"user_id":413,"name":"capybara","steam_id":76561198182288455,"connected_time":266000000000,"state":"active","ping":85},{"user_id":395,"name":"Sarumon","steam_id":76561198078652494,"connected_time":1924000000000,"state":"active","ping":62},{"user_id":306,"name":"IMPACT CPU","steam_id":76561198001344879,"connected_time":7892000000000,"state":"active","ping":59},{"user_id":410,"name":"Foonut","steam_id":76561198075740574,"connected_time":365000000000,"state":"active","ping":71},{"user_id":411,"name":"The Buff Lebowski","steam_id":76561197995697050,"connected_time":337000000000,"state":"active","ping":58},{"user_id":390,"name":"WATERWATERWATERWATERWATER","steam_id":76561198100799021,"connected_time":2013000000000,"state":"active","ping":57},{"user_id":399,"name":"No_Dictators","steam_id":76561199065777321,"connected_time":1669000000000,"state":"active","ping":91},{"user_id":417,"name":"Autogyro","steam_id":76561198047943679,"connected_time":213000000000,"state":"active","ping":75},{"user_id":418,"name":"El G√ºey","steam_id":76561197970450546,"connected_time":117000000000,"state":"active","ping":123},{"user_id":416,"name":"Manhattan District Attorney","steam_id":76561198028606123,"connected_time":228000000000,"state":"active","ping":48},{"user_id":405,"name":"awesomeajb08","steam_id":76561199056316311,"connected_time":858000000000,"state":"active","ping":68},{"user_id":386,"name":"Terror-Billy #SaveTF2","steam_id":76561198328141870,"connected_time":2200000000000,"state":"active","ping":63},{"user_id":419,"name":"n00dles","steam_id":76561198062517391,"connected_time":60000000000,"state":"active","ping":63},{"user_id":420,"name":"Foreign","steam_id":76561198206848004,"connected_time":58000000000,"state":"active","ping":109},{"user_id":400,"name":"Pizza","steam_id":76561198118748364,"connected_time":1424000000000,"state":"active","ping":75},{"user_id":355,"name":"nullptr","steam_id":76561198111790388,"connected_time":5212000000000,"state":"active","ping":96},{"user_id":371,"name":"Rudy","steam_id":76561198013456828,"connected_time":3994000000000,"state":"active","ping":57},{"user_id":398,"name":"lfty","steam_id":76561198283841707,"connected_time":1696000000000,"state":"active","ping":58},{"user_id":407,"name":"selarom | trade.tf |","steam_id":76561199069219350,"connected_time":820000000000,"state":"active","ping":66},{"user_id":385,"name":"nerd","steam_id":76561198964101426,"connected_time":2235000000000,"state":"active","ping":42}]},{"server_id":15,"name":"Uncletopia | New York City | 3 | Stopwatch Beta","name_short":"nyc-3","host":"nyc-1.us.uncletopia.com","port":27035,"enabled":true,"region":"us-east","cc":"us","latitude":40.73061,"longitude":-73.93524,"reserved":0,"last_update":"0001-01-01T00:00:00Z","name_a2s":"Uncletopia | New York City | 3 | Stopwatch Beta","protocol":17,"map":"workshop/koth_clearcut_b15.ugc2107050255","folder":"tf","game":"Team Fortress","app_id":440,"player_count":0,"max_players":24,"Bots":0,"server_type":"Dedicated","server_os":"Linux","password":true,"vac":true,"version":"7932396","steam_id":85568392924742820,"keywords":["cp","nocrits","nodmgspread","uncletopia"],"game_id":440,"stv_port":27036,"stv_name":"Uncletopia | New York City | 3 | Stopwatch Beta | STV","players":null},{"server_id":16,"name":"Uncletopia | New York City | 4 | Community","name_short":"nyc-4","host":"nyc-1.us.uncletopia.com","port":27045,"enabled":true,"region":"us-east","cc":"us","latitude":40.73061,"longitude":-73.93524,"reserved":0,"last_update":"0001-01-01T00:00:00Z","name_a2s":"Uncletopia | New York City | 4 | Community","protocol":17,"map":"workshop/pl_emerge_rc2.ugc888027758","folder":"tf","game":"Team Fortress","app_id":440,"player_count":16,"max_players":24,"Bots":0,"server_type":"Dedicated","server_os":"Linux","password":true,"vac":true,"version":"7932396","steam_id":85568392924742821,"keywords":["nocrits","nodmgspread","payload","uncletopia"],"game_id":440,"stv_port":27046,"stv_name":"Uncletopia | New York City | 4 | Community | STV","players":[{"user_id":464,"name":"Source Enjoyer","steam_id":76561198105663173,"connected_time":2995000000000,"state":"active","ping":69},{"user_id":420,"name":"EmeraldYeti","steam_id":76561198318703857,"connected_time":6103000000000,"state":"active","ping":66},{"user_id":487,"name":"dillon","steam_id":76561198118054166,"connected_time":1394000000000,"state":"active","ping":52},{"user_id":397,"name":"helen keller","steam_id":76561197979870540,"connected_time":7431000000000,"state":"active","ping":60},{"user_id":418,"name":"Mathispell","steam_id":76561198066256066,"connected_time":6154000000000,"state":"active","ping":66},{"user_id":429,"name":"monkeycake","steam_id":76561198272061915,"connected_time":5799000000000,"state":"active","ping":63},{"user_id":481,"name":"Cringys","steam_id":76561199029812838,"connected_time":1900000000000,"state":"active","ping":125},{"user_id":466,"name":"0xymoron¬≤","steam_id":76561198135993275,"connected_time":2976000000000,"state":"active","ping":70},{"user_id":491,"name":"I shovel mayonnaise in mouth","steam_id":76561199123118241,"connected_time":914000000000,"state":"active","ping":126},{"user_id":495,"name":"seems_fishy","steam_id":76561199028846656,"connected_time":461000000000,"state":"active","ping":55},{"user_id":470,"name":"Skiddy","steam_id":76561198125942665,"connected_time":2773000000000,"state":"active","ping":60},{"user_id":425,"name":"Etienne 115","steam_id":76561198351660265,"connected_time":6013000000000,"state":"active","ping":58},{"user_id":473,"name":"IanFishooks","steam_id":76561199403427527,"connected_time":2642000000000,"state":"active","ping":58},{"user_id":484,"name":"ChozoChorizo","steam_id":76561198272609196,"connected_time":1682000000000,"state":"active","ping":69},{"user_id":428,"name":"Zephiel Castelianos","steam_id":76561198092435137,"connected_time":5966000000000,"state":"active","ping":73},{"user_id":494,"name":"lizardman","steam_id":76561199029030831,"connected_time":538000000000,"state":"active","ping":62}]},{"server_id":142,"name":"Uncletopia | S√£o Paulo | 1 | All Maps","name_short":"sao-1","host":"sao-1.br.uncletopia.com","port":27015,"enabled":true,"region":"sa","cc":"br","latitude":-23.533773,"longitude":-46.62529,"reserved":0,"last_update":"0001-01-01T00:00:00Z","name_a2s":"Uncletopia | S√£o Paulo | 1 | All Maps","protocol":17,"map":"koth_cascade","folder":"tf","game":"Team Fortress","app_id":440,"player_count":0,"max_players":24,"Bots":0,"server_type":"Dedicated","server_os":"Linux","password":true,"vac":true,"version":"7932396","steam_id":85568392924469996,"keywords":["cp","nocrits","nodmgspread","uncletopia"],"game_id":440,"stv_port":27016,"stv_name":"Uncletopia | S√£o Paulo | 1 | All Maps | STV","players":null},{"server_id":143,"name":"Uncletopia | S√£o Paulo | 2 | All Maps","name_short":"sao-2","host":"sao-2.br.uncletopia.com","port":27015,"enabled":true,"region":"sa","cc":"br","latitude":-23.533773,"longitude":-46.62529,"reserved":0,"last_update":"0001-01-01T00:00:00Z","name_a2s":"Uncletopia | S√£o Paulo | 2 | All Maps","protocol":17,"map":"cp_sunshine","folder":"tf","game":"Team Fortress","app_id":440,"player_count":0,"max_players":24,"Bots":0,"server_type":"Dedicated","server_os":"Linux","password":true,"vac":true,"version":"7932396","steam_id":85568392924485349,"keywords":["cp","nocrits","nodmgspread","uncletopia"],"game_id":440,"stv_port":27016,"stv_name":"Uncletopia | S√£o Paulo | 2 | All Maps | STV","players":null},{"server_id":7,"name":"Uncletopia | Seattle | 1 | All Maps","name_short":"sea-1","host":"sea-1.us.uncletopia.com","port":27015,"enabled":true,"region":"us-west","cc":"us","latitude":47.608013,"longitude":-122.33517,"reserved":0,"last_update":"0001-01-01T00:00:00Z","name_a2s":"Uncletopia | Seattle | 1 | All Maps","protocol":17,"map":"pl_borneo","folder":"tf","game":"Team Fortress","app_id":440,"player_count":24,"max_players":24,"Bots":0,"server_type":"Dedicated","server_os":"Linux","password":true,"vac":true,"version":"7932396","steam_id":85568392924469997,"keywords":["nocrits","nodmgspread","payload","uncletopia"],"game_id":440,"stv_port":27016,"stv_name":"Uncletopia | Seattle | 1 | All Maps | STV","players":[{"user_id":254,"name":"InterplanetaryGentlemann","steam_id":76561198146559390,"connected_time":10373000000000,"state":"active","ping":45},{"user_id":426,"name":"Church929","steam_id":76561198448793329,"connected_time":834000000000,"state":"active","ping":55},{"user_id":418,"name":"Google","steam_id":76561198857237473,"connected_time":927000000000,"state":"active","ping":46},{"user_id":415,"name":"bagsy","steam_id":76561198088778979,"connected_time":1509000000000,"state":"active","ping":73},{"user_id":407,"name":"Applesauce","steam_id":76561198047011689,"connected_time":2253000000000,"state":"active","ping":92},{"user_id":436,"name":"fish fingers","steam_id":76561199078516567,"connected_time":35000000000,"state":"active","ping":134},{"user_id":367,"name":"4 life","steam_id":76561198175961598,"connected_time":5109000000000,"state":"active","ping":90},{"user_id":291,"name":"Alphaarmy01","steam_id":76561198818913025,"connected_time":8010000000000,"state":"active","ping":127},{"user_id":419,"name":"lox","steam_id":76561198288531493,"connected_time":927000000000,"state":"active","ping":54},{"user_id":429,"name":"TROY","steam_id":76561197983852176,"connected_time":745000000000,"state":"active","ping":71},{"user_id":435,"name":"Howl","steam_id":76561198199217834,"connected_time":125000000000,"state":"active","ping":100},{"user_id":384,"name":"Peppy","steam_id":76561198866629645,"connected_time":3266000000000,"state":"active","ping":59},{"user_id":425,"name":"selvhat","steam_id":76561198114225509,"connected_time":879000000000,"state":"active","ping":76},{"user_id":423,"name":"t2h","steam_id":76561198057944303,"connected_time":905000000000,"state":"active","ping":75},{"user_id":400,"name":"\u003e\u003e EngineerMaster","steam_id":76561198056377621,"connected_time":2617000000000,"state":"active","ping":104},{"user_id":396,"name":"Mignyanne :3","steam_id":76561198048754056,"connected_time":2719000000000,"state":"active","ping":65},{"user_id":433,"name":"bishiro","steam_id":76561198129564488,"connected_time":269000000000,"state":"active","ping":60},{"user_id":394,"name":"CashGordon","steam_id":76561197975594096,"connected_time":2792000000000,"state":"active","ping":41},{"user_id":432,"name":"b a l j e e t","steam_id":76561199102371298,"connected_time":360000000000,"state":"active","ping":35},{"user_id":417,"name":"Tom Skirrett","steam_id":76561198014600788,"connected_time":938000000000,"state":"active","ping":61},{"user_id":406,"name":"Lone_Explorer","steam_id":76561198081972715,"connected_time":2320000000000,"state":"active","ping":59},{"user_id":412,"name":"SoldMyKidneyForCollege","steam_id":76561198096329559,"connected_time":1898000000000,"state":"active","ping":94},{"user_id":424,"name":"Hue Man","steam_id":76561199243825677,"connected_time":902000000000,"state":"active","ping":105},{"user_id":428,"name":"Jae","steam_id":76561198060026844,"connected_time":821000000000,"state":"active","ping":112}]},{"server_id":119,"name":"Uncletopia | Seattle | 2 | All Maps","name_short":"sea-2","host":"sea-1.us.uncletopia.com","port":27025,"enabled":true,"region":"us-west","cc":"us","latitude":47.608013,"longitude":-122.33517,"reserved":0,"last_update":"0001-01-01T00:00:00Z","name_a2s":"Uncletopia | Seattle | 2 | All Maps","protocol":17,"map":"cp_steel","folder":"tf","game":"Team Fortress","app_id":440,"player_count":24,"max_players":24,"Bots":0,"server_type":"Dedicated","server_os":"Linux","password":true,"vac":true,"version":"7932396","steam_id":85568392924469998,"keywords":["cp","nocrits","nodmgspread","uncletopia"],"game_id":440,"stv_port":27026,"stv_name":"Uncletopia | Seattle | 2 | All Maps | STV","players":[{"user_id":716,"name":"HideOnTate","steam_id":76561198209880837,"connected_time":6519000000000,"state":"active","ping":45},{"user_id":770,"name":"viciousbeatmaker","steam_id":76561198086876652,"connected_time":3270000000000,"state":"active","ping":76},{"user_id":812,"name":"you think you know me","steam_id":76561198131166135,"connected_time":247000000000,"state":"active","ping":44},{"user_id":791,"name":"PillCosby","steam_id":76561199396184696,"connected_time":1873000000000,"state":"active","ping":50},{"user_id":804,"name":"Barton","steam_id":76561198203088523,"connected_time":1059000000000,"state":"active","ping":67},{"user_id":802,"name":"too funky ·óúÀ¨·óú","steam_id":76561199120399776,"connected_time":1161000000000,"state":"active","ping":71},{"user_id":799,"name":"Jkbh1","steam_id":76561198093449670,"connected_time":1444000000000,"state":"active","ping":74},{"user_id":744,"name":"ejschild745","steam_id":76561199013388867,"connected_time":5257000000000,"state":"active","ping":70},{"user_id":813,"name":"beans_groovin.mp4","steam_id":76561198169874013,"connected_time":137000000000,"state":"active","ping":108},{"user_id":687,"name":"a cat plushie","steam_id":76561198080046542,"connected_time":8789000000000,"state":"active","ping":45},{"user_id":806,"name":"SCUD missile up your ass","steam_id":76561198066452726,"connected_time":909000000000,"state":"active","ping":87},{"user_id":808,"name":"Stev the Prurient Oxymoron","steam_id":76561197999442625,"connected_time":607000000000,"state":"active","ping":65},{"user_id":786,"name":"Jigg","steam_id":76561198051140705,"connected_time":2242000000000,"state":"active","ping":71},{"user_id":796,"name":"Starkiller","steam_id":76561198101643120,"connected_time":1554000000000,"state":"active","ping":104},{"user_id":788,"name":"Santicules","steam_id":76561198209373536,"connected_time":1935000000000,"state":"active","ping":110},{"user_id":625,"name":"a single goal","steam_id":76561198042913843,"connected_time":12760000000000,"state":"active","ping":58},{"user_id":810,"name":"amarok","steam_id":76561198954000327,"connected_time":419000000000,"state":"active","ping":65},{"user_id":811,"name":"Red","steam_id":76561198001939529,"connected_time":300000000000,"state":"active","ping":132},{"user_id":797,"name":"Space360","steam_id":76561198106743284,"connected_time":1537000000000,"state":"active","ping":53},{"user_id":772,"name":"Shazzy","steam_id":76561198145460523,"connected_time":3077000000000,"state":"active","ping":45},{"user_id":767,"name":"mac_cheese","steam_id":76561198071334162,"connected_time":4007000000000,"state":"active","ping":45},{"user_id":768,"name":"Mr8bittripper","steam_id":76561198133894229,"connected_time":3594000000000,"state":"active","ping":51},{"user_id":709,"name":"beam man","steam_id":76561198060567341,"connected_time":7607000000000,"state":"active","ping":107},{"user_id":803,"name":"jorts","steam_id":76561199041179985,"connected_time":1146000000000,"state":"active","ping":60}]},{"server_id":406,"name":"Uncletopia | Seattle | 3 | Stopwatch Beta","name_short":"sea-3","host":"sea-1.us.uncletopia.com","port":27035,"enabled":true,"region":"us-west","cc":"us","latitude":47.608013,"longitude":-122.33517,"reserved":0,"last_update":"0001-01-01T00:00:00Z","name_a2s":"Uncletopia | Seattle | 3 | Stopwatch Beta","protocol":17,"map":"workshop/koth_bagel_rc6.ugc2514036946","folder":"tf","game":"Team Fortress","app_id":440,"player_count":0,"max_players":24,"Bots":0,"server_type":"Dedicated","server_os":"Linux","password":true,"vac":true,"version":"7932396","steam_id":85568392924515217,"keywords":["cp","nocrits","nodmgspread","uncletopia"],"game_id":440,"stv_port":27036,"stv_name":"Uncletopia | Seattle | 3 | Stopwatch Beta | STV","players":null},{"server_id":17,"name":"Uncletopia | San Francisco | 1 | All Maps","name_short":"sfo-1","host":"sfo-1.us.uncletopia.com","port":27015,"enabled":true,"region":"us-west","cc":"us","latitude":37.77397,"longitude":-122.4313,"reserved":0,"last_update":"0001-01-01T00:00:00Z","name_a2s":"Uncletopia | San Francisco | 1 | All Maps","protocol":17,"map":"pl_snowycoast","folder":"tf","game":"Team Fortress","app_id":440,"player_count":24,"max_players":24,"Bots":0,"server_type":"Dedicated","server_os":"Linux","password":true,"vac":true,"version":"7932396","steam_id":85568392924469999,"keywords":["nocrits","nodmgspread","payload","uncletopia"],"game_id":440,"stv_port":27016,"stv_name":"Uncletopia | San Francisco | 1 | All Maps | STV","players":[{"user_id":223,"name":"I'm a easy kill","steam_id":76561199092023746,"connected_time":265000000000,"state":"active","ping":62},{"user_id":215,"name":"Miro","steam_id":76561198936412406,"connected_time":1366000000000,"state":"active","ping":123},{"user_id":224,"name":"devamar","steam_id":76561198069115467,"connected_time":254000000000,"state":"active","ping":51},{"user_id":213,"name":"omnislime","steam_id":76561199382475668,"connected_time":1581000000000,"state":"active","ping":100},{"user_id":202,"name":"Funbearable  ï ‚Ä¢·¥•‚Ä¢ î","steam_id":76561197968272094,"connected_time":2002000000000,"state":"active","ping":71},{"user_id":169,"name":"Livin' Like Larry","steam_id":76561198313360974,"connected_time":4835000000000,"state":"active","ping":31},{"user_id":225,"name":"Dragon New Warm Mountain","steam_id":76561198055626638,"connected_time":212000000000,"state":"active","ping":149},{"user_id":194,"name":"frostedflakes99","steam_id":76561199049292578,"connected_time":2701000000000,"state":"active","ping":56},{"user_id":182,"name":"Imitation Caucasian","steam_id":76561198320536166,"connected_time":3762000000000,"state":"active","ping":78},{"user_id":141,"name":"Buswolley","steam_id":76561197995205571,"connected_time":5863000000000,"state":"active","ping":45},{"user_id":217,"name":"joe biden","steam_id":76561198861436861,"connected_time":1201000000000,"state":"active","ping":46},{"user_id":211,"name":"corrupted spy","steam_id":76561198018689620,"connected_time":1755000000000,"state":"active","ping":66},{"user_id":226,"name":"gadisboss","steam_id":76561198301704975,"connected_time":192000000000,"state":"active","ping":71},{"user_id":185,"name":"Bedside table, on the kangaroo","steam_id":76561198044277932,"connected_time":3728000000000,"state":"active","ping":100},{"user_id":204,"name":"yang","steam_id":76561199139767518,"connected_time":1976000000000,"state":"active","ping":67},{"user_id":207,"name":"Shingles","steam_id":76561199225619586,"connected_time":1893000000000,"state":"active","ping":71},{"user_id":201,"name":"Xylaite ÓÄî","steam_id":76561198210402325,"connected_time":2015000000000,"state":"active","ping":70},{"user_id":216,"name":"malon milk","steam_id":76561198042558913,"connected_time":1327000000000,"state":"active","ping":128},{"user_id":222,"name":"diymo the noob assaulter","steam_id":76561198017600790,"connected_time":427000000000,"state":"active","ping":59},{"user_id":218,"name":"kermitcreeper(ZAZA)","steam_id":76561199222829972,"connected_time":1065000000000,"state":"active","ping":106},{"user_id":191,"name":"BongBlaster69","steam_id":76561198316811893,"connected_time":3165000000000,"state":"active","ping":56},{"user_id":186,"name":"BON6 R1P5","steam_id":76561199187170139,"connected_time":3706000000000,"state":"active","ping":115},{"user_id":227,"name":"doggo88888","steam_id":76561199390094020,"connected_time":190000000000,"state":"active","ping":71},{"user_id":220,"name":"Zen56","steam_id":76561198074554894,"connected_time":987000000000,"state":"active","ping":90}]},{"server_id":18,"name":"Uncletopia | San Francisco | 2 | All Maps","name_short":"sfo-2","host":"sfo-1.us.uncletopia.com","port":27025,"enabled":true,"region":"us-west","cc":"us","latitude":37.77397,"longitude":-122.4313,"reserved":0,"last_update":"0001-01-01T00:00:00Z","name_a2s":"Uncletopia | San Francisco | 2 | All Maps","protocol":17,"map":"pl_pier","folder":"tf","game":"Team Fortress","app_id":440,"player_count":20,"max_players":24,"Bots":0,"server_type":"Dedicated","server_os":"Linux","password":true,"vac":true,"version":"7932396","steam_id":85568392924470000,"keywords":["nocrits","nodmgspread","payload","uncletopia"],"game_id":440,"stv_port":27026,"stv_name":"Uncletopia | San Francisco | 2 | All Maps | STV","players":[{"user_id":213,"name":"R5-D4","steam_id":76561198025196439,"connected_time":2069000000000,"state":"active","ping":63},{"user_id":214,"name":"the hype man","steam_id":76561199052875314,"connected_time":1942000000000,"state":"active","ping":63},{"user_id":245,"name":"el wokismo","steam_id":76561198058617608,"connected_time":47000000000,"state":"active","ping":61},{"user_id":215,"name":"Cherry Bomb!","steam_id":76561198017947020,"connected_time":1930000000000,"state":"active","ping":104},{"user_id":216,"name":"Rat Brain Solar Probe","steam_id":76561197995191233,"connected_time":1925000000000,"state":"active","ping":62},{"user_id":247,"name":"Master Cannoli","steam_id":76561198272327518,"connected_time":18000000000,"state":"active","ping":60},{"user_id":243,"name":"Aeris","steam_id":76561198287271028,"connected_time":341000000000,"state":"active","ping":99},{"user_id":248,"name":"BreadGod","steam_id":76561198050665205,"connected_time":17000000000,"state":"active","ping":104},{"user_id":249,"name":"rad killl raccoon","steam_id":76561198980975595,"connected_time":10000000000,"state":"spawning","ping":73},{"user_id":250,"name":"Kasodani Kyouko","steam_id":76561198023178589,"connected_time":7000000000,"state":"spawning","ping":133},{"user_id":251,"name":"supcupman","steam_id":76561198051513866,"connected_time":1000000000,"state":"spawning","ping":49},{"user_id":232,"name":"lili","steam_id":76561199391478575,"connected_time":836000000000,"state":"active","ping":86},{"user_id":231,"name":"im high asf","steam_id":76561198198781598,"connected_time":895000000000,"state":"active","ping":39},{"user_id":236,"name":"HeavenHearst","steam_id":76561198066083947,"connected_time":654000000000,"state":"active","ping":108},{"user_id":219,"name":"G. Howard Dee","steam_id":76561198058382812,"connected_time":1872000000000,"state":"active","ping":59},{"user_id":244,"name":"DiperFur pee ASMR 3 days","steam_id":76561198892677253,"connected_time":132000000000,"state":"active","ping":91},{"user_id":239,"name":"AidenAces","steam_id":76561197999610332,"connected_time":497000000000,"state":"spawning","ping":82},{"user_id":229,"name":"Earl Acton","steam_id":76561198064273772,"connected_time":1180000000000,"state":"active","ping":111},{"user_id":241,"name":"cro","steam_id":76561198406023539,"connected_time":386000000000,"state":"active","ping":76},{"user_id":237,"name":"Chap","steam_id":76561198294226443,"connected_time":577000000000,"state":"active","ping":59}]},{"server_id":19,"name":"Uncletopia | San Francisco | 3 | Stopwatch Beta","name_short":"sfo-3","host":"sfo-1.us.uncletopia.com","port":27035,"enabled":true,"region":"us-west","cc":"us","latitude":37.77397,"longitude":-122.4313,"reserved":0,"last_update":"0001-01-01T00:00:00Z","name_a2s":"Uncletopia | San Francisco | 3 | Stopwatch Beta","protocol":17,"map":"workshop/pl_vigil_rc9.ugc1266210012","folder":"tf","game":"Team Fortress","app_id":440,"player_count":1,"max_players":24,"Bots":0,"server_type":"Dedicated","server_os":"Linux","password":true,"vac":true,"version":"7932396","steam_id":85568392924742824,"keywords":["nocrits","nodmgspread","payload","uncletopia"],"game_id":440,"stv_port":27036,"stv_name":"Uncletopia | San Francisco | 3 | Stopwatch Beta | STV","players":[{"user_id":9,"name":"Foenix","steam_id":76561199061465297,"connected_time":136000000000,"state":"active","ping":111}]},{"server_id":20,"name":"Uncletopia | San Francisco | 4 | Community","name_short":"sfo-4","host":"sfo-1.us.uncletopia.com","port":27045,"enabled":true,"region":"us-west","cc":"us","latitude":37.77397,"longitude":-122.4313,"reserved":0,"last_update":"0001-01-01T00:00:00Z","name_a2s":"Uncletopia | San Francisco | 4 | Community","protocol":17,"map":"workshop/koth_kemptown_rc1.ugc767410655","folder":"tf","game":"Team Fortress","app_id":440,"player_count":1,"max_players":24,"Bots":0,"server_type":"Dedicated","server_os":"Linux","password":true,"vac":true,"version":"7932396","steam_id":85568392924742826,"keywords":["cp","nocrits","nodmgspread","uncletopia"],"game_id":440,"stv_port":27046,"stv_name":"Uncletopia | San Francisco | 4 | Community | STV","players":[{"user_id":6,"name":"SvicidalBug","steam_id":76561198221390504,"connected_time":1261000000000,"state":"active","ping":89}]},{"server_id":141,"name":"Uncletopia | Sydney | 1 | All Maps","name_short":"syd-1","host":"syd-1.au.uncletopia.com","port":27015,"enabled":true,"region":"au","cc":"au","latitude":-33.865143,"longitude":151.2099,"reserved":0,"last_update":"0001-01-01T00:00:00Z","name_a2s":"Uncletopia | Sydney | 1 | All Maps","protocol":17,"map":"koth_highpass","folder":"tf","game":"Team Fortress","app_id":440,"player_count":0,"max_players":24,"Bots":0,"server_type":"Dedicated","server_os":"Linux","password":true,"vac":true,"version":"7932396","steam_id":85568392924470001,"keywords":["cp","nocrits","nodmgspread","uncletopia"],"game_id":440,"stv_port":27016,"stv_name":"Uncletopia | Sydney | 1 | All Maps | STV","players":null},{"server_id":123,"name":"Uncletopia | Sydney | 2 | All Maps","name_short":"syd-2","host":"syd-1.au.uncletopia.com","port":27025,"enabled":true,"region":"au","cc":"au","latitude":-33.865143,"longitude":151.2099,"reserved":0,"last_update":"0001-01-01T00:00:00Z","name_a2s":"Uncletopia | Sydney | 2 | All Maps","protocol":17,"map":"koth_viaduct","folder":"tf","game":"Team Fortress","app_id":440,"player_count":22,"max_players":24,"Bots":0,"server_type":"Dedicated","server_os":"Linux","password":true,"vac":true,"version":"7932396","steam_id":85568392924470002,"keywords":["cp","nocrits","nodmgspread","uncletopia"],"game_id":440,"stv_port":27026,"stv_name":"Uncletopia | Sydney | 2 | All Maps | STV","players":[{"user_id":295,"name":"man","steam_id":76561198866399918,"connected_time":528000000000,"state":"active","ping":42},{"user_id":297,"name":"Strike","steam_id":76561198254083849,"connected_time":375000000000,"state":"active","ping":70},{"user_id":254,"name":"Bamooxa","steam_id":76561198067160709,"connected_time":4103000000000,"state":"active","ping":83},{"user_id":238,"name":"kisses you","steam_id":76561198288970258,"connected_time":4764000000000,"state":"active","ping":56},{"user_id":296,"name":"adammagee","steam_id":76561197972653972,"connected_time":481000000000,"state":"active","ping":55},{"user_id":244,"name":"Zieria","steam_id":76561199261811388,"connected_time":4497000000000,"state":"active","ping":43},{"user_id":288,"name":"Zinc","steam_id":76561198363180447,"connected_time":1241000000000,"state":"active","ping":48},{"user_id":277,"name":"Vaconcovat","steam_id":76561198024284041,"connected_time":2278000000000,"state":"active","ping":59},{"user_id":301,"name":"cobba","steam_id":76561198237199696,"connected_time":80000000000,"state":"active","ping":33},{"user_id":299,"name":"Jacob","steam_id":76561198059341907,"connected_time":274000000000,"state":"active","ping":38},{"user_id":300,"name":"ada lovelace","steam_id":76561198238034502,"connected_time":247000000000,"state":"active","ping":51},{"user_id":290,"name":"Snake ATM","steam_id":76561197968304462,"connected_time":978000000000,"state":"active","ping":57},{"user_id":281,"name":"heavy in the backrooms","steam_id":76561199011086504,"connected_time":1769000000000,"state":"active","ping":61},{"user_id":291,"name":"Selling Anti-Matter for $543","steam_id":76561198070708382,"connected_time":967000000000,"state":"active","ping":45},{"user_id":302,"name":"Hawk","steam_id":76561198135164277,"connected_time":22000000000,"state":"active","ping":51},{"user_id":289,"name":"BigFatGiant","steam_id":76561198057983482,"connected_time":1128000000000,"state":"active","ping":46},{"user_id":130,"name":"Empol√©","steam_id":76561198363939040,"connected_time":12350000000000,"state":"active","ping":76},{"user_id":233,"name":"mwahlib","steam_id":76561198044007267,"connected_time":5228000000000,"state":"active","ping":41},{"user_id":284,"name":"Buny","steam_id":76561198051375054,"connected_time":1590000000000,"state":"active","ping":40},{"user_id":280,"name":"voxii","steam_id":76561198099698281,"connected_time":1797000000000,"state":"active","ping":68},{"user_id":269,"name":"payn.","steam_id":76561199277321828,"connected_time":3068000000000,"state":"active","ping":50},{"user_id":294,"name":"yuzu","steam_id":76561198083536162,"connected_time":628000000000,"state":"active","ping":46}]},{"server_id":395,"name":"Uncletopia | Sydney | 3 | All Maps","name_short":"syd-3","host":"syd-1.au.uncletopia.com","port":27035,"enabled":true,"region":"au","cc":"au","latitude":-33.865143,"longitude":151.2099,"reserved":0,"last_update":"0001-01-01T00:00:00Z","name_a2s":"Uncletopia | Sydney | 3 | All Maps","protocol":17,"map":"cp_snakewater_final1","folder":"tf","game":"Team Fortress","app_id":440,"player_count":0,"max_players":24,"Bots":0,"server_type":"Dedicated","server_os":"Linux","password":true,"vac":true,"version":"7932396","steam_id":85568392925194467,"keywords":["cp","nocrits","nodmgspread","uncletopia"],"game_id":440,"stv_port":27036,"stv_name":"Uncletopia | Sydney | 3 | All Maps | STV","players":null},{"server_id":396,"name":"Uncletopia | Sydney | 4 | All Maps","name_short":"syd-4","host":"syd-1.au.uncletopia.com","port":27045,"enabled":true,"region":"au","cc":"au","latitude":-33.865143,"longitude":151.2099,"reserved":0,"last_update":"0001-01-01T00:00:00Z","name_a2s":"Uncletopia | Sydney | 4 | All Maps","protocol":17,"map":"cp_sunshine","folder":"tf","game":"Team Fortress","app_id":440,"player_count":0,"max_players":24,"Bots":0,"server_type":"Dedicated","server_os":"Linux","password":true,"vac":true,"version":"7932396","steam_id":85568392925397958,"keywords":["cp","nocrits","nodmgspread","uncletopia"],"game_id":440,"stv_port":27046,"stv_name":"Uncletopia | Sydney | 4 | All Maps | STV","players":null},{"server_id":58,"name":"Uncletopia | Sydney | 5 | Stopwatch Beta","name_short":"syd-5","host":"syd-1.au.uncletopia.com","port":27055,"enabled":true,"region":"au","cc":"au","latitude":-33.865143,"longitude":151.2099,"reserved":0,"last_update":"0001-01-01T00:00:00Z","name_a2s":"Uncletopia | Sydney | 5 | Stopwatch Beta","protocol":17,"map":"pl_borneo","folder":"tf","game":"Team Fortress","app_id":440,"player_count":0,"max_players":24,"Bots":0,"server_type":"Dedicated","server_os":"Linux","password":true,"vac":true,"version":"7932396","steam_id":85568392925397959,"keywords":["nocrits","nodmgspread","payload","uncletopia"],"game_id":440,"stv_port":27056,"stv_name":"Uncletopia | Sydney | 5 | Stopwatch Beta | STV","players":null},{"server_id":59,"name":"Uncletopia | Sydney | 6 | Community","name_short":"syd-6","host":"syd-1.au.uncletopia.com","port":27065,"enabled":true,"region":"au","cc":"au","latitude":-33.865143,"longitude":151.2099,"reserved":0,"last_update":"0001-01-01T00:00:00Z","name_a2s":"Uncletopia | Sydney | 6 | Community","protocol":17,"map":"workshop/cp_snowbase_b18.ugc2081770490","folder":"tf","game":"Team Fortress","app_id":440,"player_count":0,"max_players":24,"Bots":0,"server_type":"Dedicated","server_os":"Linux","password":true,"vac":true,"version":"7932396","steam_id":85568392925397960,"keywords":["cp","nocrits","nodmgspread","uncletopia"],"game_id":440,"stv_port":27066,"stv_name":"Uncletopia | Sydney | 6 | Community | STV","players":null},{"server_id":49,"name":"Uncletopia | Warsaw | 1 | All Maps","name_short":"waw-1","host":"waw-1.pl.uncletopia.com","port":27015,"enabled":true,"region":"eu","cc":"pl","latitude":52.2297,"longitude":21.017532,"reserved":0,"last_update":"0001-01-01T00:00:00Z","name_a2s":"","protocol":0,"map":"","folder":"","game":"","app_id":0,"player_count":0,"max_players":0,"Bots":0,"server_type":"","server_os":"","password":false,"vac":false,"version":"","steam_id":0,"keywords":null,"game_id":0,"stv_port":0,"stv_name":"","players":null},{"server_id":50,"name":"Uncletopia | Warsaw | 2 | All Maps","name_short":"waw-2","host":"waw-1.pl.uncletopia.com","port":27025,"enabled":true,"region":"eu","cc":"pl","latitude":52.2297,"longitude":21.017532,"reserved":0,"last_update":"0001-01-01T00:00:00Z","name_a2s":"Uncletopia | Warsaw | 2 | All Maps","protocol":17,"map":"koth_highpass","folder":"tf","game":"Team Fortress","app_id":440,"player_count":0,"max_players":24,"Bots":0,"server_type":"Dedicated","server_os":"Linux","password":true,"vac":true,"version":"7932396","steam_id":85568392925397851,"keywords":["cp","nocrits","nodmgspread","uncletopia"],"game_id":440,"stv_port":27026,"stv_name":"Uncletopia | Warsaw | 2 | All Maps | STV","players":null},{"server_id":51,"name":"Uncletopia | Warsaw | 3 | All Maps","name_short":"waw-3","host":"waw-1.pl.uncletopia.com","port":27035,"enabled":true,"region":"eu","cc":"pl","latitude":52.2297,"longitude":21.017532,"reserved":0,"last_update":"0001-01-01T00:00:00Z","name_a2s":"Uncletopia | Warsaw | 3 | All Maps","protocol":17,"map":"pl_pier","folder":"tf","game":"Team Fortress","app_id":440,"player_count":0,"max_players":24,"Bots":0,"server_type":"Dedicated","server_os":"Linux","password":true,"vac":true,"version":"7932396","steam_id":85568392925397852,"keywords":["nocrits","nodmgspread","payload","uncletopia"],"game_id":440,"stv_port":27036,"stv_name":"Uncletopia | Warsaw | 3 | All Maps | STV","players":null},{"server_id":52,"name":"Uncletopia | Warsaw | 4 | All Maps","name_short":"waw-4","host":"waw-1.pl.uncletopia.com","port":27045,"enabled":true,"region":"eu","cc":"pl","latitude":52.2297,"longitude":21.017532,"reserved":0,"last_update":"0001-01-01T00:00:00Z","name_a2s":"Uncletopia | Warsaw | 4 | All Maps","protocol":17,"map":"pl_frontier_final","folder":"tf","game":"Team Fortress","app_id":440,"player_count":0,"max_players":24,"Bots":0,"server_type":"Dedicated","server_os":"Linux","password":true,"vac":true,"version":"7932396","steam_id":85568392925397853,"keywords":["nocrits","nodmgspread","payload","uncletopia"],"game_id":440,"stv_port":27046,"stv_name":"Uncletopia | Warsaw | 4 | All Maps | STV","players":null},{"server_id":53,"name":"Uncletopia | Warsaw | 5 | Stopwatch Beta","name_short":"waw-5","host":"waw-1.pl.uncletopia.com","port":27055,"enabled":true,"region":"eu","cc":"pl","latitude":52.2297,"longitude":21.017532,"reserved":0,"last_update":"0001-01-01T00:00:00Z","name_a2s":"Uncletopia | Warsaw | 5 | Stopwatch Beta","protocol":17,"map":"pl_upward","folder":"tf","game":"Team Fortress","app_id":440,"player_count":0,"max_players":24,"Bots":0,"server_type":"Dedicated","server_os":"Linux","password":true,"vac":true,"version":"7932396","steam_id":85568392925397854,"keywords":["nocrits","nodmgspread","payload","uncletopia"],"game_id":440,"stv_port":27056,"stv_name":"Uncletopia | Warsaw | 5 | Stopwatch Beta | STV","players":null},{"server_id":54,"name":"Uncletopia | Warsaw | 6 | Community","name_short":"waw-6","host":"waw-1.pl.uncletopia.com","port":27065,"enabled":true,"region":"eu","cc":"pl","latitude":52.2297,"longitude":21.017532,"reserved":0,"last_update":"0001-01-01T00:00:00Z","name_a2s":"Uncletopia | Warsaw | 6 | Community","protocol":17,"map":"workshop/cp_bruhstbowl_b6.ugc2878604990","folder":"tf","game":"Team Fortress","app_id":440,"player_count":0,"max_players":24,"Bots":0,"server_type":"Dedicated","server_os":"Linux","password":true,"vac":true,"version":"7932396","steam_id":85568392925397856,"keywords":["cp","nocrits","nodmgspread","uncletopia"],"game_id":440,"stv_port":27066,"stv_name":"Uncletopia | Warsaw | 6 | Community | STV","players":null}]}