{"status":true,"message":"","result":[{"server_id":9,"name":"Uncletopia | Atlanta | 1 | All Maps","name_short":"atl-1","host":"atl-1.us.uncletopia.com","port":27015,"enabled":true,"region":"us-east","cc":"us","latitude":33.753746,"longitude":-84.38633,"reserved":0,"last_update":"0001-01-01T00:00:00Z","name_a2s":"Uncletopia | Atlanta | 1 | All Maps","protocol":17,"map":"pl_swiftwater_final1","folder":"tf","game":"Team Fortress","app_id":440,"player_count":24,"max_players":24,"Bots":0,"server_type":"Dedicated","server_os":"Linux","password":true,"vac":true,"version":"7882260","steam_id":85568392924469982,"keywords":["nocrits","nodmgspread","payload","uncletopia"],"game_id":440,"stv_port":27016,"stv_name":"Uncletopia | Atlanta | 1 | All Maps | STV","players":[{"user_id":506,"name":"Broken Cereal√","steam_id":76561198087489795,"connected_time":700000000000,"state":"active","ping":70},{"user_id":460,"name":"ash","steam_id":76561198127890645,"connected_time":7465000000000,"state":"active","ping":60},{"user_id":502,"name":"Gman1","steam_id":76561198162577136,"connected_time":1012000000000,"state":"active","ping":90},{"user_id":485,"name":"tux","steam_id":76561198167746330,"connected_time":3758000000000,"state":"active","ping":45},{"user_id":470,"name":"bogginwater","steam_id":76561198155547142,"connected_time":5631000000000,"state":"active","ping":64},{"user_id":503,"name":"BIG HOG","steam_id":76561198079923652,"connected_time":767000000000,"state":"active","ping":72},{"user_id":461,"name":"Onyx","steam_id":76561198275349640,"connected_time":7101000000000,"state":"active","ping":75},{"user_id":440,"name":"Albino Jellyfish","steam_id":76561198208561097,"connected_time":8589000000000,"state":"active","ping":65},{"user_id":475,"name":"vordhosbn","steam_id":76561198148132163,"connected_time":4901000000000,"state":"active","ping":84},{"user_id":430,"name":"eish","steam_id":76561198089463603,"connected_time":9375000000000,"state":"active","ping":121},{"user_id":490,"name":"joe","steam_id":76561198045781320,"connected_time":3200000000000,"state":"active","ping":64},{"user_id":476,"name":"Sophie","steam_id":76561198170408057,"connected_time":4901000000000,"state":"active","ping":45},{"user_id":500,"name":"boylover54","steam_id":76561199030726701,"connected_time":1185000000000,"state":"active","ping":103},{"user_id":508,"name":"2006 toyota corolla","steam_id":76561198143132686,"connected_time":586000000000,"state":"active","ping":105},{"user_id":456,"name":"crouton","steam_id":76561198828709358,"connected_time":7516000000000,"state":"active","ping":54},{"user_id":491,"name":"Intro Bonito","steam_id":76561198119478838,"connected_time":3189000000000,"state":"active","ping":50},{"user_id":455,"name":"Ġ1 ♦ Synth","steam_id":76561198058660228,"connected_time":7670000000000,"state":"active","ping":57},{"user_id":496,"name":"morphine","steam_id":76561198072124799,"connected_time":2038000000000,"state":"active","ping":98},{"user_id":497,"name":"rose","steam_id":76561198048882285,"connected_time":2008000000000,"state":"active","ping":82},{"user_id":493,"name":"lil hog","steam_id":76561199230929836,"connected_time":3140000000000,"state":"active","ping":75},{"user_id":507,"name":"reis","steam_id":76561199232952016,"connected_time":629000000000,"state":"active","ping":177},{"user_id":510,"name":"David De Bergerac","steam_id":76561198010306294,"connected_time":315000000000,"state":"active","ping":87},{"user_id":509,"name":"Alice in Rubberland","steam_id":76561198087328346,"connected_time":539000000000,"state":"active","ping":65},{"user_id":443,"name":"hi","steam_id":76561198809577048,"connected_time":8211000000000,"state":"active","ping":97}]},{"server_id":104,"name":"Uncletopia | Atlanta | 2 | All Maps","name_short":"atl-2","host":"atl-1.us.uncletopia.com","port":27025,"enabled":true,"region":"us-east","cc":"us","latitude":33.753746,"longitude":-84.38633,"reserved":0,"last_update":"0001-01-01T00:00:00Z","name_a2s":"Uncletopia | Atlanta | 2 | All Maps","protocol":17,"map":"pl_pier","folder":"tf","game":"Team Fortress","app_id":440,"player_count":24,"max_players":24,"Bots":0,"server_type":"Dedicated","server_os":"Linux","password":true,"vac":true,"version":"7882260","steam_id":85568392924469983,"keywords":["nocrits","nodmgspread","payload","uncletopia"],"game_id":440,"stv_port":27026,"stv_name":"Uncletopia | Atlanta | 2 | All Maps | STV","players":[{"user_id":456,"name":"Lyrit #SaveTF2","steam_id":76561198057158858,"connected_time":1144000000000,"state":"active","ping":55},{"user_id":452,"name":"Samwich","steam_id":76561198229947424,"connected_time":1266000000000,"state":"active","ping":53},{"user_id":450,"name":"Decadence","steam_id":76561198089630547,"connected_time":2347000000000,"state":"active","ping":60},{"user_id":457,"name":"blabman","steam_id":76561198426531445,"connected_time":939000000000,"state":"active","ping":126},{"user_id":467,"name":"Qwonk","steam_id":76561198041975003,"connected_time":600000000000,"state":"active","ping":60},{"user_id":404,"name":"Horseless Headless Scotsman","steam_id":76561198128494897,"connected_time":5850000000000,"state":"active","ping":81},{"user_id":473,"name":"aidenaidenaiden","steam_id":76561198170381402,"connected_time":240000000000,"state":"active","ping":60},{"user_id":436,"name":"lurker","steam_id":76561198044856349,"connected_time":3588000000000,"state":"active","ping":75},{"user_id":460,"name":"Bella","steam_id":76561198373522196,"connected_time":880000000000,"state":"active","ping":69},{"user_id":468,"name":"Craptain Crunch","steam_id":76561198096763687,"connected_time":545000000000,"state":"active","ping":86},{"user_id":373,"name":"ttv/Everfrost Samoyed","steam_id":76561198072580699,"connected_time":8174000000000,"state":"active","ping":68},{"user_id":469,"name":"Master Of Whales","steam_id":76561198349104889,"connected_time":477000000000,"state":"active","ping":114},{"user_id":389,"name":"Just Monika","steam_id":76561198802356746,"connected_time":7371000000000,"state":"active","ping":106},{"user_id":464,"name":"C^a^L","steam_id":76561198241124222,"connected_time":749000000000,"state":"active","ping":105},{"user_id":465,"name":"Robo Boss","steam_id":76561199067098696,"connected_time":739000000000,"state":"active","ping":76},{"user_id":466,"name":"Open Mailbox","steam_id":76561198051933580,"connected_time":734000000000,"state":"active","ping":87},{"user_id":434,"name":"TheChickenChuck","steam_id":76561199192686708,"connected_time":3634000000000,"state":"active","ping":105},{"user_id":391,"name":"Cosmic","steam_id":76561198162811282,"connected_time":7263000000000,"state":"active","ping":104},{"user_id":470,"name":"MjrMovnTARGET","steam_id":76561199125908849,"connected_time":469000000000,"state":"active","ping":78},{"user_id":443,"name":"Yoru","steam_id":76561198119698950,"connected_time":3392000000000,"state":"active","ping":97},{"user_id":471,"name":"WhiteRushinBear","steam_id":76561198037953834,"connected_time":468000000000,"state":"active","ping":54},{"user_id":451,"name":"Snekoftheheck","steam_id":76561199058709739,"connected_time":1985000000000,"state":"active","ping":76},{"user_id":439,"name":"Architect","steam_id":76561198015242016,"connected_time":3568000000000,"state":"active","ping":67},{"user_id":417,"name":"slurdydurdy","steam_id":76561198101494591,"connected_time":5014000000000,"state":"active","ping":70}]},{"server_id":400,"name":"Uncletopia | Atlanta | 3 | Community","name_short":"atl-3","host":"atl-1.us.uncletopia.com","port":27035,"enabled":true,"region":"us-east","cc":"us","latitude":33.753746,"longitude":-84.38633,"reserved":0,"last_update":"0001-01-01T00:00:00Z","name_a2s":"Uncletopia | Atlanta | 3 | Community","protocol":17,"map":"workshop/pl_badwater_pro_v12.ugc2142942074","folder":"tf","game":"Team Fortress","app_id":440,"player_count":22,"max_players":24,"Bots":0,"server_type":"Dedicated","server_os":"Linux","password":true,"vac":true,"version":"7882260","steam_id":85568392924515187,"keywords":["nocrits","nodmgspread","payload","uncletopia"],"game_id":440,"stv_port":27036,"stv_name":"Uncletopia | Atlanta | 3 | Community | STV","players":[{"user_id":354,"name":"shrub","steam_id":76561198108020681,"connected_time":2528000000000,"state":"active","ping":46},{"user_id":344,"name":"Westlyroots","steam_id":76561198170431198,"connected_time":3381000000000,"state":"active","ping":63},{"user_id":225,"name":"souljaboytellem.com","steam_id":76561198111975583,"connected_time":14765000000000,"state":"active","ping":67},{"user_id":268,"name":"Shadow WIZARD MoneyGang","steam_id":76561197986051713,"connected_time":11435000000000,"state":"active","ping":80},{"user_id":266,"name":"Ritzy","steam_id":76561198381955342,"connected_time":11442000000000,"state":"active","ping":155},{"user_id":338,"name":"Chaffy2125","steam_id":76561198232839260,"connected_time":5190000000000,"state":"active","ping":123},{"user_id":368,"name":"L U C I F E R","steam_id":76561198067341358,"connected_time":1109000000000,"state":"active","ping":92},{"user_id":371,"name":"hector.alvarez2005","steam_id":76561199214159905,"connected_time":813000000000,"state":"active","ping":74},{"user_id":362,"name":"Metbol","steam_id":76561198001362410,"connected_time":1692000000000,"state":"active","ping":78},{"user_id":315,"name":"diaper","steam_id":76561198030291655,"connected_time":8003000000000,"state":"active","ping":60},{"user_id":359,"name":"Random Person","steam_id":76561198990531385,"connected_time":2409000000000,"state":"active","ping":126},{"user_id":373,"name":"˙˚ʚ kaitlyn ɞ˚˙","steam_id":76561198993815078,"connected_time":438000000000,"state":"active","ping":45},{"user_id":376,"name":"A man with no plan","steam_id":76561198031075099,"connected_time":42000000000,"state":"active","ping":133},{"user_id":286,"name":"Aviyarn","steam_id":76561199074194652,"connected_time":10461000000000,"state":"active","ping":69},{"user_id":347,"name":"aisu","steam_id":76561198043768507,"connected_time":3197000000000,"state":"active","ping":81},{"user_id":361,"name":"Trip","steam_id":76561198083893106,"connected_time":1818000000000,"state":"active","ping":100},{"user_id":375,"name":"selarom | trade.tf |","steam_id":76561199069219350,"connected_time":107000000000,"state":"active","ping":45},{"user_id":348,"name":"Flint","steam_id":76561198066547582,"connected_time":3120000000000,"state":"active","ping":113},{"user_id":350,"name":"Monster","steam_id":76561198189429665,"connected_time":2924000000000,"state":"active","ping":54},{"user_id":356,"name":"Badwater Enjoyer","steam_id":76561198143101697,"connected_time":2522000000000,"state":"active","ping":113},{"user_id":370,"name":"Demonic Cipher","steam_id":76561198066082088,"connected_time":884000000000,"state":"active","ping":75},{"user_id":301,"name":"e0e0","steam_id":76561198293839750,"connected_time":9492000000000,"state":"active","ping":60}]},{"server_id":401,"name":"Uncletopia | Atlanta | 4 | No Payload","name_short":"atl-4","host":"atl-1.us.uncletopia.com","port":27045,"enabled":true,"region":"us-east","cc":"us","latitude":33.753746,"longitude":-84.38633,"reserved":0,"last_update":"0001-01-01T00:00:00Z","name_a2s":"","protocol":0,"map":"","folder":"","game":"","app_id":0,"player_count":0,"max_players":0,"Bots":0,"server_type":"","server_os":"","password":false,"vac":false,"version":"","steam_id":0,"keywords":null,"game_id":0,"stv_port":0,"stv_name":"","players":null},{"server_id":2,"name":"Uncletopia | Chicago | 1 | All Maps","name_short":"chi-1","host":"chi-1.us.uncletopia.com","port":27015,"enabled":true,"region":"us-central","cc":"us","latitude":41.881832,"longitude":-87.62318,"reserved":0,"last_update":"0001-01-01T00:00:00Z","name_a2s":"Uncletopia | Chicago | 1 | All Maps","protocol":17,"map":"cp_dustbowl","folder":"tf","game":"Team Fortress","app_id":440,"player_count":22,"max_players":24,"Bots":0,"server_type":"Dedicated","server_os":"Linux","password":true,"vac":true,"version":"7882260","steam_id":85568392924469984,"keywords":["cp","nocrits","nodmgspread","uncletopia"],"game_id":440,"stv_port":27016,"stv_name":"Uncletopia | Chicago | 1 | All Maps | STV","players":[{"user_id":597,"name":"eat Pant","steam_id":76561197974965536,"connected_time":6455000000000,"state":"active","ping":60},{"user_id":635,"name":"blitzkriiegi","steam_id":76561198200944766,"connected_time":4127000000000,"state":"active","ping":53},{"user_id":663,"name":"Willy Wonker","steam_id":76561198082944789,"connected_time":233000000000,"state":"active","ping":90},{"user_id":664,"name":"Drewp","steam_id":76561198856700517,"connected_time":112000000000,"state":"active","ping":73},{"user_id":660,"name":"KingCrawful","steam_id":76561198104291657,"connected_time":312000000000,"state":"active","ping":48},{"user_id":649,"name":"💛Mercy💛","steam_id":76561198147095572,"connected_time":3239000000000,"state":"active","ping":57},{"user_id":584,"name":"Acehay14","steam_id":76561198052373291,"connected_time":7549000000000,"state":"active","ping":87},{"user_id":626,"name":"Morgster","steam_id":76561198131697761,"connected_time":4834000000000,"state":"active","ping":70},{"user_id":665,"name":"HappyHeavy","steam_id":76561198092425666,"connected_time":43000000000,"state":"active","ping":60},{"user_id":666,"name":"FizzleWizard","steam_id":76561198045990868,"connected_time":0,"state":"spawning","ping":0},{"user_id":642,"name":"KBoneski ♡","steam_id":76561198307409065,"connected_time":3682000000000,"state":"active","ping":77},{"user_id":576,"name":"Thundermonkey (SMOKE)","steam_id":76561198017631728,"connected_time":8177000000000,"state":"active","ping":62},{"user_id":643,"name":"thegreatsawyer","steam_id":76561198393604826,"connected_time":3629000000000,"state":"active","ping":109},{"user_id":575,"name":"richard clock","steam_id":76561198048455671,"connected_time":8181000000000,"state":"active","ping":52},{"user_id":654,"name":"Spiffyputt","steam_id":76561198439345687,"connected_time":1752000000000,"state":"active","ping":83},{"user_id":638,"name":"The Meat Tank","steam_id":76561198012955043,"connected_time":3888000000000,"state":"active","ping":168},{"user_id":613,"name":"Lia_Rein","steam_id":76561198151569597,"connected_time":5745000000000,"state":"active","ping":139},{"user_id":658,"name":"Captain S. Forrest","steam_id":76561198062463029,"connected_time":669000000000,"state":"active","ping":83},{"user_id":652,"name":"Silico","steam_id":76561197993814144,"connected_time":1940000000000,"state":"active","ping":61},{"user_id":593,"name":"Drew P. Sack","steam_id":76561198036201738,"connected_time":7089000000000,"state":"active","ping":55},{"user_id":648,"name":"ray (the based god)","steam_id":76561198311984941,"connected_time":3261000000000,"state":"active","ping":59},{"user_id":656,"name":"Astro Knight","steam_id":76561198062767484,"connected_time":710000000000,"state":"active","ping":77}]},{"server_id":106,"name":"Uncletopia | Chicago | 2 | All Maps","name_short":"chi-2","host":"chi-1.us.uncletopia.com","port":27025,"enabled":true,"region":"us-central","cc":"us","latitude":41.881832,"longitude":-87.62318,"reserved":0,"last_update":"0001-01-01T00:00:00Z","name_a2s":"Uncletopia | Chicago | 2 | All Maps","protocol":17,"map":"pl_goldrush","folder":"tf","game":"Team Fortress","app_id":440,"player_count":24,"max_players":24,"Bots":0,"server_type":"Dedicated","server_os":"Linux","password":true,"vac":true,"version":"7882260","steam_id":85568392924469985,"keywords":["nocrits","nodmgspread","payload","uncletopia"],"game_id":440,"stv_port":27026,"stv_name":"Uncletopia | Chicago | 2 | All Maps | STV","players":[{"user_id":696,"name":"Drapph","steam_id":76561199384213314,"connected_time":685000000000,"state":"active","ping":72},{"user_id":697,"name":"sammie.tebo","steam_id":76561199212495985,"connected_time":628000000000,"state":"active","ping":83},{"user_id":690,"name":"Rukks","steam_id":76561197993918954,"connected_time":1672000000000,"state":"active","ping":87},{"user_id":700,"name":"MooseGoose82","steam_id":76561199123118241,"connected_time":429000000000,"state":"active","ping":104},{"user_id":633,"name":"HOTA","steam_id":76561199002778841,"connected_time":3793000000000,"state":"active","ping":80},{"user_id":691,"name":"pyro main","steam_id":76561199233465283,"connected_time":1606000000000,"state":"active","ping":50},{"user_id":678,"name":"lycoris","steam_id":76561199113965768,"connected_time":2089000000000,"state":"active","ping":81},{"user_id":698,"name":"WastefulTrash","steam_id":76561198119003597,"connected_time":621000000000,"state":"active","ping":70},{"user_id":674,"name":"teleporter lover","steam_id":76561199187337967,"connected_time":2233000000000,"state":"active","ping":67},{"user_id":685,"name":"Mcfighter2","steam_id":76561198168073956,"connected_time":1830000000000,"state":"active","ping":63},{"user_id":686,"name":"Codo Sapien","steam_id":76561198014206810,"connected_time":1828000000000,"state":"active","ping":30},{"user_id":622,"name":"Pants","steam_id":76561197966222755,"connected_time":3892000000000,"state":"active","ping":45},{"user_id":702,"name":"HEAVY PIN","steam_id":76561199060062825,"connected_time":223000000000,"state":"active","ping":86},{"user_id":672,"name":"Toottoot","steam_id":76561197992404836,"connected_time":2261000000000,"state":"active","ping":47},{"user_id":628,"name":"Zoot","steam_id":76561198121944243,"connected_time":3822000000000,"state":"active","ping":73},{"user_id":695,"name":"P.C. Baby","steam_id":76561198067011379,"connected_time":819000000000,"state":"active","ping":113},{"user_id":693,"name":"Anxious Nerd Bird","steam_id":76561198112178602,"connected_time":1364000000000,"state":"active","ping":106},{"user_id":703,"name":"ʕ•ᴥ•ʔ the bear","steam_id":76561197989591976,"connected_time":182000000000,"state":"active","ping":76},{"user_id":550,"name":"xiii","steam_id":76561198079416036,"connected_time":8842000000000,"state":"active","ping":40},{"user_id":704,"name":"Løst","steam_id":76561198035677801,"connected_time":181000000000,"state":"active","ping":63},{"user_id":705,"name":"BigCheeseNips","steam_id":76561198169567089,"connected_time":104000000000,"state":"active","ping":131},{"user_id":564,"name":"freyja","steam_id":76561198249206656,"connected_time":8693000000000,"state":"active","ping":60},{"user_id":626,"name":"AlcoholicDad454","steam_id":76561198157414556,"connected_time":3847000000000,"state":"active","ping":84}]},{"server_id":402,"name":"Uncletopia | Chicago | 3 | All Maps","name_short":"chi-3","host":"chi-1.us.uncletopia.com","port":27035,"enabled":true,"region":"us-central","cc":"us","latitude":41.881832,"longitude":-87.62318,"reserved":0,"last_update":"0001-01-01T00:00:00Z","name_a2s":"Uncletopia | Chicago | 3 | All Maps","protocol":17,"map":"pl_borneo","folder":"tf","game":"Team Fortress","app_id":440,"player_count":23,"max_players":24,"Bots":0,"server_type":"Dedicated","server_os":"Linux","password":true,"vac":true,"version":"7882260","steam_id":85568392924515191,"keywords":["nocrits","nodmgspread","payload","uncletopia"],"game_id":440,"stv_port":27036,"stv_name":"Uncletopia | Chicago | 3 | All Maps | STV","players":[{"user_id":611,"name":"Samitch","steam_id":76561198038247982,"connected_time":228000000000,"state":"active","ping":68},{"user_id":580,"name":"SoundByte_","steam_id":76561198173284173,"connected_time":1251000000000,"state":"active","ping":87},{"user_id":542,"name":"Dr. Dick","steam_id":76561198138011922,"connected_time":4242000000000,"state":"active","ping":75},{"user_id":595,"name":"Lugh","steam_id":76561198052011848,"connected_time":722000000000,"state":"active","ping":86},{"user_id":607,"name":"ARegularJohnDoe","steam_id":76561198015020139,"connected_time":292000000000,"state":"active","ping":60},{"user_id":583,"name":"The Horny","steam_id":76561198863639459,"connected_time":1217000000000,"state":"active","ping":109},{"user_id":579,"name":"teleportless husk","steam_id":76561198882404753,"connected_time":1274000000000,"state":"active","ping":71},{"user_id":581,"name":"Furious George","steam_id":76561198405111646,"connected_time":1241000000000,"state":"active","ping":104},{"user_id":490,"name":"Beyond Trash","steam_id":76561198835198281,"connected_time":7219000000000,"state":"active","ping":54},{"user_id":537,"name":"Zero","steam_id":76561199383267408,"connected_time":4582000000000,"state":"active","ping":74},{"user_id":612,"name":"DO NOT call me BART SIMPSON!!","steam_id":76561198069113375,"connected_time":60000000000,"state":"active","ping":70},{"user_id":613,"name":"sebasnerd12","steam_id":76561199437010123,"connected_time":51000000000,"state":"active","ping":99},{"user_id":609,"name":"Unrailed Chicken","steam_id":76561198887420147,"connected_time":251000000000,"state":"active","ping":86},{"user_id":601,"name":"sinisterMayo","steam_id":76561198087244649,"connected_time":511000000000,"state":"active","ping":72},{"user_id":610,"name":"Righteou5Dude","steam_id":76561198136291931,"connected_time":251000000000,"state":"active","ping":84},{"user_id":603,"name":"DistantJragon","steam_id":76561198117563641,"connected_time":439000000000,"state":"active","ping":51},{"user_id":604,"name":"croissantcrusader","steam_id":76561198813533235,"connected_time":375000000000,"state":"active","ping":85},{"user_id":567,"name":"Whorse","steam_id":76561198114141445,"connected_time":1891000000000,"state":"active","ping":66},{"user_id":605,"name":"thecal","steam_id":76561198307893384,"connected_time":360000000000,"state":"active","ping":52},{"user_id":606,"name":"oog","steam_id":76561198272986152,"connected_time":354000000000,"state":"active","ping":84},{"user_id":563,"name":"Mythical Lag","steam_id":76561198347031281,"connected_time":2279000000000,"state":"active","ping":74},{"user_id":571,"name":"SLOPPYMCFLOPPY","steam_id":76561198100788239,"connected_time":1689000000000,"state":"active","ping":113},{"user_id":608,"name":"chilis baby back ribs","steam_id":76561198813516435,"connected_time":289000000000,"state":"active","ping":101}]},{"server_id":403,"name":"Uncletopia | Chicago | 4 | All Maps","name_short":"chi-4","host":"chi-1.us.uncletopia.com","port":27045,"enabled":true,"region":"us-central","cc":"us","latitude":41.881832,"longitude":-87.62318,"reserved":0,"last_update":"0001-01-01T00:00:00Z","name_a2s":"Uncletopia | Chicago | 4 | All Maps","protocol":17,"map":"cp_sunshine","folder":"tf","game":"Team Fortress","app_id":440,"player_count":21,"max_players":24,"Bots":0,"server_type":"Dedicated","server_os":"Linux","password":true,"vac":true,"version":"7882260","steam_id":85568392924515193,"keywords":["cp","nocrits","nodmgspread","uncletopia"],"game_id":440,"stv_port":27046,"stv_name":"Uncletopia | Chicago | 4 | All Maps | STV","players":[{"user_id":490,"name":"unsigned int","steam_id":76561197987054254,"connected_time":1872000000000,"state":"active","ping":59},{"user_id":517,"name":"☹","steam_id":76561198804763186,"connected_time":283000000000,"state":"active","ping":56},{"user_id":513,"name":"RyInc","steam_id":76561198874261643,"connected_time":501000000000,"state":"active","ping":47},{"user_id":510,"name":"Big Mamas House","steam_id":76561198169930529,"connected_time":675000000000,"state":"active","ping":69},{"user_id":518,"name":"The Cool Man","steam_id":76561198096420556,"connected_time":239000000000,"state":"active","ping":99},{"user_id":464,"name":"sodo","steam_id":76561198858474714,"connected_time":4651000000000,"state":"active","ping":96},{"user_id":488,"name":"loco","steam_id":76561197989031119,"connected_time":2090000000000,"state":"active","ping":55},{"user_id":494,"name":"Sponge","steam_id":76561198099024378,"connected_time":1340000000000,"state":"active","ping":70},{"user_id":481,"name":"Fiendish Frog","steam_id":76561198029478821,"connected_time":2783000000000,"state":"active","ping":62},{"user_id":512,"name":"gyozaking","steam_id":76561197972312696,"connected_time":545000000000,"state":"active","ping":45},{"user_id":508,"name":"Geo","steam_id":76561198194745210,"connected_time":814000000000,"state":"active","ping":69},{"user_id":365,"name":"CheeseLikeSubstance","steam_id":76561197977170646,"connected_time":11302000000000,"state":"active","ping":48},{"user_id":450,"name":"medium p bands","steam_id":76561198202843510,"connected_time":5190000000000,"state":"active","ping":62},{"user_id":505,"name":"Frajer","steam_id":76561198059129680,"connected_time":958000000000,"state":"active","ping":83},{"user_id":471,"name":"jel","steam_id":76561199088154374,"connected_time":3800000000000,"state":"active","ping":47},{"user_id":514,"name":"Drilly22","steam_id":76561198068838338,"connected_time":451000000000,"state":"active","ping":87},{"user_id":502,"name":"Testiclees Peesaschmidt","steam_id":76561198050582941,"connected_time":1119000000000,"state":"active","ping":57},{"user_id":516,"name":"garfield","steam_id":76561198114119308,"connected_time":390000000000,"state":"active","ping":60},{"user_id":469,"name":"air arbitrator","steam_id":76561198838282369,"connected_time":4017000000000,"state":"active","ping":66},{"user_id":503,"name":"Scrux","steam_id":76561198129763115,"connected_time":1094000000000,"state":"active","ping":103},{"user_id":457,"name":"Cat_Soldier","steam_id":76561198799974610,"connected_time":5114000000000,"state":"active","ping":65}]},{"server_id":36,"name":"Uncletopia | Chicago | 5 | All Maps","name_short":"chi-5","host":"chi-2.us.uncletopia.com","port":27015,"enabled":true,"region":"us-central","cc":"us","latitude":41.881832,"longitude":-87.62318,"reserved":0,"last_update":"0001-01-01T00:00:00Z","name_a2s":"Uncletopia | Chicago | 5 | All Maps","protocol":17,"map":"cp_snakewater_final1","folder":"tf","game":"Team Fortress","app_id":440,"player_count":21,"max_players":24,"Bots":0,"server_type":"Dedicated","server_os":"Linux","password":true,"vac":true,"version":"7882260","steam_id":85568392924866362,"keywords":["cp","nocrits","nodmgspread","uncletopia"],"game_id":440,"stv_port":27016,"stv_name":"Uncletopia | Chicago | 5 | All Maps | STV","players":[{"user_id":225,"name":"Drozz Misses Shots","steam_id":76561198072555204,"connected_time":14047000000000,"state":"active","ping":51},{"user_id":393,"name":"Feistypanda34","steam_id":76561198260910134,"connected_time":480000000000,"state":"active","ping":65},{"user_id":394,"name":"Frank the Atomic Green Been","steam_id":76561198147300992,"connected_time":363000000000,"state":"active","ping":71},{"user_id":387,"name":"roast pig with apple in mouth","steam_id":76561198051353647,"connected_time":1224000000000,"state":"active","ping":65},{"user_id":400,"name":"Centre","steam_id":76561198281612642,"connected_time":78000000000,"state":"active","ping":105},{"user_id":368,"name":"Lohskyl","steam_id":76561199193237621,"connected_time":2925000000000,"state":"active","ping":56},{"user_id":370,"name":"Chad","steam_id":76561198222313772,"connected_time":2907000000000,"state":"active","ping":69},{"user_id":396,"name":"my money washed like george","steam_id":76561198115458307,"connected_time":278000000000,"state":"active","ping":106},{"user_id":376,"name":"Balerion the Black Dread","steam_id":76561198003728369,"connected_time":2425000000000,"state":"active","ping":100},{"user_id":392,"name":"GoofyAhGamingGuy","steam_id":76561199331315881,"connected_time":545000000000,"state":"active","ping":85},{"user_id":397,"name":"ottoman","steam_id":76561198407056645,"connected_time":265000000000,"state":"active","ping":70},{"user_id":401,"name":"Camero","steam_id":76561198119070238,"connected_time":41000000000,"state":"active","ping":59},{"user_id":399,"name":"Slimer","steam_id":76561198094913841,"connected_time":253000000000,"state":"active","ping":88},{"user_id":377,"name":"i did it","steam_id":76561198277163301,"connected_time":2414000000000,"state":"active","ping":73},{"user_id":402,"name":"too funky ᗜˬᗜ","steam_id":76561199120399776,"connected_time":26000000000,"state":"spawning","ping":106},{"user_id":326,"name":"Galaxy","steam_id":76561197997354354,"connected_time":6973000000000,"state":"active","ping":75},{"user_id":403,"name":"Linkal_","steam_id":76561199122836553,"connected_time":1000000000,"state":"spawning","ping":74},{"user_id":388,"name":"Shochu Fiend","steam_id":76561198055193376,"connected_time":1221000000000,"state":"active","ping":138},{"user_id":372,"name":"Praphu","steam_id":76561198799298570,"connected_time":2897000000000,"state":"active","ping":72},{"user_id":386,"name":"Tako","steam_id":76561199264073138,"connected_time":1371000000000,"state":"active","ping":85},{"user_id":354,"name":"Get Beaned","steam_id":76561198391590820,"connected_time":4896000000000,"state":"active","ping":113}]},{"server_id":37,"name":"Uncletopia | Chicago | 6 | All Maps","name_short":"chi-6","host":"chi-2.us.uncletopia.com","port":27025,"enabled":true,"region":"us-central","cc":"us","latitude":41.881832,"longitude":-87.62318,"reserved":0,"last_update":"0001-01-01T00:00:00Z","name_a2s":"Uncletopia | Chicago | 6 | All Maps","protocol":17,"map":"pl_pier","folder":"tf","game":"Team Fortress","app_id":440,"player_count":17,"max_players":24,"Bots":0,"server_type":"Dedicated","server_os":"Linux","password":true,"vac":true,"version":"7882260","steam_id":85568392924866363,"keywords":["nocrits","nodmgspread","payload","uncletopia"],"game_id":440,"stv_port":27026,"stv_name":"Uncletopia | Chicago | 6 | All Maps | STV","players":[{"user_id":213,"name":"J.G. Klaus","steam_id":76561198001111196,"connected_time":4177000000000,"state":"active","ping":61},{"user_id":257,"name":"Nilantive","steam_id":76561198177565082,"connected_time":2013000000000,"state":"active","ping":60},{"user_id":258,"name":"Murrdogg","steam_id":76561198210491188,"connected_time":1632000000000,"state":"active","ping":55},{"user_id":272,"name":"CanOfRice","steam_id":76561199195734264,"connected_time":72000000000,"state":"active","ping":111},{"user_id":268,"name":"GuyGoom","steam_id":76561198254522178,"connected_time":313000000000,"state":"active","ping":51},{"user_id":269,"name":"lucil3 on Bandcamp","steam_id":76561198149063013,"connected_time":270000000000,"state":"active","ping":61},{"user_id":260,"name":"Lemony Lilly (She/Her)","steam_id":76561198042479066,"connected_time":1501000000000,"state":"active","ping":75},{"user_id":266,"name":"Orion","steam_id":76561198000418837,"connected_time":483000000000,"state":"active","ping":80},{"user_id":270,"name":"Anhkrehg","steam_id":76561197963201684,"connected_time":267000000000,"state":"connecting","ping":0},{"user_id":227,"name":"DiscoTraveler","steam_id":76561199240168088,"connected_time":3473000000000,"state":"active","ping":65},{"user_id":263,"name":"Frank","steam_id":76561198428759980,"connected_time":712000000000,"state":"active","ping":89},{"user_id":239,"name":"scrotal recall","steam_id":76561198135945598,"connected_time":2895000000000,"state":"active","ping":81},{"user_id":252,"name":"legowizdude","steam_id":76561198086688058,"connected_time":2371000000000,"state":"active","ping":55},{"user_id":261,"name":"THGAwesome","steam_id":76561198162847218,"connected_time":1486000000000,"state":"active","ping":91},{"user_id":240,"name":"Mellow Marshal","steam_id":76561198828607652,"connected_time":2852000000000,"state":"active","ping":63},{"user_id":220,"name":"Thequirka (bad player)","steam_id":76561198968058652,"connected_time":3803000000000,"state":"active","ping":95},{"user_id":243,"name":"Esoteric Death","steam_id":76561198168686614,"connected_time":2810000000000,"state":"active","ping":59}]},{"server_id":38,"name":"Uncletopia | Chicago | 7 | Stopwatch Beta","name_short":"chi-7","host":"chi-2.us.uncletopia.com","port":27035,"enabled":true,"region":"us-central","cc":"us","latitude":41.881832,"longitude":-87.62318,"reserved":0,"last_update":"0001-01-01T00:00:00Z","name_a2s":"Uncletopia | Chicago | 7 | Stopwatch Beta","protocol":17,"map":"koth_lakeside_final","folder":"tf","game":"Team Fortress","app_id":440,"player_count":2,"max_players":24,"Bots":0,"server_type":"Dedicated","server_os":"Linux","password":true,"vac":true,"version":"7882260","steam_id":85568392924866364,"keywords":["cp","nocrits","nodmgspread","uncletopia"],"game_id":440,"stv_port":27036,"stv_name":"Uncletopia | Chicago | 7 | Stopwatch Beta | STV","players":[{"user_id":150,"name":"lightcatnap","steam_id":76561199385584854,"connected_time":4031000000000,"state":"active","ping":59},{"user_id":151,"name":"LucasIsNeverHere","steam_id":76561198995748555,"connected_time":3978000000000,"state":"active","ping":53}]},{"server_id":39,"name":"Uncletopia | Chicago | 8 | Community","name_short":"chi-8","host":"chi-2.us.uncletopia.com","port":27045,"enabled":true,"region":"us-central","cc":"us","latitude":41.881832,"longitude":-87.62318,"reserved":0,"last_update":"0001-01-01T00:00:00Z","name_a2s":"Uncletopia | Chicago | 8 | Community","protocol":17,"map":"workshop/pl_divulgence_b4b.ugc2884808746","folder":"tf","game":"Team Fortress","app_id":440,"player_count":24,"max_players":24,"Bots":0,"server_type":"Dedicated","server_os":"Linux","password":true,"vac":true,"version":"7882260","steam_id":85568392924866365,"keywords":["nocrits","nodmgspread","payload","uncletopia"],"game_id":440,"stv_port":27046,"stv_name":"Uncletopia | Chicago | 8 | Community | STV","players":[{"user_id":106,"name":"Doug Walker  YT/Channel Awesome","steam_id":76561198089205611,"connected_time":2409000000000,"state":"active","ping":104},{"user_id":112,"name":"g0nk","steam_id":76561198838309024,"connected_time":1985000000000,"state":"active","ping":87},{"user_id":127,"name":"TomBoi","steam_id":76561198087732357,"connected_time":581000000000,"state":"active","ping":45},{"user_id":61,"name":"Career","steam_id":76561198028542212,"connected_time":5799000000000,"state":"active","ping":75},{"user_id":92,"name":"riSygneD","steam_id":76561198331618687,"connected_time":3401000000000,"state":"active","ping":99},{"user_id":71,"name":"James","steam_id":76561198081313916,"connected_time":5174000000000,"state":"active","ping":72},{"user_id":85,"name":"swag in ohio","steam_id":76561198031675881,"connected_time":3742000000000,"state":"active","ping":46},{"user_id":121,"name":"Side egg? Unnecessary.","steam_id":76561198091172158,"connected_time":1316000000000,"state":"active","ping":48},{"user_id":26,"name":"E4Estrogen","steam_id":76561198085813708,"connected_time":7661000000000,"state":"active","ping":73},{"user_id":27,"name":"E4's Attack Sub","steam_id":76561198096221632,"connected_time":7648000000000,"state":"active","ping":70},{"user_id":114,"name":"THinkBOX546","steam_id":76561198928550867,"connected_time":1885000000000,"state":"active","ping":106},{"user_id":117,"name":"Pete The \"Plummer\"","steam_id":76561199097450685,"connected_time":1786000000000,"state":"active","ping":93},{"user_id":123,"name":"Big Oil","steam_id":76561199238964574,"connected_time":1193000000000,"state":"active","ping":74},{"user_id":80,"name":"_Ati","steam_id":76561198339777801,"connected_time":4682000000000,"state":"active","ping":109},{"user_id":128,"name":"[TSG] Turner's Chocolate Milk","steam_id":76561198058963288,"connected_time":274000000000,"state":"active","ping":75},{"user_id":102,"name":"Kick Down Door 6:00AM TUCK☃RO","steam_id":76561197976146738,"connected_time":3010000000000,"state":"active","ping":87},{"user_id":75,"name":"Moris","steam_id":76561198280461456,"connected_time":4729000000000,"state":"active","ping":117},{"user_id":84,"name":"Zelith","steam_id":76561198234980480,"connected_time":4346000000000,"state":"active","ping":56},{"user_id":116,"name":"gnome zone","steam_id":76561198883349445,"connected_time":1834000000000,"state":"active","ping":105},{"user_id":126,"name":"ClearAster","steam_id":76561198113615374,"connected_time":883000000000,"state":"active","ping":145},{"user_id":124,"name":"Surinferior","steam_id":76561198008953177,"connected_time":996000000000,"state":"active","ping":146},{"user_id":97,"name":"briggs","steam_id":76561198045655893,"connected_time":3340000000000,"state":"active","ping":66},{"user_id":83,"name":"Rockgraham101","steam_id":76561198171740458,"connected_time":4584000000000,"state":"active","ping":73},{"user_id":100,"name":"Neophyte","steam_id":76561198027183394,"connected_time":3170000000000,"state":"active","ping":95}]},{"server_id":8,"name":"Uncletopia | Dallas | 1 | All Maps","name_short":"dal-1","host":"dal-1.us.uncletopia.com","port":27015,"enabled":true,"region":"us-central","cc":"us","latitude":32.779167,"longitude":-96.80889,"reserved":0,"last_update":"0001-01-01T00:00:00Z","name_a2s":"Uncletopia | Dallas | 1 | All Maps","protocol":17,"map":"pl_borneo","folder":"tf","game":"Team Fortress","app_id":440,"player_count":24,"max_players":24,"Bots":0,"server_type":"Dedicated","server_os":"Linux","password":true,"vac":true,"version":"7882260","steam_id":85568392924469986,"keywords":["nocrits","nodmgspread","payload","uncletopia"],"game_id":440,"stv_port":27016,"stv_name":"Uncletopia | Dallas | 1 | All Maps | STV","players":[{"user_id":734,"name":"EvilPigglet","steam_id":76561197987243470,"connected_time":1548000000000,"state":"active","ping":73},{"user_id":703,"name":"zparra23","steam_id":76561198352835721,"connected_time":3572000000000,"state":"active","ping":77},{"user_id":737,"name":"Joaje","steam_id":76561198133923454,"connected_time":1235000000000,"state":"active","ping":71},{"user_id":720,"name":"Bread Makes you Fat","steam_id":76561198985126532,"connected_time":2850000000000,"state":"active","ping":47},{"user_id":748,"name":"Landamonium","steam_id":76561198139693710,"connected_time":92000000000,"state":"active","ping":54},{"user_id":743,"name":"Spezzy","steam_id":76561198150517754,"connected_time":429000000000,"state":"active","ping":59},{"user_id":721,"name":"SKW14","steam_id":76561198215425735,"connected_time":2850000000000,"state":"active","ping":95},{"user_id":747,"name":"Grimm","steam_id":76561199242664677,"connected_time":192000000000,"state":"active","ping":58},{"user_id":675,"name":"dog","steam_id":76561198263873491,"connected_time":6125000000000,"state":"active","ping":59},{"user_id":722,"name":"M4tT","steam_id":76561198118764868,"connected_time":2818000000000,"state":"active","ping":90},{"user_id":731,"name":"AzuriousAlex","steam_id":76561198158026405,"connected_time":2086000000000,"state":"active","ping":78},{"user_id":723,"name":"???","steam_id":76561198200155343,"connected_time":2566000000000,"state":"active","ping":47},{"user_id":725,"name":"charm","steam_id":76561198126751384,"connected_time":2511000000000,"state":"active","ping":71},{"user_id":706,"name":"b0urbaki7","steam_id":76561198141342345,"connected_time":3527000000000,"state":"active","ping":90},{"user_id":678,"name":"Imrgrim","steam_id":76561198135866481,"connected_time":5215000000000,"state":"active","ping":64},{"user_id":736,"name":"pikapika","steam_id":76561198106844042,"connected_time":1343000000000,"state":"active","ping":66},{"user_id":712,"name":"Bullwinkle J. Moose","steam_id":76561198075977196,"connected_time":3142000000000,"state":"active","ping":70},{"user_id":741,"name":"PlugFromBehind","steam_id":76561198143283800,"connected_time":774000000000,"state":"active","ping":57},{"user_id":749,"name":"Bogey","steam_id":76561198096227944,"connected_time":59000000000,"state":"active","ping":47},{"user_id":742,"name":"Hedsik","steam_id":76561198045797773,"connected_time":448000000000,"state":"active","ping":57},{"user_id":730,"name":"liftin'","steam_id":76561199089515791,"connected_time":2305000000000,"state":"active","ping":101},{"user_id":708,"name":"Pastel","steam_id":76561198147847673,"connected_time":3472000000000,"state":"active","ping":102},{"user_id":711,"name":"5$ Biggie Bag","steam_id":76561198298310744,"connected_time":3306000000000,"state":"active","ping":90},{"user_id":746,"name":"Snivy64","steam_id":76561198423445376,"connected_time":334000000000,"state":"active","ping":71}]},{"server_id":108,"name":"Uncletopia | Dallas | 2 | All Maps","name_short":"dal-2","host":"dal-1.us.uncletopia.com","port":27025,"enabled":true,"region":"us-central","cc":"us","latitude":32.779167,"longitude":-96.80889,"reserved":0,"last_update":"0001-01-01T00:00:00Z","name_a2s":"Uncletopia | Dallas | 2 | All Maps","protocol":17,"map":"pl_frontier_final","folder":"tf","game":"Team Fortress","app_id":440,"player_count":24,"max_players":24,"Bots":0,"server_type":"Dedicated","server_os":"Linux","password":true,"vac":true,"version":"7882260","steam_id":85568392924469988,"keywords":["nocrits","nodmgspread","payload","uncletopia"],"game_id":440,"stv_port":27026,"stv_name":"Uncletopia | Dallas | 2 | All Maps | STV","players":[{"user_id":601,"name":"Agent Q","steam_id":76561198830829003,"connected_time":945000000000,"state":"active","ping":100},{"user_id":607,"name":"xXx_1337_VVeed_VVizard_xXx","steam_id":76561198067436825,"connected_time":231000000000,"state":"active","ping":70},{"user_id":589,"name":"cactus eater","steam_id":76561199107499844,"connected_time":1505000000000,"state":"active","ping":91},{"user_id":602,"name":"Cassius","steam_id":76561198146163328,"connected_time":939000000000,"state":"active","ping":96},{"user_id":608,"name":"coheedhead","steam_id":76561198149813133,"connected_time":218000000000,"state":"active","ping":72},{"user_id":588,"name":"Cofi","steam_id":76561199026721822,"connected_time":1516000000000,"state":"active","ping":93},{"user_id":551,"name":"hill of the king","steam_id":76561198099491925,"connected_time":6085000000000,"state":"active","ping":74},{"user_id":586,"name":"ChottoAMinute","steam_id":76561198873157775,"connected_time":2015000000000,"state":"active","ping":43},{"user_id":598,"name":"Prof. Eggnog","steam_id":76561198193389166,"connected_time":1248000000000,"state":"active","ping":91},{"user_id":599,"name":"Chrisscar","steam_id":76561198086298130,"connected_time":1066000000000,"state":"active","ping":77},{"user_id":536,"name":"счизяѳ","steam_id":76561199182960322,"connected_time":7303000000000,"state":"active","ping":59},{"user_id":609,"name":"Villain","steam_id":76561199063907319,"connected_time":181000000000,"state":"active","ping":60},{"user_id":591,"name":"xZackAttack27x","steam_id":76561198035446639,"connected_time":1504000000000,"state":"active","ping":44},{"user_id":603,"name":"gender dysphoreos","steam_id":76561198038920185,"connected_time":825000000000,"state":"active","ping":69},{"user_id":610,"name":"kazooie","steam_id":76561198062763756,"connected_time":163000000000,"state":"active","ping":82},{"user_id":576,"name":"wm1","steam_id":76561198265522923,"connected_time":3152000000000,"state":"active","ping":45},{"user_id":594,"name":"MoePlaysGames","steam_id":76561198316877833,"connected_time":1473000000000,"state":"active","ping":93},{"user_id":611,"name":"Avem","steam_id":76561198058763710,"connected_time":60000000000,"state":"active","ping":77},{"user_id":543,"name":"Glaceon","steam_id":76561198177715869,"connected_time":6806000000000,"state":"active","ping":69},{"user_id":587,"name":"rat","steam_id":76561198078484417,"connected_time":1825000000000,"state":"active","ping":64},{"user_id":606,"name":"Batman in one piece","steam_id":76561199129969202,"connected_time":349000000000,"state":"active","ping":86},{"user_id":612,"name":"Psychosis","steam_id":76561198078659070,"connected_time":52000000000,"state":"active","ping":73},{"user_id":613,"name":"Bobby Ray","steam_id":76561198044131188,"connected_time":48000000000,"state":"active","ping":74},{"user_id":580,"name":"[FOFS]billyburl","steam_id":76561198079535159,"connected_time":3129000000000,"state":"active","ping":83}]},{"server_id":5,"name":"Uncletopia | Frankfurt | 1 | All Maps","name_short":"frk-1","host":"frk-1.de.uncletopia.com","port":27015,"enabled":true,"region":"eu","cc":"de","latitude":50.110924,"longitude":8.682127,"reserved":0,"last_update":"0001-01-01T00:00:00Z","name_a2s":"Uncletopia | Frankfurt | 1 | All Maps","protocol":17,"map":"koth_cascade","folder":"tf","game":"Team Fortress","app_id":440,"player_count":0,"max_players":24,"Bots":0,"server_type":"Dedicated","server_os":"Linux","password":true,"vac":true,"version":"7882260","steam_id":85568392924469989,"keywords":["cp","nocrits","nodmgspread","uncletopia"],"game_id":440,"stv_port":27016,"stv_name":"Uncletopia | Frankfurt | 1 | All Maps | STV","players":null},{"server_id":110,"name":"Uncletopia | Frankfurt | 2 | All Maps","name_short":"frk-2","host":"frk-1.de.uncletopia.com","port":27025,"enabled":true,"region":"eu","cc":"de","latitude":50.110924,"longitude":8.682127,"reserved":0,"last_update":"0001-01-01T00:00:00Z","name_a2s":"Uncletopia | Frankfurt | 2 | All Maps","protocol":17,"map":"koth_lakeside_final","folder":"tf","game":"Team Fortress","app_id":440,"player_count":0,"max_players":24,"Bots":0,"server_type":"Dedicated","server_os":"Linux","password":true,"vac":true,"version":"7882260","steam_id":85568392924469990,"keywords":["cp","nocrits","nodmgspread","uncletopia"],"game_id":440,"stv_port":27026,"stv_name":"Uncletopia | Frankfurt | 2 | All Maps | STV","players":null},{"server_id":308,"name":"Uncletopia | Frankfurt | 3 | All Maps","name_short":"frk-3","host":"frk-1.de.uncletopia.com","port":27035,"enabled":true,"region":"eu","cc":"de","latitude":50.110924,"longitude":8.682127,"reserved":0,"last_update":"0001-01-01T00:00:00Z","name_a2s":"Uncletopia | Frankfurt | 3 | All Maps","protocol":17,"map":"pl_snowycoast","folder":"tf","game":"Team Fortress","app_id":440,"player_count":0,"max_players":24,"Bots":0,"server_type":"Dedicated","server_os":"Linux","password":true,"vac":true,"version":"7882260","steam_id":85568392924504274,"keywords":["nocrits","nodmgspread","payload","uncletopia"],"game_id":440,"stv_port":27036,"stv_name":"Uncletopia | Frankfurt | 3 | All Maps | STV","players":null},{"server_id":309,"name":"Uncletopia | Frankfurt | 4 | All Maps","name_short":"frk-4","host":"frk-1.de.uncletopia.com","port":27045,"enabled":true,"region":"eu","cc":"de","latitude":50.110924,"longitude":8.682127,"reserved":0,"last_update":"0001-01-01T00:00:00Z","name_a2s":"Uncletopia | Frankfurt | 4 | All Maps","protocol":17,"map":"pl_swiftwater_final1","folder":"tf","game":"Team Fortress","app_id":440,"player_count":0,"max_players":24,"Bots":0,"server_type":"Dedicated","server_os":"Linux","password":true,"vac":true,"version":"7882260","steam_id":85568392924504275,"keywords":["nocrits","nodmgspread","payload","uncletopia"],"game_id":440,"stv_port":27046,"stv_name":"Uncletopia | Frankfurt | 4 | All Maps | STV","players":null},{"server_id":310,"name":"Uncletopia | Frankfurt | 5 | All Maps","name_short":"frk-5","host":"frk-1.de.uncletopia.com","port":27055,"enabled":true,"region":"eu","cc":"de","latitude":50.110924,"longitude":8.682127,"reserved":0,"last_update":"0001-01-01T00:00:00Z","name_a2s":"Uncletopia | Frankfurt | 5 | All Maps","protocol":17,"map":"cp_sunshine","folder":"tf","game":"Team Fortress","app_id":440,"player_count":0,"max_players":24,"Bots":0,"server_type":"Dedicated","server_os":"Linux","password":true,"vac":true,"version":"7882260","steam_id":85568392924504277,"keywords":["cp","nocrits","nodmgspread","uncletopia"],"game_id":440,"stv_port":27056,"stv_name":"Uncletopia | Frankfurt | 5 | All Maps | STV","players":null},{"server_id":311,"name":"Uncletopia | Frankfurt | 6 | All Maps","name_short":"frk-6","host":"frk-1.de.uncletopia.com","port":27065,"enabled":true,"region":"eu","cc":"de","latitude":50.110924,"longitude":8.682127,"reserved":0,"last_update":"0001-01-01T00:00:00Z","name_a2s":"Uncletopia | Frankfurt | 6 | All Maps","protocol":17,"map":"cp_sunshine","folder":"tf","game":"Team Fortress","app_id":440,"player_count":0,"max_players":24,"Bots":0,"server_type":"Dedicated","server_os":"Linux","password":true,"vac":true,"version":"7882260","steam_id":85568392924504278,"keywords":["cp","nocrits","nodmgspread","uncletopia"],"game_id":440,"stv_port":27066,"stv_name":"Uncletopia | Frankfurt | 6 | All Maps | STV","players":null},{"server_id":23,"name":"Uncletopia | Frankfurt | 7 | Stopwatch Beta","name_short":"frk-7","host":"frk-1.de.uncletopia.com","port":27075,"enabled":true,"region":"eu","cc":"de","latitude":50.110924,"longitude":8.682127,"reserved":0,"last_update":"0001-01-01T00:00:00Z","name_a2s":"Uncletopia | Frankfurt | 7 | Stopwatch Beta","protocol":17,"map":"workshop/koth_ashville_final.ugc2130459942","folder":"tf","game":"Team Fortress","app_id":440,"player_count":0,"max_players":24,"Bots":0,"server_type":"Dedicated","server_os":"Linux","password":true,"vac":true,"version":"7882260","steam_id":85568392924742827,"keywords":["cp","nocrits","nodmgspread","uncletopia"],"game_id":440,"stv_port":27076,"stv_name":"Uncletopia | Frankfurt | 7 | Stopwatch Beta | STV","players":null},{"server_id":24,"name":"Uncletopia | Frankfurt | 8 | Community","name_short":"frk-8","host":"frk-1.de.uncletopia.com","port":27085,"enabled":true,"region":"eu","cc":"de","latitude":50.110924,"longitude":8.682127,"reserved":0,"last_update":"0001-01-01T00:00:00Z","name_a2s":"Uncletopia | Frankfurt | 8 | Community","protocol":17,"map":"koth_cascade","folder":"tf","game":"Team Fortress","app_id":440,"player_count":0,"max_players":24,"Bots":0,"server_type":"Dedicated","server_os":"Linux","password":true,"vac":true,"version":"7882260","steam_id":85568392924742828,"keywords":["cp","nocrits","nodmgspread","uncletopia"],"game_id":440,"stv_port":27086,"stv_name":"Uncletopia | Frankfurt | 8 | Community | STV","players":null},{"server_id":202,"name":"Uncletopia | Hong Kong | 1 | All Maps","name_short":"hgk-1","host":"hgk-1.hk.uncletopia.com","port":27015,"enabled":true,"region":"asia","cc":"hk","latitude":22.302711,"longitude":114.177216,"reserved":0,"last_update":"0001-01-01T00:00:00Z","name_a2s":"Uncletopia | Hong Kong | 1 | All Maps","protocol":17,"map":"pl_snowycoast","folder":"tf","game":"Team Fortress","app_id":440,"player_count":10,"max_players":24,"Bots":0,"server_type":"Dedicated","server_os":"Linux","password":true,"vac":true,"version":"7882260","steam_id":85568392924494504,"keywords":["nocrits","nodmgspread","payload","uncletopia"],"game_id":440,"stv_port":27016,"stv_name":"Uncletopia | Hong Kong | 1 | All Maps | STV","players":[{"user_id":59,"name":"teoffee","steam_id":76561199378135502,"connected_time":4818000000000,"state":"active","ping":107},{"user_id":98,"name":"helppyro5klldragon","steam_id":76561198881927049,"connected_time":79000000000,"state":"active","ping":104},{"user_id":94,"name":"Marika","steam_id":76561198212649929,"connected_time":425000000000,"state":"active","ping":107},{"user_id":84,"name":"El Blanco","steam_id":76561198100044991,"connected_time":2340000000000,"state":"active","ping":128},{"user_id":96,"name":"cu clux clan","steam_id":76561199044555397,"connected_time":178000000000,"state":"active","ping":90},{"user_id":87,"name":"fishh","steam_id":76561198053994464,"connected_time":1937000000000,"state":"active","ping":107},{"user_id":97,"name":"Jaysong","steam_id":76561198828599078,"connected_time":176000000000,"state":"active","ping":222},{"user_id":81,"name":"trainmurder","steam_id":76561199070543805,"connected_time":3069000000000,"state":"active","ping":84},{"user_id":89,"name":"defense king","steam_id":76561199191510347,"connected_time":1816000000000,"state":"active","ping":75},{"user_id":82,"name":"TheChainsaw","steam_id":76561198312001455,"connected_time":3050000000000,"state":"active","ping":109}]},{"server_id":1,"name":"Uncletopia | Los Angeles | 1 | All Maps","name_short":"lax-1","host":"lax-1.us.uncletopia.com","port":27015,"enabled":true,"region":"us-west","cc":"us","latitude":33.94279,"longitude":-118.41004,"reserved":0,"last_update":"0001-01-01T00:00:00Z","name_a2s":"Uncletopia | Los Angeles | 1 | All Maps","protocol":17,"map":"koth_lakeside_final","folder":"tf","game":"Team Fortress","app_id":440,"player_count":23,"max_players":24,"Bots":0,"server_type":"Dedicated","server_os":"Linux","password":true,"vac":true,"version":"7882260","steam_id":85568392924469991,"keywords":["cp","nocrits","nodmgspread","uncletopia"],"game_id":440,"stv_port":27016,"stv_name":"Uncletopia | Los Angeles | 1 | All Maps | STV","players":[{"user_id":237,"name":"MyHeadHz","steam_id":76561198090654531,"connected_time":3869000000000,"state":"active","ping":86},{"user_id":256,"name":"Player Zero","steam_id":76561198208312849,"connected_time":1565000000000,"state":"active","ping":74},{"user_id":154,"name":"Ice cream sandwich","steam_id":76561198172748357,"connected_time":8697000000000,"state":"active","ping":61},{"user_id":225,"name":"momus","steam_id":76561198966979196,"connected_time":4263000000000,"state":"active","ping":45},{"user_id":233,"name":"Dingelsmurf the Orange","steam_id":76561198212489267,"connected_time":3946000000000,"state":"active","ping":124},{"user_id":262,"name":"Big White Delight","steam_id":76561198005301688,"connected_time":1034000000000,"state":"active","ping":82},{"user_id":263,"name":"NotAWeeb","steam_id":76561198165530739,"connected_time":881000000000,"state":"active","ping":49},{"user_id":201,"name":"usedhalfcart","steam_id":76561198072621852,"connected_time":5765000000000,"state":"active","ping":73},{"user_id":224,"name":"Screamin' Eagle","steam_id":76561198090475891,"connected_time":4348000000000,"state":"active","ping":94},{"user_id":264,"name":"thepopeofshame","steam_id":76561199047823974,"connected_time":866000000000,"state":"active","ping":46},{"user_id":265,"name":"a chicken","steam_id":76561198313121580,"connected_time":847000000000,"state":"active","ping":60},{"user_id":184,"name":"Mr Baseball","steam_id":76561198960521363,"connected_time":7372000000000,"state":"active","ping":73},{"user_id":245,"name":"I HATE TELEPORTERS!!!","steam_id":76561198175741741,"connected_time":3061000000000,"state":"active","ping":94},{"user_id":266,"name":"Djlumo18","steam_id":76561199191221872,"connected_time":784000000000,"state":"active","ping":55},{"user_id":260,"name":"eau:","steam_id":76561198110020262,"connected_time":1261000000000,"state":"active","ping":34},{"user_id":249,"name":"younggflylyfe","steam_id":76561199477357832,"connected_time":2138000000000,"state":"active","ping":70},{"user_id":267,"name":"updog","steam_id":76561198869221421,"connected_time":754000000000,"state":"active","ping":86},{"user_id":269,"name":"ursa","steam_id":76561198025394298,"connected_time":396000000000,"state":"active","ping":103},{"user_id":259,"name":"Gentle Opp 3","steam_id":76561198150406851,"connected_time":1281000000000,"state":"active","ping":48},{"user_id":202,"name":"Lonlily","steam_id":76561198130418647,"connected_time":5726000000000,"state":"active","ping":69},{"user_id":230,"name":"NFL.com","steam_id":76561198113405376,"connected_time":4070000000000,"state":"active","ping":47},{"user_id":251,"name":"THE BIG MAN","steam_id":76561198072179960,"connected_time":2124000000000,"state":"active","ping":90},{"user_id":272,"name":"Maid 'n' China","steam_id":76561198423392976,"connected_time":195000000000,"state":"active","ping":56}]},{"server_id":112,"name":"Uncletopia | Los Angeles | 2 | All Maps","name_short":"lax-2","host":"lax-1.us.uncletopia.com","port":27025,"enabled":true,"region":"us-west","cc":"us","latitude":33.94279,"longitude":-118.41004,"reserved":0,"last_update":"0001-01-01T00:00:00Z","name_a2s":"Uncletopia | Los Angeles | 2 | All Maps","protocol":17,"map":"pl_pier","folder":"tf","game":"Team Fortress","app_id":440,"player_count":24,"max_players":24,"Bots":0,"server_type":"Dedicated","server_os":"Linux","password":true,"vac":true,"version":"7882260","steam_id":85568392924469992,"keywords":["nocrits","nodmgspread","payload","uncletopia"],"game_id":440,"stv_port":27026,"stv_name":"Uncletopia | Los Angeles | 2 | All Maps | STV","players":[{"user_id":165,"name":"..flop","steam_id":76561197989058876,"connected_time":590000000000,"state":"active","ping":75},{"user_id":131,"name":"Walker","steam_id":76561198420922773,"connected_time":2762000000000,"state":"active","ping":100},{"user_id":86,"name":"Power Jake","steam_id":76561198051510260,"connected_time":6100000000000,"state":"active","ping":62},{"user_id":149,"name":"...","steam_id":76561198121508845,"connected_time":2110000000000,"state":"active","ping":63},{"user_id":129,"name":"Brain Magic","steam_id":76561198010201477,"connected_time":3032000000000,"state":"active","ping":57},{"user_id":145,"name":"FireQuiz","steam_id":76561198107357249,"connected_time":2344000000000,"state":"active","ping":77},{"user_id":170,"name":"porksoda","steam_id":76561198021451377,"connected_time":423000000000,"state":"active","ping":72},{"user_id":172,"name":"Andrelovski","steam_id":76561198079514288,"connected_time":341000000000,"state":"active","ping":166},{"user_id":153,"name":"Skarp129","steam_id":76561198108679057,"connected_time":1612000000000,"state":"active","ping":51},{"user_id":166,"name":"finger","steam_id":76561198119224484,"connected_time":567000000000,"state":"active","ping":94},{"user_id":162,"name":"hemper710","steam_id":76561198159477619,"connected_time":842000000000,"state":"active","ping":54},{"user_id":101,"name":"John Wick's puppy","steam_id":76561198064662875,"connected_time":4511000000000,"state":"active","ping":59},{"user_id":111,"name":"Drive-By-Fish-Guy","steam_id":76561198105513652,"connected_time":3994000000000,"state":"active","ping":57},{"user_id":167,"name":"samvaluez","steam_id":76561199213743808,"connected_time":544000000000,"state":"active","ping":87},{"user_id":173,"name":"blunderly","steam_id":76561198131915334,"connected_time":271000000000,"state":"active","ping":101},{"user_id":168,"name":"stboncho","steam_id":76561198172275301,"connected_time":526000000000,"state":"active","ping":67},{"user_id":169,"name":"JustForKicks96","steam_id":76561198055486814,"connected_time":514000000000,"state":"active","ping":76},{"user_id":161,"name":"Heinz-Harald Hopeless","steam_id":76561199002203593,"connected_time":976000000000,"state":"active","ping":99},{"user_id":163,"name":"Frog","steam_id":76561198138219715,"connected_time":672000000000,"state":"active","ping":55},{"user_id":151,"name":"blue dream","steam_id":76561198048992536,"connected_time":1637000000000,"state":"active","ping":81},{"user_id":171,"name":"Harold","steam_id":76561198057317770,"connected_time":354000000000,"state":"active","ping":46},{"user_id":121,"name":"The Super Mario Bros. Movie","steam_id":76561198871692156,"connected_time":3286000000000,"state":"active","ping":82},{"user_id":174,"name":"Sammy!","steam_id":76561198184171743,"connected_time":246000000000,"state":"active","ping":66},{"user_id":127,"name":"Truffles","steam_id":76561198095868800,"connected_time":3135000000000,"state":"active","ping":96}]},{"server_id":324,"name":"Uncletopia | Los Angeles | 3 | All Maps","name_short":"lax-3","host":"lax-1.us.uncletopia.com","port":27035,"enabled":true,"region":"us-west","cc":"us","latitude":33.94279,"longitude":-118.41004,"reserved":0,"last_update":"0001-01-01T00:00:00Z","name_a2s":"Uncletopia | Los Angeles | 3 | All Maps","protocol":17,"map":"pl_frontier_final","folder":"tf","game":"Team Fortress","app_id":440,"player_count":24,"max_players":24,"Bots":0,"server_type":"Dedicated","server_os":"Linux","password":true,"vac":true,"version":"7882260","steam_id":85568392924510198,"keywords":["nocrits","nodmgspread","payload","uncletopia"],"game_id":440,"stv_port":27036,"stv_name":"Uncletopia | Los Angeles | 3 | All Maps | STV","players":[{"user_id":379,"name":"Sanic","steam_id":76561198083124962,"connected_time":465000000000,"state":"active","ping":80},{"user_id":383,"name":"sunny","steam_id":76561198069380992,"connected_time":322000000000,"state":"active","ping":84},{"user_id":369,"name":"Nani?","steam_id":76561198130982692,"connected_time":1993000000000,"state":"active","ping":101},{"user_id":376,"name":"Risky","steam_id":76561198231029328,"connected_time":691000000000,"state":"active","ping":45},{"user_id":366,"name":"Gr8butnotreally","steam_id":76561198133924450,"connected_time":2263000000000,"state":"active","ping":63},{"user_id":355,"name":"Paper Clipp","steam_id":76561199065796296,"connected_time":2790000000000,"state":"active","ping":103},{"user_id":390,"name":"Phillip Jeffries","steam_id":76561198064052174,"connected_time":2000000000,"state":"spawning","ping":101},{"user_id":370,"name":"2Fort Cactus","steam_id":76561199273395913,"connected_time":1945000000000,"state":"active","ping":83},{"user_id":378,"name":"ROGUE-PLANET","steam_id":76561198116023052,"connected_time":545000000000,"state":"active","ping":87},{"user_id":388,"name":"Kirrran","steam_id":76561198306323581,"connected_time":234000000000,"state":"active","ping":68},{"user_id":354,"name":"Young Brendan Fraser","steam_id":76561198036728212,"connected_time":2811000000000,"state":"active","ping":46},{"user_id":372,"name":"Caius Cosades","steam_id":76561198029708094,"connected_time":1482000000000,"state":"active","ping":58},{"user_id":374,"name":"Hakurei Reimu","steam_id":76561198045388290,"connected_time":780000000000,"state":"active","ping":71},{"user_id":381,"name":"Antis","steam_id":76561198055790522,"connected_time":410000000000,"state":"active","ping":50},{"user_id":382,"name":"Just Dez","steam_id":76561199327664719,"connected_time":388000000000,"state":"active","ping":94},{"user_id":385,"name":"Anhkrehg","steam_id":76561197963201684,"connected_time":267000000000,"state":"active","ping":132},{"user_id":360,"name":"Shin Tae Il's Lighter","steam_id":76561198984360849,"connected_time":2753000000000,"state":"active","ping":71},{"user_id":386,"name":"Mahsterch","steam_id":76561198980554547,"connected_time":262000000000,"state":"active","ping":66},{"user_id":362,"name":"SUPANERD360","steam_id":76561198195526843,"connected_time":2744000000000,"state":"active","ping":98},{"user_id":368,"name":"Skrasher","steam_id":76561198281711422,"connected_time":2052000000000,"state":"active","ping":94},{"user_id":352,"name":"cupnoodles","steam_id":76561198076137957,"connected_time":3186000000000,"state":"active","ping":48},{"user_id":387,"name":"ice dweller","steam_id":76561198329367716,"connected_time":261000000000,"state":"active","ping":55},{"user_id":353,"name":"SHADOW (he/him)","steam_id":76561198207768148,"connected_time":3177000000000,"state":"active","ping":65},{"user_id":345,"name":"Mustachacre","steam_id":76561198056309992,"connected_time":3535000000000,"state":"active","ping":74}]},{"server_id":25,"name":"Uncletopia | Los Angeles | 4 | Stopwatch Beta","name_short":"lax-4","host":"lax-1.us.uncletopia.com","port":27045,"enabled":true,"region":"us-west","cc":"us","latitude":33.94279,"longitude":-118.41004,"reserved":0,"last_update":"0001-01-01T00:00:00Z","name_a2s":"Uncletopia | Los Angeles | 4 | Stopwatch Beta","protocol":17,"map":"workshop/koth_ashville_final.ugc2130459942","folder":"tf","game":"Team Fortress","app_id":440,"player_count":4,"max_players":24,"Bots":0,"server_type":"Dedicated","server_os":"Linux","password":true,"vac":true,"version":"7882260","steam_id":85568392924510199,"keywords":["cp","nocrits","nodmgspread","uncletopia"],"game_id":440,"stv_port":27046,"stv_name":"Uncletopia | Los Angeles | 4 | Stopwatch Beta | STV","players":[{"user_id":8,"name":"MakeSureToKnock","steam_id":76561198075600007,"connected_time":922000000000,"state":"active","ping":100},{"user_id":9,"name":"Reflection Lost","steam_id":76561198093354401,"connected_time":904000000000,"state":"active","ping":52},{"user_id":10,"name":"Quattro Bajeena","steam_id":76561198135151660,"connected_time":868000000000,"state":"active","ping":83},{"user_id":12,"name":"MegaMan","steam_id":76561198010729621,"connected_time":42000000000,"state":"active","ping":107}]},{"server_id":11,"name":"Uncletopia | London | 1 | All Maps","name_short":"lon-1","host":"lon-1.uk.uncletopia.com","port":27015,"enabled":true,"region":"eu","cc":"gb","latitude":51.509865,"longitude":-0.118092,"reserved":0,"last_update":"0001-01-01T00:00:00Z","name_a2s":"Uncletopia | London | 1 | All Maps","protocol":17,"map":"koth_highpass","folder":"tf","game":"Team Fortress","app_id":440,"player_count":8,"max_players":24,"Bots":0,"server_type":"Dedicated","server_os":"Linux","password":true,"vac":true,"version":"7882260","steam_id":85568392924367362,"keywords":["cp","nocrits","nodmgspread","uncletopia"],"game_id":440,"stv_port":27016,"stv_name":"Uncletopia | London | 1 | All Maps | STV","players":[{"user_id":911,"name":"marc","steam_id":76561198018694332,"connected_time":5437000000000,"state":"active","ping":70},{"user_id":925,"name":"quantumexistenc3","steam_id":76561199379634118,"connected_time":513000000000,"state":"active","ping":60},{"user_id":912,"name":"pangxiong147","steam_id":76561199333740508,"connected_time":5394000000000,"state":"active","ping":162},{"user_id":924,"name":"CringeIsaac","steam_id":76561199082217398,"connected_time":1241000000000,"state":"active","ping":122},{"user_id":926,"name":"wide appreciator","steam_id":76561198083286511,"connected_time":499000000000,"state":"active","ping":31},{"user_id":916,"name":"McGameboy26","steam_id":76561198075424133,"connected_time":4444000000000,"state":"active","ping":53},{"user_id":927,"name":"madh2929","steam_id":76561199445888901,"connected_time":425000000000,"state":"active","ping":235},{"user_id":874,"name":"Homebound","steam_id":76561198531978435,"connected_time":9023000000000,"state":"active","ping":67}]},{"server_id":114,"name":"Uncletopia | London | 2 | All Maps","name_short":"lon-2","host":"lon-1.uk.uncletopia.com","port":27025,"enabled":true,"region":"eu","cc":"gb","latitude":51.509865,"longitude":-0.118092,"reserved":0,"last_update":"0001-01-01T00:00:00Z","name_a2s":"Uncletopia | London | 2 | All Maps","protocol":17,"map":"koth_cascade","folder":"tf","game":"Team Fortress","app_id":440,"player_count":0,"max_players":24,"Bots":0,"server_type":"Dedicated","server_os":"Linux","password":true,"vac":true,"version":"7882260","steam_id":85568392924470941,"keywords":["cp","nocrits","nodmgspread","uncletopia"],"game_id":440,"stv_port":27026,"stv_name":"Uncletopia | London | 2 | All Maps | STV","players":null},{"server_id":320,"name":"Uncletopia | London | 3 | All Maps","name_short":"lon-3","host":"lon-1.uk.uncletopia.com","port":27035,"enabled":true,"region":"eu","cc":"gb","latitude":51.509865,"longitude":-0.118092,"reserved":0,"last_update":"0001-01-01T00:00:00Z","name_a2s":"Uncletopia | London | 3 | All Maps","protocol":17,"map":"pl_barnblitz","folder":"tf","game":"Team Fortress","app_id":440,"player_count":20,"max_players":24,"Bots":0,"server_type":"Dedicated","server_os":"Linux","password":true,"vac":true,"version":"7882260","steam_id":85568392924510192,"keywords":["nocrits","nodmgspread","payload","uncletopia"],"game_id":440,"stv_port":27036,"stv_name":"Uncletopia | London | 3 | All Maps | STV","players":[{"user_id":1039,"name":"Danube501","steam_id":76561198143222686,"connected_time":2672000000000,"state":"active","ping":105},{"user_id":1066,"name":"zpalmtree","steam_id":76561198134307620,"connected_time":774000000000,"state":"active","ping":135},{"user_id":1008,"name":"Controller Gaming","steam_id":76561198134805479,"connected_time":5666000000000,"state":"active","ping":52},{"user_id":1067,"name":"Koku-jin","steam_id":76561198258722229,"connected_time":768000000000,"state":"active","ping":107},{"user_id":1024,"name":"øpossum","steam_id":76561198056152479,"connected_time":4145000000000,"state":"active","ping":45},{"user_id":1071,"name":"Neimon","steam_id":76561198343485710,"connected_time":440000000000,"state":"active","ping":129},{"user_id":1072,"name":"Bambi","steam_id":76561198166972711,"connected_time":423000000000,"state":"active","ping":46},{"user_id":1073,"name":"I'm not gonna sugarcoat it","steam_id":76561198144597089,"connected_time":310000000000,"state":"active","ping":47},{"user_id":1027,"name":"SuperBob103","steam_id":76561199175360012,"connected_time":3444000000000,"state":"active","ping":54},{"user_id":1074,"name":"idarmed","steam_id":76561198420064361,"connected_time":184000000000,"state":"active","ping":148},{"user_id":1041,"name":"_no_flake","steam_id":76561198011786656,"connected_time":2592000000000,"state":"active","ping":120},{"user_id":1070,"name":"chopsticks","steam_id":76561198045899345,"connected_time":630000000000,"state":"active","ping":104},{"user_id":1049,"name":"GoatLord1","steam_id":76561198157964544,"connected_time":2366000000000,"state":"active","ping":55},{"user_id":1048,"name":"M2rtRa","steam_id":76561198111036466,"connected_time":2417000000000,"state":"active","ping":74},{"user_id":1055,"name":"Crostil","steam_id":76561198070621489,"connected_time":1704000000000,"state":"active","ping":136},{"user_id":1056,"name":"Hunter64","steam_id":76561199121947938,"connected_time":1676000000000,"state":"active","ping":49},{"user_id":1017,"name":"Silent","steam_id":76561198344588858,"connected_time":4909000000000,"state":"active","ping":46},{"user_id":1018,"name":"Zeyo","steam_id":76561198110198881,"connected_time":4876000000000,"state":"active","ping":67},{"user_id":1037,"name":"iIMOFIi","steam_id":76561199000483925,"connected_time":2793000000000,"state":"active","ping":185},{"user_id":994,"name":"RCST","steam_id":76561198174955254,"connected_time":6483000000000,"state":"active","ping":96}]},{"server_id":321,"name":"Uncletopia | London | 4 | All Maps","name_short":"lon-4","host":"lon-1.uk.uncletopia.com","port":27045,"enabled":true,"region":"eu","cc":"gb","latitude":51.509865,"longitude":-0.118092,"reserved":0,"last_update":"0001-01-01T00:00:00Z","name_a2s":"Uncletopia | London | 4 | All Maps","protocol":17,"map":"cp_process_final","folder":"tf","game":"Team Fortress","app_id":440,"player_count":0,"max_players":24,"Bots":0,"server_type":"Dedicated","server_os":"Linux","password":true,"vac":true,"version":"7882260","steam_id":85568392924510193,"keywords":["cp","nocrits","nodmgspread","uncletopia"],"game_id":440,"stv_port":27046,"stv_name":"Uncletopia | London | 4 | All Maps | STV","players":null},{"server_id":21,"name":"Uncletopia | London | 5 | All Maps","name_short":"lon-5","host":"lon-1.uk.uncletopia.com","port":27055,"enabled":true,"region":"eu","cc":"gb","latitude":51.509865,"longitude":-0.118092,"reserved":0,"last_update":"0001-01-01T00:00:00Z","name_a2s":"Uncletopia | London | 5 | All Maps","protocol":17,"map":"cp_process_final","folder":"tf","game":"Team Fortress","app_id":440,"player_count":0,"max_players":24,"Bots":0,"server_type":"Dedicated","server_os":"Linux","password":true,"vac":true,"version":"7882260","steam_id":85568392924742829,"keywords":["cp","nocrits","nodmgspread","uncletopia"],"game_id":440,"stv_port":27056,"stv_name":"Uncletopia | London | 5 | All Maps | STV","players":null},{"server_id":22,"name":"Uncletopia | London | 6 | All Maps","name_short":"lon-6","host":"lon-1.uk.uncletopia.com","port":27065,"enabled":true,"region":"eu","cc":"gb","latitude":51.509865,"longitude":-0.118092,"reserved":0,"last_update":"0001-01-01T00:00:00Z","name_a2s":"Uncletopia | London | 6 | All Maps","protocol":17,"map":"koth_highpass","folder":"tf","game":"Team Fortress","app_id":440,"player_count":0,"max_players":24,"Bots":0,"server_type":"Dedicated","server_os":"Linux","password":true,"vac":true,"version":"7882260","steam_id":85568392924742830,"keywords":["cp","nocrits","nodmgspread","uncletopia"],"game_id":440,"stv_port":27066,"stv_name":"Uncletopia | London | 6 | All Maps | STV","players":null},{"server_id":40,"name":"Uncletopia | London | 7 | No Payload","name_short":"lon-7","host":"lon-1.uk.uncletopia.com","port":27075,"enabled":true,"region":"eu","cc":"gb","latitude":51.509865,"longitude":-0.118092,"reserved":0,"last_update":"0001-01-01T00:00:00Z","name_a2s":"Uncletopia | London | 7 | No Payload","protocol":17,"map":"koth_highpass","folder":"tf","game":"Team Fortress","app_id":440,"player_count":0,"max_players":24,"Bots":0,"server_type":"Dedicated","server_os":"Linux","password":true,"vac":true,"version":"7882260","steam_id":85568392924964314,"keywords":["cp","nocrits","nodmgspread","uncletopia"],"game_id":440,"stv_port":27076,"stv_name":"Uncletopia | London | 7 | No Payload | STV","players":null},{"server_id":41,"name":"Uncletopia | London | 8 | Community","name_short":"lon-8","host":"lon-1.uk.uncletopia.com","port":27085,"enabled":true,"region":"eu","cc":"gb","latitude":51.509865,"longitude":-0.118092,"reserved":0,"last_update":"0001-01-01T00:00:00Z","name_a2s":"Uncletopia | London | 8 | Community","protocol":17,"map":"workshop/cp_snowbase_b18.ugc2081770490","folder":"tf","game":"Team Fortress","app_id":440,"player_count":0,"max_players":24,"Bots":0,"server_type":"Dedicated","server_os":"Linux","password":true,"vac":true,"version":"7882260","steam_id":85568392924964315,"keywords":["cp","nocrits","nodmgspread","uncletopia"],"game_id":440,"stv_port":27086,"stv_name":"Uncletopia | London | 8 | Community | STV","players":null},{"server_id":300,"name":"Uncletopia | Montréal | 1 | All Maps","name_short":"mtl-1","host":"mtl-1.ca.uncletopia.com","port":27015,"enabled":true,"region":"us-east","cc":"ca","latitude":45.50889,"longitude":-73.56167,"reserved":0,"last_update":"0001-01-01T00:00:00Z","name_a2s":"Uncletopia | Montréal | 1 | All Maps","protocol":17,"map":"cp_dustbowl","folder":"tf","game":"Team Fortress","app_id":440,"player_count":3,"max_players":24,"Bots":0,"server_type":"Dedicated","server_os":"Linux","password":true,"vac":true,"version":"7882260","steam_id":85568392924500087,"keywords":["cp","nocrits","nodmgspread","uncletopia"],"game_id":440,"stv_port":27016,"stv_name":"Uncletopia | Montréal | 1 | All Maps | STV","players":[{"user_id":239,"name":"Harvest Moon","steam_id":76561198952544658,"connected_time":85000000000,"state":"spawning","ping":36},{"user_id":240,"name":"Synision","steam_id":76561199130106263,"connected_time":60000000000,"state":"active","ping":58},{"user_id":222,"name":"Ynohtna","steam_id":76561198069028540,"connected_time":1923000000000,"state":"active","ping":52}]},{"server_id":301,"name":"Uncletopia | Montréal | 2 | All Maps","name_short":"mtl-2","host":"mtl-1.ca.uncletopia.com","port":27025,"enabled":true,"region":"us-east","cc":"ca","latitude":45.50889,"longitude":-73.56167,"reserved":0,"last_update":"0001-01-01T00:00:00Z","name_a2s":"Uncletopia | Montréal | 2 | All Maps","protocol":17,"map":"pl_borneo","folder":"tf","game":"Team Fortress","app_id":440,"player_count":24,"max_players":24,"Bots":0,"server_type":"Dedicated","server_os":"Linux","password":true,"vac":true,"version":"7882260","steam_id":85568392924500088,"keywords":["nocrits","nodmgspread","payload","uncletopia"],"game_id":440,"stv_port":27026,"stv_name":"Uncletopia | Montréal | 2 | All Maps | STV","players":[{"user_id":151,"name":"NastyStarchy","steam_id":76561198291849732,"connected_time":3660000000000,"state":"active","ping":35},{"user_id":165,"name":"Rudy","steam_id":76561198013456828,"connected_time":2167000000000,"state":"active","ping":59},{"user_id":188,"name":"Falk","steam_id":76561198117024236,"connected_time":166000000000,"state":"active","ping":52},{"user_id":158,"name":"Mr, Chris P Bacon","steam_id":76561199215798445,"connected_time":3224000000000,"state":"active","ping":74},{"user_id":161,"name":"ZerCroix","steam_id":76561198199523226,"connected_time":3044000000000,"state":"active","ping":136},{"user_id":97,"name":"Yadoking","steam_id":76561198057156436,"connected_time":6785000000000,"state":"active","ping":120},{"user_id":185,"name":"boolian","steam_id":76561198172187922,"connected_time":770000000000,"state":"active","ping":104},{"user_id":145,"name":"bug o1","steam_id":76561198126386686,"connected_time":3896000000000,"state":"active","ping":73},{"user_id":168,"name":"emseaeye","steam_id":76561198161499803,"connected_time":1795000000000,"state":"active","ping":46},{"user_id":183,"name":"MAXIMUS","steam_id":76561198085809453,"connected_time":941000000000,"state":"active","ping":85},{"user_id":76,"name":"Comfy Monkey","steam_id":76561197998434936,"connected_time":8436000000000,"state":"active","ping":48},{"user_id":180,"name":"Gurim","steam_id":76561198047990603,"connected_time":1578000000000,"state":"active","ping":87},{"user_id":126,"name":"NexFrost","steam_id":76561197985774837,"connected_time":5166000000000,"state":"active","ping":76},{"user_id":187,"name":"OminousNoises","steam_id":76561198263320321,"connected_time":558000000000,"state":"active","ping":128},{"user_id":172,"name":"Nut Bustray","steam_id":76561198092403883,"connected_time":1708000000000,"state":"active","ping":143},{"user_id":173,"name":"Aequalis747","steam_id":76561199456589841,"connected_time":1706000000000,"state":"active","ping":139},{"user_id":174,"name":"hellen keller's dog","steam_id":76561198045356198,"connected_time":1703000000000,"state":"active","ping":59},{"user_id":131,"name":"hashmap","steam_id":76561198043794014,"connected_time":5035000000000,"state":"active","ping":46},{"user_id":99,"name":"MetaYoshi","steam_id":76561198051634181,"connected_time":6774000000000,"state":"active","ping":106},{"user_id":186,"name":"Lore","steam_id":76561198098407538,"connected_time":770000000000,"state":"active","ping":72},{"user_id":176,"name":"Raydn","steam_id":76561198418414338,"connected_time":1680000000000,"state":"active","ping":87},{"user_id":132,"name":"send dudes","steam_id":76561198084277762,"connected_time":5010000000000,"state":"active","ping":34},{"user_id":134,"name":"elastigo gomez","steam_id":76561198056834532,"connected_time":4940000000000,"state":"active","ping":71},{"user_id":181,"name":"vioametgsme","steam_id":76561198025295263,"connected_time":1380000000000,"state":"active","ping":90}]},{"server_id":302,"name":"Uncletopia | Montréal | 3 | All Maps","name_short":"mtl-3","host":"mtl-1.ca.uncletopia.com","port":27035,"enabled":true,"region":"us-east","cc":"ca","latitude":45.50889,"longitude":-73.56167,"reserved":0,"last_update":"0001-01-01T00:00:00Z","name_a2s":"Uncletopia | Montréal | 3 | All Maps","protocol":17,"map":"pl_frontier_final","folder":"tf","game":"Team Fortress","app_id":440,"player_count":4,"max_players":24,"Bots":0,"server_type":"Dedicated","server_os":"Linux","password":true,"vac":true,"version":"7882260","steam_id":85568392924500089,"keywords":["nocrits","nodmgspread","payload","uncletopia"],"game_id":440,"stv_port":27036,"stv_name":"Uncletopia | Montréal | 3 | All Maps | STV","players":[{"user_id":18,"name":"Bip","steam_id":76561199022962204,"connected_time":5429000000000,"state":"active","ping":83},{"user_id":19,"name":"averagesoldiermain","steam_id":76561198158447466,"connected_time":5237000000000,"state":"active","ping":84},{"user_id":21,"name":"CivilWarMike","steam_id":76561198141188839,"connected_time":5162000000000,"state":"active","ping":75},{"user_id":33,"name":"MelonHead269","steam_id":76561199423756828,"connected_time":2079000000000,"state":"active","ping":65}]},{"server_id":303,"name":"Uncletopia | Montréal | 4 | No Payload","name_short":"mtl-4","host":"mtl-1.ca.uncletopia.com","port":27045,"enabled":true,"region":"us-east","cc":"ca","latitude":45.50889,"longitude":-73.56167,"reserved":0,"last_update":"0001-01-01T00:00:00Z","name_a2s":"Uncletopia | Montréal | 4 | No Payload","protocol":17,"map":"cp_snakewater_final1","folder":"tf","game":"Team Fortress","app_id":440,"player_count":0,"max_players":24,"Bots":0,"server_type":"Dedicated","server_os":"Linux","password":true,"vac":true,"version":"7882260","steam_id":85568392924500090,"keywords":["cp","nocrits","nodmgspread","uncletopia"],"game_id":440,"stv_port":27046,"stv_name":"Uncletopia | Montréal | 4 | No Payload | STV","players":null},{"server_id":13,"name":"Uncletopia | New York City | 1 | All Maps","name_short":"nyc-1","host":"nyc-1.us.uncletopia.com","port":27015,"enabled":true,"region":"us-east","cc":"us","latitude":40.73061,"longitude":-73.93524,"reserved":0,"last_update":"0001-01-01T00:00:00Z","name_a2s":"Uncletopia | New York City | 1 | All Maps","protocol":17,"map":"ctf_turbine","folder":"tf","game":"Team Fortress","app_id":440,"player_count":22,"max_players":24,"Bots":0,"server_type":"Dedicated","server_os":"Linux","password":true,"vac":true,"version":"7882260","steam_id":85568392924469993,"keywords":["ctf","nocrits","nodmgspread","uncletopia"],"game_id":440,"stv_port":27016,"stv_name":"Uncletopia | New York City | 1 | All Maps | STV","players":[{"user_id":404,"name":"Chhaam","steam_id":76561198058508132,"connected_time":10429000000000,"state":"active","ping":40},{"user_id":482,"name":"Caustic","steam_id":76561198004802198,"connected_time":4493000000000,"state":"active","ping":49},{"user_id":511,"name":"Samrizo el Chorizo","steam_id":76561198009838162,"connected_time":1891000000000,"state":"active","ping":51},{"user_id":506,"name":"Periculosum PhD in Funny","steam_id":76561198123370914,"connected_time":2658000000000,"state":"active","ping":86},{"user_id":535,"name":"The Great Wart","steam_id":76561198107906150,"connected_time":356000000000,"state":"active","ping":46},{"user_id":534,"name":"CORGI.EXE","steam_id":76561198077093432,"connected_time":434000000000,"state":"active","ping":45},{"user_id":536,"name":"Zirael","steam_id":76561198057143358,"connected_time":289000000000,"state":"active","ping":63},{"user_id":524,"name":"Alphaspectre","steam_id":76561198152955020,"connected_time":844000000000,"state":"active","ping":56},{"user_id":397,"name":"your honor? gaming.","steam_id":76561198124311404,"connected_time":11139000000000,"state":"active","ping":68},{"user_id":537,"name":"VLC Media Player","steam_id":76561198103243847,"connected_time":282000000000,"state":"active","ping":81},{"user_id":507,"name":"IT Guy","steam_id":76561198071790583,"connected_time":2642000000000,"state":"active","ping":60},{"user_id":528,"name":"Creeperlad 33","steam_id":76561199027120873,"connected_time":734000000000,"state":"active","ping":78},{"user_id":494,"name":"7thhelden","steam_id":76561198297428761,"connected_time":3735000000000,"state":"active","ping":75},{"user_id":525,"name":"Michaelpc1","steam_id":76561198088365519,"connected_time":839000000000,"state":"active","ping":65},{"user_id":401,"name":"WALL-E","steam_id":76561198154701370,"connected_time":10918000000000,"state":"active","ping":71},{"user_id":514,"name":"corntent","steam_id":76561198824847948,"connected_time":1725000000000,"state":"active","ping":43},{"user_id":521,"name":"Scrumpy_06","steam_id":76561199225798705,"connected_time":962000000000,"state":"active","ping":150},{"user_id":526,"name":"Alfonso Molestro","steam_id":76561197998677099,"connected_time":835000000000,"state":"active","ping":66},{"user_id":501,"name":"WibbyOne","steam_id":76561198052843846,"connected_time":3243000000000,"state":"active","ping":44},{"user_id":527,"name":"enemyspotted","steam_id":76561198824114691,"connected_time":820000000000,"state":"active","ping":68},{"user_id":452,"name":"Shady Shopkeep","steam_id":76561198025307628,"connected_time":6766000000000,"state":"active","ping":95},{"user_id":531,"name":"s.Twig™","steam_id":76561198070138375,"connected_time":655000000000,"state":"active","ping":64}]},{"server_id":14,"name":"Uncletopia | New York City | 2 | All Maps","name_short":"nyc-2","host":"nyc-1.us.uncletopia.com","port":27025,"enabled":true,"region":"us-east","cc":"us","latitude":40.73061,"longitude":-73.93524,"reserved":0,"last_update":"0001-01-01T00:00:00Z","name_a2s":"Uncletopia | New York City | 2 | All Maps","protocol":17,"map":"pl_borneo","folder":"tf","game":"Team Fortress","app_id":440,"player_count":24,"max_players":24,"Bots":0,"server_type":"Dedicated","server_os":"Linux","password":true,"vac":true,"version":"7882260","steam_id":85568392924469994,"keywords":["nocrits","nodmgspread","payload","uncletopia"],"game_id":440,"stv_port":27026,"stv_name":"Uncletopia | New York City | 2 | All Maps | STV","players":[{"user_id":536,"name":"Vogel","steam_id":76561198872159697,"connected_time":1361000000000,"state":"active","ping":49},{"user_id":543,"name":"mashallah","steam_id":76561198075111427,"connected_time":760000000000,"state":"active","ping":73},{"user_id":545,"name":"TJGSASQUATCH","steam_id":76561198077806921,"connected_time":739000000000,"state":"active","ping":71},{"user_id":529,"name":"Blazing Hyena","steam_id":76561199121852680,"connected_time":2193000000000,"state":"active","ping":119},{"user_id":541,"name":"FazeCumShot69","steam_id":76561199248475270,"connected_time":943000000000,"state":"active","ping":110},{"user_id":544,"name":"the meat man","steam_id":76561198037921140,"connected_time":746000000000,"state":"active","ping":112},{"user_id":520,"name":"Dark_Souls_Fat_Man","steam_id":76561198805567646,"connected_time":2430000000000,"state":"active","ping":144},{"user_id":518,"name":"bongos","steam_id":76561198025555734,"connected_time":2490000000000,"state":"active","ping":55},{"user_id":560,"name":"Moonshine Man","steam_id":76561198088010073,"connected_time":351000000000,"state":"active","ping":101},{"user_id":538,"name":"WM1 PYRO","steam_id":76561198045893896,"connected_time":1124000000000,"state":"active","ping":117},{"user_id":511,"name":"Ugzugzug The Bucket Mann","steam_id":76561198836624330,"connected_time":3482000000000,"state":"active","ping":74},{"user_id":556,"name":"flooreater419","steam_id":76561198098656830,"connected_time":484000000000,"state":"active","ping":75},{"user_id":566,"name":"Grease Monkey","steam_id":76561199073112578,"connected_time":43000000000,"state":"active","ping":73},{"user_id":546,"name":"NoSignal","steam_id":76561198094723903,"connected_time":701000000000,"state":"active","ping":73},{"user_id":547,"name":"Skysillade","steam_id":76561198175485754,"connected_time":671000000000,"state":"active","ping":98},{"user_id":550,"name":"Eugen","steam_id":76561198189680905,"connected_time":601000000000,"state":"active","ping":56},{"user_id":549,"name":"Slazzer","steam_id":76561198404351844,"connected_time":620000000000,"state":"active","ping":59},{"user_id":499,"name":"Ferguson","steam_id":76561198121349387,"connected_time":4672000000000,"state":"active","ping":83},{"user_id":558,"name":"Bush.exe","steam_id":76561198124385307,"connected_time":437000000000,"state":"active","ping":72},{"user_id":564,"name":"Aeront","steam_id":76561198072032723,"connected_time":123000000000,"state":"active","ping":90},{"user_id":527,"name":"The Cannoneer","steam_id":76561198071368120,"connected_time":2290000000000,"state":"active","ping":64},{"user_id":551,"name":"raw.crit","steam_id":76561198033033884,"connected_time":565000000000,"state":"active","ping":56},{"user_id":552,"name":"Blue Eyes Ace Dragon.","steam_id":76561198048214237,"connected_time":559000000000,"state":"active","ping":48},{"user_id":475,"name":"Goofball","steam_id":76561198061211537,"connected_time":5884000000000,"state":"active","ping":76}]},{"server_id":15,"name":"Uncletopia | New York City | 3 | Stopwatch Beta","name_short":"nyc-3","host":"nyc-1.us.uncletopia.com","port":27035,"enabled":true,"region":"us-east","cc":"us","latitude":40.73061,"longitude":-73.93524,"reserved":0,"last_update":"0001-01-01T00:00:00Z","name_a2s":"Uncletopia | New York City | 3 | Stopwatch Beta","protocol":17,"map":"workshop/koth_bagel_rc6.ugc2514036946","folder":"tf","game":"Team Fortress","app_id":440,"player_count":0,"max_players":24,"Bots":0,"server_type":"Dedicated","server_os":"Linux","password":true,"vac":true,"version":"7882260","steam_id":85568392924742820,"keywords":["cp","nocrits","nodmgspread","uncletopia"],"game_id":440,"stv_port":27036,"stv_name":"Uncletopia | New York City | 3 | Stopwatch Beta | STV","players":null},{"server_id":16,"name":"Uncletopia | New York City | 4 | Community","name_short":"nyc-4","host":"nyc-1.us.uncletopia.com","port":27045,"enabled":true,"region":"us-east","cc":"us","latitude":40.73061,"longitude":-73.93524,"reserved":0,"last_update":"0001-01-01T00:00:00Z","name_a2s":"Uncletopia | New York City | 4 | Community","protocol":17,"map":"workshop/cp_bruhstbowl_b5.ugc2878604990","folder":"tf","game":"Team Fortress","app_id":440,"player_count":22,"max_players":24,"Bots":0,"server_type":"Dedicated","server_os":"Linux","password":true,"vac":true,"version":"7882260","steam_id":85568392924742821,"keywords":["cp","nocrits","nodmgspread","uncletopia"],"game_id":440,"stv_port":27046,"stv_name":"Uncletopia | New York City | 4 | Community | STV","players":[{"user_id":301,"name":"Lost CS player","steam_id":76561198892387723,"connected_time":1047000000000,"state":"active","ping":56},{"user_id":282,"name":"Peppino Spaghetti","steam_id":76561198155403131,"connected_time":2165000000000,"state":"active","ping":130},{"user_id":307,"name":"mocolata","steam_id":76561198023757872,"connected_time":791000000000,"state":"active","ping":83},{"user_id":283,"name":"Lavender","steam_id":76561198142770666,"connected_time":2161000000000,"state":"active","ping":74},{"user_id":302,"name":"Your Femboy Bf","steam_id":76561198810879322,"connected_time":985000000000,"state":"active","ping":88},{"user_id":217,"name":"Kelpy","steam_id":76561198294906383,"connected_time":5857000000000,"state":"active","ping":50},{"user_id":284,"name":"Rykah","steam_id":76561198095040360,"connected_time":2141000000000,"state":"active","ping":60},{"user_id":311,"name":"spillproff","steam_id":76561198082337619,"connected_time":626000000000,"state":"active","ping":51},{"user_id":304,"name":"xLeoparrd","steam_id":76561198940657194,"connected_time":855000000000,"state":"active","ping":85},{"user_id":308,"name":"JelloMotion","steam_id":76561198045892038,"connected_time":789000000000,"state":"active","ping":65},{"user_id":310,"name":"wunkem","steam_id":76561198055948497,"connected_time":698000000000,"state":"active","ping":80},{"user_id":312,"name":"artichoke","steam_id":76561198980994364,"connected_time":620000000000,"state":"active","ping":88},{"user_id":309,"name":"gorf?","steam_id":76561198142286417,"connected_time":755000000000,"state":"active","ping":72},{"user_id":293,"name":"Wilhelmktx","steam_id":76561198158102295,"connected_time":1709000000000,"state":"active","ping":76},{"user_id":294,"name":"PieTheMan","steam_id":76561198027825469,"connected_time":1333000000000,"state":"active","ping":86},{"user_id":313,"name":"overlordraiden","steam_id":76561198145269158,"connected_time":393000000000,"state":"active","ping":57},{"user_id":234,"name":"bojack from the show bojack hor","steam_id":76561198053006712,"connected_time":4946000000000,"state":"active","ping":45},{"user_id":314,"name":"PonPanTon","steam_id":76561198871103633,"connected_time":157000000000,"state":"active","ping":69},{"user_id":315,"name":"Razz","steam_id":76561198158027533,"connected_time":35000000000,"state":"active","ping":113},{"user_id":257,"name":"Aldinach","steam_id":76561198079912615,"connected_time":3941000000000,"state":"active","ping":60},{"user_id":267,"name":"Super D Duper","steam_id":76561198078203677,"connected_time":3165000000000,"state":"active","ping":52},{"user_id":291,"name":"IronGiant","steam_id":76561198062139190,"connected_time":1748000000000,"state":"active","ping":100}]},{"server_id":142,"name":"Uncletopia | São Paulo | 1 | All Maps","name_short":"sao-1","host":"sao-1.br.uncletopia.com","port":27015,"enabled":true,"region":"sa","cc":"br","latitude":-23.533773,"longitude":-46.62529,"reserved":0,"last_update":"0001-01-01T00:00:00Z","name_a2s":"Uncletopia | São Paulo | 1 | All Maps","protocol":17,"map":"koth_lakeside_final","folder":"tf","game":"Team Fortress","app_id":440,"player_count":0,"max_players":24,"Bots":0,"server_type":"Dedicated","server_os":"Linux","password":true,"vac":true,"version":"7882260","steam_id":85568392924469996,"keywords":["cp","nocrits","nodmgspread","uncletopia"],"game_id":440,"stv_port":27016,"stv_name":"Uncletopia | São Paulo | 1 | All Maps | STV","players":null},{"server_id":143,"name":"Uncletopia | São Paulo | 2 | All Maps","name_short":"sao-2","host":"sao-2.br.uncletopia.com","port":27015,"enabled":true,"region":"sa","cc":"br","latitude":-23.533773,"longitude":-46.62529,"reserved":0,"last_update":"0001-01-01T00:00:00Z","name_a2s":"Uncletopia | São Paulo | 2 | All Maps","protocol":17,"map":"koth_lakeside_final","folder":"tf","game":"Team Fortress","app_id":440,"player_count":0,"max_players":24,"Bots":0,"server_type":"Dedicated","server_os":"Linux","password":true,"vac":true,"version":"7882260","steam_id":85568392924485349,"keywords":["cp","nocrits","nodmgspread","uncletopia"],"game_id":440,"stv_port":27016,"stv_name":"Uncletopia | São Paulo | 2 | All Maps | STV","players":null},{"server_id":7,"name":"Uncletopia | Seattle | 1 | All Maps","name_short":"sea-1","host":"sea-1.us.uncletopia.com","port":27015,"enabled":true,"region":"us-west","cc":"us","latitude":47.608013,"longitude":-122.33517,"reserved":0,"last_update":"0001-01-01T00:00:00Z","name_a2s":"Uncletopia | Seattle | 1 | All Maps","protocol":17,"map":"pl_upward","folder":"tf","game":"Team Fortress","app_id":440,"player_count":24,"max_players":24,"Bots":0,"server_type":"Dedicated","server_os":"Linux","password":true,"vac":true,"version":"7882260","steam_id":85568392924469997,"keywords":["nocrits","nodmgspread","payload","uncletopia"],"game_id":440,"stv_port":27016,"stv_name":"Uncletopia | Seattle | 1 | All Maps | STV","players":[{"user_id":628,"name":"Themasterman75","steam_id":76561199385573293,"connected_time":1226000000000,"state":"active","ping":64},{"user_id":625,"name":"lavender","steam_id":76561199069518286,"connected_time":1359000000000,"state":"active","ping":75},{"user_id":612,"name":"posting fail","steam_id":76561198066619792,"connected_time":2693000000000,"state":"active","ping":74},{"user_id":638,"name":"AmiableNebula","steam_id":76561198094306627,"connected_time":622000000000,"state":"active","ping":74},{"user_id":598,"name":"DMAFGreatoverlordSchikonmaster","steam_id":76561198123510618,"connected_time":3437000000000,"state":"active","ping":67},{"user_id":626,"name":"Big Jon","steam_id":76561198402285099,"connected_time":1356000000000,"state":"active","ping":71},{"user_id":601,"name":"soup","steam_id":76561198043209046,"connected_time":3137000000000,"state":"active","ping":74},{"user_id":640,"name":"Tungsten","steam_id":76561198312854342,"connected_time":93000000000,"state":"active","ping":56},{"user_id":619,"name":"Cluwn","steam_id":76561198001336085,"connected_time":2242000000000,"state":"active","ping":149},{"user_id":634,"name":"SibilantSerpent","steam_id":76561198154488754,"connected_time":865000000000,"state":"active","ping":55},{"user_id":631,"name":"Cheezbeargur","steam_id":76561198164702899,"connected_time":1051000000000,"state":"active","ping":63},{"user_id":594,"name":"bbbbb","steam_id":76561198095480838,"connected_time":3634000000000,"state":"active","ping":45},{"user_id":617,"name":"Nahvee","steam_id":76561198119759695,"connected_time":2291000000000,"state":"active","ping":74},{"user_id":636,"name":"dust | she/it","steam_id":76561198045218909,"connected_time":788000000000,"state":"active","ping":44},{"user_id":639,"name":"zinnk","steam_id":76561198092081825,"connected_time":352000000000,"state":"active","ping":59},{"user_id":632,"name":"ed","steam_id":76561198080475712,"connected_time":1002000000000,"state":"active","ping":63},{"user_id":593,"name":"weed","steam_id":76561199128192017,"connected_time":3896000000000,"state":"active","ping":64},{"user_id":599,"name":"Username","steam_id":76561198855586261,"connected_time":3194000000000,"state":"active","ping":64},{"user_id":620,"name":"Sam","steam_id":76561198043918040,"connected_time":2229000000000,"state":"active","ping":138},{"user_id":396,"name":"Fallen","steam_id":76561198206490352,"connected_time":20850000000000,"state":"active","ping":82},{"user_id":623,"name":"TüCold","steam_id":76561198111278197,"connected_time":1773000000000,"state":"active","ping":50},{"user_id":622,"name":"oil","steam_id":76561198099980149,"connected_time":2124000000000,"state":"active","ping":79},{"user_id":627,"name":"Neil \"the grass\" tyson","steam_id":76561198872345538,"connected_time":1356000000000,"state":"active","ping":81},{"user_id":633,"name":"jorts","steam_id":76561199041179985,"connected_time":885000000000,"state":"active","ping":70}]},{"server_id":119,"name":"Uncletopia | Seattle | 2 | All Maps","name_short":"sea-2","host":"sea-1.us.uncletopia.com","port":27025,"enabled":true,"region":"us-west","cc":"us","latitude":47.608013,"longitude":-122.33517,"reserved":0,"last_update":"0001-01-01T00:00:00Z","name_a2s":"Uncletopia | Seattle | 2 | All Maps","protocol":17,"map":"pl_thundermountain","folder":"tf","game":"Team Fortress","app_id":440,"player_count":22,"max_players":24,"Bots":0,"server_type":"Dedicated","server_os":"Linux","password":true,"vac":true,"version":"7882260","steam_id":85568392924469998,"keywords":["nocrits","nodmgspread","payload","uncletopia"],"game_id":440,"stv_port":27026,"stv_name":"Uncletopia | Seattle | 2 | All Maps | STV","players":[{"user_id":373,"name":"PigThing","steam_id":76561198404374251,"connected_time":20000000000,"state":"connecting","ping":0},{"user_id":285,"name":"Tibetan Pop Star","steam_id":76561198844903984,"connected_time":8152000000000,"state":"active","ping":99},{"user_id":326,"name":"ShadBad","steam_id":76561198248287390,"connected_time":5130000000000,"state":"active","ping":101},{"user_id":350,"name":"Mr.F","steam_id":76561197976640580,"connected_time":3199000000000,"state":"active","ping":134},{"user_id":372,"name":"Thanks Ants","steam_id":76561197966221018,"connected_time":44000000000,"state":"active","ping":47},{"user_id":369,"name":"man","steam_id":76561198119873061,"connected_time":63000000000,"state":"active","ping":79},{"user_id":351,"name":"blorbule","steam_id":76561198872316133,"connected_time":3147000000000,"state":"active","ping":67},{"user_id":371,"name":"Freddy Fazbear","steam_id":76561199247095754,"connected_time":53000000000,"state":"active","ping":72},{"user_id":331,"name":"FoodzAreGoodz","steam_id":76561198309262052,"connected_time":5082000000000,"state":"active","ping":82},{"user_id":341,"name":"DrunkOnChocolateMilk","steam_id":76561198036540528,"connected_time":4075000000000,"state":"active","ping":51},{"user_id":362,"name":"SolarusD","steam_id":76561198029279861,"connected_time":1063000000000,"state":"active","ping":63},{"user_id":368,"name":"Grandpa-pyro","steam_id":76561198101719848,"connected_time":830000000000,"state":"active","ping":48},{"user_id":367,"name":"Person","steam_id":76561198073885832,"connected_time":868000000000,"state":"active","ping":94},{"user_id":353,"name":"Moonman327","steam_id":76561197992616059,"connected_time":3015000000000,"state":"active","ping":106},{"user_id":370,"name":"Tom","steam_id":76561198070630154,"connected_time":61000000000,"state":"active","ping":83},{"user_id":366,"name":"Real (real)","steam_id":76561199059653595,"connected_time":1004000000000,"state":"active","ping":43},{"user_id":344,"name":"Vincent Van Bro","steam_id":76561197966919802,"connected_time":3762000000000,"state":"active","ping":56},{"user_id":318,"name":"Dr. Cgad","steam_id":76561198203411640,"connected_time":6259000000000,"state":"active","ping":107},{"user_id":364,"name":"Ad3ptus","steam_id":76561198272045750,"connected_time":1038000000000,"state":"active","ping":27},{"user_id":374,"name":"Dylan Pulido","steam_id":76561198272681544,"connected_time":4000000000,"state":"spawning","ping":62},{"user_id":337,"name":"Sussyrats420","steam_id":76561199363493860,"connected_time":4216000000000,"state":"active","ping":63},{"user_id":359,"name":"pensissimo","steam_id":76561198079996267,"connected_time":2355000000000,"state":"active","ping":55}]},{"server_id":406,"name":"Uncletopia | Seattle | 3 | Stopwatch Beta","name_short":"sea-3","host":"sea-1.us.uncletopia.com","port":27035,"enabled":true,"region":"us-west","cc":"us","latitude":47.608013,"longitude":-122.33517,"reserved":0,"last_update":"0001-01-01T00:00:00Z","name_a2s":"Uncletopia | Seattle | 3 | Stopwatch Beta","protocol":17,"map":"cp_gullywash_final1","folder":"tf","game":"Team Fortress","app_id":440,"player_count":24,"max_players":24,"Bots":0,"server_type":"Dedicated","server_os":"Linux","password":true,"vac":true,"version":"7882260","steam_id":85568392924515217,"keywords":["cp","nocrits","nodmgspread","uncletopia"],"game_id":440,"stv_port":27036,"stv_name":"Uncletopia | Seattle | 3 | Stopwatch Beta | STV","players":[{"user_id":202,"name":"luiggi (that's me)","steam_id":76561199111418221,"connected_time":520000000000,"state":"active","ping":32},{"user_id":94,"name":"TurkeyBaconEggz","steam_id":76561198881942791,"connected_time":7094000000000,"state":"active","ping":65},{"user_id":187,"name":"Fat Fur Gaming","steam_id":76561198072774915,"connected_time":1570000000000,"state":"active","ping":98},{"user_id":180,"name":"checkswing","steam_id":76561198999816132,"connected_time":2521000000000,"state":"active","ping":124},{"user_id":204,"name":"Saucy Boy","steam_id":76561198178332031,"connected_time":366000000000,"state":"active","ping":116},{"user_id":172,"name":"Ocvember","steam_id":76561198206308152,"connected_time":3369000000000,"state":"active","ping":68},{"user_id":129,"name":"Norriss","steam_id":76561198920296293,"connected_time":5675000000000,"state":"active","ping":58},{"user_id":195,"name":"Mike Bean Burritos","steam_id":76561198173430607,"connected_time":1446000000000,"state":"active","ping":61},{"user_id":192,"name":"[DATS➡] Sugar Meowth","steam_id":76561197995251793,"connected_time":1536000000000,"state":"active","ping":45},{"user_id":189,"name":"... - . .- -- user","steam_id":76561199446583889,"connected_time":1561000000000,"state":"active","ping":114},{"user_id":200,"name":"Mr. Baseball","steam_id":76561198112635823,"connected_time":835000000000,"state":"active","ping":66},{"user_id":190,"name":"Dongus","steam_id":76561197979056451,"connected_time":1548000000000,"state":"active","ping":47},{"user_id":196,"name":"worker","steam_id":76561198039608940,"connected_time":1337000000000,"state":"active","ping":56},{"user_id":174,"name":"noellehound","steam_id":76561198108844158,"connected_time":3227000000000,"state":"active","ping":91},{"user_id":185,"name":"Smithex","steam_id":76561198882520378,"connected_time":1903000000000,"state":"active","ping":90},{"user_id":205,"name":"scripy","steam_id":76561199267237541,"connected_time":186000000000,"state":"active","ping":135},{"user_id":191,"name":"ඞ","steam_id":76561198256701755,"connected_time":1547000000000,"state":"active","ping":66},{"user_id":194,"name":"Spooby","steam_id":76561198168114366,"connected_time":1494000000000,"state":"active","ping":105},{"user_id":165,"name":"St. Michael","steam_id":76561198037611052,"connected_time":3834000000000,"state":"active","ping":92},{"user_id":140,"name":"dansal","steam_id":76561197997042510,"connected_time":5419000000000,"state":"active","ping":122},{"user_id":201,"name":"Emka","steam_id":76561198203357580,"connected_time":667000000000,"state":"active","ping":107},{"user_id":57,"name":"Hindmost","steam_id":76561199081837220,"connected_time":9738000000000,"state":"active","ping":114},{"user_id":198,"name":"Integral","steam_id":76561198158225481,"connected_time":1056000000000,"state":"active","ping":85},{"user_id":171,"name":"Surfing Garchomp","steam_id":76561199107236884,"connected_time":3441000000000,"state":"active","ping":56}]},{"server_id":17,"name":"Uncletopia | San Francisco | 1 | All Maps","name_short":"sfo-1","host":"sfo-1.us.uncletopia.com","port":27015,"enabled":true,"region":"us-west","cc":"us","latitude":37.77397,"longitude":-122.4313,"reserved":0,"last_update":"0001-01-01T00:00:00Z","name_a2s":"Uncletopia | San Francisco | 1 | All Maps","protocol":17,"map":"cp_process_final","folder":"tf","game":"Team Fortress","app_id":440,"player_count":0,"max_players":24,"Bots":0,"server_type":"Dedicated","server_os":"Linux","password":true,"vac":true,"version":"7757534","steam_id":85568392924469999,"keywords":["cp","nocrits","nodmgspread","uncletopia"],"game_id":440,"stv_port":27016,"stv_name":"Uncletopia | San Francisco | 1 | All Maps | STV","players":null},{"server_id":18,"name":"Uncletopia | San Francisco | 2 | All Maps","name_short":"sfo-2","host":"sfo-1.us.uncletopia.com","port":27025,"enabled":true,"region":"us-west","cc":"us","latitude":37.77397,"longitude":-122.4313,"reserved":0,"last_update":"0001-01-01T00:00:00Z","name_a2s":"Uncletopia | San Francisco | 2 | All Maps","protocol":17,"map":"koth_highpass","folder":"tf","game":"Team Fortress","app_id":440,"player_count":0,"max_players":24,"Bots":0,"server_type":"Dedicated","server_os":"Linux","password":true,"vac":true,"version":"7757534","steam_id":85568392924470000,"keywords":["cp","nocrits","nodmgspread","uncletopia"],"game_id":440,"stv_port":27026,"stv_name":"Uncletopia | San Francisco | 2 | All Maps | STV","players":null},{"server_id":19,"name":"Uncletopia | San Francisco | 3 | Stopwatch Beta","name_short":"sfo-3","host":"sfo-1.us.uncletopia.com","port":27035,"enabled":true,"region":"us-west","cc":"us","latitude":37.77397,"longitude":-122.4313,"reserved":0,"last_update":"0001-01-01T00:00:00Z","name_a2s":"Uncletopia | San Francisco | 3 | Stopwatch Beta","protocol":17,"map":"koth_lakeside_final","folder":"tf","game":"Team Fortress","app_id":440,"player_count":0,"max_players":24,"Bots":0,"server_type":"Dedicated","server_os":"Linux","password":true,"vac":true,"version":"7757534","steam_id":85568392924742824,"keywords":["cp","nocrits","nodmgspread","uncletopia"],"game_id":440,"stv_port":27036,"stv_name":"Uncletopia | San Francisco | 3 | Stopwatch Beta | STV","players":null},{"server_id":20,"name":"Uncletopia | San Francisco | 4 | Community","name_short":"sfo-4","host":"sfo-1.us.uncletopia.com","port":27045,"enabled":true,"region":"us-west","cc":"us","latitude":37.77397,"longitude":-122.4313,"reserved":0,"last_update":"0001-01-01T00:00:00Z","name_a2s":"Uncletopia | San Francisco | 4 | Community","protocol":17,"map":"cp_altitude","folder":"tf","game":"Team Fortress","app_id":440,"player_count":0,"max_players":24,"Bots":0,"server_type":"Dedicated","server_os":"Linux","password":true,"vac":true,"version":"7757534","steam_id":85568392924742826,"keywords":["cp","nocrits","nodmgspread","uncletopia"],"game_id":440,"stv_port":27046,"stv_name":"Uncletopia | San Francisco | 4 | Community | STV","players":null},{"server_id":141,"name":"Uncletopia | Sydney | 1 | All Maps","name_short":"syd-1","host":"syd-1.au.uncletopia.com","port":27015,"enabled":true,"region":"au","cc":"au","latitude":-33.865143,"longitude":151.2099,"reserved":0,"last_update":"0001-01-01T00:00:00Z","name_a2s":"Uncletopia | Sydney | 1 | All Maps","protocol":17,"map":"koth_lakeside_final","folder":"tf","game":"Team Fortress","app_id":440,"player_count":0,"max_players":24,"Bots":0,"server_type":"Dedicated","server_os":"Linux","password":true,"vac":true,"version":"7882260","steam_id":85568392924470001,"keywords":["cp","nocrits","nodmgspread","uncletopia"],"game_id":440,"stv_port":27016,"stv_name":"Uncletopia | Sydney | 1 | All Maps | STV","players":null},{"server_id":123,"name":"Uncletopia | Sydney | 2 | All Maps","name_short":"syd-2","host":"syd-1.au.uncletopia.com","port":27025,"enabled":true,"region":"au","cc":"au","latitude":-33.865143,"longitude":151.2099,"reserved":0,"last_update":"0001-01-01T00:00:00Z","name_a2s":"Uncletopia | Sydney | 2 | All Maps","protocol":17,"map":"koth_viaduct","folder":"tf","game":"Team Fortress","app_id":440,"player_count":0,"max_players":24,"Bots":0,"server_type":"Dedicated","server_os":"Linux","password":true,"vac":true,"version":"7882260","steam_id":85568392924470002,"keywords":["cp","nocrits","nodmgspread","uncletopia"],"game_id":440,"stv_port":27026,"stv_name":"Uncletopia | Sydney | 2 | All Maps | STV","players":null},{"server_id":395,"name":"Uncletopia | Sydney | 3 | All Maps","name_short":"syd-3","host":"syd-1.au.uncletopia.com","port":27035,"enabled":true,"region":"au","cc":"au","latitude":-33.865143,"longitude":151.2099,"reserved":0,"last_update":"0001-01-01T00:00:00Z","name_a2s":"Uncletopia | Sydney | 3 | All Maps","protocol":17,"map":"koth_highpass","folder":"tf","game":"Team Fortress","app_id":440,"player_count":0,"max_players":24,"Bots":0,"server_type":"Dedicated","server_os":"Linux","password":true,"vac":true,"version":"7882260","steam_id":85568392925194467,"keywords":["cp","nocrits","nodmgspread","uncletopia"],"game_id":440,"stv_port":27036,"stv_name":"Uncletopia | Sydney | 3 | All Maps | STV","players":null},{"server_id":396,"name":"Uncletopia | Sydney | 4 | All Maps","name_short":"syd-4","host":"syd-1.au.uncletopia.com","port":27045,"enabled":true,"region":"au","cc":"au","latitude":-33.865143,"longitude":151.2099,"reserved":0,"last_update":"0001-01-01T00:00:00Z","name_a2s":"Uncletopia | Sydney | 4 | All Maps","protocol":17,"map":"cp_mountainlab","folder":"tf","game":"Team Fortress","app_id":440,"player_count":0,"max_players":24,"Bots":0,"server_type":"Dedicated","server_os":"Linux","password":true,"vac":true,"version":"7882260","steam_id":85568392925397958,"keywords":["cp","nocrits","nodmgspread","uncletopia"],"game_id":440,"stv_port":27046,"stv_name":"Uncletopia | Sydney | 4 | All Maps | STV","players":null},{"server_id":58,"name":"Uncletopia | Sydney | 5 | Stopwatch Beta","name_short":"syd-5","host":"syd-1.au.uncletopia.com","port":27055,"enabled":true,"region":"au","cc":"au","latitude":-33.865143,"longitude":151.2099,"reserved":0,"last_update":"0001-01-01T00:00:00Z","name_a2s":"Uncletopia | Sydney | 5 | Stopwatch Beta","protocol":17,"map":"cp_metalworks","folder":"tf","game":"Team Fortress","app_id":440,"player_count":0,"max_players":24,"Bots":0,"server_type":"Dedicated","server_os":"Linux","password":true,"vac":true,"version":"7882260","steam_id":85568392925397959,"keywords":["cp","nocrits","nodmgspread","uncletopia"],"game_id":440,"stv_port":27056,"stv_name":"Uncletopia | Sydney | 5 | Stopwatch Beta | STV","players":null},{"server_id":59,"name":"Uncletopia | Sydney | 6 | Community","name_short":"syd-6","host":"syd-1.au.uncletopia.com","port":27065,"enabled":true,"region":"au","cc":"au","latitude":-33.865143,"longitude":151.2099,"reserved":0,"last_update":"0001-01-01T00:00:00Z","name_a2s":"Uncletopia | Sydney | 6 | Community","protocol":17,"map":"pl_snowycoast","folder":"tf","game":"Team Fortress","app_id":440,"player_count":0,"max_players":24,"Bots":0,"server_type":"Dedicated","server_os":"Linux","password":true,"vac":true,"version":"7882260","steam_id":85568392925397960,"keywords":["nocrits","nodmgspread","payload","uncletopia"],"game_id":440,"stv_port":27066,"stv_name":"Uncletopia | Sydney | 6 | Community | STV","players":null},{"server_id":49,"name":"Uncletopia | Warsaw | 1 | All Maps","name_short":"waw-1","host":"waw-1.pl.uncletopia.com","port":27015,"enabled":true,"region":"eu","cc":"pl","latitude":52.2297,"longitude":21.017532,"reserved":0,"last_update":"0001-01-01T00:00:00Z","name_a2s":"","protocol":0,"map":"","folder":"","game":"","app_id":0,"player_count":0,"max_players":0,"Bots":0,"server_type":"","server_os":"","password":false,"vac":false,"version":"","steam_id":0,"keywords":null,"game_id":0,"stv_port":0,"stv_name":"","players":null},{"server_id":50,"name":"Uncletopia | Warsaw | 2 | All Maps","name_short":"waw-2","host":"waw-1.pl.uncletopia.com","port":27025,"enabled":true,"region":"eu","cc":"pl","latitude":52.2297,"longitude":21.017532,"reserved":0,"last_update":"0001-01-01T00:00:00Z","name_a2s":"Uncletopia | Warsaw | 2 | All Maps","protocol":17,"map":"koth_highpass","folder":"tf","game":"Team Fortress","app_id":440,"player_count":0,"max_players":24,"Bots":0,"server_type":"Dedicated","server_os":"Linux","password":true,"vac":true,"version":"7882260","steam_id":85568392925397851,"keywords":["cp","nocrits","nodmgspread","uncletopia"],"game_id":440,"stv_port":27026,"stv_name":"Uncletopia | Warsaw | 2 | All Maps | STV","players":null},{"server_id":51,"name":"Uncletopia | Warsaw | 3 | All Maps","name_short":"waw-3","host":"waw-1.pl.uncletopia.com","port":27035,"enabled":true,"region":"eu","cc":"pl","latitude":52.2297,"longitude":21.017532,"reserved":0,"last_update":"0001-01-01T00:00:00Z","name_a2s":"Uncletopia | Warsaw | 3 | All Maps","protocol":17,"map":"cp_altitude","folder":"tf","game":"Team Fortress","app_id":440,"player_count":0,"max_players":24,"Bots":0,"server_type":"Dedicated","server_os":"Linux","password":true,"vac":true,"version":"7882260","steam_id":85568392925397852,"keywords":["cp","nocrits","nodmgspread","uncletopia"],"game_id":440,"stv_port":27036,"stv_name":"Uncletopia | Warsaw | 3 | All Maps | STV","players":null},{"server_id":52,"name":"Uncletopia | Warsaw | 4 | All Maps","name_short":"waw-4","host":"waw-1.pl.uncletopia.com","port":27045,"enabled":true,"region":"eu","cc":"pl","latitude":52.2297,"longitude":21.017532,"reserved":0,"last_update":"0001-01-01T00:00:00Z","name_a2s":"Uncletopia | Warsaw | 4 | All Maps","protocol":17,"map":"pl_frontier_final","folder":"tf","game":"Team Fortress","app_id":440,"player_count":0,"max_players":24,"Bots":0,"server_type":"Dedicated","server_os":"Linux","password":true,"vac":true,"version":"7882260","steam_id":85568392925397853,"keywords":["nocrits","nodmgspread","payload","uncletopia"],"game_id":440,"stv_port":27046,"stv_name":"Uncletopia | Warsaw | 4 | All Maps | STV","players":null},{"server_id":53,"name":"Uncletopia | Warsaw | 5 | Stopwatch Beta","name_short":"waw-5","host":"waw-1.pl.uncletopia.com","port":27055,"enabled":true,"region":"eu","cc":"pl","latitude":52.2297,"longitude":21.017532,"reserved":0,"last_update":"0001-01-01T00:00:00Z","name_a2s":"Uncletopia | Warsaw | 5 | Stopwatch Beta","protocol":17,"map":"workshop/koth_ramjam_rc1.ugc459778887","folder":"tf","game":"Team Fortress","app_id":440,"player_count":0,"max_players":24,"Bots":0,"server_type":"Dedicated","server_os":"Linux","password":true,"vac":true,"version":"7882260","steam_id":85568392925397854,"keywords":["cp","nocrits","nodmgspread","uncletopia"],"game_id":440,"stv_port":27056,"stv_name":"Uncletopia | Warsaw | 5 | Stopwatch Beta | STV","players":null},{"server_id":54,"name":"Uncletopia | Warsaw | 6 | Community","name_short":"waw-6","host":"waw-1.pl.uncletopia.com","port":27065,"enabled":true,"region":"eu","cc":"pl","latitude":52.2297,"longitude":21.017532,"reserved":0,"last_update":"0001-01-01T00:00:00Z","name_a2s":"Uncletopia | Warsaw | 6 | Community","protocol":17,"map":"koth_viaduct","folder":"tf","game":"Team Fortress","app_id":440,"player_count":0,"max_players":24,"Bots":0,"server_type":"Dedicated","server_os":"Linux","password":true,"vac":true,"version":"7882260","steam_id":85568392925397856,"keywords":["cp","nocrits","nodmgspread","uncletopia"],"game_id":440,"stv_port":27066,"stv_name":"Uncletopia | Warsaw | 6 | Community | STV","players":null}]}