{"status":true,"message":"","result":[{"server_id":9,"name":"Uncletopia | Atlanta | 1 | All Maps","name_short":"atl-1","host":"atl-1.us.uncletopia.com","port":27015,"enabled":true,"region":"us-east","cc":"us","latitude":33.753746,"longitude":-84.38633,"reserved":0,"last_update":"0001-01-01T00:00:00Z","name_a2s":"Uncletopia | Atlanta | 1 | All Maps","protocol":17,"map":"pl_borneo","folder":"tf","game":"Team Fortress","app_id":440,"player_count":24,"max_players":24,"Bots":0,"server_type":"Dedicated","server_os":"Linux","password":true,"vac":true,"version":"7757534","steam_id":85568392924469982,"keywords":["nocrits","nodmgspread","payload","uncletopia"],"game_id":440,"stv_port":27016,"stv_name":"Uncletopia | Atlanta | 1 | All Maps | STV","players":[{"user_id":482,"name":"Tue","steam_id":76561198181668501,"connected_time":3182000000000,"state":"active","ping":64},{"user_id":481,"name":"Cloudman","steam_id":76561198041389138,"connected_time":3254000000000,"state":"active","ping":74},{"user_id":486,"name":"Spoof","steam_id":76561198283928331,"connected_time":3039000000000,"state":"active","ping":65},{"user_id":507,"name":"Lifial","steam_id":76561198271885819,"connected_time":807000000000,"state":"active","ping":79},{"user_id":508,"name":"Jaded","steam_id":76561198272575611,"connected_time":802000000000,"state":"active","ping":76},{"user_id":469,"name":"Megadesk","steam_id":76561198078219641,"connected_time":4534000000000,"state":"active","ping":89},{"user_id":513,"name":"shaderoses","steam_id":76561198070800500,"connected_time":80000000000,"state":"active","ping":63},{"user_id":498,"name":"Shmoopy","steam_id":76561198030459152,"connected_time":1857000000000,"state":"active","ping":61},{"user_id":502,"name":"Bandicario","steam_id":76561198432036026,"connected_time":942000000000,"state":"active","ping":68},{"user_id":479,"name":"stink","steam_id":76561198099318923,"connected_time":3457000000000,"state":"active","ping":76},{"user_id":487,"name":"Zicky Nee","steam_id":76561198042601111,"connected_time":2712000000000,"state":"active","ping":89},{"user_id":493,"name":"G_Bob","steam_id":76561198098133233,"connected_time":2377000000000,"state":"active","ping":55},{"user_id":462,"name":"RED1 | Avo","steam_id":76561197993340494,"connected_time":5373000000000,"state":"active","ping":57},{"user_id":452,"name":"Mage","steam_id":76561198285026879,"connected_time":6575000000000,"state":"active","ping":86},{"user_id":500,"name":"Sock_Handler","steam_id":76561198040916876,"connected_time":1661000000000,"state":"active","ping":61},{"user_id":501,"name":"BLU1 | Lav4ie they/them","steam_id":76561198825997674,"connected_time":1255000000000,"state":"active","ping":47},{"user_id":497,"name":"roller_ramb0","steam_id":76561198084578847,"connected_time":2218000000000,"state":"active","ping":75},{"user_id":484,"name":"deech","steam_id":76561198066429444,"connected_time":3113000000000,"state":"active","ping":73},{"user_id":485,"name":"flexer_2000","steam_id":76561198084422657,"connected_time":3108000000000,"state":"active","ping":105},{"user_id":512,"name":"Bait","steam_id":76561198336489647,"connected_time":172000000000,"state":"active","ping":84},{"user_id":495,"name":"Bones","steam_id":76561198084646266,"connected_time":2296000000000,"state":"active","ping":75},{"user_id":496,"name":"bandana enjoyer","steam_id":76561198058531702,"connected_time":2284000000000,"state":"active","ping":80},{"user_id":510,"name":"hi","steam_id":76561198272327629,"connected_time":787000000000,"state":"active","ping":115}]},{"server_id":400,"name":"Uncletopia | Atlanta | 3 | Stopwatch Beta","name_short":"atl-3","host":"atl-1.us.uncletopia.com","port":27035,"enabled":true,"region":"us-east","cc":"us","latitude":33.753746,"longitude":-84.38633,"reserved":0,"last_update":"0001-01-01T00:00:00Z","name_a2s":"Uncletopia | Atlanta | 3 | Stopwatch Beta","protocol":17,"map":"cp_process_final","folder":"tf","game":"Team Fortress","app_id":440,"player_count":18,"max_players":24,"Bots":0,"server_type":"Dedicated","server_os":"Linux","password":true,"vac":true,"version":"7757534","steam_id":85568392924515187,"keywords":["cp","nocrits","nodmgspread","uncletopia"],"game_id":440,"stv_port":27036,"stv_name":"Uncletopia | Atlanta | 3 | Stopwatch Beta | STV","players":[{"user_id":181,"name":"Spike Bones","steam_id":76561198234926120,"connected_time":1016000000000,"state":"active","ping":87},{"user_id":193,"name":"iCarly Lore Expert","steam_id":76561198111902910,"connected_time":571000000000,"state":"active","ping":75},{"user_id":179,"name":"ShadowWasUhOh","steam_id":76561198400361935,"connected_time":1166000000000,"state":"active","ping":71},{"user_id":204,"name":"JustaBox1321","steam_id":76561198045786716,"connected_time":164000000000,"state":"active","ping":66},{"user_id":205,"name":"gAzel.","steam_id":76561198093667100,"connected_time":117000000000,"state":"active","ping":60},{"user_id":206,"name":"Glennmire","steam_id":76561198153045445,"connected_time":107000000000,"state":"active","ping":78},{"user_id":196,"name":"granola","steam_id":76561198392844061,"connected_time":538000000000,"state":"active","ping":90},{"user_id":197,"name":"Mr poop","steam_id":76561198040631206,"connected_time":534000000000,"state":"active","ping":91},{"user_id":210,"name":"StarManMatt","steam_id":76561198125513574,"connected_time":59000000000,"state":"active","ping":87},{"user_id":201,"name":"Markz","steam_id":76561197996278159,"connected_time":280000000000,"state":"active","ping":118},{"user_id":202,"name":"GM CHESS PLAYER 3K ELO","steam_id":76561198100942212,"connected_time":242000000000,"state":"active","ping":60},{"user_id":207,"name":"LunaeTheMouseer","steam_id":76561199125179563,"connected_time":101000000000,"state":"active","ping":74},{"user_id":208,"name":"Hydro","steam_id":76561198096334702,"connected_time":99000000000,"state":"active","ping":83},{"user_id":186,"name":"Red_Hatkins","steam_id":76561198214004105,"connected_time":879000000000,"state":"active","ping":99},{"user_id":209,"name":"John Crimbo","steam_id":76561198318195665,"connected_time":83000000000,"state":"active","ping":82},{"user_id":211,"name":"scout who hate teleport","steam_id":76561198042774930,"connected_time":33000000000,"state":"active","ping":159},{"user_id":177,"name":"toastman","steam_id":76561198207073088,"connected_time":1324000000000,"state":"active","ping":108},{"user_id":143,"name":"akirajimbo","steam_id":76561197979960008,"connected_time":2788000000000,"state":"active","ping":77}]},{"server_id":401,"name":"Uncletopia | Atlanta | 4 | No Payload","name_short":"atl-4","host":"atl-1.us.uncletopia.com","port":27045,"enabled":true,"region":"us-east","cc":"us","latitude":33.753746,"longitude":-84.38633,"reserved":0,"last_update":"0001-01-01T00:00:00Z","name_a2s":"Uncletopia | Atlanta | 4 | No Payload","protocol":17,"map":"pl_pier","folder":"tf","game":"Team Fortress","app_id":440,"player_count":0,"max_players":24,"Bots":0,"server_type":"Dedicated","server_os":"Linux","password":true,"vac":true,"version":"7723704","steam_id":85568392924515188,"keywords":["nocrits","nodmgspread","payload","uncletopia"],"game_id":440,"stv_port":27046,"stv_name":"Uncletopia | Atlanta | 4 | No Payload | STV","players":null},{"server_id":2,"name":"Uncletopia | Chicago | 1 | All Maps","name_short":"chi-1","host":"chi-1.us.uncletopia.com","port":27015,"enabled":true,"region":"us-central","cc":"us","latitude":41.881832,"longitude":-87.62318,"reserved":0,"last_update":"0001-01-01T00:00:00Z","name_a2s":"Uncletopia | Chicago | 1 | All Maps","protocol":17,"map":"cp_dustbowl","folder":"tf","game":"Team Fortress","app_id":440,"player_count":0,"max_players":24,"Bots":0,"server_type":"Dedicated","server_os":"Linux","password":true,"vac":true,"version":"7757534","steam_id":85568392924469984,"keywords":["cp","nocrits","nodmgspread","uncletopia"],"game_id":440,"stv_port":27016,"stv_name":"Uncletopia | Chicago | 1 | All Maps | STV","players":null},{"server_id":106,"name":"Uncletopia | Chicago | 2 | All Maps","name_short":"chi-2","host":"chi-1.us.uncletopia.com","port":27025,"enabled":true,"region":"us-central","cc":"us","latitude":41.881832,"longitude":-87.62318,"reserved":0,"last_update":"0001-01-01T00:00:00Z","name_a2s":"Uncletopia | Chicago | 2 | All Maps","protocol":17,"map":"pl_pier","folder":"tf","game":"Team Fortress","app_id":440,"player_count":24,"max_players":24,"Bots":0,"server_type":"Dedicated","server_os":"Linux","password":true,"vac":true,"version":"7757534","steam_id":85568392924469985,"keywords":["nocrits","nodmgspread","payload","uncletopia"],"game_id":440,"stv_port":27026,"stv_name":"Uncletopia | Chicago | 2 | All Maps | STV","players":[{"user_id":316,"name":"Tom","steam_id":76561198070630154,"connected_time":3399000000000,"state":"active","ping":91},{"user_id":373,"name":"bbbbbbbbbbbbbbbbbbbbbbbbbbbbbbb","steam_id":76561198339644583,"connected_time":127000000000,"state":"active","ping":54},{"user_id":347,"name":"Chirox","steam_id":76561198034516923,"connected_time":1615000000000,"state":"active","ping":48},{"user_id":358,"name":"JLS","steam_id":76561198066763603,"connected_time":1347000000000,"state":"active","ping":99},{"user_id":356,"name":"Blitzy","steam_id":76561198149472890,"connected_time":1377000000000,"state":"active","ping":73},{"user_id":359,"name":"bald cuck","steam_id":76561198080295356,"connected_time":1344000000000,"state":"active","ping":115},{"user_id":302,"name":"coffee bagel","steam_id":76561198141198352,"connected_time":4670000000000,"state":"active","ping":44},{"user_id":334,"name":"Fish Politics","steam_id":76561198214754864,"connected_time":2785000000000,"state":"active","ping":88},{"user_id":360,"name":"Quatts","steam_id":76561198051482153,"connected_time":1341000000000,"state":"active","ping":56},{"user_id":335,"name":"Raptor Economics","steam_id":76561198263090629,"connected_time":2776000000000,"state":"active","ping":90},{"user_id":322,"name":"Moofins","steam_id":76561198050291949,"connected_time":2972000000000,"state":"active","ping":85},{"user_id":343,"name":"Winter the Witchie","steam_id":76561198151971178,"connected_time":1947000000000,"state":"active","ping":57},{"user_id":371,"name":"MajorZero","steam_id":76561198078731318,"connected_time":221000000000,"state":"active","ping":58},{"user_id":331,"name":"totally not a pile of beans","steam_id":76561198119851931,"connected_time":2798000000000,"state":"active","ping":81},{"user_id":368,"name":"Ham Radio","steam_id":76561198030613297,"connected_time":875000000000,"state":"active","ping":79},{"user_id":349,"name":"jesse_pinkman","steam_id":76561199152329048,"connected_time":1546000000000,"state":"active","ping":101},{"user_id":363,"name":"lawnmowinkitty","steam_id":76561198038997467,"connected_time":1323000000000,"state":"active","ping":109},{"user_id":364,"name":"_DrunkenGibberish_","steam_id":76561199123070071,"connected_time":1315000000000,"state":"active","ping":126},{"user_id":355,"name":"Protoshake","steam_id":76561198840276176,"connected_time":1401000000000,"state":"active","ping":65},{"user_id":372,"name":"warrior","steam_id":76561198074500319,"connected_time":217000000000,"state":"active","ping":105},{"user_id":351,"name":"Dwaggy","steam_id":76561198027369555,"connected_time":1522000000000,"state":"active","ping":68},{"user_id":366,"name":"theancientnut","steam_id":76561199396708880,"connected_time":1291000000000,"state":"active","ping":58},{"user_id":354,"name":"Landlord","steam_id":76561198987913057,"connected_time":1453000000000,"state":"active","ping":139},{"user_id":345,"name":"Daksuki","steam_id":76561198084127751,"connected_time":1924000000000,"state":"active","ping":72}]},{"server_id":402,"name":"Uncletopia | Chicago | 3 | All Maps","name_short":"chi-3","host":"chi-1.us.uncletopia.com","port":27035,"enabled":true,"region":"us-central","cc":"us","latitude":41.881832,"longitude":-87.62318,"reserved":0,"last_update":"0001-01-01T00:00:00Z","name_a2s":"Uncletopia | Chicago | 3 | All Maps","protocol":17,"map":"pl_upward","folder":"tf","game":"Team Fortress","app_id":440,"player_count":24,"max_players":24,"Bots":0,"server_type":"Dedicated","server_os":"Linux","password":true,"vac":true,"version":"7757534","steam_id":85568392924515191,"keywords":["nocrits","nodmgspread","payload","uncletopia"],"game_id":440,"stv_port":27036,"stv_name":"Uncletopia | Chicago | 3 | All Maps | STV","players":[{"user_id":560,"name":"nabroleon","steam_id":76561198038080028,"connected_time":1283000000000,"state":"active","ping":50},{"user_id":577,"name":"Draikel","steam_id":76561198029010525,"connected_time":976000000000,"state":"active","ping":147},{"user_id":546,"name":"yomommasabitch","steam_id":76561198323217150,"connected_time":1434000000000,"state":"active","ping":60},{"user_id":435,"name":"Bon Qui Qui","steam_id":76561198001256381,"connected_time":4319000000000,"state":"active","ping":100},{"user_id":565,"name":"Summer","steam_id":76561198121692871,"connected_time":1255000000000,"state":"active","ping":64},{"user_id":505,"name":"Comfy!","steam_id":76561198008818346,"connected_time":2196000000000,"state":"active","ping":71},{"user_id":569,"name":"oh god i'm gonna CHUM","steam_id":76561198019210187,"connected_time":1214000000000,"state":"active","ping":64},{"user_id":566,"name":"A Fruit","steam_id":76561198951830050,"connected_time":1239000000000,"state":"active","ping":74},{"user_id":430,"name":"strom","steam_id":76561198068039870,"connected_time":4460000000000,"state":"active","ping":76},{"user_id":572,"name":"That Sounds Serious","steam_id":76561198247719128,"connected_time":1174000000000,"state":"active","ping":101},{"user_id":559,"name":"3 fortnite vbucks","steam_id":76561198246007884,"connected_time":1290000000000,"state":"active","ping":69},{"user_id":530,"name":"Eduardo","steam_id":76561198236519984,"connected_time":1664000000000,"state":"active","ping":93},{"user_id":486,"name":"Stanv","steam_id":76561198259530604,"connected_time":2609000000000,"state":"active","ping":55},{"user_id":407,"name":"REDF0X","steam_id":76561199465636006,"connected_time":5090000000000,"state":"active","ping":203},{"user_id":428,"name":"Myracle","steam_id":76561198070916920,"connected_time":4535000000000,"state":"active","ping":47},{"user_id":471,"name":"MajorGeneralGoat","steam_id":76561198096725670,"connected_time":3191000000000,"state":"active","ping":63},{"user_id":371,"name":"Mr.Hands","steam_id":76561199024146278,"connected_time":7543000000000,"state":"active","ping":121},{"user_id":567,"name":"Angel Devil Fan (Derogatory)","steam_id":76561198165208572,"connected_time":1230000000000,"state":"active","ping":44},{"user_id":547,"name":"Biogrease","steam_id":76561198215945072,"connected_time":1427000000000,"state":"active","ping":93},{"user_id":626,"name":"Mickey","steam_id":76561197976868960,"connected_time":48000000000,"state":"active","ping":161},{"user_id":495,"name":"Lia_Rein","steam_id":76561198151569597,"connected_time":2434000000000,"state":"active","ping":143},{"user_id":533,"name":"Jaydyn","steam_id":76561198140326797,"connected_time":1648000000000,"state":"active","ping":86},{"user_id":441,"name":"Donnie Blasto","steam_id":76561198043432005,"connected_time":4021000000000,"state":"active","ping":53},{"user_id":620,"name":"Mr. Sandman","steam_id":76561198065870487,"connected_time":111000000000,"state":"active","ping":56}]},{"server_id":403,"name":"Uncletopia | Chicago | 4 | All Maps","name_short":"chi-4","host":"chi-1.us.uncletopia.com","port":27045,"enabled":true,"region":"us-central","cc":"us","latitude":41.881832,"longitude":-87.62318,"reserved":0,"last_update":"0001-01-01T00:00:00Z","name_a2s":"Uncletopia | Chicago | 4 | All Maps","protocol":17,"map":"pl_frontier_final","folder":"tf","game":"Team Fortress","app_id":440,"player_count":13,"max_players":24,"Bots":0,"server_type":"Dedicated","server_os":"Linux","password":true,"vac":true,"version":"7757534","steam_id":85568392924515193,"keywords":["nocrits","nodmgspread","payload","uncletopia"],"game_id":440,"stv_port":27046,"stv_name":"Uncletopia | Chicago | 4 | All Maps | STV","players":[{"user_id":779,"name":"dig","steam_id":76561198050061475,"connected_time":61000000000,"state":"active","ping":76},{"user_id":764,"name":"KnightOfGames","steam_id":76561198080460659,"connected_time":1621000000000,"state":"active","ping":76},{"user_id":743,"name":"Phillip Jeffries","steam_id":76561198064052174,"connected_time":3109000000000,"state":"active","ping":57},{"user_id":702,"name":"volta","steam_id":76561199214283884,"connected_time":6138000000000,"state":"active","ping":89},{"user_id":762,"name":"Horrizan","steam_id":76561197965028480,"connected_time":2390000000000,"state":"active","ping":65},{"user_id":727,"name":"Ry","steam_id":76561198325802137,"connected_time":4798000000000,"state":"active","ping":69},{"user_id":719,"name":"Oomitch","steam_id":76561198071702759,"connected_time":4916000000000,"state":"active","ping":92},{"user_id":765,"name":"Monsterjessy","steam_id":76561198035630985,"connected_time":1546000000000,"state":"active","ping":60},{"user_id":777,"name":"co nar","steam_id":76561198086511399,"connected_time":231000000000,"state":"active","ping":78},{"user_id":774,"name":"TwoScore","steam_id":76561198024412148,"connected_time":766000000000,"state":"active","ping":91},{"user_id":773,"name":"ghostyAlchemist","steam_id":76561198448078291,"connected_time":799000000000,"state":"active","ping":71},{"user_id":770,"name":"theTheSuzan","steam_id":76561198044181453,"connected_time":1469000000000,"state":"active","ping":143},{"user_id":755,"name":"Evidence In The Furnace","steam_id":76561198099296029,"connected_time":2904000000000,"state":"active","ping":59}]},{"server_id":36,"name":"Uncletopia | Chicago | 5 | All Maps","name_short":"chi-5","host":"chi-2.us.uncletopia.com","port":27015,"enabled":true,"region":"us-central","cc":"us","latitude":41.881832,"longitude":-87.62318,"reserved":0,"last_update":"0001-01-01T00:00:00Z","name_a2s":"Uncletopia | Chicago | 5 | All Maps","protocol":17,"map":"pl_badwater","folder":"tf","game":"Team Fortress","app_id":440,"player_count":0,"max_players":24,"Bots":0,"server_type":"Dedicated","server_os":"Linux","password":true,"vac":true,"version":"7757534","steam_id":85568392924866362,"keywords":["nocrits","nodmgspread","payload","uncletopia"],"game_id":440,"stv_port":27016,"stv_name":"Uncletopia | Chicago | 5 | All Maps | STV","players":null},{"server_id":37,"name":"Uncletopia | Chicago | 6 | All Maps","name_short":"chi-6","host":"chi-2.us.uncletopia.com","port":27025,"enabled":true,"region":"us-central","cc":"us","latitude":41.881832,"longitude":-87.62318,"reserved":0,"last_update":"0001-01-01T00:00:00Z","name_a2s":"Uncletopia | Chicago | 6 | All Maps","protocol":17,"map":"cp_altitude","folder":"tf","game":"Team Fortress","app_id":440,"player_count":24,"max_players":24,"Bots":0,"server_type":"Dedicated","server_os":"Linux","password":true,"vac":true,"version":"7757534","steam_id":85568392924866363,"keywords":["cp","nocrits","nodmgspread","uncletopia"],"game_id":440,"stv_port":27026,"stv_name":"Uncletopia | Chicago | 6 | All Maps | STV","players":[{"user_id":375,"name":"Blue Eyes Ace Dragon.","steam_id":76561198048214237,"connected_time":733000000000,"state":"active","ping":58},{"user_id":371,"name":"LilDreamer","steam_id":76561198804054102,"connected_time":931000000000,"state":"active","ping":49},{"user_id":325,"name":"HumFreY","steam_id":76561198076639682,"connected_time":2641000000000,"state":"active","ping":75},{"user_id":379,"name":"slep.py","steam_id":76561197988287144,"connected_time":513000000000,"state":"active","ping":50},{"user_id":326,"name":"kezia","steam_id":76561198059815894,"connected_time":2628000000000,"state":"active","ping":45},{"user_id":372,"name":"invb","steam_id":76561197998263914,"connected_time":906000000000,"state":"active","ping":52},{"user_id":382,"name":"Donut_Boy","steam_id":76561198101983317,"connected_time":307000000000,"state":"active","ping":89},{"user_id":380,"name":"Howoriginal","steam_id":76561197993701184,"connected_time":485000000000,"state":"active","ping":57},{"user_id":272,"name":"Anderswo","steam_id":76561198253224241,"connected_time":4297000000000,"state":"active","ping":105},{"user_id":389,"name":"Gran Turismo 8","steam_id":76561198010374278,"connected_time":70000000000,"state":"active","ping":85},{"user_id":369,"name":"meth","steam_id":76561198103347094,"connected_time":1536000000000,"state":"active","ping":46},{"user_id":294,"name":"Professor Cuthbert Calculus","steam_id":76561198003257461,"connected_time":3538000000000,"state":"active","ping":113},{"user_id":331,"name":"StarWither","steam_id":76561198383264295,"connected_time":2477000000000,"state":"active","ping":111},{"user_id":290,"name":"Alset","steam_id":76561197993820174,"connected_time":3650000000000,"state":"active","ping":83},{"user_id":366,"name":"Zekinler","steam_id":76561198868861099,"connected_time":1601000000000,"state":"active","ping":56},{"user_id":367,"name":"Infinity","steam_id":76561199134919099,"connected_time":1591000000000,"state":"active","ping":69},{"user_id":370,"name":"Lain","steam_id":76561198029303534,"connected_time":1073000000000,"state":"active","ping":67},{"user_id":299,"name":"The_Skull_boy","steam_id":76561198227692664,"connected_time":3254000000000,"state":"active","ping":116},{"user_id":300,"name":"westward","steam_id":76561198805512350,"connected_time":3251000000000,"state":"active","ping":106},{"user_id":386,"name":"poey","steam_id":76561198865346767,"connected_time":150000000000,"state":"active","ping":92},{"user_id":363,"name":"New Reno","steam_id":76561198156522866,"connected_time":1665000000000,"state":"active","ping":86},{"user_id":385,"name":"smugdoug","steam_id":76561198021381678,"connected_time":180000000000,"state":"active","ping":68},{"user_id":358,"name":"garganza bonanza","steam_id":76561198149666258,"connected_time":1789000000000,"state":"active","ping":55},{"user_id":387,"name":"DragoDuck","steam_id":76561198385685683,"connected_time":150000000000,"state":"active","ping":90}]},{"server_id":38,"name":"Uncletopia | Chicago | 7 | Stopwatch Beta","name_short":"chi-7","host":"chi-2.us.uncletopia.com","port":27035,"enabled":true,"region":"us-central","cc":"us","latitude":41.881832,"longitude":-87.62318,"reserved":0,"last_update":"0001-01-01T00:00:00Z","name_a2s":"Uncletopia | Chicago | 7 | Stopwatch Beta","protocol":17,"map":"workshop/koth_bagel_rc5.ugc2514036946","folder":"tf","game":"Team Fortress","app_id":440,"player_count":0,"max_players":24,"Bots":0,"server_type":"Dedicated","server_os":"Linux","password":true,"vac":true,"version":"7757534","steam_id":85568392924866364,"keywords":["cp","nocrits","nodmgspread","uncletopia"],"game_id":440,"stv_port":27036,"stv_name":"Uncletopia | Chicago | 7 | Stopwatch Beta | STV","players":null},{"server_id":39,"name":"Uncletopia | Chicago | 8 | Community","name_short":"chi-8","host":"chi-2.us.uncletopia.com","port":27045,"enabled":true,"region":"us-central","cc":"us","latitude":41.881832,"longitude":-87.62318,"reserved":0,"last_update":"0001-01-01T00:00:00Z","name_a2s":"Uncletopia | Chicago | 8 | Community","protocol":17,"map":"workshop/koth_bagel_rc5.ugc2514036946","folder":"tf","game":"Team Fortress","app_id":440,"player_count":0,"max_players":24,"Bots":0,"server_type":"Dedicated","server_os":"Linux","password":true,"vac":true,"version":"7757534","steam_id":85568392924866365,"keywords":["cp","nocrits","nodmgspread","uncletopia"],"game_id":440,"stv_port":27046,"stv_name":"Uncletopia | Chicago | 8 | Community | STV","players":null},{"server_id":8,"name":"Uncletopia | Dallas | 1 | All Maps","name_short":"dal-1","host":"dal-1.us.uncletopia.com","port":27015,"enabled":true,"region":"us-central","cc":"us","latitude":32.779167,"longitude":-96.80889,"reserved":0,"last_update":"0001-01-01T00:00:00Z","name_a2s":"Uncletopia | Dallas | 1 | All Maps","protocol":17,"map":"pl_upward","folder":"tf","game":"Team Fortress","app_id":440,"player_count":24,"max_players":24,"Bots":0,"server_type":"Dedicated","server_os":"Linux","password":true,"vac":true,"version":"7757534","steam_id":85568392924469986,"keywords":["nocrits","nodmgspread","payload","uncletopia"],"game_id":440,"stv_port":27016,"stv_name":"Uncletopia | Dallas | 1 | All Maps | STV","players":[{"user_id":886,"name":"Grand Wizard Autismo","steam_id":76561198069834979,"connected_time":657000000000,"state":"active","ping":51},{"user_id":870,"name":"Raphael","steam_id":76561198101425586,"connected_time":1768000000000,"state":"active","ping":107},{"user_id":889,"name":"aidenmc3","steam_id":76561198062209166,"connected_time":170000000000,"state":"active","ping":41},{"user_id":867,"name":"Willy","steam_id":76561198046508940,"connected_time":1858000000000,"state":"active","ping":84},{"user_id":846,"name":"Psychosis","steam_id":76561198078659070,"connected_time":2874000000000,"state":"active","ping":88},{"user_id":845,"name":"Moonflower ✦","steam_id":76561198191782483,"connected_time":2905000000000,"state":"active","ping":50},{"user_id":883,"name":"gatorbelt","steam_id":76561198145784505,"connected_time":1271000000000,"state":"active","ping":75},{"user_id":880,"name":"Foomfa","steam_id":76561198007033616,"connected_time":1410000000000,"state":"active","ping":96},{"user_id":884,"name":"Average Evil Magma Pea Enjoyer","steam_id":76561198201058206,"connected_time":881000000000,"state":"active","ping":93},{"user_id":873,"name":"HeroOfTime","steam_id":76561199096218001,"connected_time":1744000000000,"state":"active","ping":82},{"user_id":827,"name":"Shortbane","steam_id":76561198247166584,"connected_time":3840000000000,"state":"active","ping":58},{"user_id":874,"name":"Discovery","steam_id":76561198841844093,"connected_time":1743000000000,"state":"active","ping":74},{"user_id":866,"name":"the fella","steam_id":76561198967158026,"connected_time":1891000000000,"state":"active","ping":73},{"user_id":876,"name":"yeeye","steam_id":76561198094306054,"connected_time":1725000000000,"state":"active","ping":60},{"user_id":877,"name":"CrazyMush","steam_id":76561198141783855,"connected_time":1720000000000,"state":"active","ping":61},{"user_id":869,"name":"Certified Hood Classic","steam_id":76561199086159354,"connected_time":1809000000000,"state":"active","ping":55},{"user_id":857,"name":"Burning Monk","steam_id":76561198040700875,"connected_time":2212000000000,"state":"active","ping":45},{"user_id":842,"name":"Lore","steam_id":76561198098407538,"connected_time":3000000000000,"state":"active","ping":76},{"user_id":868,"name":"WannaSeeA","steam_id":76561198097701042,"connected_time":1834000000000,"state":"active","ping":49},{"user_id":864,"name":"Dictator Noodle","steam_id":76561198277243768,"connected_time":1913000000000,"state":"active","ping":71},{"user_id":824,"name":"Shahared","steam_id":76561197993426930,"connected_time":4158000000000,"state":"active","ping":89},{"user_id":849,"name":"CheeseCake488","steam_id":76561199407617942,"connected_time":2857000000000,"state":"active","ping":123},{"user_id":865,"name":"Pleiades, the Sorceror","steam_id":76561198079590693,"connected_time":1913000000000,"state":"active","ping":70}]},{"server_id":108,"name":"Uncletopia | Dallas | 2 | All Maps","name_short":"dal-2","host":"dal-1.us.uncletopia.com","port":27025,"enabled":true,"region":"us-central","cc":"us","latitude":32.779167,"longitude":-96.80889,"reserved":0,"last_update":"0001-01-01T00:00:00Z","name_a2s":"Uncletopia | Dallas | 2 | All Maps","protocol":17,"map":"koth_viaduct","folder":"tf","game":"Team Fortress","app_id":440,"player_count":0,"max_players":24,"Bots":0,"server_type":"Dedicated","server_os":"Linux","password":true,"vac":true,"version":"7757534","steam_id":85568392924469988,"keywords":["cp","nocrits","nodmgspread","uncletopia"],"game_id":440,"stv_port":27026,"stv_name":"Uncletopia | Dallas | 2 | All Maps | STV","players":null},{"server_id":5,"name":"Uncletopia | Frankfurt | 1 | All Maps","name_short":"frk-1","host":"frk-1.de.uncletopia.com","port":27015,"enabled":true,"region":"eu","cc":"de","latitude":50.110924,"longitude":8.682127,"reserved":0,"last_update":"0001-01-01T00:00:00Z","name_a2s":"Uncletopia | Frankfurt | 1 | All Maps","protocol":17,"map":"pl_pier","folder":"tf","game":"Team Fortress","app_id":440,"player_count":0,"max_players":24,"Bots":0,"server_type":"Dedicated","server_os":"Linux","password":true,"vac":true,"version":"7757534","steam_id":85568392924469989,"keywords":["nocrits","nodmgspread","payload","uncletopia"],"game_id":440,"stv_port":27016,"stv_name":"Uncletopia | Frankfurt | 1 | All Maps | STV","players":null},{"server_id":110,"name":"Uncletopia | Frankfurt | 2 | All Maps","name_short":"frk-2","host":"frk-1.de.uncletopia.com","port":27025,"enabled":true,"region":"eu","cc":"de","latitude":50.110924,"longitude":8.682127,"reserved":0,"last_update":"0001-01-01T00:00:00Z","name_a2s":"Uncletopia | Frankfurt | 2 | All Maps","protocol":17,"map":"cp_altitude","folder":"tf","game":"Team Fortress","app_id":440,"player_count":0,"max_players":24,"Bots":0,"server_type":"Dedicated","server_os":"Linux","password":true,"vac":true,"version":"7757534","steam_id":85568392924469990,"keywords":["cp","nocrits","nodmgspread","uncletopia"],"game_id":440,"stv_port":27026,"stv_name":"Uncletopia | Frankfurt | 2 | All Maps | STV","players":null},{"server_id":308,"name":"Uncletopia | Frankfurt | 3 | All Maps","name_short":"frk-3","host":"frk-1.de.uncletopia.com","port":27035,"enabled":true,"region":"eu","cc":"de","latitude":50.110924,"longitude":8.682127,"reserved":0,"last_update":"0001-01-01T00:00:00Z","name_a2s":"Uncletopia | Frankfurt | 3 | All Maps","protocol":17,"map":"pl_barnblitz","folder":"tf","game":"Team Fortress","app_id":440,"player_count":0,"max_players":24,"Bots":0,"server_type":"Dedicated","server_os":"Linux","password":true,"vac":true,"version":"7757534","steam_id":85568392924504274,"keywords":["nocrits","nodmgspread","payload","uncletopia"],"game_id":440,"stv_port":27036,"stv_name":"Uncletopia | Frankfurt | 3 | All Maps | STV","players":null},{"server_id":309,"name":"Uncletopia | Frankfurt | 4 | All Maps","name_short":"frk-4","host":"frk-1.de.uncletopia.com","port":27045,"enabled":true,"region":"eu","cc":"de","latitude":50.110924,"longitude":8.682127,"reserved":0,"last_update":"0001-01-01T00:00:00Z","name_a2s":"Uncletopia | Frankfurt | 4 | All Maps","protocol":17,"map":"pl_snowycoast","folder":"tf","game":"Team Fortress","app_id":440,"player_count":0,"max_players":24,"Bots":0,"server_type":"Dedicated","server_os":"Linux","password":true,"vac":true,"version":"7757534","steam_id":85568392924504275,"keywords":["nocrits","nodmgspread","payload","uncletopia"],"game_id":440,"stv_port":27046,"stv_name":"Uncletopia | Frankfurt | 4 | All Maps | STV","players":null},{"server_id":310,"name":"Uncletopia | Frankfurt | 5 | All Maps","name_short":"frk-5","host":"frk-1.de.uncletopia.com","port":27055,"enabled":true,"region":"eu","cc":"de","latitude":50.110924,"longitude":8.682127,"reserved":0,"last_update":"0001-01-01T00:00:00Z","name_a2s":"Uncletopia | Frankfurt | 5 | All Maps","protocol":17,"map":"cp_altitude","folder":"tf","game":"Team Fortress","app_id":440,"player_count":0,"max_players":24,"Bots":0,"server_type":"Dedicated","server_os":"Linux","password":true,"vac":true,"version":"7757534","steam_id":85568392924504277,"keywords":["cp","nocrits","nodmgspread","uncletopia"],"game_id":440,"stv_port":27056,"stv_name":"Uncletopia | Frankfurt | 5 | All Maps | STV","players":null},{"server_id":311,"name":"Uncletopia | Frankfurt | 6 | All Maps","name_short":"frk-6","host":"frk-1.de.uncletopia.com","port":27065,"enabled":true,"region":"eu","cc":"de","latitude":50.110924,"longitude":8.682127,"reserved":0,"last_update":"0001-01-01T00:00:00Z","name_a2s":"Uncletopia | Frankfurt | 6 | All Maps","protocol":17,"map":"koth_highpass","folder":"tf","game":"Team Fortress","app_id":440,"player_count":0,"max_players":24,"Bots":0,"server_type":"Dedicated","server_os":"Linux","password":true,"vac":true,"version":"7757534","steam_id":85568392924504278,"keywords":["cp","nocrits","nodmgspread","uncletopia"],"game_id":440,"stv_port":27066,"stv_name":"Uncletopia | Frankfurt | 6 | All Maps | STV","players":null},{"server_id":23,"name":"Uncletopia | Frankfurt | 7 | Stopwatch Beta","name_short":"frk-7","host":"frk-1.de.uncletopia.com","port":27075,"enabled":true,"region":"eu","cc":"de","latitude":50.110924,"longitude":8.682127,"reserved":0,"last_update":"0001-01-01T00:00:00Z","name_a2s":"Uncletopia | Frankfurt | 7 | Stopwatch Beta","protocol":17,"map":"pl_borneo","folder":"tf","game":"Team Fortress","app_id":440,"player_count":0,"max_players":24,"Bots":0,"server_type":"Dedicated","server_os":"Linux","password":true,"vac":true,"version":"7757534","steam_id":85568392924742827,"keywords":["nocrits","nodmgspread","payload","uncletopia"],"game_id":440,"stv_port":27076,"stv_name":"Uncletopia | Frankfurt | 7 | Stopwatch Beta | STV","players":null},{"server_id":24,"name":"Uncletopia | Frankfurt | 8 | Community","name_short":"frk-8","host":"frk-1.de.uncletopia.com","port":27085,"enabled":true,"region":"eu","cc":"de","latitude":50.110924,"longitude":8.682127,"reserved":0,"last_update":"0001-01-01T00:00:00Z","name_a2s":"Uncletopia | Frankfurt | 8 | Community","protocol":17,"map":"koth_cascade","folder":"tf","game":"Team Fortress","app_id":440,"player_count":0,"max_players":24,"Bots":0,"server_type":"Dedicated","server_os":"Linux","password":true,"vac":true,"version":"7757534","steam_id":85568392924742828,"keywords":["cp","nocrits","nodmgspread","uncletopia"],"game_id":440,"stv_port":27086,"stv_name":"Uncletopia | Frankfurt | 8 | Community | STV","players":null},{"server_id":202,"name":"Uncletopia | Hong Kong | 1 | All Maps","name_short":"hgk-1","host":"hgk-1.hk.uncletopia.com","port":27015,"enabled":true,"region":"asia","cc":"hk","latitude":22.302711,"longitude":114.177216,"reserved":0,"last_update":"0001-01-01T00:00:00Z","name_a2s":"Uncletopia | Hong Kong | 1 | All Maps","protocol":17,"map":"pl_frontier_final","folder":"tf","game":"Team Fortress","app_id":440,"player_count":1,"max_players":24,"Bots":0,"server_type":"Dedicated","server_os":"Linux","password":true,"vac":true,"version":"7757534","steam_id":85568392924494504,"keywords":["nocrits","nodmgspread","payload","uncletopia"],"game_id":440,"stv_port":27016,"stv_name":"Uncletopia | Hong Kong | 1 | All Maps | STV","players":[{"user_id":4,"name":"ɔuᗡඞ ɟƨuᒐ","steam_id":76561199031283970,"connected_time":102000000000,"state":"active","ping":172}]},{"server_id":1,"name":"Uncletopia | Los Angeles | 1 | All Maps","name_short":"lax-1","host":"lax-1.us.uncletopia.com","port":27015,"enabled":true,"region":"us-west","cc":"us","latitude":33.94279,"longitude":-118.41004,"reserved":0,"last_update":"0001-01-01T00:00:00Z","name_a2s":"Uncletopia | Los Angeles | 1 | All Maps","protocol":17,"map":"pl_snowycoast","folder":"tf","game":"Team Fortress","app_id":440,"player_count":0,"max_players":24,"Bots":0,"server_type":"Dedicated","server_os":"Linux","password":true,"vac":true,"version":"7757534","steam_id":85568392924469991,"keywords":["nocrits","nodmgspread","payload","uncletopia"],"game_id":440,"stv_port":27016,"stv_name":"Uncletopia | Los Angeles | 1 | All Maps | STV","players":null},{"server_id":112,"name":"Uncletopia | Los Angeles | 2 | All Maps","name_short":"lax-2","host":"lax-1.us.uncletopia.com","port":27025,"enabled":true,"region":"us-west","cc":"us","latitude":33.94279,"longitude":-118.41004,"reserved":0,"last_update":"0001-01-01T00:00:00Z","name_a2s":"Uncletopia | Los Angeles | 2 | All Maps","protocol":17,"map":"pl_badwater","folder":"tf","game":"Team Fortress","app_id":440,"player_count":24,"max_players":24,"Bots":0,"server_type":"Dedicated","server_os":"Linux","password":true,"vac":true,"version":"7757534","steam_id":85568392924469992,"keywords":["nocrits","nodmgspread","payload","uncletopia"],"game_id":440,"stv_port":27026,"stv_name":"Uncletopia | Los Angeles | 2 | All Maps | STV","players":[{"user_id":147,"name":"pandora da king","steam_id":76561198075490385,"connected_time":2209000000000,"state":"active","ping":46},{"user_id":144,"name":"E-Spliff","steam_id":76561199093733603,"connected_time":2487000000000,"state":"active","ping":47},{"user_id":173,"name":"Gimmick","steam_id":76561198065873462,"connected_time":190000000000,"state":"active","ping":44},{"user_id":172,"name":"Verult (doesn't)Trade","steam_id":76561199018000017,"connected_time":694000000000,"state":"active","ping":53},{"user_id":148,"name":"Sarbanes-Oxley","steam_id":76561197975898479,"connected_time":2188000000000,"state":"active","ping":84},{"user_id":108,"name":"teh mummy","steam_id":76561198044123636,"connected_time":5767000000000,"state":"active","ping":35},{"user_id":125,"name":"HAT-WEARING™ Maggot Gamer Cat","steam_id":76561197973992705,"connected_time":4525000000000,"state":"active","ping":66},{"user_id":159,"name":"BrightOrangeMango","steam_id":76561198023144607,"connected_time":1869000000000,"state":"active","ping":63},{"user_id":170,"name":"AKKAWI","steam_id":76561198203159952,"connected_time":933000000000,"state":"active","ping":55},{"user_id":90,"name":"0ll0","steam_id":76561198841446030,"connected_time":7185000000000,"state":"active","ping":56},{"user_id":164,"name":"AmiableNebula","steam_id":76561198094306627,"connected_time":1578000000000,"state":"active","ping":46},{"user_id":152,"name":"me","steam_id":76561199468285784,"connected_time":2071000000000,"state":"active","ping":51},{"user_id":160,"name":"Majestic-A","steam_id":76561198988062101,"connected_time":1821000000000,"state":"active","ping":70},{"user_id":167,"name":"hamo456","steam_id":76561198111939938,"connected_time":1151000000000,"state":"active","ping":54},{"user_id":166,"name":"Nobody","steam_id":76561199352089107,"connected_time":1374000000000,"state":"active","ping":49},{"user_id":127,"name":"Buttocks Fewhairs","steam_id":76561198072200952,"connected_time":4094000000000,"state":"active","ping":46},{"user_id":161,"name":"dave strider","steam_id":76561198065112186,"connected_time":1689000000000,"state":"active","ping":75},{"user_id":169,"name":"Whisper!","steam_id":76561198119609795,"connected_time":989000000000,"state":"active","ping":48},{"user_id":165,"name":"Squatter1","steam_id":76561198078987734,"connected_time":1522000000000,"state":"active","ping":81},{"user_id":154,"name":"Nez","steam_id":76561197963109059,"connected_time":2039000000000,"state":"active","ping":62},{"user_id":158,"name":"Theis","steam_id":76561198451338697,"connected_time":1961000000000,"state":"active","ping":61},{"user_id":171,"name":"Vexal","steam_id":76561198319534082,"connected_time":859000000000,"state":"active","ping":81},{"user_id":157,"name":"bronk","steam_id":76561198181109553,"connected_time":1993000000000,"state":"active","ping":70},{"user_id":162,"name":"LazyRat","steam_id":76561198014066794,"connected_time":1645000000000,"state":"active","ping":56}]},{"server_id":324,"name":"Uncletopia | Los Angeles | 3 | All Maps","name_short":"lax-3","host":"lax-1.us.uncletopia.com","port":27035,"enabled":true,"region":"us-west","cc":"us","latitude":33.94279,"longitude":-118.41004,"reserved":0,"last_update":"0001-01-01T00:00:00Z","name_a2s":"Uncletopia | Los Angeles | 3 | All Maps","protocol":17,"map":"pl_wutville_event","folder":"tf","game":"Team Fortress","app_id":440,"player_count":23,"max_players":24,"Bots":0,"server_type":"Dedicated","server_os":"Linux","password":true,"vac":true,"version":"7757534","steam_id":85568392924510198,"keywords":["nocrits","nodmgspread","payload","uncletopia"],"game_id":440,"stv_port":27036,"stv_name":"Uncletopia | Los Angeles | 3 | All Maps | STV","players":[{"user_id":453,"name":"Jax O'Gaytor","steam_id":76561198288922168,"connected_time":4754000000000,"state":"active","ping":67},{"user_id":483,"name":"Mister Panzer","steam_id":76561198981994152,"connected_time":2103000000000,"state":"active","ping":95},{"user_id":456,"name":"RipHunter77","steam_id":76561198272973014,"connected_time":3946000000000,"state":"active","ping":92},{"user_id":497,"name":"♥stoned jester♥","steam_id":76561198079609974,"connected_time":279000000000,"state":"active","ping":55},{"user_id":471,"name":"Nugakku","steam_id":76561198082346219,"connected_time":2762000000000,"state":"active","ping":52},{"user_id":498,"name":"|LeNachoCrimson|","steam_id":76561197987542660,"connected_time":221000000000,"state":"active","ping":52},{"user_id":487,"name":"Serene Salamander","steam_id":76561198001094770,"connected_time":1744000000000,"state":"active","ping":68},{"user_id":499,"name":"Fermenting Kiwi","steam_id":76561198253303497,"connected_time":155000000000,"state":"active","ping":85},{"user_id":481,"name":"NagitoTheLucky","steam_id":76561198065096327,"connected_time":2250000000000,"state":"active","ping":60},{"user_id":435,"name":"The Foolish Samurai","steam_id":76561198094494945,"connected_time":5628000000000,"state":"active","ping":73},{"user_id":437,"name":"Windows Vista Home Premium","steam_id":76561198043764863,"connected_time":5418000000000,"state":"active","ping":54},{"user_id":496,"name":"Lily Thorn","steam_id":76561198305488625,"connected_time":385000000000,"state":"active","ping":89},{"user_id":485,"name":"Jesus Loves You57","steam_id":76561199058833769,"connected_time":1980000000000,"state":"active","ping":46},{"user_id":500,"name":"PonYOOOOOOO","steam_id":76561199067424111,"connected_time":119000000000,"state":"active","ping":74},{"user_id":502,"name":"Granos","steam_id":76561198355508699,"connected_time":67000000000,"state":"active","ping":60},{"user_id":447,"name":"riri ᗜᴗᗜ","steam_id":76561198055462404,"connected_time":4957000000000,"state":"active","ping":34},{"user_id":324,"name":"Gundam Guy","steam_id":76561198178453993,"connected_time":13188000000000,"state":"active","ping":64},{"user_id":503,"name":"Tcmano","steam_id":76561198057233847,"connected_time":47000000000,"state":"active","ping":47},{"user_id":495,"name":"Sad Sapling","steam_id":76561198075612150,"connected_time":516000000000,"state":"active","ping":52},{"user_id":504,"name":"meatwad","steam_id":76561198047374406,"connected_time":21000000000,"state":"active","ping":105},{"user_id":505,"name":"StirFryTy","steam_id":76561198240779758,"connected_time":9000000000,"state":"spawning","ping":89},{"user_id":506,"name":"Jesus","steam_id":76561198984450683,"connected_time":2000000000,"state":"spawning","ping":33},{"user_id":493,"name":"Pump","steam_id":76561198085846167,"connected_time":1050000000000,"state":"active","ping":69}]},{"server_id":25,"name":"Uncletopia | Los Angeles | 4 | Stopwatch Beta","name_short":"lax-4","host":"lax-1.us.uncletopia.com","port":27045,"enabled":true,"region":"us-west","cc":"us","latitude":33.94279,"longitude":-118.41004,"reserved":0,"last_update":"0001-01-01T00:00:00Z","name_a2s":"Uncletopia | Los Angeles | 4 | Stopwatch Beta","protocol":17,"map":"koth_viaduct","folder":"tf","game":"Team Fortress","app_id":440,"player_count":0,"max_players":24,"Bots":0,"server_type":"Dedicated","server_os":"Linux","password":true,"vac":true,"version":"7757534","steam_id":85568392924510199,"keywords":["cp","nocrits","nodmgspread","uncletopia"],"game_id":440,"stv_port":27046,"stv_name":"Uncletopia | Los Angeles | 4 | Stopwatch Beta | STV","players":null},{"server_id":11,"name":"Uncletopia | London | 1 | All Maps","name_short":"lon-1","host":"lon-1.uk.uncletopia.com","port":27015,"enabled":true,"region":"eu","cc":"gb","latitude":51.509865,"longitude":-0.118092,"reserved":0,"last_update":"0001-01-01T00:00:00Z","name_a2s":"Uncletopia | London | 1 | All Maps","protocol":17,"map":"pl_borneo","folder":"tf","game":"Team Fortress","app_id":440,"player_count":0,"max_players":24,"Bots":0,"server_type":"Dedicated","server_os":"Linux","password":true,"vac":true,"version":"7757534","steam_id":85568392924367362,"keywords":["nocrits","nodmgspread","payload","uncletopia"],"game_id":440,"stv_port":27016,"stv_name":"Uncletopia | London | 1 | All Maps | STV","players":null},{"server_id":114,"name":"Uncletopia | London | 2 | All Maps","name_short":"lon-2","host":"lon-1.uk.uncletopia.com","port":27025,"enabled":true,"region":"eu","cc":"gb","latitude":51.509865,"longitude":-0.118092,"reserved":0,"last_update":"0001-01-01T00:00:00Z","name_a2s":"Uncletopia | London | 2 | All Maps","protocol":17,"map":"pl_frontier_final","folder":"tf","game":"Team Fortress","app_id":440,"player_count":0,"max_players":24,"Bots":0,"server_type":"Dedicated","server_os":"Linux","password":true,"vac":true,"version":"7757534","steam_id":85568392924470941,"keywords":["nocrits","nodmgspread","payload","uncletopia"],"game_id":440,"stv_port":27026,"stv_name":"Uncletopia | London | 2 | All Maps | STV","players":null},{"server_id":320,"name":"Uncletopia | London | 3 | All Maps","name_short":"lon-3","host":"lon-1.uk.uncletopia.com","port":27035,"enabled":true,"region":"eu","cc":"gb","latitude":51.509865,"longitude":-0.118092,"reserved":0,"last_update":"0001-01-01T00:00:00Z","name_a2s":"Uncletopia | London | 3 | All Maps","protocol":17,"map":"koth_lakeside_final","folder":"tf","game":"Team Fortress","app_id":440,"player_count":0,"max_players":24,"Bots":0,"server_type":"Dedicated","server_os":"Linux","password":true,"vac":true,"version":"7757534","steam_id":85568392924510192,"keywords":["cp","nocrits","nodmgspread","uncletopia"],"game_id":440,"stv_port":27036,"stv_name":"Uncletopia | London | 3 | All Maps | STV","players":null},{"server_id":321,"name":"Uncletopia | London | 4 | All Maps","name_short":"lon-4","host":"lon-1.uk.uncletopia.com","port":27045,"enabled":true,"region":"eu","cc":"gb","latitude":51.509865,"longitude":-0.118092,"reserved":0,"last_update":"0001-01-01T00:00:00Z","name_a2s":"Uncletopia | London | 4 | All Maps","protocol":17,"map":"pl_pier","folder":"tf","game":"Team Fortress","app_id":440,"player_count":23,"max_players":24,"Bots":0,"server_type":"Dedicated","server_os":"Linux","password":true,"vac":true,"version":"7757534","steam_id":85568392924510193,"keywords":["nocrits","nodmgspread","payload","uncletopia"],"game_id":440,"stv_port":27046,"stv_name":"Uncletopia | London | 4 | All Maps | STV","players":[{"user_id":861,"name":"MefedronDowóz24h","steam_id":76561198107166530,"connected_time":986000000000,"state":"active","ping":116},{"user_id":860,"name":"Gstef","steam_id":76561198172044222,"connected_time":1129000000000,"state":"active","ping":86},{"user_id":806,"name":"spooky man","steam_id":76561198286137382,"connected_time":7065000000000,"state":"active","ping":47},{"user_id":862,"name":"meb","steam_id":76561198982599454,"connected_time":967000000000,"state":"active","ping":97},{"user_id":847,"name":"Pip Boy","steam_id":76561197960530280,"connected_time":3004000000000,"state":"active","ping":68},{"user_id":839,"name":"Dos, The Sony Original","steam_id":76561198846784757,"connected_time":4427000000000,"state":"active","ping":55},{"user_id":853,"name":"M10NigHT","steam_id":76561198133208777,"connected_time":2519000000000,"state":"active","ping":110},{"user_id":754,"name":"Unfortunate ❤","steam_id":76561198125500777,"connected_time":10077000000000,"state":"active","ping":100},{"user_id":866,"name":"puncy","steam_id":76561198364805619,"connected_time":259000000000,"state":"active","ping":55},{"user_id":857,"name":"alice","steam_id":76561198180361759,"connected_time":1660000000000,"state":"active","ping":54},{"user_id":821,"name":"SLEEPY CATBOY ZZZZZ","steam_id":76561198059713483,"connected_time":6007000000000,"state":"active","ping":46},{"user_id":849,"name":"raime","steam_id":76561198024903775,"connected_time":2985000000000,"state":"active","ping":107},{"user_id":858,"name":"Homicidal Tendencies","steam_id":76561198828681043,"connected_time":1569000000000,"state":"active","ping":32},{"user_id":746,"name":"Borat","steam_id":76561198122226417,"connected_time":11035000000000,"state":"active","ping":42},{"user_id":868,"name":"Anxiety","steam_id":76561198026649461,"connected_time":88000000000,"state":"active","ping":60},{"user_id":846,"name":"big retard player","steam_id":76561198342570528,"connected_time":3008000000000,"state":"active","ping":71},{"user_id":856,"name":"Soldier Boy","steam_id":76561198141551212,"connected_time":1728000000000,"state":"active","ping":94},{"user_id":865,"name":"Clown","steam_id":76561198040785616,"connected_time":748000000000,"state":"active","ping":59},{"user_id":840,"name":"Kavary","steam_id":76561198024792146,"connected_time":4360000000000,"state":"active","ping":90},{"user_id":841,"name":"10 years in the joint","steam_id":76561198800685443,"connected_time":4318000000000,"state":"active","ping":57},{"user_id":824,"name":"Smeelio","steam_id":76561198079480058,"connected_time":5850000000000,"state":"active","ping":44},{"user_id":828,"name":"Hleno","steam_id":76561198060442619,"connected_time":5224000000000,"state":"active","ping":60},{"user_id":831,"name":"Bloop","steam_id":76561198152645636,"connected_time":5044000000000,"state":"active","ping":42}]},{"server_id":21,"name":"Uncletopia | London | 5 | All Maps","name_short":"lon-5","host":"lon-1.uk.uncletopia.com","port":27055,"enabled":true,"region":"eu","cc":"gb","latitude":51.509865,"longitude":-0.118092,"reserved":0,"last_update":"0001-01-01T00:00:00Z","name_a2s":"Uncletopia | London | 5 | All Maps","protocol":17,"map":"pl_barnblitz","folder":"tf","game":"Team Fortress","app_id":440,"player_count":23,"max_players":24,"Bots":0,"server_type":"Dedicated","server_os":"Linux","password":true,"vac":true,"version":"7757534","steam_id":85568392924742829,"keywords":["nocrits","nodmgspread","payload","uncletopia"],"game_id":440,"stv_port":27056,"stv_name":"Uncletopia | London | 5 | All Maps | STV","players":[{"user_id":751,"name":"R A S M U S","steam_id":76561198279799226,"connected_time":13284000000000,"state":"active","ping":73},{"user_id":884,"name":"sHIFTINGvORTEX","steam_id":76561198231648332,"connected_time":1723000000000,"state":"active","ping":60},{"user_id":892,"name":"usagi","steam_id":76561198083867904,"connected_time":665000000000,"state":"active","ping":60},{"user_id":854,"name":"RIFT","steam_id":76561198991622379,"connected_time":3926000000000,"state":"active","ping":38},{"user_id":876,"name":"Phvntqm","steam_id":76561198095172813,"connected_time":2862000000000,"state":"active","ping":45},{"user_id":895,"name":"M.L.JEW","steam_id":76561198997375055,"connected_time":464000000000,"state":"active","ping":150},{"user_id":890,"name":"Simonster","steam_id":76561198046896952,"connected_time":825000000000,"state":"active","ping":52},{"user_id":787,"name":"New","steam_id":76561198402195911,"connected_time":10723000000000,"state":"active","ping":109},{"user_id":850,"name":"Rem","steam_id":76561198867480648,"connected_time":4007000000000,"state":"active","ping":45},{"user_id":877,"name":"Rave Robber","steam_id":76561199414716848,"connected_time":2842000000000,"state":"active","ping":69},{"user_id":873,"name":"Daoloth, Render of the Veils","steam_id":76561198115106008,"connected_time":3047000000000,"state":"active","ping":48},{"user_id":883,"name":"Master of tiktok","steam_id":76561199379233899,"connected_time":1982000000000,"state":"active","ping":98},{"user_id":898,"name":"S_ApplePie","steam_id":76561198106947669,"connected_time":135000000000,"state":"active","ping":72},{"user_id":878,"name":"DemoKnight™","steam_id":76561199152186875,"connected_time":2812000000000,"state":"active","ping":149},{"user_id":871,"name":"Kapo-Sama hbn.gg","steam_id":76561198090731537,"connected_time":3196000000000,"state":"active","ping":60},{"user_id":837,"name":"kuso","steam_id":76561198058031466,"connected_time":6027000000000,"state":"active","ping":74},{"user_id":900,"name":"lun4tic","steam_id":76561198850496647,"connected_time":119000000000,"state":"active","ping":74},{"user_id":858,"name":"Owl","steam_id":76561198248266580,"connected_time":3784000000000,"state":"active","ping":69},{"user_id":775,"name":"Ember The Femboy","steam_id":76561198139630565,"connected_time":12267000000000,"state":"active","ping":60},{"user_id":815,"name":"Lubrsi","steam_id":76561198040208195,"connected_time":7895000000000,"state":"active","ping":49},{"user_id":893,"name":"the high amby spy","steam_id":76561198212488780,"connected_time":609000000000,"state":"active","ping":63},{"user_id":872,"name":"gamerweed5","steam_id":76561198087651151,"connected_time":3186000000000,"state":"active","ping":42},{"user_id":887,"name":"FLAMINGO QUEEN","steam_id":76561199037894293,"connected_time":1301000000000,"state":"active","ping":89}]},{"server_id":22,"name":"Uncletopia | London | 6 | All Maps","name_short":"lon-6","host":"lon-1.uk.uncletopia.com","port":27065,"enabled":true,"region":"eu","cc":"gb","latitude":51.509865,"longitude":-0.118092,"reserved":0,"last_update":"0001-01-01T00:00:00Z","name_a2s":"Uncletopia | London | 6 | All Maps","protocol":17,"map":"koth_cascade","folder":"tf","game":"Team Fortress","app_id":440,"player_count":0,"max_players":24,"Bots":0,"server_type":"Dedicated","server_os":"Linux","password":true,"vac":true,"version":"7757534","steam_id":85568392924742830,"keywords":["cp","nocrits","nodmgspread","uncletopia"],"game_id":440,"stv_port":27066,"stv_name":"Uncletopia | London | 6 | All Maps | STV","players":null},{"server_id":40,"name":"Uncletopia | London | 7 | No Payload","name_short":"lon-7","host":"lon-1.uk.uncletopia.com","port":27075,"enabled":true,"region":"eu","cc":"gb","latitude":51.509865,"longitude":-0.118092,"reserved":0,"last_update":"0001-01-01T00:00:00Z","name_a2s":"Uncletopia | London | 7 | No Payload","protocol":17,"map":"koth_brazil","folder":"tf","game":"Team Fortress","app_id":440,"player_count":0,"max_players":24,"Bots":0,"server_type":"Dedicated","server_os":"Linux","password":true,"vac":true,"version":"7757534","steam_id":85568392924964314,"keywords":["cp","nocrits","nodmgspread","uncletopia"],"game_id":440,"stv_port":27076,"stv_name":"Uncletopia | London | 7 | No Payload | STV","players":null},{"server_id":41,"name":"Uncletopia | London | 8 | Community","name_short":"lon-8","host":"lon-1.uk.uncletopia.com","port":27085,"enabled":true,"region":"eu","cc":"gb","latitude":51.509865,"longitude":-0.118092,"reserved":0,"last_update":"0001-01-01T00:00:00Z","name_a2s":"Uncletopia | London | 8 | Community","protocol":17,"map":"workshop/koth_product_final.ugc454272353","folder":"tf","game":"Team Fortress","app_id":440,"player_count":0,"max_players":24,"Bots":0,"server_type":"Dedicated","server_os":"Linux","password":true,"vac":true,"version":"7757534","steam_id":85568392924964315,"keywords":["cp","nocrits","nodmgspread","uncletopia"],"game_id":440,"stv_port":27086,"stv_name":"Uncletopia | London | 8 | Community | STV","players":null},{"server_id":300,"name":"Uncletopia | Montréal | 1 | All Maps","name_short":"mtl-1","host":"mtl-1.ca.uncletopia.com","port":27015,"enabled":true,"region":"us-east","cc":"ca","latitude":45.50889,"longitude":-73.56167,"reserved":0,"last_update":"0001-01-01T00:00:00Z","name_a2s":"Uncletopia | Montréal | 1 | All Maps","protocol":17,"map":"koth_cascade","folder":"tf","game":"Team Fortress","app_id":440,"player_count":0,"max_players":24,"Bots":0,"server_type":"Dedicated","server_os":"Linux","password":true,"vac":true,"version":"7757534","steam_id":85568392924500087,"keywords":["cp","nocrits","nodmgspread","uncletopia"],"game_id":440,"stv_port":27016,"stv_name":"Uncletopia | Montréal | 1 | All Maps | STV","players":null},{"server_id":301,"name":"Uncletopia | Montréal | 2 | All Maps","name_short":"mtl-2","host":"mtl-1.ca.uncletopia.com","port":27025,"enabled":true,"region":"us-east","cc":"ca","latitude":45.50889,"longitude":-73.56167,"reserved":0,"last_update":"0001-01-01T00:00:00Z","name_a2s":"Uncletopia | Montréal | 2 | All Maps","protocol":17,"map":"koth_viaduct","folder":"tf","game":"Team Fortress","app_id":440,"player_count":0,"max_players":24,"Bots":0,"server_type":"Dedicated","server_os":"Linux","password":true,"vac":true,"version":"7757534","steam_id":85568392924500088,"keywords":["cp","nocrits","nodmgspread","uncletopia"],"game_id":440,"stv_port":27026,"stv_name":"Uncletopia | Montréal | 2 | All Maps | STV","players":null},{"server_id":302,"name":"Uncletopia | Montréal | 3 | All Maps","name_short":"mtl-3","host":"mtl-1.ca.uncletopia.com","port":27035,"enabled":true,"region":"us-east","cc":"ca","latitude":45.50889,"longitude":-73.56167,"reserved":0,"last_update":"0001-01-01T00:00:00Z","name_a2s":"Uncletopia | Montréal | 3 | All Maps","protocol":17,"map":"pl_swiftwater_final1","folder":"tf","game":"Team Fortress","app_id":440,"player_count":3,"max_players":24,"Bots":0,"server_type":"Dedicated","server_os":"Linux","password":true,"vac":true,"version":"7757534","steam_id":85568392924500089,"keywords":["nocrits","nodmgspread","payload","uncletopia"],"game_id":440,"stv_port":27036,"stv_name":"Uncletopia | Montréal | 3 | All Maps | STV","players":[{"user_id":474,"name":"jorjor wells","steam_id":76561199073429082,"connected_time":301000000000,"state":"active","ping":71},{"user_id":470,"name":"LalitoTV","steam_id":76561198334302951,"connected_time":2739000000000,"state":"active","ping":105},{"user_id":430,"name":"Zokie0","steam_id":76561198056035567,"connected_time":5808000000000,"state":"active","ping":52}]},{"server_id":303,"name":"Uncletopia | Montréal | 4 | No Payload","name_short":"mtl-4","host":"mtl-1.ca.uncletopia.com","port":27045,"enabled":true,"region":"us-east","cc":"ca","latitude":45.50889,"longitude":-73.56167,"reserved":0,"last_update":"0001-01-01T00:00:00Z","name_a2s":"Uncletopia | Montréal | 4 | No Payload","protocol":17,"map":"koth_highpass","folder":"tf","game":"Team Fortress","app_id":440,"player_count":0,"max_players":24,"Bots":0,"server_type":"Dedicated","server_os":"Linux","password":true,"vac":true,"version":"7757534","steam_id":85568392924500090,"keywords":["cp","nocrits","nodmgspread","uncletopia"],"game_id":440,"stv_port":27046,"stv_name":"Uncletopia | Montréal | 4 | No Payload | STV","players":null},{"server_id":13,"name":"Uncletopia | New York City | 1 | All Maps","name_short":"nyc-1","host":"nyc-1.us.uncletopia.com","port":27015,"enabled":true,"region":"us-east","cc":"us","latitude":40.73061,"longitude":-73.93524,"reserved":0,"last_update":"0001-01-01T00:00:00Z","name_a2s":"Uncletopia | New York City | 1 | All Maps","protocol":17,"map":"pl_snowycoast","folder":"tf","game":"Team Fortress","app_id":440,"player_count":24,"max_players":24,"Bots":0,"server_type":"Dedicated","server_os":"Linux","password":true,"vac":true,"version":"7757534","steam_id":85568392924469993,"keywords":["nocrits","nodmgspread","payload","uncletopia"],"game_id":440,"stv_port":27016,"stv_name":"Uncletopia | New York City | 1 | All Maps | STV","players":[{"user_id":662,"name":"Budder Nubbs","steam_id":76561198353763789,"connected_time":2635000000000,"state":"active","ping":47},{"user_id":665,"name":"Jexdra","steam_id":76561198154501381,"connected_time":2490000000000,"state":"active","ping":49},{"user_id":696,"name":"Hunter","steam_id":76561198050617754,"connected_time":504000000000,"state":"active","ping":119},{"user_id":661,"name":"meppy","steam_id":76561198141359549,"connected_time":2748000000000,"state":"active","ping":45},{"user_id":697,"name":"JoCaleb02","steam_id":76561198272389829,"connected_time":483000000000,"state":"active","ping":74},{"user_id":688,"name":"sappho","steam_id":76561198032623725,"connected_time":997000000000,"state":"active","ping":68},{"user_id":701,"name":"PLATYPUS","steam_id":76561198255796625,"connected_time":237000000000,"state":"active","ping":130},{"user_id":675,"name":"Pyromanncer TF","steam_id":76561198018508494,"connected_time":1577000000000,"state":"active","ping":81},{"user_id":703,"name":"Hamee333","steam_id":76561199388127663,"connected_time":141000000000,"state":"active","ping":60},{"user_id":698,"name":"[Deep]GooeyGapedGrannys","steam_id":76561198089731303,"connected_time":442000000000,"state":"active","ping":50},{"user_id":674,"name":"Buster Hymen","steam_id":76561198044034546,"connected_time":1746000000000,"state":"active","ping":50},{"user_id":676,"name":"I LOVE GAMBIT","steam_id":76561198058752131,"connected_time":1575000000000,"state":"active","ping":104},{"user_id":677,"name":"Jinx","steam_id":76561198010088266,"connected_time":1574000000000,"state":"active","ping":71},{"user_id":679,"name":"Totes Adorbs!","steam_id":76561197994655618,"connected_time":1506000000000,"state":"active","ping":60},{"user_id":678,"name":"Mancer","steam_id":76561198002825637,"connected_time":1571000000000,"state":"active","ping":107},{"user_id":660,"name":"Glass Joe","steam_id":76561198317365741,"connected_time":2769000000000,"state":"active","ping":68},{"user_id":566,"name":"A Puppy","steam_id":76561198828184456,"connected_time":9957000000000,"state":"active","ping":48},{"user_id":693,"name":"IrfanZn","steam_id":76561199468828920,"connected_time":570000000000,"state":"active","ping":80},{"user_id":699,"name":"stan","steam_id":76561198043206424,"connected_time":411000000000,"state":"active","ping":31},{"user_id":700,"name":"zvr","steam_id":76561198235875882,"connected_time":387000000000,"state":"active","ping":75},{"user_id":682,"name":"Evan","steam_id":76561198081165364,"connected_time":1303000000000,"state":"active","ping":58},{"user_id":694,"name":"Jon Snuh","steam_id":76561198075298635,"connected_time":558000000000,"state":"active","ping":63},{"user_id":684,"name":"MagikarpEX","steam_id":76561198166172279,"connected_time":1252000000000,"state":"active","ping":51},{"user_id":691,"name":"inexperienced great horned owl","steam_id":76561198047077020,"connected_time":812000000000,"state":"active","ping":54}]},{"server_id":14,"name":"Uncletopia | New York City | 2 | All Maps","name_short":"nyc-2","host":"nyc-1.us.uncletopia.com","port":27025,"enabled":true,"region":"us-east","cc":"us","latitude":40.73061,"longitude":-73.93524,"reserved":0,"last_update":"0001-01-01T00:00:00Z","name_a2s":"Uncletopia | New York City | 2 | All Maps","protocol":17,"map":"cp_powerhouse","folder":"tf","game":"Team Fortress","app_id":440,"player_count":24,"max_players":24,"Bots":0,"server_type":"Dedicated","server_os":"Linux","password":true,"vac":true,"version":"7757534","steam_id":85568392924469994,"keywords":["cp","nocrits","nodmgspread","uncletopia"],"game_id":440,"stv_port":27026,"stv_name":"Uncletopia | New York City | 2 | All Maps | STV","players":[{"user_id":216,"name":"KittyToy","steam_id":76561198043990701,"connected_time":872000000000,"state":"active","ping":127},{"user_id":220,"name":"GodThatMemes","steam_id":76561199105942306,"connected_time":455000000000,"state":"active","ping":140},{"user_id":215,"name":"| Average Half Life Enjoyer |","steam_id":76561198246219624,"connected_time":927000000000,"state":"active","ping":100},{"user_id":221,"name":"Vasey","steam_id":76561198891013043,"connected_time":445000000000,"state":"active","ping":126},{"user_id":222,"name":"chris-chan","steam_id":76561198803818181,"connected_time":429000000000,"state":"active","ping":114},{"user_id":223,"name":"Hobocop","steam_id":76561198076321907,"connected_time":372000000000,"state":"active","ping":114},{"user_id":123,"name":"flappyflap2","steam_id":76561198285048973,"connected_time":11360000000000,"state":"active","ping":44},{"user_id":233,"name":"Michaelpc1","steam_id":76561198088365519,"connected_time":116000000000,"state":"active","ping":60},{"user_id":224,"name":"ret_bot","steam_id":76561199006387755,"connected_time":370000000000,"state":"active","ping":123},{"user_id":225,"name":"yumyum","steam_id":76561198150567198,"connected_time":366000000000,"state":"active","ping":44},{"user_id":226,"name":"MrLeftTurn","steam_id":76561198856743969,"connected_time":350000000000,"state":"active","ping":150},{"user_id":227,"name":"rider_of_brohan15","steam_id":76561198172978817,"connected_time":339000000000,"state":"active","ping":131},{"user_id":228,"name":"Ninty","steam_id":76561199364725776,"connected_time":335000000000,"state":"active","ping":87},{"user_id":148,"name":"Unusual Albert","steam_id":76561198986836562,"connected_time":9964000000000,"state":"active","ping":85},{"user_id":205,"name":"potty trained","steam_id":76561198141557766,"connected_time":3194000000000,"state":"active","ping":60},{"user_id":229,"name":"ganster","steam_id":76561198075510786,"connected_time":331000000000,"state":"active","ping":94},{"user_id":194,"name":"Bashirider","steam_id":76561198260522253,"connected_time":3732000000000,"state":"active","ping":55},{"user_id":209,"name":"Ripley","steam_id":76561198080766916,"connected_time":2278000000000,"state":"active","ping":68},{"user_id":230,"name":"Soviet_Toaster","steam_id":76561198090393125,"connected_time":326000000000,"state":"active","ping":66},{"user_id":231,"name":"FROYO donovin","steam_id":76561198045679387,"connected_time":322000000000,"state":"active","ping":72},{"user_id":206,"name":"TheJuiceCrew","steam_id":76561198109073254,"connected_time":3115000000000,"state":"active","ping":80},{"user_id":232,"name":"Valueteril","steam_id":76561198186716743,"connected_time":318000000000,"state":"active","ping":143},{"user_id":197,"name":"Chechens Spotted","steam_id":76561199028910893,"connected_time":3653000000000,"state":"active","ping":75},{"user_id":207,"name":"Uhonlapjontetzika","steam_id":76561199431280503,"connected_time":3059000000000,"state":"active","ping":67}]},{"server_id":15,"name":"Uncletopia | New York City | 3 | Stopwatch Beta","name_short":"nyc-3","host":"nyc-1.us.uncletopia.com","port":27035,"enabled":true,"region":"us-east","cc":"us","latitude":40.73061,"longitude":-73.93524,"reserved":0,"last_update":"0001-01-01T00:00:00Z","name_a2s":"Uncletopia | New York City | 3 | Stopwatch Beta","protocol":17,"map":"workshop/koth_clearcut_b15.ugc2107050255","folder":"tf","game":"Team Fortress","app_id":440,"player_count":0,"max_players":24,"Bots":0,"server_type":"Dedicated","server_os":"Linux","password":true,"vac":true,"version":"7757534","steam_id":85568392924742820,"keywords":["cp","nocrits","nodmgspread","uncletopia"],"game_id":440,"stv_port":27036,"stv_name":"Uncletopia | New York City | 3 | Stopwatch Beta | STV","players":null},{"server_id":16,"name":"Uncletopia | New York City | 4 | Community","name_short":"nyc-4","host":"nyc-1.us.uncletopia.com","port":27045,"enabled":true,"region":"us-east","cc":"us","latitude":40.73061,"longitude":-73.93524,"reserved":0,"last_update":"0001-01-01T00:00:00Z","name_a2s":"Uncletopia | New York City | 4 | Community","protocol":17,"map":"workshop/cp_overgrown_rc7b.ugc503939302","folder":"tf","game":"Team Fortress","app_id":440,"player_count":0,"max_players":24,"Bots":0,"server_type":"Dedicated","server_os":"Linux","password":true,"vac":true,"version":"7757534","steam_id":85568392924742821,"keywords":["cp","nocrits","nodmgspread","uncletopia"],"game_id":440,"stv_port":27046,"stv_name":"Uncletopia | New York City | 4 | Community | STV","players":null},{"server_id":142,"name":"Uncletopia | São Paulo | 1 | All Maps","name_short":"sao-1","host":"sao-1.br.uncletopia.com","port":27015,"enabled":true,"region":"sa","cc":"br","latitude":-23.533773,"longitude":-46.62529,"reserved":0,"last_update":"0001-01-01T00:00:00Z","name_a2s":"Uncletopia | São Paulo | 1 | All Maps","protocol":17,"map":"koth_viaduct","folder":"tf","game":"Team Fortress","app_id":440,"player_count":0,"max_players":24,"Bots":0,"server_type":"Dedicated","server_os":"Linux","password":true,"vac":true,"version":"7757534","steam_id":85568392924469996,"keywords":["cp","nocrits","nodmgspread","uncletopia"],"game_id":440,"stv_port":27016,"stv_name":"Uncletopia | São Paulo | 1 | All Maps | STV","players":null},{"server_id":143,"name":"Uncletopia | São Paulo | 2 | All Maps","name_short":"sao-2","host":"sao-2.br.uncletopia.com","port":27015,"enabled":true,"region":"sa","cc":"br","latitude":-23.533773,"longitude":-46.62529,"reserved":0,"last_update":"0001-01-01T00:00:00Z","name_a2s":"Uncletopia | São Paulo | 2 | All Maps","protocol":17,"map":"koth_lakeside_final","folder":"tf","game":"Team Fortress","app_id":440,"player_count":0,"max_players":24,"Bots":0,"server_type":"Dedicated","server_os":"Linux","password":true,"vac":true,"version":"7757534","steam_id":85568392924485349,"keywords":["cp","nocrits","nodmgspread","uncletopia"],"game_id":440,"stv_port":27016,"stv_name":"Uncletopia | São Paulo | 2 | All Maps | STV","players":null},{"server_id":7,"name":"Uncletopia | Seattle | 1 | All Maps","name_short":"sea-1","host":"sea-1.us.uncletopia.com","port":27015,"enabled":true,"region":"us-west","cc":"us","latitude":47.608013,"longitude":-122.33517,"reserved":0,"last_update":"0001-01-01T00:00:00Z","name_a2s":"Uncletopia | Seattle | 1 | All Maps","protocol":17,"map":"koth_nucleus","folder":"tf","game":"Team Fortress","app_id":440,"player_count":24,"max_players":24,"Bots":0,"server_type":"Dedicated","server_os":"Linux","password":true,"vac":true,"version":"7757534","steam_id":85568392924469997,"keywords":["cp","nocrits","nodmgspread","uncletopia"],"game_id":440,"stv_port":27016,"stv_name":"Uncletopia | Seattle | 1 | All Maps | STV","players":[{"user_id":340,"name":"Shovel (Demon Arc)","steam_id":76561198082922382,"connected_time":1070000000000,"state":"active","ping":76},{"user_id":301,"name":"[TrC] Dackstrus","steam_id":76561197973518509,"connected_time":5114000000000,"state":"active","ping":61},{"user_id":321,"name":"Res Ipsa","steam_id":76561198041349210,"connected_time":2860000000000,"state":"active","ping":73},{"user_id":221,"name":"rat gets the cheese","steam_id":76561198031234032,"connected_time":12280000000000,"state":"active","ping":94},{"user_id":327,"name":"jungus","steam_id":76561198129862008,"connected_time":2106000000000,"state":"active","ping":74},{"user_id":279,"name":"lavinia whately","steam_id":76561198325306660,"connected_time":7875000000000,"state":"active","ping":57},{"user_id":343,"name":"Chica","steam_id":76561198381832158,"connected_time":1055000000000,"state":"active","ping":90},{"user_id":302,"name":"[TrC] Nosy","steam_id":76561197978859310,"connected_time":4664000000000,"state":"active","ping":58},{"user_id":348,"name":"Saint Pablo","steam_id":76561198083300159,"connected_time":238000000000,"state":"active","ping":71},{"user_id":322,"name":"Mignyanne :3","steam_id":76561198048754056,"connected_time":2838000000000,"state":"active","ping":74},{"user_id":294,"name":"Diesel","steam_id":76561198448815852,"connected_time":6217000000000,"state":"active","ping":59},{"user_id":336,"name":"spenca","steam_id":76561198025371154,"connected_time":1093000000000,"state":"active","ping":69},{"user_id":333,"name":"trapper wit som swag+i lurk too","steam_id":76561198885055475,"connected_time":1294000000000,"state":"active","ping":62},{"user_id":324,"name":"PopcornNinja101","steam_id":76561198330680181,"connected_time":2657000000000,"state":"active","ping":48},{"user_id":347,"name":"Sniff","steam_id":76561198010270922,"connected_time":339000000000,"state":"active","ping":44},{"user_id":305,"name":"Username","steam_id":76561198855586261,"connected_time":4331000000000,"state":"active","ping":67},{"user_id":339,"name":"Saggle","steam_id":76561198056075147,"connected_time":1079000000000,"state":"active","ping":191},{"user_id":342,"name":"Ancient Ash Halfmoon Kagtunak","steam_id":76561198128809755,"connected_time":1061000000000,"state":"active","ping":94},{"user_id":332,"name":"Common","steam_id":76561198041083863,"connected_time":1843000000000,"state":"active","ping":51},{"user_id":326,"name":"Ediot","steam_id":76561199349494096,"connected_time":2385000000000,"state":"active","ping":141},{"user_id":344,"name":"nappyzappy","steam_id":76561198095118953,"connected_time":1047000000000,"state":"active","ping":76},{"user_id":334,"name":"Samiho","steam_id":76561198984374561,"connected_time":1102000000000,"state":"active","ping":75},{"user_id":319,"name":"ChuChu","steam_id":76561199443647976,"connected_time":3520000000000,"state":"active","ping":103},{"user_id":346,"name":"MyMonkeyBaby","steam_id":76561198046896670,"connected_time":385000000000,"state":"active","ping":60}]},{"server_id":119,"name":"Uncletopia | Seattle | 2 | All Maps","name_short":"sea-2","host":"sea-1.us.uncletopia.com","port":27025,"enabled":true,"region":"us-west","cc":"us","latitude":47.608013,"longitude":-122.33517,"reserved":0,"last_update":"0001-01-01T00:00:00Z","name_a2s":"Uncletopia | Seattle | 2 | All Maps","protocol":17,"map":"cp_granary","folder":"tf","game":"Team Fortress","app_id":440,"player_count":24,"max_players":24,"Bots":0,"server_type":"Dedicated","server_os":"Linux","password":true,"vac":true,"version":"7757534","steam_id":85568392924469998,"keywords":["cp","nocrits","nodmgspread","uncletopia"],"game_id":440,"stv_port":27026,"stv_name":"Uncletopia | Seattle | 2 | All Maps | STV","players":[{"user_id":361,"name":"onn alert","steam_id":76561198453203619,"connected_time":186000000000,"state":"active","ping":69},{"user_id":350,"name":"Crazy Hungarian","steam_id":76561198025498172,"connected_time":974000000000,"state":"active","ping":46},{"user_id":264,"name":"twitch.tv/ladyloki_ch","steam_id":76561198280150602,"connected_time":8860000000000,"state":"active","ping":74},{"user_id":271,"name":"MisterManne","steam_id":76561198106598600,"connected_time":7942000000000,"state":"active","ping":57},{"user_id":290,"name":"pumba","steam_id":76561198207881077,"connected_time":6660000000000,"state":"active","ping":107},{"user_id":342,"name":"H0rr0rH0g","steam_id":76561199389376127,"connected_time":2123000000000,"state":"active","ping":69},{"user_id":338,"name":"Scrack","steam_id":76561198010484665,"connected_time":2258000000000,"state":"active","ping":106},{"user_id":328,"name":"Greskrendtregk","steam_id":76561197969553142,"connected_time":2587000000000,"state":"active","ping":51},{"user_id":355,"name":"mu","steam_id":76561197997530228,"connected_time":510000000000,"state":"active","ping":56},{"user_id":317,"name":"BEASTxGODx420","steam_id":76561198184814466,"connected_time":3752000000000,"state":"active","ping":34},{"user_id":321,"name":"Pangilli","steam_id":76561198829465116,"connected_time":3708000000000,"state":"active","ping":47},{"user_id":360,"name":"checkswing","steam_id":76561198999816132,"connected_time":427000000000,"state":"active","ping":104},{"user_id":347,"name":"Banana King","steam_id":76561198077784214,"connected_time":1717000000000,"state":"active","ping":141},{"user_id":349,"name":"Gary, 40, soul sucking 9-5","steam_id":76561198073812888,"connected_time":1081000000000,"state":"active","ping":44},{"user_id":306,"name":"Attrition","steam_id":76561197969881916,"connected_time":5686000000000,"state":"active","ping":55},{"user_id":357,"name":"R5-D4","steam_id":76561198025196439,"connected_time":482000000000,"state":"active","ping":57},{"user_id":258,"name":"Elias","steam_id":76561198106431732,"connected_time":9399000000000,"state":"active","ping":105},{"user_id":345,"name":"mritea","steam_id":76561198872799796,"connected_time":1928000000000,"state":"active","ping":53},{"user_id":263,"name":"ShidFard|RayWilliamJohnsonGamin","steam_id":76561198207800784,"connected_time":9014000000000,"state":"active","ping":46},{"user_id":348,"name":"HideOnTate","steam_id":76561198209880837,"connected_time":1615000000000,"state":"active","ping":45},{"user_id":322,"name":"Dog","steam_id":76561197979056451,"connected_time":3667000000000,"state":"active","ping":45},{"user_id":339,"name":"BloodAngelMutant","steam_id":76561199006378093,"connected_time":2237000000000,"state":"active","ping":140},{"user_id":333,"name":"Julien","steam_id":76561199389584938,"connected_time":2476000000000,"state":"active","ping":45},{"user_id":311,"name":"That Guy","steam_id":76561197997444126,"connected_time":4557000000000,"state":"active","ping":53}]},{"server_id":406,"name":"Uncletopia | Seattle | 3 | Stopwatch Beta","name_short":"sea-3","host":"sea-1.us.uncletopia.com","port":27035,"enabled":true,"region":"us-west","cc":"us","latitude":47.608013,"longitude":-122.33517,"reserved":0,"last_update":"0001-01-01T00:00:00Z","name_a2s":"Uncletopia | Seattle | 3 | Stopwatch Beta","protocol":17,"map":"pl_swiftwater_final1","folder":"tf","game":"Team Fortress","app_id":440,"player_count":0,"max_players":24,"Bots":0,"server_type":"Dedicated","server_os":"Linux","password":true,"vac":true,"version":"7757534","steam_id":85568392924515217,"keywords":["nocrits","nodmgspread","payload","uncletopia"],"game_id":440,"stv_port":27036,"stv_name":"Uncletopia | Seattle | 3 | Stopwatch Beta | STV","players":null},{"server_id":17,"name":"Uncletopia | San Francisco | 1 | All Maps","name_short":"sfo-1","host":"sfo-1.us.uncletopia.com","port":27015,"enabled":true,"region":"us-west","cc":"us","latitude":37.77397,"longitude":-122.4313,"reserved":0,"last_update":"0001-01-01T00:00:00Z","name_a2s":"Uncletopia | San Francisco | 1 | All Maps","protocol":17,"map":"koth_harvest_final","folder":"tf","game":"Team Fortress","app_id":440,"player_count":24,"max_players":24,"Bots":0,"server_type":"Dedicated","server_os":"Linux","password":true,"vac":true,"version":"7757534","steam_id":85568392924469999,"keywords":["cp","nocrits","nodmgspread","uncletopia"],"game_id":440,"stv_port":27016,"stv_name":"Uncletopia | San Francisco | 1 | All Maps | STV","players":[{"user_id":62,"name":"Killerofzombie23","steam_id":76561198799173778,"connected_time":2083000000000,"state":"active","ping":84},{"user_id":80,"name":"Jazzblister","steam_id":76561197996567641,"connected_time":527000000000,"state":"active","ping":83},{"user_id":65,"name":"Lawnmower","steam_id":76561198186680197,"connected_time":1836000000000,"state":"active","ping":42},{"user_id":61,"name":"tum","steam_id":76561198084712019,"connected_time":2258000000000,"state":"active","ping":60},{"user_id":81,"name":"Amogous Supreme","steam_id":76561198025476774,"connected_time":481000000000,"state":"active","ping":54},{"user_id":82,"name":"Sewer","steam_id":76561198803732690,"connected_time":398000000000,"state":"active","ping":60},{"user_id":20,"name":"Vagrant","steam_id":76561198242536886,"connected_time":4314000000000,"state":"active","ping":95},{"user_id":88,"name":"catgirl","steam_id":76561199057269867,"connected_time":103000000000,"state":"active","ping":61},{"user_id":68,"name":"InvaderAlex","steam_id":76561198039232451,"connected_time":1620000000000,"state":"active","ping":99},{"user_id":89,"name":"draining to stay happy","steam_id":76561198797823116,"connected_time":92000000000,"state":"active","ping":115},{"user_id":30,"name":"Yokogaijin Jr.","steam_id":76561199124647094,"connected_time":3339000000000,"state":"active","ping":41},{"user_id":78,"name":"Bl0ckM4n","steam_id":76561199016413171,"connected_time":692000000000,"state":"active","ping":143},{"user_id":70,"name":"EatSomeBEES","steam_id":76561198047334307,"connected_time":1441000000000,"state":"active","ping":79},{"user_id":87,"name":"soccer_alex9","steam_id":76561198110024344,"connected_time":145000000000,"state":"active","ping":67},{"user_id":93,"name":"Danny Fentanyl","steam_id":76561197970791798,"connected_time":46000000000,"state":"active","ping":55},{"user_id":74,"name":"Sadodere Grimace","steam_id":76561198008332028,"connected_time":978000000000,"state":"active","ping":70},{"user_id":44,"name":"blatgotyahat","steam_id":76561198186630357,"connected_time":2782000000000,"state":"active","ping":59},{"user_id":43,"name":"i ate atomic bomb","steam_id":76561198150406851,"connected_time":2793000000000,"state":"active","ping":56},{"user_id":50,"name":"ForAPessimistImPrettyOptimistic","steam_id":76561198170128009,"connected_time":2561000000000,"state":"active","ping":56},{"user_id":91,"name":"craftycrafterwastaken","steam_id":76561199217624073,"connected_time":78000000000,"state":"active","ping":76},{"user_id":57,"name":"Whapper","steam_id":76561198044029606,"connected_time":2446000000000,"state":"active","ping":56},{"user_id":75,"name":"Cute Gatito","steam_id":76561198351147780,"connected_time":948000000000,"state":"active","ping":62},{"user_id":92,"name":"bandit !!","steam_id":76561198126546221,"connected_time":62000000000,"state":"active","ping":51},{"user_id":95,"name":"The Super Mario Bros. Movie","steam_id":76561198871692156,"connected_time":24000000000,"state":"active","ping":75}]},{"server_id":18,"name":"Uncletopia | San Francisco | 2 | All Maps","name_short":"sfo-2","host":"sfo-1.us.uncletopia.com","port":27025,"enabled":true,"region":"us-west","cc":"us","latitude":37.77397,"longitude":-122.4313,"reserved":0,"last_update":"0001-01-01T00:00:00Z","name_a2s":"Uncletopia | San Francisco | 2 | All Maps","protocol":17,"map":"plr_bananabay","folder":"tf","game":"Team Fortress","app_id":440,"player_count":0,"max_players":24,"Bots":0,"server_type":"Dedicated","server_os":"Linux","password":true,"vac":true,"version":"7757534","steam_id":85568392924470000,"keywords":["nocrits","nodmgspread","payload","uncletopia"],"game_id":440,"stv_port":27026,"stv_name":"Uncletopia | San Francisco | 2 | All Maps | STV","players":null},{"server_id":19,"name":"Uncletopia | San Francisco | 3 | Stopwatch Beta","name_short":"sfo-3","host":"sfo-1.us.uncletopia.com","port":27035,"enabled":true,"region":"us-west","cc":"us","latitude":37.77397,"longitude":-122.4313,"reserved":0,"last_update":"0001-01-01T00:00:00Z","name_a2s":"Uncletopia | San Francisco | 3 | Stopwatch Beta","protocol":17,"map":"koth_viaduct","folder":"tf","game":"Team Fortress","app_id":440,"player_count":0,"max_players":24,"Bots":0,"server_type":"Dedicated","server_os":"Linux","password":true,"vac":true,"version":"7757534","steam_id":85568392924742824,"keywords":["cp","nocrits","nodmgspread","uncletopia"],"game_id":440,"stv_port":27036,"stv_name":"Uncletopia | San Francisco | 3 | Stopwatch Beta | STV","players":null},{"server_id":20,"name":"Uncletopia | San Francisco | 4 | Community","name_short":"sfo-4","host":"sfo-1.us.uncletopia.com","port":27045,"enabled":true,"region":"us-west","cc":"us","latitude":37.77397,"longitude":-122.4313,"reserved":0,"last_update":"0001-01-01T00:00:00Z","name_a2s":"Uncletopia | San Francisco | 4 | Community","protocol":17,"map":"workshop/cp_sulfur_rc2.ugc619869471","folder":"tf","game":"Team Fortress","app_id":440,"player_count":0,"max_players":24,"Bots":0,"server_type":"Dedicated","server_os":"Linux","password":true,"vac":true,"version":"7757534","steam_id":85568392924742826,"keywords":["cp","nocrits","nodmgspread","uncletopia"],"game_id":440,"stv_port":27046,"stv_name":"Uncletopia | San Francisco | 4 | Community | STV","players":null},{"server_id":141,"name":"Uncletopia | Sydney | 1 | All Maps","name_short":"syd-1","host":"syd-1.au.uncletopia.com","port":27015,"enabled":true,"region":"au","cc":"au","latitude":-33.865143,"longitude":151.2099,"reserved":0,"last_update":"0001-01-01T00:00:00Z","name_a2s":"Uncletopia | Sydney | 1 | All Maps","protocol":17,"map":"pl_snowycoast","folder":"tf","game":"Team Fortress","app_id":440,"player_count":24,"max_players":24,"Bots":0,"server_type":"Dedicated","server_os":"Linux","password":true,"vac":true,"version":"7757534","steam_id":85568392924470001,"keywords":["nocrits","nodmgspread","payload","uncletopia"],"game_id":440,"stv_port":27016,"stv_name":"Uncletopia | Sydney | 1 | All Maps | STV","players":[{"user_id":179,"name":"SomthingFishy","steam_id":76561198202305407,"connected_time":313000000000,"state":"active","ping":68},{"user_id":164,"name":"carrot monster","steam_id":76561199056025092,"connected_time":1400000000000,"state":"active","ping":42},{"user_id":170,"name":"monkeyman536","steam_id":76561197997717737,"connected_time":972000000000,"state":"active","ping":176},{"user_id":174,"name":"monocrumb","steam_id":76561199126588682,"connected_time":586000000000,"state":"active","ping":61},{"user_id":55,"name":"Mikey","steam_id":76561198438203131,"connected_time":8103000000000,"state":"active","ping":59},{"user_id":150,"name":"Wild ???","steam_id":76561198133529257,"connected_time":2419000000000,"state":"active","ping":67},{"user_id":147,"name":"Avalanche","steam_id":76561199436707447,"connected_time":2570000000000,"state":"active","ping":53},{"user_id":176,"name":"pringles","steam_id":76561198062091499,"connected_time":429000000000,"state":"active","ping":70},{"user_id":162,"name":"triip","steam_id":76561198009092833,"connected_time":1882000000000,"state":"active","ping":74},{"user_id":142,"name":"shrivel","steam_id":76561198129577552,"connected_time":2934000000000,"state":"active","ping":84},{"user_id":178,"name":"Raypest","steam_id":76561197980678745,"connected_time":349000000000,"state":"active","ping":37},{"user_id":172,"name":"Oysenberry","steam_id":76561198125443335,"connected_time":817000000000,"state":"active","ping":44},{"user_id":152,"name":"Fuzz","steam_id":76561198063077180,"connected_time":2269000000000,"state":"active","ping":59},{"user_id":167,"name":"Hippity_Hoppity","steam_id":76561198861050395,"connected_time":1030000000000,"state":"active","ping":67},{"user_id":180,"name":"ׄ","steam_id":76561199375656301,"connected_time":304000000000,"state":"active","ping":74},{"user_id":181,"name":"fishdoctor","steam_id":76561198048156389,"connected_time":284000000000,"state":"active","ping":39},{"user_id":155,"name":"lem","steam_id":76561199119233603,"connected_time":2260000000000,"state":"active","ping":48},{"user_id":182,"name":"lemur","steam_id":76561198278239170,"connected_time":268000000000,"state":"active","ping":87},{"user_id":153,"name":"gon","steam_id":76561198059906626,"connected_time":2268000000000,"state":"active","ping":70},{"user_id":149,"name":"Doctor Estonia","steam_id":76561198057365089,"connected_time":2443000000000,"state":"active","ping":71},{"user_id":143,"name":"pablo.rodriguez.2015","steam_id":76561198166909147,"connected_time":2818000000000,"state":"active","ping":32},{"user_id":151,"name":"nea","steam_id":76561198044980908,"connected_time":2404000000000,"state":"active","ping":61},{"user_id":146,"name":"Wynk","steam_id":76561198155918178,"connected_time":2588000000000,"state":"active","ping":55},{"user_id":173,"name":"Joshua Graham","steam_id":76561198136604959,"connected_time":741000000000,"state":"active","ping":71}]},{"server_id":123,"name":"Uncletopia | Sydney | 2 | All Maps","name_short":"syd-2","host":"syd-1.au.uncletopia.com","port":27025,"enabled":true,"region":"au","cc":"au","latitude":-33.865143,"longitude":151.2099,"reserved":0,"last_update":"0001-01-01T00:00:00Z","name_a2s":"Uncletopia | Sydney | 2 | All Maps","protocol":17,"map":"koth_cascade","folder":"tf","game":"Team Fortress","app_id":440,"player_count":0,"max_players":24,"Bots":0,"server_type":"Dedicated","server_os":"Linux","password":true,"vac":true,"version":"7757534","steam_id":85568392924470002,"keywords":["cp","nocrits","nodmgspread","uncletopia"],"game_id":440,"stv_port":27026,"stv_name":"Uncletopia | Sydney | 2 | All Maps | STV","players":null},{"server_id":395,"name":"Uncletopia | Sydney | 3 | All Maps","name_short":"syd-3","host":"syd-1.au.uncletopia.com","port":27035,"enabled":true,"region":"au","cc":"au","latitude":-33.865143,"longitude":151.2099,"reserved":0,"last_update":"0001-01-01T00:00:00Z","name_a2s":"Uncletopia | Sydney | 3 | All Maps","protocol":17,"map":"koth_viaduct","folder":"tf","game":"Team Fortress","app_id":440,"player_count":8,"max_players":24,"Bots":0,"server_type":"Dedicated","server_os":"Linux","password":true,"vac":true,"version":"7757534","steam_id":85568392925194467,"keywords":["cp","nocrits","nodmgspread","uncletopia"],"game_id":440,"stv_port":27036,"stv_name":"Uncletopia | Sydney | 3 | All Maps | STV","players":[{"user_id":3,"name":"AWrySmile","steam_id":76561199222574216,"connected_time":1565000000000,"state":"active","ping":51},{"user_id":4,"name":"rylan.chen","steam_id":76561199152151734,"connected_time":1537000000000,"state":"active","ping":67},{"user_id":5,"name":"Absol","steam_id":76561199045059964,"connected_time":1258000000000,"state":"active","ping":112},{"user_id":6,"name":"potmonger377","steam_id":76561199217407346,"connected_time":1175000000000,"state":"active","ping":65},{"user_id":7,"name":"Sinister80s","steam_id":76561198343540472,"connected_time":240000000000,"state":"active","ping":75},{"user_id":9,"name":"justifiedly delirious person","steam_id":76561198340730741,"connected_time":193000000000,"state":"active","ping":59},{"user_id":10,"name":"Skitario","steam_id":76561198387454901,"connected_time":133000000000,"state":"active","ping":50},{"user_id":11,"name":"Chamoodziki","steam_id":76561199309235067,"connected_time":99000000000,"state":"active","ping":74}]},{"server_id":396,"name":"Uncletopia | Sydney | 4 | All Maps","name_short":"syd-4","host":"syd-1.au.uncletopia.com","port":27045,"enabled":true,"region":"au","cc":"au","latitude":-33.865143,"longitude":151.2099,"reserved":0,"last_update":"0001-01-01T00:00:00Z","name_a2s":"Uncletopia | Sydney | 4 | All Maps","protocol":17,"map":"koth_lakeside_final","folder":"tf","game":"Team Fortress","app_id":440,"player_count":0,"max_players":24,"Bots":0,"server_type":"Dedicated","server_os":"Linux","password":true,"vac":true,"version":"7757534","steam_id":85568392925397958,"keywords":["cp","nocrits","nodmgspread","uncletopia"],"game_id":440,"stv_port":27046,"stv_name":"Uncletopia | Sydney | 4 | All Maps | STV","players":null},{"server_id":58,"name":"Uncletopia | Sydney | 5 | Stopwatch Beta","name_short":"syd-5","host":"syd-1.au.uncletopia.com","port":27055,"enabled":true,"region":"au","cc":"au","latitude":-33.865143,"longitude":151.2099,"reserved":0,"last_update":"0001-01-01T00:00:00Z","name_a2s":"Uncletopia | Sydney | 5 | Stopwatch Beta","protocol":17,"map":"pl_barnblitz","folder":"tf","game":"Team Fortress","app_id":440,"player_count":0,"max_players":24,"Bots":0,"server_type":"Dedicated","server_os":"Linux","password":true,"vac":true,"version":"7757534","steam_id":85568392925397959,"keywords":["nocrits","nodmgspread","payload","uncletopia"],"game_id":440,"stv_port":27056,"stv_name":"Uncletopia | Sydney | 5 | Stopwatch Beta | STV","players":null},{"server_id":59,"name":"Uncletopia | Sydney | 6 | Community","name_short":"syd-6","host":"syd-1.au.uncletopia.com","port":27065,"enabled":true,"region":"au","cc":"au","latitude":-33.865143,"longitude":151.2099,"reserved":0,"last_update":"0001-01-01T00:00:00Z","name_a2s":"Uncletopia | Sydney | 6 | Community","protocol":17,"map":"workshop/pl_vigil_rc9.ugc1266210012","folder":"tf","game":"Team Fortress","app_id":440,"player_count":0,"max_players":24,"Bots":0,"server_type":"Dedicated","server_os":"Linux","password":true,"vac":true,"version":"7757534","steam_id":85568392925397960,"keywords":["nocrits","nodmgspread","payload","uncletopia"],"game_id":440,"stv_port":27066,"stv_name":"Uncletopia | Sydney | 6 | Community | STV","players":null},{"server_id":49,"name":"Uncletopia | Warsaw | 1 | All Maps","name_short":"waw-1","host":"waw-1.pl.uncletopia.com","port":27015,"enabled":true,"region":"eu","cc":"pl","latitude":52.2297,"longitude":21.017532,"reserved":0,"last_update":"0001-01-01T00:00:00Z","name_a2s":"","protocol":0,"map":"","folder":"","game":"","app_id":0,"player_count":0,"max_players":0,"Bots":0,"server_type":"","server_os":"","password":false,"vac":false,"version":"","steam_id":0,"keywords":null,"game_id":0,"stv_port":0,"stv_name":"","players":null},{"server_id":50,"name":"Uncletopia | Warsaw | 2 | All Maps","name_short":"waw-2","host":"waw-1.pl.uncletopia.com","port":27025,"enabled":true,"region":"eu","cc":"pl","latitude":52.2297,"longitude":21.017532,"reserved":0,"last_update":"0001-01-01T00:00:00Z","name_a2s":"Uncletopia | Warsaw | 2 | All Maps","protocol":17,"map":"cp_snakewater_final1","folder":"tf","game":"Team Fortress","app_id":440,"player_count":0,"max_players":24,"Bots":0,"server_type":"Dedicated","server_os":"Linux","password":true,"vac":true,"version":"7757534","steam_id":85568392925397851,"keywords":["cp","nocrits","nodmgspread","uncletopia"],"game_id":440,"stv_port":27026,"stv_name":"Uncletopia | Warsaw | 2 | All Maps | STV","players":null},{"server_id":51,"name":"Uncletopia | Warsaw | 3 | All Maps","name_short":"waw-3","host":"waw-1.pl.uncletopia.com","port":27035,"enabled":true,"region":"eu","cc":"pl","latitude":52.2297,"longitude":21.017532,"reserved":0,"last_update":"0001-01-01T00:00:00Z","name_a2s":"Uncletopia | Warsaw | 3 | All Maps","protocol":17,"map":"cp_sunshine","folder":"tf","game":"Team Fortress","app_id":440,"player_count":0,"max_players":24,"Bots":0,"server_type":"Dedicated","server_os":"Linux","password":true,"vac":true,"version":"7757534","steam_id":85568392925397852,"keywords":["cp","nocrits","nodmgspread","uncletopia"],"game_id":440,"stv_port":27036,"stv_name":"Uncletopia | Warsaw | 3 | All Maps | STV","players":null},{"server_id":52,"name":"Uncletopia | Warsaw | 4 | All Maps","name_short":"waw-4","host":"waw-1.pl.uncletopia.com","port":27045,"enabled":true,"region":"eu","cc":"pl","latitude":52.2297,"longitude":21.017532,"reserved":0,"last_update":"0001-01-01T00:00:00Z","name_a2s":"Uncletopia | Warsaw | 4 | All Maps","protocol":17,"map":"pl_borneo","folder":"tf","game":"Team Fortress","app_id":440,"player_count":0,"max_players":24,"Bots":0,"server_type":"Dedicated","server_os":"Linux","password":true,"vac":true,"version":"7757534","steam_id":85568392925397853,"keywords":["nocrits","nodmgspread","payload","uncletopia"],"game_id":440,"stv_port":27046,"stv_name":"Uncletopia | Warsaw | 4 | All Maps | STV","players":null},{"server_id":53,"name":"Uncletopia | Warsaw | 5 | Stopwatch Beta","name_short":"waw-5","host":"waw-1.pl.uncletopia.com","port":27055,"enabled":true,"region":"eu","cc":"pl","latitude":52.2297,"longitude":21.017532,"reserved":0,"last_update":"0001-01-01T00:00:00Z","name_a2s":"Uncletopia | Warsaw | 5 | Stopwatch Beta","protocol":17,"map":"pl_upward","folder":"tf","game":"Team Fortress","app_id":440,"player_count":0,"max_players":24,"Bots":0,"server_type":"Dedicated","server_os":"Linux","password":true,"vac":true,"version":"7757534","steam_id":85568392925397854,"keywords":["nocrits","nodmgspread","payload","uncletopia"],"game_id":440,"stv_port":27056,"stv_name":"Uncletopia | Warsaw | 5 | Stopwatch Beta | STV","players":null},{"server_id":54,"name":"Uncletopia | Warsaw | 6 | Community","name_short":"waw-6","host":"waw-1.pl.uncletopia.com","port":27065,"enabled":true,"region":"eu","cc":"pl","latitude":52.2297,"longitude":21.017532,"reserved":0,"last_update":"0001-01-01T00:00:00Z","name_a2s":"Uncletopia | Warsaw | 6 | Community","protocol":17,"map":"pl_barnblitz","folder":"tf","game":"Team Fortress","app_id":440,"player_count":0,"max_players":24,"Bots":0,"server_type":"Dedicated","server_os":"Linux","password":true,"vac":true,"version":"7757534","steam_id":85568392925397856,"keywords":["nocrits","nodmgspread","payload","uncletopia"],"game_id":440,"stv_port":27066,"stv_name":"Uncletopia | Warsaw | 6 | Community | STV","players":null}]}