{"status":true,"message":"","result":[{"server_id":9,"name":"Uncletopia | Atlanta | 1 | All Maps","name_short":"atl-1","host":"atl-1.us.uncletopia.com","port":27015,"enabled":true,"region":"us-east","cc":"us","latitude":33.753746,"longitude":-84.38633,"reserved":0,"last_update":"0001-01-01T00:00:00Z","name_a2s":"Uncletopia | Atlanta | 1 | All Maps","protocol":17,"map":"koth_king","folder":"tf","game":"Team Fortress","app_id":440,"player_count":23,"max_players":24,"Bots":0,"server_type":"Dedicated","server_os":"Linux","password":true,"vac":true,"version":"7757534","steam_id":85568392924469982,"keywords":["cp","nocrits","nodmgspread","uncletopia"],"game_id":440,"stv_port":27016,"stv_name":"Uncletopia | Atlanta | 1 | All Maps | STV","players":[{"user_id":301,"name":"【TRHD】Pharaxer™","steam_id":76561198051236069,"connected_time":3799000000000,"state":"active","ping":149},{"user_id":335,"name":"JamesSaysRelax","steam_id":76561198055687973,"connected_time":380000000000,"state":"active","ping":63},{"user_id":328,"name":"hyuck","steam_id":76561198319990195,"connected_time":1186000000000,"state":"active","ping":82},{"user_id":338,"name":"ough","steam_id":76561199156428309,"connected_time":180000000000,"state":"active","ping":43},{"user_id":308,"name":"Veilos","steam_id":76561198071897172,"connected_time":3557000000000,"state":"active","ping":88},{"user_id":246,"name":"Ikalpo","steam_id":76561198044686915,"connected_time":8968000000000,"state":"active","ping":127},{"user_id":333,"name":"ATL1 | Psionic Box","steam_id":76561198151019322,"connected_time":425000000000,"state":"active","ping":75},{"user_id":332,"name":"Plinko","steam_id":76561197968530638,"connected_time":614000000000,"state":"active","ping":34},{"user_id":248,"name":"Godmode","steam_id":76561198076240365,"connected_time":8677000000000,"state":"active","ping":79},{"user_id":228,"name":"new years hooters","steam_id":76561198068022595,"connected_time":10895000000000,"state":"active","ping":69},{"user_id":323,"name":"Alt","steam_id":76561197992591984,"connected_time":1525000000000,"state":"active","ping":86},{"user_id":317,"name":"MyamE","steam_id":76561198133278462,"connected_time":2492000000000,"state":"active","ping":78},{"user_id":286,"name":"no-longer-festive pork trooper","steam_id":76561198150327877,"connected_time":5336000000000,"state":"active","ping":42},{"user_id":316,"name":"Stuart Little 2","steam_id":76561198097272509,"connected_time":2509000000000,"state":"active","ping":34},{"user_id":252,"name":"chen","steam_id":76561198064872330,"connected_time":8598000000000,"state":"active","ping":78},{"user_id":294,"name":"cola","steam_id":76561198374390458,"connected_time":5010000000000,"state":"active","ping":69},{"user_id":322,"name":"Im High","steam_id":76561198049954886,"connected_time":1529000000000,"state":"active","ping":65},{"user_id":336,"name":"Soul Garg Plushy","steam_id":76561198044480181,"connected_time":331000000000,"state":"active","ping":67},{"user_id":310,"name":"fortnite.jimmy.2014","steam_id":76561199177672325,"connected_time":3188000000000,"state":"active","ping":45},{"user_id":329,"name":"merge without looking","steam_id":76561198056702628,"connected_time":1179000000000,"state":"active","ping":57},{"user_id":330,"name":"Eviscerator","steam_id":76561197980073637,"connected_time":947000000000,"state":"active","ping":102},{"user_id":258,"name":"MillerWhite","steam_id":76561198076060357,"connected_time":8255000000000,"state":"active","ping":85},{"user_id":331,"name":"「Spud Wrench」","steam_id":76561198089615706,"connected_time":922000000000,"state":"active","ping":75}]},{"server_id":400,"name":"Uncletopia | Atlanta | 3 | Stopwatch Beta","name_short":"atl-3","host":"atl-1.us.uncletopia.com","port":27035,"enabled":true,"region":"us-east","cc":"us","latitude":33.753746,"longitude":-84.38633,"reserved":0,"last_update":"0001-01-01T00:00:00Z","name_a2s":"Uncletopia | Atlanta | 3 | Stopwatch Beta","protocol":17,"map":"workshop/koth_ashville_final.ugc2130459942","folder":"tf","game":"Team Fortress","app_id":440,"player_count":24,"max_players":24,"Bots":0,"server_type":"Dedicated","server_os":"Linux","password":true,"vac":true,"version":"7757534","steam_id":85568392924515187,"keywords":["cp","nocrits","nodmgspread","uncletopia"],"game_id":440,"stv_port":27036,"stv_name":"Uncletopia | Atlanta | 3 | Stopwatch Beta | STV","players":[{"user_id":391,"name":"/","steam_id":76561198009818412,"connected_time":1560000000000,"state":"active","ping":61},{"user_id":405,"name":"zorp","steam_id":76561198115254326,"connected_time":496000000000,"state":"active","ping":60},{"user_id":393,"name":"I-die-often","steam_id":76561197996780327,"connected_time":1509000000000,"state":"active","ping":70},{"user_id":341,"name":"kid squid","steam_id":76561198167016289,"connected_time":3438000000000,"state":"active","ping":74},{"user_id":412,"name":"DannyBoy","steam_id":76561198044198580,"connected_time":166000000000,"state":"active","ping":90},{"user_id":392,"name":"Gongus","steam_id":76561199199194177,"connected_time":1523000000000,"state":"active","ping":74},{"user_id":395,"name":"Barracuda","steam_id":76561198013022083,"connected_time":1449000000000,"state":"active","ping":73},{"user_id":401,"name":"El Bondin","steam_id":76561198820792434,"connected_time":923000000000,"state":"active","ping":84},{"user_id":403,"name":"stinkiest smelliest gamer ever","steam_id":76561198014593467,"connected_time":667000000000,"state":"active","ping":37},{"user_id":330,"name":"oopsboom24","steam_id":76561199105248648,"connected_time":4070000000000,"state":"active","ping":82},{"user_id":331,"name":"Beanboi","steam_id":76561198977881677,"connected_time":3959000000000,"state":"active","ping":54},{"user_id":350,"name":"Eins","steam_id":76561199030343810,"connected_time":3218000000000,"state":"active","ping":47},{"user_id":363,"name":"Swoletard","steam_id":76561198074212758,"connected_time":2762000000000,"state":"active","ping":47},{"user_id":411,"name":"Drilly22","steam_id":76561198068838338,"connected_time":183000000000,"state":"active","ping":89},{"user_id":404,"name":"Olive","steam_id":76561198003474783,"connected_time":614000000000,"state":"active","ping":62},{"user_id":409,"name":"Zeora","steam_id":76561198799145251,"connected_time":255000000000,"state":"active","ping":58},{"user_id":408,"name":"Aunty Frazzle","steam_id":76561198145596626,"connected_time":382000000000,"state":"active","ping":124},{"user_id":402,"name":"volta","steam_id":76561199214283884,"connected_time":765000000000,"state":"active","ping":107},{"user_id":343,"name":"vortexgamer","steam_id":76561197999435527,"connected_time":3352000000000,"state":"active","ping":94},{"user_id":344,"name":"FEARSUM ENDJINN","steam_id":76561197984273698,"connected_time":3338000000000,"state":"active","ping":90},{"user_id":347,"name":"Halcyon","steam_id":76561197999409268,"connected_time":3294000000000,"state":"active","ping":85},{"user_id":348,"name":"stuporvillian","steam_id":76561198083796225,"connected_time":3291000000000,"state":"active","ping":70},{"user_id":354,"name":"RandomPixels","steam_id":76561198844646074,"connected_time":3071000000000,"state":"active","ping":67},{"user_id":365,"name":"Dr.Piss The Lemonade Man","steam_id":76561198088578255,"connected_time":2743000000000,"state":"active","ping":56}]},{"server_id":401,"name":"Uncletopia | Atlanta | 4 | No Payload","name_short":"atl-4","host":"atl-1.us.uncletopia.com","port":27045,"enabled":true,"region":"us-east","cc":"us","latitude":33.753746,"longitude":-84.38633,"reserved":0,"last_update":"0001-01-01T00:00:00Z","name_a2s":"Uncletopia | Atlanta | 4 | No Payload","protocol":17,"map":"pl_pier","folder":"tf","game":"Team Fortress","app_id":440,"player_count":0,"max_players":24,"Bots":0,"server_type":"Dedicated","server_os":"Linux","password":true,"vac":true,"version":"7723704","steam_id":85568392924515188,"keywords":["nocrits","nodmgspread","payload","uncletopia"],"game_id":440,"stv_port":27046,"stv_name":"Uncletopia | Atlanta | 4 | No Payload | STV","players":null},{"server_id":2,"name":"Uncletopia | Chicago | 1 | All Maps","name_short":"chi-1","host":"chi-1.us.uncletopia.com","port":27015,"enabled":true,"region":"us-central","cc":"us","latitude":41.881832,"longitude":-87.62318,"reserved":0,"last_update":"0001-01-01T00:00:00Z","name_a2s":"Uncletopia | Chicago | 1 | All Maps","protocol":17,"map":"pl_badwater","folder":"tf","game":"Team Fortress","app_id":440,"player_count":24,"max_players":24,"Bots":0,"server_type":"Dedicated","server_os":"Linux","password":true,"vac":true,"version":"7757534","steam_id":85568392924469984,"keywords":["nocrits","nodmgspread","payload","uncletopia"],"game_id":440,"stv_port":27016,"stv_name":"Uncletopia | Chicago | 1 | All Maps | STV","players":[{"user_id":460,"name":"Female Gamer","steam_id":76561199366482682,"connected_time":1673000000000,"state":"active","ping":102},{"user_id":387,"name":"CeigeBirb","steam_id":76561198068538473,"connected_time":6133000000000,"state":"active","ping":75},{"user_id":473,"name":"MARIOPARTYDSFAN","steam_id":76561198872122117,"connected_time":199000000000,"state":"active","ping":65},{"user_id":456,"name":"sapien","steam_id":76561198294281809,"connected_time":1849000000000,"state":"active","ping":90},{"user_id":455,"name":"capybara","steam_id":76561198798828328,"connected_time":1972000000000,"state":"active","ping":48},{"user_id":429,"name":"Derply","steam_id":76561198871211642,"connected_time":3487000000000,"state":"active","ping":95},{"user_id":442,"name":"JimmyWings","steam_id":76561198999925713,"connected_time":2184000000000,"state":"active","ping":61},{"user_id":444,"name":"trumpet","steam_id":76561198130523690,"connected_time":2169000000000,"state":"active","ping":47},{"user_id":453,"name":"Derblitz","steam_id":76561198040953176,"connected_time":2002000000000,"state":"active","ping":110},{"user_id":449,"name":"Blue Collar","steam_id":76561198354781722,"connected_time":2087000000000,"state":"active","ping":97},{"user_id":462,"name":"ThtGyVrThr","steam_id":76561198805852870,"connected_time":1631000000000,"state":"active","ping":88},{"user_id":474,"name":"Manu","steam_id":76561198145330934,"connected_time":176000000000,"state":"active","ping":126},{"user_id":435,"name":"mr.edderkopper","steam_id":76561198152614478,"connected_time":3354000000000,"state":"active","ping":67},{"user_id":433,"name":"AkaDoggo","steam_id":76561198968291063,"connected_time":3391000000000,"state":"active","ping":63},{"user_id":464,"name":"catboy phroliax","steam_id":76561198207075529,"connected_time":981000000000,"state":"active","ping":103},{"user_id":477,"name":"motov","steam_id":76561197990238902,"connected_time":149000000000,"state":"active","ping":149},{"user_id":469,"name":"Riku","steam_id":76561198047287940,"connected_time":244000000000,"state":"active","ping":73},{"user_id":441,"name":"Quatts","steam_id":76561198051482153,"connected_time":2477000000000,"state":"active","ping":57},{"user_id":475,"name":"Vox Vulpera","steam_id":76561198796227041,"connected_time":174000000000,"state":"active","ping":71},{"user_id":468,"name":"sand","steam_id":76561199238923581,"connected_time":410000000000,"state":"active","ping":116},{"user_id":476,"name":"AOTFB | WhiteWolf6421","steam_id":76561199184921234,"connected_time":171000000000,"state":"active","ping":98},{"user_id":470,"name":"kite","steam_id":76561198346516392,"connected_time":233000000000,"state":"active","ping":68},{"user_id":420,"name":"gallowsCalibrator","steam_id":76561198404707578,"connected_time":4230000000000,"state":"active","ping":73},{"user_id":390,"name":"Fluffeline","steam_id":76561198352909489,"connected_time":5756000000000,"state":"active","ping":143}]},{"server_id":106,"name":"Uncletopia | Chicago | 2 | All Maps","name_short":"chi-2","host":"chi-1.us.uncletopia.com","port":27025,"enabled":true,"region":"us-central","cc":"us","latitude":41.881832,"longitude":-87.62318,"reserved":0,"last_update":"0001-01-01T00:00:00Z","name_a2s":"Uncletopia | Chicago | 2 | All Maps","protocol":17,"map":"cp_snakewater_final1","folder":"tf","game":"Team Fortress","app_id":440,"player_count":24,"max_players":24,"Bots":0,"server_type":"Dedicated","server_os":"Linux","password":true,"vac":true,"version":"7757534","steam_id":85568392924469985,"keywords":["cp","nocrits","nodmgspread","uncletopia"],"game_id":440,"stv_port":27026,"stv_name":"Uncletopia | Chicago | 2 | All Maps | STV","players":[{"user_id":217,"name":"PanCAKEEE","steam_id":76561198237489544,"connected_time":3535000000000,"state":"active","ping":91},{"user_id":246,"name":"deepmeta","steam_id":76561199053600691,"connected_time":1581000000000,"state":"active","ping":61},{"user_id":269,"name":"$3.99 Shrimps","steam_id":76561198077272494,"connected_time":88000000000,"state":"active","ping":55},{"user_id":262,"name":"CJDGuy","steam_id":76561198213009545,"connected_time":490000000000,"state":"active","ping":77},{"user_id":235,"name":"Saikou!!!","steam_id":76561198044045406,"connected_time":2581000000000,"state":"active","ping":75},{"user_id":254,"name":"Chuckled","steam_id":76561198217425919,"connected_time":1385000000000,"state":"active","ping":82},{"user_id":275,"name":"crs22","steam_id":76561198120149196,"connected_time":53000000000,"state":"active","ping":63},{"user_id":263,"name":"Dug","steam_id":76561198017691029,"connected_time":262000000000,"state":"active","ping":53},{"user_id":270,"name":"Strangelove","steam_id":76561198353773611,"connected_time":81000000000,"state":"active","ping":82},{"user_id":248,"name":"I like cheese (real)","steam_id":76561198882837408,"connected_time":1566000000000,"state":"active","ping":94},{"user_id":258,"name":"a crazy hobo","steam_id":76561198289650060,"connected_time":866000000000,"state":"active","ping":91},{"user_id":223,"name":"Calryan","steam_id":76561198060080966,"connected_time":3122000000000,"state":"active","ping":85},{"user_id":279,"name":"Money Collector","steam_id":76561198046249467,"connected_time":21000000000,"state":"active","ping":62},{"user_id":256,"name":"LilDreamer","steam_id":76561198804054102,"connected_time":1131000000000,"state":"active","ping":46},{"user_id":250,"name":"Ch4rl33","steam_id":76561198037008621,"connected_time":1555000000000,"state":"active","ping":50},{"user_id":253,"name":"fresco","steam_id":76561199101199477,"connected_time":1456000000000,"state":"active","ping":62},{"user_id":259,"name":"maS","steam_id":76561198033846407,"connected_time":844000000000,"state":"active","ping":43},{"user_id":230,"name":"Tourmaline Lazuli","steam_id":76561198987049358,"connected_time":2913000000000,"state":"active","ping":49},{"user_id":268,"name":"Furry Saul Goodman","steam_id":76561198069580305,"connected_time":94000000000,"state":"active","ping":58},{"user_id":167,"name":"Le","steam_id":76561198817754233,"connected_time":7029000000000,"state":"active","ping":85},{"user_id":276,"name":"SoWhich","steam_id":76561198237125842,"connected_time":40000000000,"state":"active","ping":59},{"user_id":224,"name":"Shipmunk","steam_id":76561198063062670,"connected_time":3119000000000,"state":"active","ping":56},{"user_id":168,"name":"wenshengqiu","steam_id":76561199048682062,"connected_time":6970000000000,"state":"active","ping":83},{"user_id":266,"name":"a table","steam_id":76561198158461279,"connected_time":174000000000,"state":"active","ping":71}]},{"server_id":402,"name":"Uncletopia | Chicago | 3 | All Maps","name_short":"chi-3","host":"chi-1.us.uncletopia.com","port":27035,"enabled":true,"region":"us-central","cc":"us","latitude":41.881832,"longitude":-87.62318,"reserved":0,"last_update":"0001-01-01T00:00:00Z","name_a2s":"Uncletopia | Chicago | 3 | All Maps","protocol":17,"map":"cp_process_final","folder":"tf","game":"Team Fortress","app_id":440,"player_count":24,"max_players":24,"Bots":0,"server_type":"Dedicated","server_os":"Linux","password":true,"vac":true,"version":"7757534","steam_id":85568392924515191,"keywords":["cp","nocrits","nodmgspread","uncletopia"],"game_id":440,"stv_port":27036,"stv_name":"Uncletopia | Chicago | 3 | All Maps | STV","players":[{"user_id":292,"name":"Vionas","steam_id":76561198012478039,"connected_time":3172000000000,"state":"active","ping":52},{"user_id":310,"name":"SSBM Pelican","steam_id":76561198040697907,"connected_time":2028000000000,"state":"active","ping":73},{"user_id":325,"name":"Pancreas Enjoyer","steam_id":76561199438598904,"connected_time":1162000000000,"state":"active","ping":106},{"user_id":327,"name":"Dusk","steam_id":76561199093333752,"connected_time":1147000000000,"state":"active","ping":83},{"user_id":326,"name":"Beardface31","steam_id":76561198009000764,"connected_time":1158000000000,"state":"active","ping":83},{"user_id":320,"name":"ethan","steam_id":76561198132637556,"connected_time":1591000000000,"state":"active","ping":56},{"user_id":328,"name":"Normal Bagel","steam_id":76561198153971949,"connected_time":939000000000,"state":"active","ping":60},{"user_id":299,"name":"drunk AND high","steam_id":76561198161824724,"connected_time":2999000000000,"state":"active","ping":62},{"user_id":319,"name":"1920","steam_id":76561198111669774,"connected_time":1676000000000,"state":"active","ping":45},{"user_id":333,"name":"PAC-MATH","steam_id":76561198327729748,"connected_time":668000000000,"state":"active","ping":86},{"user_id":295,"name":"Banana","steam_id":76561198321485249,"connected_time":3121000000000,"state":"active","ping":58},{"user_id":314,"name":"Dennis Rodman","steam_id":76561198880396651,"connected_time":1975000000000,"state":"active","ping":89},{"user_id":337,"name":"Edi","steam_id":76561198283003299,"connected_time":608000000000,"state":"active","ping":98},{"user_id":332,"name":"fhelp","steam_id":76561198332712960,"connected_time":735000000000,"state":"active","ping":167},{"user_id":302,"name":"Skeleton Hotel","steam_id":76561198041704727,"connected_time":2908000000000,"state":"active","ping":57},{"user_id":324,"name":"Chrome Knight","steam_id":76561198851348871,"connected_time":1187000000000,"state":"active","ping":78},{"user_id":318,"name":"Malinok","steam_id":76561198025681131,"connected_time":1905000000000,"state":"active","ping":87},{"user_id":334,"name":"Huntsman Legend","steam_id":76561199122670387,"connected_time":656000000000,"state":"active","ping":76},{"user_id":323,"name":"GreenApples","steam_id":76561198120559543,"connected_time":1333000000000,"state":"active","ping":102},{"user_id":307,"name":"Baphy","steam_id":76561199088719865,"connected_time":2343000000000,"state":"active","ping":150},{"user_id":338,"name":"mellofello","steam_id":76561198445016236,"connected_time":73000000000,"state":"active","ping":65},{"user_id":330,"name":"a e i o u","steam_id":76561198822328368,"connected_time":752000000000,"state":"active","ping":129},{"user_id":257,"name":"Mildstrife","steam_id":76561198000080715,"connected_time":5576000000000,"state":"active","ping":69},{"user_id":336,"name":"Hvit","steam_id":76561198091594259,"connected_time":622000000000,"state":"active","ping":96}]},{"server_id":403,"name":"Uncletopia | Chicago | 4 | All Maps","name_short":"chi-4","host":"chi-1.us.uncletopia.com","port":27045,"enabled":true,"region":"us-central","cc":"us","latitude":41.881832,"longitude":-87.62318,"reserved":0,"last_update":"0001-01-01T00:00:00Z","name_a2s":"Uncletopia | Chicago | 4 | All Maps","protocol":17,"map":"pl_badwater","folder":"tf","game":"Team Fortress","app_id":440,"player_count":24,"max_players":24,"Bots":0,"server_type":"Dedicated","server_os":"Linux","password":true,"vac":true,"version":"7757534","steam_id":85568392924515193,"keywords":["nocrits","nodmgspread","payload","uncletopia"],"game_id":440,"stv_port":27046,"stv_name":"Uncletopia | Chicago | 4 | All Maps | STV","players":[{"user_id":578,"name":"Chris","steam_id":76561197970315094,"connected_time":1082000000000,"state":"active","ping":54},{"user_id":580,"name":"boneyard","steam_id":76561199080454140,"connected_time":1028000000000,"state":"active","ping":66},{"user_id":579,"name":"(TTV) The_Astrum_Guardian","steam_id":76561198130134103,"connected_time":1049000000000,"state":"active","ping":67},{"user_id":523,"name":"Olimar","steam_id":76561197993812175,"connected_time":6105000000000,"state":"active","ping":70},{"user_id":552,"name":"Epicgamer92 (Wisdom teeth rec)","steam_id":76561198312448484,"connected_time":3507000000000,"state":"active","ping":49},{"user_id":599,"name":"Guest","steam_id":76561198241004916,"connected_time":327000000000,"state":"active","ping":93},{"user_id":510,"name":"Ominous Whir","steam_id":76561198002851724,"connected_time":6507000000000,"state":"active","ping":70},{"user_id":601,"name":"kbharcher","steam_id":76561198200138614,"connected_time":243000000000,"state":"active","ping":89},{"user_id":561,"name":"haxxorman","steam_id":76561199155156400,"connected_time":2754000000000,"state":"active","ping":59},{"user_id":546,"name":"KrashBoomBang","steam_id":76561199002978777,"connected_time":4211000000000,"state":"active","ping":77},{"user_id":582,"name":"Big McThankies From McSpankies","steam_id":76561198020516880,"connected_time":1022000000000,"state":"active","ping":96},{"user_id":564,"name":"Banana Dispenser","steam_id":76561198446549451,"connected_time":2705000000000,"state":"active","ping":151},{"user_id":573,"name":"CM32MAker","steam_id":76561199157487382,"connected_time":1912000000000,"state":"active","ping":74},{"user_id":600,"name":"definitely not cris","steam_id":76561198930426710,"connected_time":249000000000,"state":"active","ping":79},{"user_id":583,"name":"seats","steam_id":76561197998756039,"connected_time":991000000000,"state":"active","ping":101},{"user_id":595,"name":"Pizza Shrapnel","steam_id":76561197999467876,"connected_time":409000000000,"state":"active","ping":85},{"user_id":585,"name":"[CCP] Key XI 習近平","steam_id":76561198825658971,"connected_time":986000000000,"state":"active","ping":91},{"user_id":571,"name":"drdoofus123","steam_id":76561198016826181,"connected_time":2239000000000,"state":"active","ping":77},{"user_id":603,"name":"confidence","steam_id":76561197998594414,"connected_time":157000000000,"state":"active","ping":46},{"user_id":469,"name":"Epha","steam_id":76561198079379951,"connected_time":8560000000000,"state":"active","ping":63},{"user_id":529,"name":"Fully Upgraded Tacos","steam_id":76561199071130651,"connected_time":5219000000000,"state":"active","ping":81},{"user_id":587,"name":"Cheese Graffiti","steam_id":76561198046575913,"connected_time":973000000000,"state":"active","ping":61},{"user_id":589,"name":"¿skitt1eS?","steam_id":76561198330093211,"connected_time":943000000000,"state":"active","ping":66},{"user_id":597,"name":"FirestormB312","steam_id":76561198968709608,"connected_time":359000000000,"state":"active","ping":64}]},{"server_id":36,"name":"Uncletopia | Chicago | 5 | All Maps","name_short":"chi-5","host":"chi-2.us.uncletopia.com","port":27015,"enabled":true,"region":"us-central","cc":"us","latitude":41.881832,"longitude":-87.62318,"reserved":0,"last_update":"0001-01-01T00:00:00Z","name_a2s":"Uncletopia | Chicago | 5 | All Maps","protocol":17,"map":"pl_barnblitz","folder":"tf","game":"Team Fortress","app_id":440,"player_count":24,"max_players":24,"Bots":0,"server_type":"Dedicated","server_os":"Linux","password":true,"vac":true,"version":"7757534","steam_id":85568392924866362,"keywords":["nocrits","nodmgspread","payload","uncletopia"],"game_id":440,"stv_port":27016,"stv_name":"Uncletopia | Chicago | 5 | All Maps | STV","players":[{"user_id":362,"name":"THE REAL JIMMY NEUTRON","steam_id":76561198039909187,"connected_time":7289000000000,"state":"active","ping":55},{"user_id":444,"name":"Mothership","steam_id":76561198044029501,"connected_time":1942000000000,"state":"active","ping":149},{"user_id":432,"name":"He Angy","steam_id":76561198347050941,"connected_time":3091000000000,"state":"active","ping":58},{"user_id":363,"name":"Uppercut Enjoyer","steam_id":76561198097432114,"connected_time":7280000000000,"state":"active","ping":70},{"user_id":364,"name":"Wiggly Willy","steam_id":76561198073635970,"connected_time":7278000000000,"state":"active","ping":98},{"user_id":366,"name":"Tucker Carlzyn","steam_id":76561199176040928,"connected_time":7260000000000,"state":"active","ping":77},{"user_id":413,"name":"I_Am_Lazy","steam_id":76561199030283067,"connected_time":3984000000000,"state":"active","ping":84},{"user_id":449,"name":"Brooke Trout","steam_id":76561198035879910,"connected_time":1364000000000,"state":"active","ping":72},{"user_id":450,"name":"pv.Bebop","steam_id":76561198207022619,"connected_time":1351000000000,"state":"active","ping":72},{"user_id":460,"name":"bushy","steam_id":76561198138088830,"connected_time":827000000000,"state":"active","ping":75},{"user_id":453,"name":"Erase Mii","steam_id":76561198320891129,"connected_time":1343000000000,"state":"active","ping":86},{"user_id":407,"name":"Moscow Medic","steam_id":76561198071040516,"connected_time":4365000000000,"state":"active","ping":63},{"user_id":447,"name":"Censing Auto, The Challenger","steam_id":76561198060926681,"connected_time":1488000000000,"state":"active","ping":67},{"user_id":459,"name":"Theodore Roosevelt","steam_id":76561197993295656,"connected_time":1018000000000,"state":"active","ping":48},{"user_id":448,"name":"MrVegasAguitar","steam_id":76561198084466946,"connected_time":1460000000000,"state":"active","ping":109},{"user_id":424,"name":"CapnKris22","steam_id":76561198049010994,"connected_time":3729000000000,"state":"active","ping":60},{"user_id":427,"name":"macironi and chesse","steam_id":76561199098060805,"connected_time":3359000000000,"state":"active","ping":65},{"user_id":434,"name":"Summer","steam_id":76561198121692871,"connected_time":3006000000000,"state":"active","ping":65},{"user_id":457,"name":"Re The Father of Terror","steam_id":76561198365493549,"connected_time":1182000000000,"state":"active","ping":68},{"user_id":454,"name":"Lilac Lulamoon","steam_id":76561198111402757,"connected_time":1328000000000,"state":"active","ping":74},{"user_id":436,"name":"Dealyo","steam_id":76561198282395338,"connected_time":2953000000000,"state":"active","ping":86},{"user_id":418,"name":"[ YOU ARE DEAD ]","steam_id":76561198112388117,"connected_time":3953000000000,"state":"active","ping":83},{"user_id":461,"name":"sxl","steam_id":76561198150627999,"connected_time":734000000000,"state":"active","ping":84},{"user_id":462,"name":"reis","steam_id":76561199232952016,"connected_time":684000000000,"state":"active","ping":181}]},{"server_id":37,"name":"Uncletopia | Chicago | 6 | All Maps","name_short":"chi-6","host":"chi-2.us.uncletopia.com","port":27025,"enabled":true,"region":"us-central","cc":"us","latitude":41.881832,"longitude":-87.62318,"reserved":0,"last_update":"0001-01-01T00:00:00Z","name_a2s":"Uncletopia | Chicago | 6 | All Maps","protocol":17,"map":"koth_highpass","folder":"tf","game":"Team Fortress","app_id":440,"player_count":0,"max_players":24,"Bots":0,"server_type":"Dedicated","server_os":"Linux","password":true,"vac":true,"version":"7757534","steam_id":85568392924866363,"keywords":["cp","nocrits","nodmgspread","uncletopia"],"game_id":440,"stv_port":27026,"stv_name":"Uncletopia | Chicago | 6 | All Maps | STV","players":null},{"server_id":38,"name":"Uncletopia | Chicago | 7 | Stopwatch Beta","name_short":"chi-7","host":"chi-2.us.uncletopia.com","port":27035,"enabled":true,"region":"us-central","cc":"us","latitude":41.881832,"longitude":-87.62318,"reserved":0,"last_update":"0001-01-01T00:00:00Z","name_a2s":"Uncletopia | Chicago | 7 | Stopwatch Beta","protocol":17,"map":"workshop/koth_bagel_rc5.ugc2514036946","folder":"tf","game":"Team Fortress","app_id":440,"player_count":0,"max_players":24,"Bots":0,"server_type":"Dedicated","server_os":"Linux","password":true,"vac":true,"version":"7757534","steam_id":85568392924866364,"keywords":["cp","nocrits","nodmgspread","uncletopia"],"game_id":440,"stv_port":27036,"stv_name":"Uncletopia | Chicago | 7 | Stopwatch Beta | STV","players":null},{"server_id":39,"name":"Uncletopia | Chicago | 8 | Community","name_short":"chi-8","host":"chi-2.us.uncletopia.com","port":27045,"enabled":true,"region":"us-central","cc":"us","latitude":41.881832,"longitude":-87.62318,"reserved":0,"last_update":"0001-01-01T00:00:00Z","name_a2s":"Uncletopia | Chicago | 8 | Community","protocol":17,"map":"workshop/koth_product_final.ugc454272353","folder":"tf","game":"Team Fortress","app_id":440,"player_count":0,"max_players":24,"Bots":0,"server_type":"Dedicated","server_os":"Linux","password":true,"vac":true,"version":"7757534","steam_id":85568392924866365,"keywords":["cp","nocrits","nodmgspread","uncletopia"],"game_id":440,"stv_port":27046,"stv_name":"Uncletopia | Chicago | 8 | Community | STV","players":null},{"server_id":8,"name":"Uncletopia | Dallas | 1 | All Maps","name_short":"dal-1","host":"dal-1.us.uncletopia.com","port":27015,"enabled":true,"region":"us-central","cc":"us","latitude":32.779167,"longitude":-96.80889,"reserved":0,"last_update":"0001-01-01T00:00:00Z","name_a2s":"Uncletopia | Dallas | 1 | All Maps","protocol":17,"map":"pl_borneo","folder":"tf","game":"Team Fortress","app_id":440,"player_count":24,"max_players":24,"Bots":0,"server_type":"Dedicated","server_os":"Linux","password":true,"vac":true,"version":"7757534","steam_id":85568392924469986,"keywords":["nocrits","nodmgspread","payload","uncletopia"],"game_id":440,"stv_port":27016,"stv_name":"Uncletopia | Dallas | 1 | All Maps | STV","players":[{"user_id":526,"name":"Alberto2104","steam_id":76561198094968873,"connected_time":461000000000,"state":"active","ping":87},{"user_id":486,"name":"sebjzy","steam_id":76561198009959034,"connected_time":3447000000000,"state":"active","ping":57},{"user_id":525,"name":"Im A Bald Eagle","steam_id":76561198072769793,"connected_time":510000000000,"state":"active","ping":86},{"user_id":519,"name":"Punished Jeff #NeverSimpAgain","steam_id":76561198304252584,"connected_time":927000000000,"state":"active","ping":84},{"user_id":502,"name":"Drake from State Farm","steam_id":76561199069029812,"connected_time":2336000000000,"state":"active","ping":86},{"user_id":501,"name":"DarthRevan","steam_id":76561198164492361,"connected_time":2377000000000,"state":"active","ping":90},{"user_id":523,"name":"Bastion","steam_id":76561199133903803,"connected_time":690000000000,"state":"active","ping":69},{"user_id":514,"name":"dwippy_","steam_id":76561198010602479,"connected_time":1379000000000,"state":"active","ping":89},{"user_id":518,"name":"Maistro Albañil","steam_id":76561199158536984,"connected_time":940000000000,"state":"active","ping":69},{"user_id":513,"name":"Luna","steam_id":76561198075944196,"connected_time":1501000000000,"state":"active","ping":71},{"user_id":506,"name":"Aeris","steam_id":76561198287271028,"connected_time":2204000000000,"state":"active","ping":82},{"user_id":483,"name":"barker bill","steam_id":76561198018451994,"connected_time":3514000000000,"state":"active","ping":57},{"user_id":509,"name":"Hotchquz","steam_id":76561198021140277,"connected_time":1888000000000,"state":"active","ping":85},{"user_id":473,"name":"SniperSteve10","steam_id":76561198025629647,"connected_time":3849000000000,"state":"active","ping":52},{"user_id":528,"name":"Gummy","steam_id":76561198085120599,"connected_time":431000000000,"state":"active","ping":134},{"user_id":431,"name":"cereal killer","steam_id":76561198246181902,"connected_time":5761000000000,"state":"active","ping":66},{"user_id":364,"name":"Bonniefan712","steam_id":76561199289809788,"connected_time":9982000000000,"state":"active","ping":85},{"user_id":459,"name":"layabout","steam_id":76561198130892117,"connected_time":4667000000000,"state":"active","ping":90},{"user_id":527,"name":"Project Dusk","steam_id":76561198193521149,"connected_time":459000000000,"state":"active","ping":70},{"user_id":522,"name":"Blue_Yoshi","steam_id":76561199455280829,"connected_time":834000000000,"state":"active","ping":69},{"user_id":510,"name":"Bullwinkle J. Moose","steam_id":76561198075977196,"connected_time":1637000000000,"state":"active","ping":57},{"user_id":485,"name":"Ironaka","steam_id":76561198029993183,"connected_time":3474000000000,"state":"active","ping":96},{"user_id":515,"name":"scuttles","steam_id":76561199250039100,"connected_time":1119000000000,"state":"active","ping":70},{"user_id":441,"name":"the pharaoh's curse","steam_id":76561198041731826,"connected_time":5112000000000,"state":"active","ping":82}]},{"server_id":108,"name":"Uncletopia | Dallas | 2 | All Maps","name_short":"dal-2","host":"dal-1.us.uncletopia.com","port":27025,"enabled":true,"region":"us-central","cc":"us","latitude":32.779167,"longitude":-96.80889,"reserved":0,"last_update":"0001-01-01T00:00:00Z","name_a2s":"Uncletopia | Dallas | 2 | All Maps","protocol":17,"map":"pl_swiftwater_final1","folder":"tf","game":"Team Fortress","app_id":440,"player_count":24,"max_players":24,"Bots":0,"server_type":"Dedicated","server_os":"Linux","password":true,"vac":true,"version":"7757534","steam_id":85568392924469988,"keywords":["nocrits","nodmgspread","payload","uncletopia"],"game_id":440,"stv_port":27026,"stv_name":"Uncletopia | Dallas | 2 | All Maps | STV","players":[{"user_id":387,"name":"Rat Smacker","steam_id":76561199090197628,"connected_time":1984000000000,"state":"active","ping":62},{"user_id":403,"name":"Iron","steam_id":76561198247918478,"connected_time":496000000000,"state":"active","ping":65},{"user_id":390,"name":"The Great Karizma!","steam_id":76561198346191193,"connected_time":1317000000000,"state":"active","ping":75},{"user_id":374,"name":"hej","steam_id":76561197996366940,"connected_time":3176000000000,"state":"active","ping":86},{"user_id":406,"name":"SPREAD CHRISTMAS CHEER AND JOY","steam_id":76561198800386026,"connected_time":208000000000,"state":"active","ping":89},{"user_id":371,"name":"survivalist bubbie","steam_id":76561198860460013,"connected_time":3521000000000,"state":"active","ping":74},{"user_id":405,"name":"[LINUX] Konunkier","steam_id":76561198093538786,"connected_time":401000000000,"state":"active","ping":48},{"user_id":373,"name":"Krow","steam_id":76561198010392099,"connected_time":3328000000000,"state":"active","ping":52},{"user_id":380,"name":"Uncle","steam_id":76561197988647705,"connected_time":2307000000000,"state":"active","ping":76},{"user_id":386,"name":"Anon","steam_id":76561198109740776,"connected_time":2045000000000,"state":"active","ping":95},{"user_id":400,"name":"Malex","steam_id":76561198012216805,"connected_time":770000000000,"state":"active","ping":83},{"user_id":364,"name":"FG7","steam_id":76561198381197197,"connected_time":3860000000000,"state":"active","ping":100},{"user_id":401,"name":"Mister Boombastic","steam_id":76561198355442714,"connected_time":766000000000,"state":"active","ping":79},{"user_id":397,"name":"ManiacalPotato","steam_id":76561198055603041,"connected_time":978000000000,"state":"active","ping":49},{"user_id":402,"name":"gamingandnaming","steam_id":76561198981737120,"connected_time":735000000000,"state":"active","ping":94},{"user_id":393,"name":"indi","steam_id":76561198045917538,"connected_time":1293000000000,"state":"active","ping":73},{"user_id":396,"name":"MaximumAce","steam_id":76561198359596849,"connected_time":1230000000000,"state":"active","ping":67},{"user_id":385,"name":"Hindmost","steam_id":76561199081837220,"connected_time":2100000000000,"state":"active","ping":131},{"user_id":366,"name":"Dr. Feelsbad","steam_id":76561198117671709,"connected_time":3851000000000,"state":"active","ping":106},{"user_id":323,"name":"TheConchinator","steam_id":76561199388149092,"connected_time":7621000000000,"state":"active","ping":85},{"user_id":388,"name":"Emprial","steam_id":76561198195574594,"connected_time":1969000000000,"state":"active","ping":61},{"user_id":404,"name":"skipper","steam_id":76561198395965181,"connected_time":483000000000,"state":"active","ping":86},{"user_id":389,"name":":)","steam_id":76561198304917276,"connected_time":1612000000000,"state":"active","ping":155},{"user_id":326,"name":"theancientnut","steam_id":76561199396708880,"connected_time":7549000000000,"state":"active","ping":86}]},{"server_id":5,"name":"Uncletopia | Frankfurt | 1 | All Maps","name_short":"frk-1","host":"frk-1.de.uncletopia.com","port":27015,"enabled":true,"region":"eu","cc":"de","latitude":50.110924,"longitude":8.682127,"reserved":0,"last_update":"0001-01-01T00:00:00Z","name_a2s":"Uncletopia | Frankfurt | 1 | All Maps","protocol":17,"map":"cp_dustbowl","folder":"tf","game":"Team Fortress","app_id":440,"player_count":0,"max_players":24,"Bots":0,"server_type":"Dedicated","server_os":"Linux","password":true,"vac":true,"version":"7757534","steam_id":85568392924469989,"keywords":["cp","nocrits","nodmgspread","uncletopia"],"game_id":440,"stv_port":27016,"stv_name":"Uncletopia | Frankfurt | 1 | All Maps | STV","players":null},{"server_id":110,"name":"Uncletopia | Frankfurt | 2 | All Maps","name_short":"frk-2","host":"frk-1.de.uncletopia.com","port":27025,"enabled":true,"region":"eu","cc":"de","latitude":50.110924,"longitude":8.682127,"reserved":0,"last_update":"0001-01-01T00:00:00Z","name_a2s":"Uncletopia | Frankfurt | 2 | All Maps","protocol":17,"map":"cp_process_final","folder":"tf","game":"Team Fortress","app_id":440,"player_count":0,"max_players":24,"Bots":0,"server_type":"Dedicated","server_os":"Linux","password":true,"vac":true,"version":"7757534","steam_id":85568392924469990,"keywords":["cp","nocrits","nodmgspread","uncletopia"],"game_id":440,"stv_port":27026,"stv_name":"Uncletopia | Frankfurt | 2 | All Maps | STV","players":null},{"server_id":308,"name":"Uncletopia | Frankfurt | 3 | All Maps","name_short":"frk-3","host":"frk-1.de.uncletopia.com","port":27035,"enabled":true,"region":"eu","cc":"de","latitude":50.110924,"longitude":8.682127,"reserved":0,"last_update":"0001-01-01T00:00:00Z","name_a2s":"Uncletopia | Frankfurt | 3 | All Maps","protocol":17,"map":"pl_swiftwater_final1","folder":"tf","game":"Team Fortress","app_id":440,"player_count":11,"max_players":24,"Bots":0,"server_type":"Dedicated","server_os":"Linux","password":true,"vac":true,"version":"7757534","steam_id":85568392924504274,"keywords":["nocrits","nodmgspread","payload","uncletopia"],"game_id":440,"stv_port":27036,"stv_name":"Uncletopia | Frankfurt | 3 | All Maps | STV","players":[{"user_id":631,"name":"Scottish Resistance","steam_id":76561198071360214,"connected_time":496000000000,"state":"active","ping":45},{"user_id":636,"name":"Rio","steam_id":76561198876081905,"connected_time":68000000000,"state":"active","ping":88},{"user_id":633,"name":"Dicktator","steam_id":76561198042196910,"connected_time":383000000000,"state":"active","ping":50},{"user_id":627,"name":"¡!Ulexos!¡","steam_id":76561198087502998,"connected_time":749000000000,"state":"active","ping":48},{"user_id":623,"name":"8114","steam_id":76561198069214797,"connected_time":1277000000000,"state":"active","ping":82},{"user_id":608,"name":"R8N - Obismal","steam_id":76561198007482714,"connected_time":2340000000000,"state":"active","ping":77},{"user_id":564,"name":"Light601","steam_id":76561198134998492,"connected_time":6018000000000,"state":"active","ping":122},{"user_id":617,"name":"Xam","steam_id":76561198164869318,"connected_time":1879000000000,"state":"active","ping":65},{"user_id":594,"name":"dec","steam_id":76561198009660168,"connected_time":3490000000000,"state":"active","ping":67},{"user_id":611,"name":"Carol Olston","steam_id":76561198080257273,"connected_time":2311000000000,"state":"active","ping":56},{"user_id":597,"name":"Backup","steam_id":76561197999557567,"connected_time":3299000000000,"state":"active","ping":47}]},{"server_id":309,"name":"Uncletopia | Frankfurt | 4 | All Maps","name_short":"frk-4","host":"frk-1.de.uncletopia.com","port":27045,"enabled":true,"region":"eu","cc":"de","latitude":50.110924,"longitude":8.682127,"reserved":0,"last_update":"0001-01-01T00:00:00Z","name_a2s":"Uncletopia | Frankfurt | 4 | All Maps","protocol":17,"map":"pl_barnblitz","folder":"tf","game":"Team Fortress","app_id":440,"player_count":24,"max_players":24,"Bots":0,"server_type":"Dedicated","server_os":"Linux","password":true,"vac":true,"version":"7757534","steam_id":85568392924504275,"keywords":["nocrits","nodmgspread","payload","uncletopia"],"game_id":440,"stv_port":27046,"stv_name":"Uncletopia | Frankfurt | 4 | All Maps | STV","players":[{"user_id":871,"name":"the idea tube","steam_id":76561198083505031,"connected_time":899000000000,"state":"active","ping":46},{"user_id":865,"name":"Plop_","steam_id":76561198112567921,"connected_time":1187000000000,"state":"active","ping":45},{"user_id":889,"name":"peni$","steam_id":76561197993672814,"connected_time":95000000000,"state":"active","ping":75},{"user_id":872,"name":"ivanmixo","steam_id":76561198160213989,"connected_time":896000000000,"state":"active","ping":64},{"user_id":861,"name":"Kalypso","steam_id":76561198241519562,"connected_time":1289000000000,"state":"active","ping":77},{"user_id":873,"name":"sirbush","steam_id":76561198308441724,"connected_time":850000000000,"state":"active","ping":47},{"user_id":876,"name":"український нац","steam_id":76561199376143133,"connected_time":801000000000,"state":"active","ping":70},{"user_id":881,"name":"Clipboard","steam_id":76561198415266145,"connected_time":590000000000,"state":"active","ping":61},{"user_id":858,"name":"WarpdriveEngineer","steam_id":76561198073530973,"connected_time":1462000000000,"state":"active","ping":143},{"user_id":874,"name":"Sportacus","steam_id":76561198972632062,"connected_time":849000000000,"state":"active","ping":44},{"user_id":866,"name":"drippin jimmy","steam_id":76561198219243969,"connected_time":1026000000000,"state":"active","ping":64},{"user_id":882,"name":"Chazzarknight","steam_id":76561198124847019,"connected_time":564000000000,"state":"active","ping":99},{"user_id":833,"name":"tuna","steam_id":76561198121590248,"connected_time":2980000000000,"state":"active","ping":51},{"user_id":883,"name":"Infantile Pillock","steam_id":76561198283851362,"connected_time":539000000000,"state":"active","ping":57},{"user_id":857,"name":"WolF384","steam_id":76561198056769525,"connected_time":1510000000000,"state":"active","ping":71},{"user_id":875,"name":"First Order Stormtrooper","steam_id":76561198259620504,"connected_time":843000000000,"state":"active","ping":58},{"user_id":855,"name":"CAMON ENGELAND","steam_id":76561198054301125,"connected_time":1609000000000,"state":"active","ping":93},{"user_id":884,"name":"Homeboundtoast","steam_id":76561198799225947,"connected_time":520000000000,"state":"active","ping":75},{"user_id":867,"name":"Aqo","steam_id":76561197992991704,"connected_time":1024000000000,"state":"active","ping":115},{"user_id":868,"name":"minion","steam_id":76561198065025716,"connected_time":1020000000000,"state":"active","ping":162},{"user_id":887,"name":"Sofield","steam_id":76561198962904985,"connected_time":428000000000,"state":"active","ping":77},{"user_id":859,"name":"Zola","steam_id":76561198103606132,"connected_time":1451000000000,"state":"active","ping":48},{"user_id":888,"name":"Summer ♥","steam_id":76561198047723907,"connected_time":392000000000,"state":"active","ping":59},{"user_id":878,"name":"crose","steam_id":76561199105854514,"connected_time":792000000000,"state":"active","ping":59}]},{"server_id":310,"name":"Uncletopia | Frankfurt | 5 | All Maps","name_short":"frk-5","host":"frk-1.de.uncletopia.com","port":27055,"enabled":true,"region":"eu","cc":"de","latitude":50.110924,"longitude":8.682127,"reserved":0,"last_update":"0001-01-01T00:00:00Z","name_a2s":"Uncletopia | Frankfurt | 5 | All Maps","protocol":17,"map":"cp_sunshine","folder":"tf","game":"Team Fortress","app_id":440,"player_count":0,"max_players":24,"Bots":0,"server_type":"Dedicated","server_os":"Linux","password":true,"vac":true,"version":"7757534","steam_id":85568392924504277,"keywords":["cp","nocrits","nodmgspread","uncletopia"],"game_id":440,"stv_port":27056,"stv_name":"Uncletopia | Frankfurt | 5 | All Maps | STV","players":null},{"server_id":311,"name":"Uncletopia | Frankfurt | 6 | All Maps","name_short":"frk-6","host":"frk-1.de.uncletopia.com","port":27065,"enabled":true,"region":"eu","cc":"de","latitude":50.110924,"longitude":8.682127,"reserved":0,"last_update":"0001-01-01T00:00:00Z","name_a2s":"Uncletopia | Frankfurt | 6 | All Maps","protocol":17,"map":"pl_upward","folder":"tf","game":"Team Fortress","app_id":440,"player_count":11,"max_players":24,"Bots":0,"server_type":"Dedicated","server_os":"Linux","password":true,"vac":true,"version":"7757534","steam_id":85568392924504278,"keywords":["nocrits","nodmgspread","payload","uncletopia"],"game_id":440,"stv_port":27066,"stv_name":"Uncletopia | Frankfurt | 6 | All Maps | STV","players":[{"user_id":378,"name":"A Succulent Chinese Meal","steam_id":76561198069472440,"connected_time":808000000000,"state":"active","ping":78},{"user_id":361,"name":"frosty","steam_id":76561198832112629,"connected_time":3152000000000,"state":"active","ping":67},{"user_id":386,"name":"(LGBTQ)Piritramit","steam_id":76561198061626168,"connected_time":77000000000,"state":"active","ping":36},{"user_id":347,"name":"non_ai","steam_id":76561198270951938,"connected_time":4060000000000,"state":"active","ping":123},{"user_id":338,"name":"Pizzi","steam_id":76561198133085347,"connected_time":5485000000000,"state":"active","ping":52},{"user_id":383,"name":"Bromoneto","steam_id":76561198876695014,"connected_time":427000000000,"state":"active","ping":85},{"user_id":380,"name":"bug eater","steam_id":76561198038827937,"connected_time":761000000000,"state":"active","ping":60},{"user_id":384,"name":"Pyrope Gaming","steam_id":76561199027981643,"connected_time":324000000000,"state":"active","ping":156},{"user_id":333,"name":"lkx","steam_id":76561198048250715,"connected_time":5583000000000,"state":"active","ping":49},{"user_id":373,"name":"Mani Fredde","steam_id":76561199233979726,"connected_time":1833000000000,"state":"active","ping":76},{"user_id":334,"name":"BeS","steam_id":76561198045752247,"connected_time":5582000000000,"state":"active","ping":46}]},{"server_id":23,"name":"Uncletopia | Frankfurt | 7 | Stopwatch Beta","name_short":"frk-7","host":"frk-1.de.uncletopia.com","port":27075,"enabled":true,"region":"eu","cc":"de","latitude":50.110924,"longitude":8.682127,"reserved":0,"last_update":"0001-01-01T00:00:00Z","name_a2s":"Uncletopia | Frankfurt | 7 | Stopwatch Beta","protocol":17,"map":"workshop/koth_ashville_final.ugc2130459942","folder":"tf","game":"Team Fortress","app_id":440,"player_count":0,"max_players":24,"Bots":0,"server_type":"Dedicated","server_os":"Linux","password":true,"vac":true,"version":"7757534","steam_id":85568392924742827,"keywords":["cp","nocrits","nodmgspread","uncletopia"],"game_id":440,"stv_port":27076,"stv_name":"Uncletopia | Frankfurt | 7 | Stopwatch Beta | STV","players":null},{"server_id":24,"name":"Uncletopia | Frankfurt | 8 | Community","name_short":"frk-8","host":"frk-1.de.uncletopia.com","port":27085,"enabled":true,"region":"eu","cc":"de","latitude":50.110924,"longitude":8.682127,"reserved":0,"last_update":"0001-01-01T00:00:00Z","name_a2s":"Uncletopia | Frankfurt | 8 | Community","protocol":17,"map":"workshop/koth_ashville_final.ugc2130459942","folder":"tf","game":"Team Fortress","app_id":440,"player_count":0,"max_players":24,"Bots":0,"server_type":"Dedicated","server_os":"Linux","password":true,"vac":true,"version":"7757534","steam_id":85568392924742828,"keywords":["cp","nocrits","nodmgspread","uncletopia"],"game_id":440,"stv_port":27086,"stv_name":"Uncletopia | Frankfurt | 8 | Community | STV","players":null},{"server_id":202,"name":"Uncletopia | Hong Kong | 1 | All Maps","name_short":"hgk-1","host":"hgk-1.hk.uncletopia.com","port":27015,"enabled":true,"region":"asia","cc":"hk","latitude":22.302711,"longitude":114.177216,"reserved":0,"last_update":"0001-01-01T00:00:00Z","name_a2s":"Uncletopia | Hong Kong | 1 | All Maps","protocol":17,"map":"koth_lakeside_final","folder":"tf","game":"Team Fortress","app_id":440,"player_count":13,"max_players":24,"Bots":0,"server_type":"Dedicated","server_os":"Linux","password":true,"vac":true,"version":"7757534","steam_id":85568392924494504,"keywords":["cp","nocrits","nodmgspread","uncletopia"],"game_id":440,"stv_port":27016,"stv_name":"Uncletopia | Hong Kong | 1 | All Maps | STV","players":[{"user_id":10,"name":"ellz","steam_id":76561199216074568,"connected_time":1348000000000,"state":"active","ping":120},{"user_id":13,"name":"善良の墨","steam_id":76561199102754539,"connected_time":961000000000,"state":"active","ping":93},{"user_id":14,"name":"Uncle Chain","steam_id":76561198363526293,"connected_time":909000000000,"state":"active","ping":37},{"user_id":15,"name":"Lym0n","steam_id":76561199192420260,"connected_time":898000000000,"state":"active","ping":115},{"user_id":20,"name":"Talkk More","steam_id":76561198305424433,"connected_time":427000000000,"state":"active","ping":100},{"user_id":21,"name":"worndelight","steam_id":76561199056960214,"connected_time":258000000000,"state":"active","ping":135},{"user_id":22,"name":"マグナス","steam_id":76561198208990721,"connected_time":190000000000,"state":"active","ping":131},{"user_id":19,"name":"P","steam_id":76561198304514505,"connected_time":606000000000,"state":"active","ping":76},{"user_id":23,"name":"Kirov airship","steam_id":76561199024960087,"connected_time":131000000000,"state":"active","ping":48},{"user_id":24,"name":"Mars","steam_id":76561198846610729,"connected_time":111000000000,"state":"active","ping":104},{"user_id":25,"name":"MR. BUTTER","steam_id":76561198329902657,"connected_time":101000000000,"state":"active","ping":100},{"user_id":26,"name":"ShinuEmu","steam_id":76561199380734528,"connected_time":91000000000,"state":"active","ping":107},{"user_id":27,"name":"paling ganteng","steam_id":76561199166699292,"connected_time":21000000000,"state":"active","ping":141}]},{"server_id":1,"name":"Uncletopia | Los Angeles | 1 | All Maps","name_short":"lax-1","host":"lax-1.us.uncletopia.com","port":27015,"enabled":true,"region":"us-west","cc":"us","latitude":33.94279,"longitude":-118.41004,"reserved":0,"last_update":"0001-01-01T00:00:00Z","name_a2s":"Uncletopia | Los Angeles | 1 | All Maps","protocol":17,"map":"koth_viaduct","folder":"tf","game":"Team Fortress","app_id":440,"player_count":0,"max_players":24,"Bots":0,"server_type":"Dedicated","server_os":"Linux","password":true,"vac":true,"version":"7757534","steam_id":85568392924469991,"keywords":["cp","nocrits","nodmgspread","uncletopia"],"game_id":440,"stv_port":27016,"stv_name":"Uncletopia | Los Angeles | 1 | All Maps | STV","players":null},{"server_id":112,"name":"Uncletopia | Los Angeles | 2 | All Maps","name_short":"lax-2","host":"lax-1.us.uncletopia.com","port":27025,"enabled":true,"region":"us-west","cc":"us","latitude":33.94279,"longitude":-118.41004,"reserved":0,"last_update":"0001-01-01T00:00:00Z","name_a2s":"Uncletopia | Los Angeles | 2 | All Maps","protocol":17,"map":"cp_snakewater_final1","folder":"tf","game":"Team Fortress","app_id":440,"player_count":24,"max_players":24,"Bots":0,"server_type":"Dedicated","server_os":"Linux","password":true,"vac":true,"version":"7757534","steam_id":85568392924469992,"keywords":["cp","nocrits","nodmgspread","uncletopia"],"game_id":440,"stv_port":27026,"stv_name":"Uncletopia | Los Angeles | 2 | All Maps | STV","players":[{"user_id":609,"name":"Shoggoth","steam_id":76561198117892299,"connected_time":273000000000,"state":"active","ping":93},{"user_id":611,"name":"Solaire","steam_id":76561198035762837,"connected_time":163000000000,"state":"active","ping":123},{"user_id":585,"name":"zach","steam_id":76561198119902667,"connected_time":1949000000000,"state":"active","ping":54},{"user_id":581,"name":"UneditedAndy","steam_id":76561198982544947,"connected_time":2046000000000,"state":"active","ping":52},{"user_id":598,"name":"Sparkly Venice","steam_id":76561198056445740,"connected_time":987000000000,"state":"active","ping":99},{"user_id":602,"name":"stoned jester","steam_id":76561198079609974,"connected_time":364000000000,"state":"active","ping":61},{"user_id":590,"name":"algebraictoast","steam_id":76561198230086812,"connected_time":1817000000000,"state":"active","ping":56},{"user_id":603,"name":"Adalwolfa","steam_id":76561198194671218,"connected_time":357000000000,"state":"active","ping":79},{"user_id":607,"name":"senorpapel","steam_id":76561198040507073,"connected_time":306000000000,"state":"active","ping":122},{"user_id":530,"name":"evan_is_sauce","steam_id":76561199086802383,"connected_time":5436000000000,"state":"active","ping":95},{"user_id":599,"name":"OWL_DUTY5107","steam_id":76561199138869641,"connected_time":434000000000,"state":"active","ping":97},{"user_id":547,"name":"Ginger Jesus","steam_id":76561198052386458,"connected_time":4183000000000,"state":"active","ping":105},{"user_id":605,"name":"HanakoToast","steam_id":76561198045233131,"connected_time":350000000000,"state":"active","ping":67},{"user_id":579,"name":"yes","steam_id":76561199165980912,"connected_time":2075000000000,"state":"active","ping":127},{"user_id":550,"name":"Kopenich","steam_id":76561198066205245,"connected_time":4136000000000,"state":"active","ping":54},{"user_id":601,"name":"kr1tsurf3r","steam_id":76561198076402476,"connected_time":410000000000,"state":"active","ping":78},{"user_id":580,"name":"thebestman982","steam_id":76561199001698710,"connected_time":2074000000000,"state":"active","ping":95},{"user_id":596,"name":"KermitWithAShotgun","steam_id":76561198200567415,"connected_time":1470000000000,"state":"active","ping":87},{"user_id":569,"name":"Lane","steam_id":76561197965828506,"connected_time":2973000000000,"state":"active","ping":75},{"user_id":606,"name":"jturner1nm","steam_id":76561198344493652,"connected_time":342000000000,"state":"active","ping":109},{"user_id":610,"name":"Jacck916","steam_id":76561198176874157,"connected_time":205000000000,"state":"active","ping":119},{"user_id":586,"name":"Aireoh","steam_id":76561198097178603,"connected_time":1933000000000,"state":"active","ping":118},{"user_id":593,"name":"ZxDsE","steam_id":76561198999547192,"connected_time":1702000000000,"state":"active","ping":45},{"user_id":540,"name":"GamerPizza","steam_id":76561198140520550,"connected_time":4648000000000,"state":"active","ping":79}]},{"server_id":324,"name":"Uncletopia | Los Angeles | 3 | All Maps","name_short":"lax-3","host":"lax-1.us.uncletopia.com","port":27035,"enabled":true,"region":"us-west","cc":"us","latitude":33.94279,"longitude":-118.41004,"reserved":0,"last_update":"0001-01-01T00:00:00Z","name_a2s":"Uncletopia | Los Angeles | 3 | All Maps","protocol":17,"map":"pl_barnblitz","folder":"tf","game":"Team Fortress","app_id":440,"player_count":0,"max_players":24,"Bots":0,"server_type":"Dedicated","server_os":"Linux","password":true,"vac":true,"version":"7757534","steam_id":85568392924510198,"keywords":["nocrits","nodmgspread","payload","uncletopia"],"game_id":440,"stv_port":27036,"stv_name":"Uncletopia | Los Angeles | 3 | All Maps | STV","players":null},{"server_id":25,"name":"Uncletopia | Los Angeles | 4 | Stopwatch Beta","name_short":"lax-4","host":"lax-1.us.uncletopia.com","port":27045,"enabled":true,"region":"us-west","cc":"us","latitude":33.94279,"longitude":-118.41004,"reserved":0,"last_update":"0001-01-01T00:00:00Z","name_a2s":"Uncletopia | Los Angeles | 4 | Stopwatch Beta","protocol":17,"map":"koth_viaduct","folder":"tf","game":"Team Fortress","app_id":440,"player_count":0,"max_players":24,"Bots":0,"server_type":"Dedicated","server_os":"Linux","password":true,"vac":true,"version":"7757534","steam_id":85568392924510199,"keywords":["cp","nocrits","nodmgspread","uncletopia"],"game_id":440,"stv_port":27046,"stv_name":"Uncletopia | Los Angeles | 4 | Stopwatch Beta | STV","players":null},{"server_id":11,"name":"Uncletopia | London | 1 | All Maps","name_short":"lon-1","host":"lon-1.uk.uncletopia.com","port":27015,"enabled":true,"region":"eu","cc":"gb","latitude":51.509865,"longitude":-0.118092,"reserved":0,"last_update":"0001-01-01T00:00:00Z","name_a2s":"Uncletopia | London | 1 | All Maps","protocol":17,"map":"pl_snowycoast","folder":"tf","game":"Team Fortress","app_id":440,"player_count":0,"max_players":24,"Bots":0,"server_type":"Dedicated","server_os":"Linux","password":true,"vac":true,"version":"7757534","steam_id":85568392924367362,"keywords":["nocrits","nodmgspread","payload","uncletopia"],"game_id":440,"stv_port":27016,"stv_name":"Uncletopia | London | 1 | All Maps | STV","players":null},{"server_id":114,"name":"Uncletopia | London | 2 | All Maps","name_short":"lon-2","host":"lon-1.uk.uncletopia.com","port":27025,"enabled":true,"region":"eu","cc":"gb","latitude":51.509865,"longitude":-0.118092,"reserved":0,"last_update":"0001-01-01T00:00:00Z","name_a2s":"Uncletopia | London | 2 | All Maps","protocol":17,"map":"cp_dustbowl","folder":"tf","game":"Team Fortress","app_id":440,"player_count":2,"max_players":24,"Bots":0,"server_type":"Dedicated","server_os":"Linux","password":true,"vac":true,"version":"7757534","steam_id":85568392924470941,"keywords":["cp","nocrits","nodmgspread","uncletopia"],"game_id":440,"stv_port":27026,"stv_name":"Uncletopia | London | 2 | All Maps | STV","players":[{"user_id":715,"name":"smart fella","steam_id":76561198315732431,"connected_time":5473000000000,"state":"active","ping":171},{"user_id":716,"name":"Cosmic Yoshi","steam_id":76561199195528497,"connected_time":5371000000000,"state":"active","ping":173}]},{"server_id":320,"name":"Uncletopia | London | 3 | All Maps","name_short":"lon-3","host":"lon-1.uk.uncletopia.com","port":27035,"enabled":true,"region":"eu","cc":"gb","latitude":51.509865,"longitude":-0.118092,"reserved":0,"last_update":"0001-01-01T00:00:00Z","name_a2s":"Uncletopia | London | 3 | All Maps","protocol":17,"map":"pl_upward","folder":"tf","game":"Team Fortress","app_id":440,"player_count":23,"max_players":24,"Bots":0,"server_type":"Dedicated","server_os":"Linux","password":true,"vac":true,"version":"7757534","steam_id":85568392924510192,"keywords":["nocrits","nodmgspread","payload","uncletopia"],"game_id":440,"stv_port":27036,"stv_name":"Uncletopia | London | 3 | All Maps | STV","players":[{"user_id":763,"name":"apple","steam_id":76561198116932635,"connected_time":3783000000000,"state":"active","ping":42},{"user_id":786,"name":"Pavvler","steam_id":76561199446614223,"connected_time":2526000000000,"state":"active","ping":165},{"user_id":814,"name":"CactusFarms","steam_id":76561199009131802,"connected_time":1258000000000,"state":"active","ping":53},{"user_id":733,"name":"Penis Contortionist","steam_id":76561198073663784,"connected_time":6171000000000,"state":"active","ping":34},{"user_id":822,"name":"Za_Warudo_69_420","steam_id":76561199172415952,"connected_time":82000000000,"state":"active","ping":51},{"user_id":821,"name":"Bloop","steam_id":76561198152645636,"connected_time":184000000000,"state":"active","ping":45},{"user_id":820,"name":"Minimi","steam_id":76561198873850443,"connected_time":315000000000,"state":"active","ping":45},{"user_id":774,"name":"Alibi","steam_id":76561198061845595,"connected_time":2984000000000,"state":"active","ping":47},{"user_id":803,"name":"Jmen","steam_id":76561198000501096,"connected_time":1955000000000,"state":"active","ping":59},{"user_id":819,"name":"minor molester","steam_id":76561199414716848,"connected_time":364000000000,"state":"active","ping":74},{"user_id":785,"name":"subway vergil","steam_id":76561199110064166,"connected_time":2611000000000,"state":"active","ping":58},{"user_id":790,"name":"Nikcha","steam_id":76561198253300222,"connected_time":2356000000000,"state":"active","ping":50},{"user_id":804,"name":"rizzley bear","steam_id":76561198890409949,"connected_time":1947000000000,"state":"active","ping":91},{"user_id":823,"name":"Sckytes","steam_id":76561198046050018,"connected_time":64000000000,"state":"active","ping":85},{"user_id":792,"name":"SooS","steam_id":76561198058943929,"connected_time":2339000000000,"state":"active","ping":76},{"user_id":811,"name":"kuso","steam_id":76561198058031466,"connected_time":1790000000000,"state":"active","ping":72},{"user_id":764,"name":"Jar","steam_id":76561198156384007,"connected_time":3776000000000,"state":"active","ping":48},{"user_id":794,"name":"Varin","steam_id":76561198872319542,"connected_time":2278000000000,"state":"active","ping":40},{"user_id":795,"name":"Willrick","steam_id":76561198224886244,"connected_time":2277000000000,"state":"active","ping":60},{"user_id":815,"name":"Areck2","steam_id":76561199041737814,"connected_time":947000000000,"state":"active","ping":40},{"user_id":798,"name":"Jack\u003c3","steam_id":76561197968851846,"connected_time":2255000000000,"state":"active","ping":54},{"user_id":813,"name":"RIP Pop RIP Von RIP X #ganja","steam_id":76561198119528210,"connected_time":1520000000000,"state":"active","ping":55},{"user_id":810,"name":"Kernewëk","steam_id":76561198271772640,"connected_time":1833000000000,"state":"active","ping":42}]},{"server_id":321,"name":"Uncletopia | London | 4 | All Maps","name_short":"lon-4","host":"lon-1.uk.uncletopia.com","port":27045,"enabled":true,"region":"eu","cc":"gb","latitude":51.509865,"longitude":-0.118092,"reserved":0,"last_update":"0001-01-01T00:00:00Z","name_a2s":"Uncletopia | London | 4 | All Maps","protocol":17,"map":"koth_highpass","folder":"tf","game":"Team Fortress","app_id":440,"player_count":0,"max_players":24,"Bots":0,"server_type":"Dedicated","server_os":"Linux","password":true,"vac":true,"version":"7757534","steam_id":85568392924510193,"keywords":["cp","nocrits","nodmgspread","uncletopia"],"game_id":440,"stv_port":27046,"stv_name":"Uncletopia | London | 4 | All Maps | STV","players":null},{"server_id":21,"name":"Uncletopia | London | 5 | All Maps","name_short":"lon-5","host":"lon-1.uk.uncletopia.com","port":27055,"enabled":true,"region":"eu","cc":"gb","latitude":51.509865,"longitude":-0.118092,"reserved":0,"last_update":"0001-01-01T00:00:00Z","name_a2s":"Uncletopia | London | 5 | All Maps","protocol":17,"map":"cp_snakewater_final1","folder":"tf","game":"Team Fortress","app_id":440,"player_count":4,"max_players":24,"Bots":0,"server_type":"Dedicated","server_os":"Linux","password":true,"vac":true,"version":"7757534","steam_id":85568392924742829,"keywords":["cp","nocrits","nodmgspread","uncletopia"],"game_id":440,"stv_port":27056,"stv_name":"Uncletopia | London | 5 | All Maps | STV","players":[{"user_id":455,"name":"BarbÀtrou","steam_id":76561199439141531,"connected_time":2388000000000,"state":"active","ping":42},{"user_id":459,"name":"ThiccMedicc","steam_id":76561198413675639,"connected_time":1148000000000,"state":"active","ping":75},{"user_id":176,"name":"Loop_Cat","steam_id":76561199045902145,"connected_time":22103000000000,"state":"active","ping":129},{"user_id":426,"name":"pomidor (not russian)","steam_id":76561197996127223,"connected_time":5860000000000,"state":"active","ping":71}]},{"server_id":22,"name":"Uncletopia | London | 6 | All Maps","name_short":"lon-6","host":"lon-1.uk.uncletopia.com","port":27065,"enabled":true,"region":"eu","cc":"gb","latitude":51.509865,"longitude":-0.118092,"reserved":0,"last_update":"0001-01-01T00:00:00Z","name_a2s":"Uncletopia | London | 6 | All Maps","protocol":17,"map":"pl_frontier_final","folder":"tf","game":"Team Fortress","app_id":440,"player_count":22,"max_players":24,"Bots":0,"server_type":"Dedicated","server_os":"Linux","password":true,"vac":true,"version":"7757534","steam_id":85568392924742830,"keywords":["nocrits","nodmgspread","payload","uncletopia"],"game_id":440,"stv_port":27066,"stv_name":"Uncletopia | London | 6 | All Maps | STV","players":[{"user_id":425,"name":"MG TF 2004!","steam_id":76561198042975907,"connected_time":538000000000,"state":"active","ping":56},{"user_id":432,"name":"smelvin is approaching","steam_id":76561198166555207,"connected_time":287000000000,"state":"active","ping":48},{"user_id":402,"name":"rat performance","steam_id":76561198065854668,"connected_time":3455000000000,"state":"active","ping":39},{"user_id":426,"name":"AwterSix","steam_id":76561198042561678,"connected_time":524000000000,"state":"active","ping":64},{"user_id":433,"name":"Curvrstob","steam_id":76561199012446849,"connected_time":254000000000,"state":"active","ping":185},{"user_id":409,"name":"dangdut koplo vs chutney soca","steam_id":76561198051852765,"connected_time":2678000000000,"state":"active","ping":73},{"user_id":431,"name":"76561199065328117","steam_id":76561199065328117,"connected_time":346000000000,"state":"active","ping":63},{"user_id":430,"name":"Vieltox","steam_id":76561199075861497,"connected_time":365000000000,"state":"active","ping":69},{"user_id":376,"name":"BCFire","steam_id":76561198070663279,"connected_time":4719000000000,"state":"active","ping":51},{"user_id":435,"name":"cinny","steam_id":76561198094560834,"connected_time":162000000000,"state":"active","ping":60},{"user_id":377,"name":"shan780","steam_id":76561198077809195,"connected_time":4714000000000,"state":"active","ping":55},{"user_id":436,"name":"2011 Seat León","steam_id":76561197994310420,"connected_time":131000000000,"state":"active","ping":90},{"user_id":387,"name":"minn","steam_id":76561198099101232,"connected_time":4402000000000,"state":"active","ping":57},{"user_id":437,"name":"snowii","steam_id":76561198836246326,"connected_time":77000000000,"state":"active","ping":47},{"user_id":420,"name":"Дед Мороз","steam_id":76561198304902462,"connected_time":1283000000000,"state":"active","ping":65},{"user_id":438,"name":"eye for an eye","steam_id":76561198531978435,"connected_time":57000000000,"state":"active","ping":69},{"user_id":407,"name":"BreadBubbles","steam_id":76561198174332826,"connected_time":3052000000000,"state":"active","ping":53},{"user_id":395,"name":"ACG_Dubsy","steam_id":76561198797308565,"connected_time":3580000000000,"state":"active","ping":59},{"user_id":384,"name":"lv.1 crook","steam_id":76561198195857751,"connected_time":4554000000000,"state":"active","ping":70},{"user_id":439,"name":"TG morlo^","steam_id":76561198249301650,"connected_time":18000000000,"state":"spawning","ping":49},{"user_id":408,"name":"AsuX","steam_id":76561197990333289,"connected_time":2868000000000,"state":"active","ping":59},{"user_id":423,"name":"Bolb1","steam_id":76561198153539358,"connected_time":1134000000000,"state":"active","ping":73}]},{"server_id":40,"name":"Uncletopia | London | 7 | No Payload","name_short":"lon-7","host":"lon-1.uk.uncletopia.com","port":27075,"enabled":true,"region":"eu","cc":"gb","latitude":51.509865,"longitude":-0.118092,"reserved":0,"last_update":"0001-01-01T00:00:00Z","name_a2s":"Uncletopia | London | 7 | No Payload","protocol":17,"map":"cp_badlands","folder":"tf","game":"Team Fortress","app_id":440,"player_count":0,"max_players":24,"Bots":0,"server_type":"Dedicated","server_os":"Linux","password":true,"vac":true,"version":"7757534","steam_id":85568392924964314,"keywords":["cp","nocrits","nodmgspread","uncletopia"],"game_id":440,"stv_port":27076,"stv_name":"Uncletopia | London | 7 | No Payload | STV","players":null},{"server_id":41,"name":"Uncletopia | London | 8 | Community","name_short":"lon-8","host":"lon-1.uk.uncletopia.com","port":27085,"enabled":true,"region":"eu","cc":"gb","latitude":51.509865,"longitude":-0.118092,"reserved":0,"last_update":"0001-01-01T00:00:00Z","name_a2s":"Uncletopia | London | 8 | Community","protocol":17,"map":"workshop/koth_ashville_final.ugc2130459942","folder":"tf","game":"Team Fortress","app_id":440,"player_count":0,"max_players":24,"Bots":0,"server_type":"Dedicated","server_os":"Linux","password":true,"vac":true,"version":"7757534","steam_id":85568392924964315,"keywords":["cp","nocrits","nodmgspread","uncletopia"],"game_id":440,"stv_port":27086,"stv_name":"Uncletopia | London | 8 | Community | STV","players":null},{"server_id":300,"name":"Uncletopia | Montréal | 1 | All Maps","name_short":"mtl-1","host":"mtl-1.ca.uncletopia.com","port":27015,"enabled":true,"region":"us-east","cc":"ca","latitude":45.50889,"longitude":-73.56167,"reserved":0,"last_update":"0001-01-01T00:00:00Z","name_a2s":"Uncletopia | Montréal | 1 | All Maps","protocol":17,"map":"koth_cascade","folder":"tf","game":"Team Fortress","app_id":440,"player_count":0,"max_players":24,"Bots":0,"server_type":"Dedicated","server_os":"Linux","password":true,"vac":true,"version":"7757534","steam_id":85568392924500087,"keywords":["cp","nocrits","nodmgspread","uncletopia"],"game_id":440,"stv_port":27016,"stv_name":"Uncletopia | Montréal | 1 | All Maps | STV","players":null},{"server_id":301,"name":"Uncletopia | Montréal | 2 | All Maps","name_short":"mtl-2","host":"mtl-1.ca.uncletopia.com","port":27025,"enabled":true,"region":"us-east","cc":"ca","latitude":45.50889,"longitude":-73.56167,"reserved":0,"last_update":"0001-01-01T00:00:00Z","name_a2s":"Uncletopia | Montréal | 2 | All Maps","protocol":17,"map":"koth_lakeside_final","folder":"tf","game":"Team Fortress","app_id":440,"player_count":0,"max_players":24,"Bots":0,"server_type":"Dedicated","server_os":"Linux","password":true,"vac":true,"version":"7757534","steam_id":85568392924500088,"keywords":["cp","nocrits","nodmgspread","uncletopia"],"game_id":440,"stv_port":27026,"stv_name":"Uncletopia | Montréal | 2 | All Maps | STV","players":null},{"server_id":302,"name":"Uncletopia | Montréal | 3 | All Maps","name_short":"mtl-3","host":"mtl-1.ca.uncletopia.com","port":27035,"enabled":true,"region":"us-east","cc":"ca","latitude":45.50889,"longitude":-73.56167,"reserved":0,"last_update":"0001-01-01T00:00:00Z","name_a2s":"Uncletopia | Montréal | 3 | All Maps","protocol":17,"map":"cp_gorge","folder":"tf","game":"Team Fortress","app_id":440,"player_count":24,"max_players":24,"Bots":0,"server_type":"Dedicated","server_os":"Linux","password":true,"vac":true,"version":"7757534","steam_id":85568392924500089,"keywords":["cp","nocrits","nodmgspread","uncletopia"],"game_id":440,"stv_port":27036,"stv_name":"Uncletopia | Montréal | 3 | All Maps | STV","players":[{"user_id":47,"name":"Sodemo","steam_id":76561198074987146,"connected_time":234000000000,"state":"active","ping":73},{"user_id":27,"name":"Tapita de Lapicera Inusual","steam_id":76561199292130035,"connected_time":947000000000,"state":"active","ping":69},{"user_id":44,"name":"20 miles for a Quaalude","steam_id":76561198042579477,"connected_time":324000000000,"state":"active","ping":75},{"user_id":45,"name":"A Duck Phone!?","steam_id":76561198044707749,"connected_time":253000000000,"state":"active","ping":46},{"user_id":7,"name":"Misanthrope","steam_id":76561198090692884,"connected_time":2834000000000,"state":"active","ping":86},{"user_id":46,"name":"The Mr. Lunch","steam_id":76561198437703253,"connected_time":247000000000,"state":"active","ping":56},{"user_id":35,"name":"gulch","steam_id":76561199227946025,"connected_time":735000000000,"state":"active","ping":98},{"user_id":12,"name":"Oxybe","steam_id":76561198010089172,"connected_time":1738000000000,"state":"active","ping":57},{"user_id":40,"name":"uhooter","steam_id":76561198007829078,"connected_time":540000000000,"state":"active","ping":44},{"user_id":14,"name":"Banana","steam_id":76561198996230924,"connected_time":1706000000000,"state":"active","ping":58},{"user_id":15,"name":"30day","steam_id":76561198219163831,"connected_time":1502000000000,"state":"active","ping":39},{"user_id":16,"name":"Eldigan","steam_id":76561198271449992,"connected_time":1493000000000,"state":"active","ping":57},{"user_id":48,"name":"Bingus","steam_id":76561198001237783,"connected_time":223000000000,"state":"active","ping":22},{"user_id":41,"name":"JoJoSon","steam_id":76561198009413490,"connected_time":517000000000,"state":"active","ping":95},{"user_id":19,"name":"Weary","steam_id":76561198145767546,"connected_time":1414000000000,"state":"active","ping":53},{"user_id":50,"name":"bengineer","steam_id":76561198171912174,"connected_time":136000000000,"state":"active","ping":113},{"user_id":43,"name":"JoJo Carbon","steam_id":76561198086275486,"connected_time":439000000000,"state":"active","ping":62},{"user_id":39,"name":"JosephMother","steam_id":76561198110430494,"connected_time":562000000000,"state":"active","ping":58},{"user_id":23,"name":"sock","steam_id":76561199117597830,"connected_time":1198000000000,"state":"active","ping":113},{"user_id":49,"name":"cottagecore ringwraith","steam_id":76561198405479940,"connected_time":182000000000,"state":"active","ping":129},{"user_id":51,"name":"aimee","steam_id":76561198834309212,"connected_time":131000000000,"state":"active","ping":59},{"user_id":31,"name":"beastierbeast","steam_id":76561199030645530,"connected_time":856000000000,"state":"active","ping":68},{"user_id":32,"name":"Bandit","steam_id":76561198328421159,"connected_time":853000000000,"state":"active","ping":57},{"user_id":38,"name":"CamWtheDestroyer","steam_id":76561198950777742,"connected_time":579000000000,"state":"active","ping":151}]},{"server_id":303,"name":"Uncletopia | Montréal | 4 | No Payload","name_short":"mtl-4","host":"mtl-1.ca.uncletopia.com","port":27045,"enabled":true,"region":"us-east","cc":"ca","latitude":45.50889,"longitude":-73.56167,"reserved":0,"last_update":"0001-01-01T00:00:00Z","name_a2s":"Uncletopia | Montréal | 4 | No Payload","protocol":17,"map":"koth_harvest_final","folder":"tf","game":"Team Fortress","app_id":440,"player_count":0,"max_players":24,"Bots":0,"server_type":"Dedicated","server_os":"Linux","password":true,"vac":true,"version":"7757534","steam_id":85568392924500090,"keywords":["cp","nocrits","nodmgspread","uncletopia"],"game_id":440,"stv_port":27046,"stv_name":"Uncletopia | Montréal | 4 | No Payload | STV","players":null},{"server_id":13,"name":"Uncletopia | New York City | 1 | All Maps","name_short":"nyc-1","host":"nyc-1.us.uncletopia.com","port":27015,"enabled":true,"region":"us-east","cc":"us","latitude":40.73061,"longitude":-73.93524,"reserved":0,"last_update":"0001-01-01T00:00:00Z","name_a2s":"Uncletopia | New York City | 1 | All Maps","protocol":17,"map":"pl_swiftwater_final1","folder":"tf","game":"Team Fortress","app_id":440,"player_count":24,"max_players":24,"Bots":0,"server_type":"Dedicated","server_os":"Linux","password":true,"vac":true,"version":"7757534","steam_id":85568392924469993,"keywords":["nocrits","nodmgspread","payload","uncletopia"],"game_id":440,"stv_port":27016,"stv_name":"Uncletopia | New York City | 1 | All Maps | STV","players":[{"user_id":363,"name":"CheeseCake488","steam_id":76561199407617942,"connected_time":1260000000000,"state":"active","ping":144},{"user_id":358,"name":"ClericsRose","steam_id":76561198011013806,"connected_time":1877000000000,"state":"active","ping":70},{"user_id":359,"name":"no sound","steam_id":76561198844852820,"connected_time":1670000000000,"state":"active","ping":75},{"user_id":371,"name":"ℋℇἂṼഴ","steam_id":76561199062259389,"connected_time":468000000000,"state":"active","ping":80},{"user_id":320,"name":"ed cook","steam_id":76561198043987486,"connected_time":4354000000000,"state":"active","ping":40},{"user_id":368,"name":"nvm_","steam_id":76561198843128678,"connected_time":961000000000,"state":"active","ping":67},{"user_id":314,"name":"Stink","steam_id":76561198232646232,"connected_time":4709000000000,"state":"active","ping":64},{"user_id":374,"name":"Bottle","steam_id":76561199229771653,"connected_time":271000000000,"state":"active","ping":99},{"user_id":335,"name":"FrumpyGoldsmith","steam_id":76561199036534127,"connected_time":3642000000000,"state":"active","ping":76},{"user_id":369,"name":"Sour Idiot","steam_id":76561198138185255,"connected_time":895000000000,"state":"active","ping":115},{"user_id":365,"name":"ZodiacThundaga","steam_id":76561199025117814,"connected_time":1060000000000,"state":"active","ping":117},{"user_id":276,"name":"the rhode island toe sniffer","steam_id":76561199134895220,"connected_time":6744000000000,"state":"active","ping":57},{"user_id":328,"name":"viscodolante","steam_id":76561198013650292,"connected_time":3832000000000,"state":"active","ping":114},{"user_id":373,"name":"jamzine","steam_id":76561198186168293,"connected_time":283000000000,"state":"active","ping":57},{"user_id":370,"name":"squibbles!","steam_id":76561198271861959,"connected_time":525000000000,"state":"active","ping":51},{"user_id":319,"name":"kairOs.fk","steam_id":76561197972421260,"connected_time":4477000000000,"state":"active","ping":46},{"user_id":372,"name":"Bi Panic","steam_id":76561198426306122,"connected_time":355000000000,"state":"active","ping":60},{"user_id":326,"name":"Yuzu","steam_id":76561198417913035,"connected_time":3972000000000,"state":"active","ping":76},{"user_id":317,"name":"you are loved","steam_id":76561198108524571,"connected_time":4606000000000,"state":"active","ping":64},{"user_id":362,"name":"hazel","steam_id":76561198447244031,"connected_time":1271000000000,"state":"active","ping":57},{"user_id":310,"name":"speck","steam_id":76561198147107736,"connected_time":4822000000000,"state":"active","ping":59},{"user_id":351,"name":"God's Cutest Twink","steam_id":76561198053164901,"connected_time":2244000000000,"state":"active","ping":90},{"user_id":366,"name":"Forge","steam_id":76561198042751067,"connected_time":1056000000000,"state":"active","ping":63},{"user_id":367,"name":"Hunch","steam_id":76561198010008847,"connected_time":1049000000000,"state":"active","ping":121}]},{"server_id":14,"name":"Uncletopia | New York City | 2 | All Maps","name_short":"nyc-2","host":"nyc-1.us.uncletopia.com","port":27025,"enabled":true,"region":"us-east","cc":"us","latitude":40.73061,"longitude":-73.93524,"reserved":0,"last_update":"0001-01-01T00:00:00Z","name_a2s":"Uncletopia | New York City | 2 | All Maps","protocol":17,"map":"pl_barnblitz","folder":"tf","game":"Team Fortress","app_id":440,"player_count":24,"max_players":24,"Bots":0,"server_type":"Dedicated","server_os":"Linux","password":true,"vac":true,"version":"7757534","steam_id":85568392924469994,"keywords":["nocrits","nodmgspread","payload","uncletopia"],"game_id":440,"stv_port":27026,"stv_name":"Uncletopia | New York City | 2 | All Maps | STV","players":[{"user_id":320,"name":"St. Bobson Q Dugnutt III Esq Sr","steam_id":76561197993459985,"connected_time":634000000000,"state":"active","ping":54},{"user_id":275,"name":"PinkLemonade","steam_id":76561198799286228,"connected_time":5155000000000,"state":"active","ping":51},{"user_id":291,"name":"the mind goblin","steam_id":76561198238592900,"connected_time":3275000000000,"state":"active","ping":63},{"user_id":297,"name":"what","steam_id":76561198082336619,"connected_time":2880000000000,"state":"active","ping":58},{"user_id":298,"name":"Nico","steam_id":76561198125701869,"connected_time":2879000000000,"state":"active","ping":53},{"user_id":329,"name":"Definitely Not A Replicant.","steam_id":76561198087464370,"connected_time":16000000000,"state":"spawning","ping":125},{"user_id":257,"name":"TheBoxWizard","steam_id":76561198447992832,"connected_time":6718000000000,"state":"active","ping":51},{"user_id":270,"name":"Nic0","steam_id":76561198305690218,"connected_time":5348000000000,"state":"active","ping":59},{"user_id":314,"name":"pelicAn","steam_id":76561197963422599,"connected_time":720000000000,"state":"active","ping":54},{"user_id":315,"name":"Smoky Haus","steam_id":76561199040586542,"connected_time":704000000000,"state":"active","ping":101},{"user_id":312,"name":"SublunarFox","steam_id":76561198886387474,"connected_time":1104000000000,"state":"active","ping":56},{"user_id":316,"name":"DefenderOfChodes","steam_id":76561198018803214,"connected_time":703000000000,"state":"active","ping":71},{"user_id":327,"name":"SPACE COUP","steam_id":76561198081123470,"connected_time":70000000000,"state":"active","ping":72},{"user_id":324,"name":"muzikelretifhbr","steam_id":76561198445169719,"connected_time":135000000000,"state":"active","ping":113},{"user_id":271,"name":"vyx","steam_id":76561198037205391,"connected_time":5341000000000,"state":"active","ping":72},{"user_id":311,"name":"munkiツ","steam_id":76561198841270249,"connected_time":1219000000000,"state":"active","ping":39},{"user_id":307,"name":"FrostSnail [Live on Twitch]","steam_id":76561197989859175,"connected_time":2270000000000,"state":"active","ping":133},{"user_id":322,"name":"Defiant Statement.","steam_id":76561199101373436,"connected_time":181000000000,"state":"active","ping":74},{"user_id":317,"name":"Brotalium","steam_id":76561198055439054,"connected_time":697000000000,"state":"active","ping":62},{"user_id":303,"name":"Toygar","steam_id":76561198023679830,"connected_time":2592000000000,"state":"active","ping":65},{"user_id":289,"name":"lyanide","steam_id":76561198311704368,"connected_time":3779000000000,"state":"active","ping":61},{"user_id":325,"name":"Mara Roo","steam_id":76561198279341789,"connected_time":95000000000,"state":"active","ping":79},{"user_id":281,"name":"Xavibite","steam_id":76561198209380493,"connected_time":4528000000000,"state":"active","ping":42},{"user_id":328,"name":"dlk","steam_id":76561198086660302,"connected_time":69000000000,"state":"active","ping":117}]},{"server_id":15,"name":"Uncletopia | New York City | 3 | Stopwatch Beta","name_short":"nyc-3","host":"nyc-1.us.uncletopia.com","port":27035,"enabled":true,"region":"us-east","cc":"us","latitude":40.73061,"longitude":-73.93524,"reserved":0,"last_update":"0001-01-01T00:00:00Z","name_a2s":"Uncletopia | New York City | 3 | Stopwatch Beta","protocol":17,"map":"workshop/pl_vigil_rc9.ugc1266210012","folder":"tf","game":"Team Fortress","app_id":440,"player_count":0,"max_players":24,"Bots":0,"server_type":"Dedicated","server_os":"Linux","password":true,"vac":true,"version":"7757534","steam_id":85568392924742820,"keywords":["nocrits","nodmgspread","payload","uncletopia"],"game_id":440,"stv_port":27036,"stv_name":"Uncletopia | New York City | 3 | Stopwatch Beta | STV","players":null},{"server_id":16,"name":"Uncletopia | New York City | 4 | Community","name_short":"nyc-4","host":"nyc-1.us.uncletopia.com","port":27045,"enabled":true,"region":"us-east","cc":"us","latitude":40.73061,"longitude":-73.93524,"reserved":0,"last_update":"0001-01-01T00:00:00Z","name_a2s":"Uncletopia | New York City | 4 | Community","protocol":17,"map":"workshop/koth_product_final.ugc454272353","folder":"tf","game":"Team Fortress","app_id":440,"player_count":0,"max_players":24,"Bots":0,"server_type":"Dedicated","server_os":"Linux","password":true,"vac":true,"version":"7757534","steam_id":85568392924742821,"keywords":["cp","nocrits","nodmgspread","uncletopia"],"game_id":440,"stv_port":27046,"stv_name":"Uncletopia | New York City | 4 | Community | STV","players":null},{"server_id":142,"name":"Uncletopia | São Paulo | 1 | All Maps","name_short":"sao-1","host":"sao-1.br.uncletopia.com","port":27015,"enabled":true,"region":"sa","cc":"br","latitude":-23.533773,"longitude":-46.62529,"reserved":0,"last_update":"0001-01-01T00:00:00Z","name_a2s":"Uncletopia | São Paulo | 1 | All Maps","protocol":17,"map":"cp_sunshine","folder":"tf","game":"Team Fortress","app_id":440,"player_count":13,"max_players":24,"Bots":0,"server_type":"Dedicated","server_os":"Linux","password":true,"vac":true,"version":"7757534","steam_id":85568392924469996,"keywords":["cp","nocrits","nodmgspread","uncletopia"],"game_id":440,"stv_port":27016,"stv_name":"Uncletopia | São Paulo | 1 | All Maps | STV","players":[{"user_id":30,"name":"piroka da Gkay","steam_id":76561198171349369,"connected_time":9138000000000,"state":"active","ping":34},{"user_id":152,"name":"amoreiradavi","steam_id":76561199114788231,"connected_time":997000000000,"state":"active","ping":41},{"user_id":153,"name":"vinisaurus","steam_id":76561198112127509,"connected_time":514000000000,"state":"active","ping":69},{"user_id":154,"name":"Emosu","steam_id":76561198278086794,"connected_time":494000000000,"state":"active","ping":60},{"user_id":155,"name":"LT-25","steam_id":76561198140598278,"connected_time":466000000000,"state":"active","ping":54},{"user_id":149,"name":"Meenctory","steam_id":76561198268374166,"connected_time":1288000000000,"state":"active","ping":61},{"user_id":156,"name":"picklechipdip","steam_id":76561199108326178,"connected_time":396000000000,"state":"active","ping":217},{"user_id":123,"name":"(F2P)YellowEyePatch","steam_id":76561199108111310,"connected_time":2498000000000,"state":"active","ping":45},{"user_id":40,"name":"Abex, o cretino","steam_id":76561198099402345,"connected_time":8583000000000,"state":"active","ping":40},{"user_id":143,"name":"Rocky Rickaby","steam_id":76561198219427511,"connected_time":1789000000000,"state":"active","ping":54},{"user_id":126,"name":"Vi-create","steam_id":76561198277032656,"connected_time":2333000000000,"state":"active","ping":34},{"user_id":90,"name":"B'sB | Faca Tramontina","steam_id":76561198097539603,"connected_time":5132000000000,"state":"active","ping":43},{"user_id":133,"name":"Psycoshobob","steam_id":76561198452576650,"connected_time":2053000000000,"state":"active","ping":84}]},{"server_id":143,"name":"Uncletopia | São Paulo | 2 | All Maps","name_short":"sao-2","host":"sao-2.br.uncletopia.com","port":27015,"enabled":true,"region":"sa","cc":"br","latitude":-23.533773,"longitude":-46.62529,"reserved":0,"last_update":"0001-01-01T00:00:00Z","name_a2s":"Uncletopia | São Paulo | 2 | All Maps","protocol":17,"map":"koth_viaduct","folder":"tf","game":"Team Fortress","app_id":440,"player_count":0,"max_players":24,"Bots":0,"server_type":"Dedicated","server_os":"Linux","password":true,"vac":true,"version":"7757534","steam_id":85568392924485349,"keywords":["cp","nocrits","nodmgspread","uncletopia"],"game_id":440,"stv_port":27016,"stv_name":"Uncletopia | São Paulo | 2 | All Maps | STV","players":null},{"server_id":7,"name":"Uncletopia | Seattle | 1 | All Maps","name_short":"sea-1","host":"sea-1.us.uncletopia.com","port":27015,"enabled":true,"region":"us-west","cc":"us","latitude":47.608013,"longitude":-122.33517,"reserved":0,"last_update":"0001-01-01T00:00:00Z","name_a2s":"Uncletopia | Seattle | 1 | All Maps","protocol":17,"map":"pl_goldrush","folder":"tf","game":"Team Fortress","app_id":440,"player_count":24,"max_players":24,"Bots":0,"server_type":"Dedicated","server_os":"Linux","password":true,"vac":true,"version":"7757534","steam_id":85568392924469997,"keywords":["nocrits","nodmgspread","payload","uncletopia"],"game_id":440,"stv_port":27016,"stv_name":"Uncletopia | Seattle | 1 | All Maps | STV","players":[{"user_id":368,"name":"Ediot","steam_id":76561199349494096,"connected_time":1179000000000,"state":"active","ping":134},{"user_id":357,"name":"lavender","steam_id":76561199069518286,"connected_time":2166000000000,"state":"active","ping":74},{"user_id":372,"name":"frozenwasanokmovie","steam_id":76561198157407952,"connected_time":1034000000000,"state":"active","ping":85},{"user_id":279,"name":"Sweatpants","steam_id":76561198097188001,"connected_time":9799000000000,"state":"active","ping":55},{"user_id":377,"name":"......","steam_id":76561198067612741,"connected_time":243000000000,"state":"active","ping":43},{"user_id":336,"name":"jawnymac","steam_id":76561198179529599,"connected_time":3106000000000,"state":"active","ping":72},{"user_id":374,"name":"chunkysquare","steam_id":76561199076468383,"connected_time":829000000000,"state":"active","ping":69},{"user_id":354,"name":"chompmastr","steam_id":76561199121805899,"connected_time":2327000000000,"state":"active","ping":56},{"user_id":371,"name":"Dog","steam_id":76561197979056451,"connected_time":1129000000000,"state":"active","ping":47},{"user_id":364,"name":"self sufficient kitten","steam_id":76561197960592612,"connected_time":1407000000000,"state":"active","ping":46},{"user_id":332,"name":"rat gets a little more baklava","steam_id":76561198031234032,"connected_time":3141000000000,"state":"active","ping":98},{"user_id":365,"name":"cookie","steam_id":76561197971557295,"connected_time":1265000000000,"state":"active","ping":86},{"user_id":379,"name":"podgornov.a","steam_id":76561199010964457,"connected_time":0,"state":"spawning","ping":143},{"user_id":363,"name":"maddieline","steam_id":76561198018674125,"connected_time":1445000000000,"state":"active","ping":49},{"user_id":376,"name":"Greskrendtregk","steam_id":76561197969553142,"connected_time":483000000000,"state":"active","ping":59},{"user_id":347,"name":"MisterDanny8","steam_id":76561198048847182,"connected_time":2711000000000,"state":"active","ping":94},{"user_id":342,"name":"Crake","steam_id":76561198001959071,"connected_time":3033000000000,"state":"active","ping":59},{"user_id":317,"name":"TROY","steam_id":76561197983852176,"connected_time":4424000000000,"state":"active","ping":75},{"user_id":302,"name":"Tom Skirrett","steam_id":76561198014600788,"connected_time":5773000000000,"state":"active","ping":72},{"user_id":375,"name":"Wafflemuscle","steam_id":76561198868628982,"connected_time":525000000000,"state":"active","ping":51},{"user_id":362,"name":"ChuChu","steam_id":76561199443647976,"connected_time":1453000000000,"state":"active","ping":122},{"user_id":361,"name":"Tomato","steam_id":76561197996472649,"connected_time":1577000000000,"state":"active","ping":130},{"user_id":320,"name":"mumbles","steam_id":76561197994528974,"connected_time":4104000000000,"state":"active","ping":83},{"user_id":373,"name":"Kyurem133","steam_id":76561198145647699,"connected_time":885000000000,"state":"active","ping":103}]},{"server_id":119,"name":"Uncletopia | Seattle | 2 | All Maps","name_short":"sea-2","host":"sea-1.us.uncletopia.com","port":27025,"enabled":true,"region":"us-west","cc":"us","latitude":47.608013,"longitude":-122.33517,"reserved":0,"last_update":"0001-01-01T00:00:00Z","name_a2s":"Uncletopia | Seattle | 2 | All Maps","protocol":17,"map":"koth_highpass","folder":"tf","game":"Team Fortress","app_id":440,"player_count":0,"max_players":24,"Bots":0,"server_type":"Dedicated","server_os":"Linux","password":true,"vac":true,"version":"7757534","steam_id":85568392924469998,"keywords":["cp","nocrits","nodmgspread","uncletopia"],"game_id":440,"stv_port":27026,"stv_name":"Uncletopia | Seattle | 2 | All Maps | STV","players":null},{"server_id":406,"name":"Uncletopia | Seattle | 3 | Stopwatch Beta","name_short":"sea-3","host":"sea-1.us.uncletopia.com","port":27035,"enabled":true,"region":"us-west","cc":"us","latitude":47.608013,"longitude":-122.33517,"reserved":0,"last_update":"0001-01-01T00:00:00Z","name_a2s":"Uncletopia | Seattle | 3 | Stopwatch Beta","protocol":17,"map":"workshop/pl_badwater_pro_v12.ugc2142942074","folder":"tf","game":"Team Fortress","app_id":440,"player_count":0,"max_players":24,"Bots":0,"server_type":"Dedicated","server_os":"Linux","password":true,"vac":true,"version":"7757534","steam_id":85568392924515217,"keywords":["nocrits","nodmgspread","payload","uncletopia"],"game_id":440,"stv_port":27036,"stv_name":"Uncletopia | Seattle | 3 | Stopwatch Beta | STV","players":null},{"server_id":17,"name":"Uncletopia | San Francisco | 1 | All Maps","name_short":"sfo-1","host":"sfo-1.us.uncletopia.com","port":27015,"enabled":true,"region":"us-west","cc":"us","latitude":37.77397,"longitude":-122.4313,"reserved":0,"last_update":"0001-01-01T00:00:00Z","name_a2s":"Uncletopia | San Francisco | 1 | All Maps","protocol":17,"map":"pl_swiftwater_final1","folder":"tf","game":"Team Fortress","app_id":440,"player_count":24,"max_players":24,"Bots":0,"server_type":"Dedicated","server_os":"Linux","password":true,"vac":true,"version":"7757534","steam_id":85568392924469999,"keywords":["nocrits","nodmgspread","payload","uncletopia"],"game_id":440,"stv_port":27016,"stv_name":"Uncletopia | San Francisco | 1 | All Maps | STV","players":[{"user_id":162,"name":"Ivy","steam_id":76561198047758442,"connected_time":1816000000000,"state":"active","ping":83},{"user_id":180,"name":"Wilhelmktx","steam_id":76561198158102295,"connected_time":1096000000000,"state":"active","ping":128},{"user_id":124,"name":"Susan","steam_id":76561198045705049,"connected_time":3317000000000,"state":"active","ping":44},{"user_id":183,"name":"bendy fan 1930","steam_id":76561199094082570,"connected_time":675000000000,"state":"active","ping":140},{"user_id":172,"name":"Koishi","steam_id":76561198054541054,"connected_time":1282000000000,"state":"active","ping":90},{"user_id":189,"name":"Buuw","steam_id":76561198085707714,"connected_time":421000000000,"state":"active","ping":60},{"user_id":173,"name":"finman","steam_id":76561198127639913,"connected_time":1220000000000,"state":"active","ping":56},{"user_id":194,"name":"Meatball1106","steam_id":76561199008238301,"connected_time":128000000000,"state":"active","ping":85},{"user_id":186,"name":"ExplosiveGamer21","steam_id":76561198132370955,"connected_time":585000000000,"state":"active","ping":86},{"user_id":192,"name":"xyt0nix","steam_id":76561199437938235,"connected_time":160000000000,"state":"active","ping":104},{"user_id":160,"name":"AdamAntine","steam_id":76561198093845314,"connected_time":1848000000000,"state":"active","ping":116},{"user_id":153,"name":"TheTrashMann","steam_id":76561199174242639,"connected_time":2481000000000,"state":"active","ping":119},{"user_id":191,"name":"A 7/10","steam_id":76561198075814864,"connected_time":395000000000,"state":"active","ping":111},{"user_id":193,"name":"delight","steam_id":76561197980280272,"connected_time":156000000000,"state":"active","ping":61},{"user_id":179,"name":"Nuggies","steam_id":76561198272432592,"connected_time":1121000000000,"state":"active","ping":59},{"user_id":175,"name":"LerN","steam_id":76561198083463877,"connected_time":1189000000000,"state":"active","ping":101},{"user_id":181,"name":"Razz","steam_id":76561198158027533,"connected_time":1090000000000,"state":"active","ping":107},{"user_id":176,"name":"femmescout","steam_id":76561198250928638,"connected_time":1188000000000,"state":"active","ping":56},{"user_id":188,"name":"RysN Yeen ♥","steam_id":76561198105359319,"connected_time":503000000000,"state":"active","ping":57},{"user_id":59,"name":"noot noot","steam_id":76561198318446417,"connected_time":7294000000000,"state":"active","ping":118},{"user_id":118,"name":"Treader","steam_id":76561198096555885,"connected_time":3731000000000,"state":"active","ping":115},{"user_id":178,"name":"Andrew","steam_id":76561198826966680,"connected_time":1139000000000,"state":"active","ping":79},{"user_id":150,"name":"Jamendithas","steam_id":76561198119537716,"connected_time":2598000000000,"state":"active","ping":118},{"user_id":182,"name":"JLS","steam_id":76561198066763603,"connected_time":1089000000000,"state":"active","ping":59}]},{"server_id":18,"name":"Uncletopia | San Francisco | 2 | All Maps","name_short":"sfo-2","host":"sfo-1.us.uncletopia.com","port":27025,"enabled":true,"region":"us-west","cc":"us","latitude":37.77397,"longitude":-122.4313,"reserved":0,"last_update":"0001-01-01T00:00:00Z","name_a2s":"Uncletopia | San Francisco | 2 | All Maps","protocol":17,"map":"koth_viaduct","folder":"tf","game":"Team Fortress","app_id":440,"player_count":0,"max_players":24,"Bots":0,"server_type":"Dedicated","server_os":"Linux","password":true,"vac":true,"version":"7757534","steam_id":85568392924470000,"keywords":["cp","nocrits","nodmgspread","uncletopia"],"game_id":440,"stv_port":27026,"stv_name":"Uncletopia | San Francisco | 2 | All Maps | STV","players":null},{"server_id":19,"name":"Uncletopia | San Francisco | 3 | Stopwatch Beta","name_short":"sfo-3","host":"sfo-1.us.uncletopia.com","port":27035,"enabled":true,"region":"us-west","cc":"us","latitude":37.77397,"longitude":-122.4313,"reserved":0,"last_update":"0001-01-01T00:00:00Z","name_a2s":"Uncletopia | San Francisco | 3 | Stopwatch Beta","protocol":17,"map":"koth_viaduct","folder":"tf","game":"Team Fortress","app_id":440,"player_count":0,"max_players":24,"Bots":0,"server_type":"Dedicated","server_os":"Linux","password":true,"vac":true,"version":"7757534","steam_id":85568392924742824,"keywords":["cp","nocrits","nodmgspread","uncletopia"],"game_id":440,"stv_port":27036,"stv_name":"Uncletopia | San Francisco | 3 | Stopwatch Beta | STV","players":null},{"server_id":20,"name":"Uncletopia | San Francisco | 4 | Community","name_short":"sfo-4","host":"sfo-1.us.uncletopia.com","port":27045,"enabled":true,"region":"us-west","cc":"us","latitude":37.77397,"longitude":-122.4313,"reserved":0,"last_update":"0001-01-01T00:00:00Z","name_a2s":"Uncletopia | San Francisco | 4 | Community","protocol":17,"map":"workshop/koth_bagel_rc5.ugc2514036946","folder":"tf","game":"Team Fortress","app_id":440,"player_count":0,"max_players":24,"Bots":0,"server_type":"Dedicated","server_os":"Linux","password":true,"vac":true,"version":"7757534","steam_id":85568392924742826,"keywords":["cp","nocrits","nodmgspread","uncletopia"],"game_id":440,"stv_port":27046,"stv_name":"Uncletopia | San Francisco | 4 | Community | STV","players":null},{"server_id":141,"name":"Uncletopia | Sydney | 1 | All Maps","name_short":"syd-1","host":"syd-1.au.uncletopia.com","port":27015,"enabled":true,"region":"au","cc":"au","latitude":-33.865143,"longitude":151.2099,"reserved":0,"last_update":"0001-01-01T00:00:00Z","name_a2s":"Uncletopia | Sydney | 1 | All Maps","protocol":17,"map":"cp_mercenarypark","folder":"tf","game":"Team Fortress","app_id":440,"player_count":24,"max_players":24,"Bots":0,"server_type":"Dedicated","server_os":"Linux","password":true,"vac":true,"version":"7757534","steam_id":85568392924470001,"keywords":["cp","nocrits","nodmgspread","uncletopia"],"game_id":440,"stv_port":27016,"stv_name":"Uncletopia | Sydney | 1 | All Maps | STV","players":[{"user_id":100,"name":"Zeal","steam_id":76561198060829393,"connected_time":690000000000,"state":"active","ping":71},{"user_id":66,"name":"AcidOxidant","steam_id":76561198053504029,"connected_time":3085000000000,"state":"active","ping":49},{"user_id":99,"name":"P'pot","steam_id":76561198117278590,"connected_time":693000000000,"state":"active","ping":55},{"user_id":93,"name":"krandlez` (Any/All)","steam_id":76561198044839726,"connected_time":953000000000,"state":"active","ping":36},{"user_id":65,"name":"Manbake","steam_id":76561198043455984,"connected_time":3111000000000,"state":"active","ping":59},{"user_id":26,"name":"Kremmen","steam_id":76561198051368641,"connected_time":4192000000000,"state":"active","ping":74},{"user_id":76,"name":"Piyo.","steam_id":76561197985114373,"connected_time":2213000000000,"state":"active","ping":69},{"user_id":81,"name":"THE EMPERORS HOLY SWORD","steam_id":76561199204220785,"connected_time":1954000000000,"state":"active","ping":70},{"user_id":48,"name":"Jazbae","steam_id":76561198350910486,"connected_time":3461000000000,"state":"active","ping":72},{"user_id":101,"name":"NastySauce","steam_id":76561198824978577,"connected_time":674000000000,"state":"active","ping":77},{"user_id":29,"name":"HellBoy","steam_id":76561198069295430,"connected_time":4103000000000,"state":"active","ping":68},{"user_id":35,"name":"Hertog van Damme","steam_id":76561198152470958,"connected_time":3786000000000,"state":"active","ping":61},{"user_id":97,"name":"nojnosbod11","steam_id":76561199176012151,"connected_time":695000000000,"state":"active","ping":63},{"user_id":68,"name":"Nenguu","steam_id":76561198243952386,"connected_time":2852000000000,"state":"active","ping":71},{"user_id":102,"name":"Darren","steam_id":76561198988128327,"connected_time":489000000000,"state":"active","ping":42},{"user_id":36,"name":"Fatass Yoshi","steam_id":76561198033784848,"connected_time":3778000000000,"state":"active","ping":44},{"user_id":105,"name":"hazz_mcpie -BvM-","steam_id":76561198092450084,"connected_time":320000000000,"state":"active","ping":81},{"user_id":106,"name":"A Snapping Turtle","steam_id":76561198060037470,"connected_time":253000000000,"state":"active","ping":89},{"user_id":104,"name":"Mr Doctor","steam_id":76561198081415999,"connected_time":482000000000,"state":"active","ping":63},{"user_id":51,"name":"Nightnark (Prof Retard \u0026 Kooka)","steam_id":76561198415664378,"connected_time":3420000000000,"state":"active","ping":71},{"user_id":67,"name":"D E T H","steam_id":76561198406959622,"connected_time":3059000000000,"state":"active","ping":62},{"user_id":89,"name":"wet cement","steam_id":76561198315774295,"connected_time":1378000000000,"state":"active","ping":59},{"user_id":62,"name":"ben","steam_id":76561198223331996,"connected_time":3145000000000,"state":"active","ping":64},{"user_id":103,"name":"APVC","steam_id":76561199090168813,"connected_time":487000000000,"state":"active","ping":49}]},{"server_id":123,"name":"Uncletopia | Sydney | 2 | All Maps","name_short":"syd-2","host":"syd-1.au.uncletopia.com","port":27025,"enabled":true,"region":"au","cc":"au","latitude":-33.865143,"longitude":151.2099,"reserved":0,"last_update":"0001-01-01T00:00:00Z","name_a2s":"Uncletopia | Sydney | 2 | All Maps","protocol":17,"map":"koth_highpass","folder":"tf","game":"Team Fortress","app_id":440,"player_count":0,"max_players":24,"Bots":0,"server_type":"Dedicated","server_os":"Linux","password":true,"vac":true,"version":"7757534","steam_id":85568392924470002,"keywords":["cp","nocrits","nodmgspread","uncletopia"],"game_id":440,"stv_port":27026,"stv_name":"Uncletopia | Sydney | 2 | All Maps | STV","players":null},{"server_id":395,"name":"Uncletopia | Sydney | 3 | All Maps","name_short":"syd-3","host":"syd-1.au.uncletopia.com","port":27035,"enabled":true,"region":"au","cc":"au","latitude":-33.865143,"longitude":151.2099,"reserved":0,"last_update":"0001-01-01T00:00:00Z","name_a2s":"Uncletopia | Sydney | 3 | All Maps","protocol":17,"map":"pl_upward","folder":"tf","game":"Team Fortress","app_id":440,"player_count":0,"max_players":24,"Bots":0,"server_type":"Dedicated","server_os":"Linux","password":true,"vac":true,"version":"7757534","steam_id":85568392925194467,"keywords":["nocrits","nodmgspread","payload","uncletopia"],"game_id":440,"stv_port":27036,"stv_name":"Uncletopia | Sydney | 3 | All Maps | STV","players":null},{"server_id":396,"name":"Uncletopia | Sydney | 4 | All Maps","name_short":"syd-4","host":"syd-1.au.uncletopia.com","port":27045,"enabled":true,"region":"au","cc":"au","latitude":-33.865143,"longitude":151.2099,"reserved":0,"last_update":"0001-01-01T00:00:00Z","name_a2s":"Uncletopia | Sydney | 4 | All Maps","protocol":17,"map":"pl_pier","folder":"tf","game":"Team Fortress","app_id":440,"player_count":0,"max_players":24,"Bots":0,"server_type":"Dedicated","server_os":"Linux","password":true,"vac":true,"version":"7757534","steam_id":85568392925397958,"keywords":["nocrits","nodmgspread","payload","uncletopia"],"game_id":440,"stv_port":27046,"stv_name":"Uncletopia | Sydney | 4 | All Maps | STV","players":null},{"server_id":58,"name":"Uncletopia | Sydney | 5 | Stopwatch Beta","name_short":"syd-5","host":"syd-1.au.uncletopia.com","port":27055,"enabled":true,"region":"au","cc":"au","latitude":-33.865143,"longitude":151.2099,"reserved":0,"last_update":"0001-01-01T00:00:00Z","name_a2s":"Uncletopia | Sydney | 5 | Stopwatch Beta","protocol":17,"map":"pl_barnblitz","folder":"tf","game":"Team Fortress","app_id":440,"player_count":0,"max_players":24,"Bots":0,"server_type":"Dedicated","server_os":"Linux","password":true,"vac":true,"version":"7757534","steam_id":85568392925397959,"keywords":["nocrits","nodmgspread","payload","uncletopia"],"game_id":440,"stv_port":27056,"stv_name":"Uncletopia | Sydney | 5 | Stopwatch Beta | STV","players":null},{"server_id":59,"name":"Uncletopia | Sydney | 6 | Community","name_short":"syd-6","host":"syd-1.au.uncletopia.com","port":27065,"enabled":true,"region":"au","cc":"au","latitude":-33.865143,"longitude":151.2099,"reserved":0,"last_update":"0001-01-01T00:00:00Z","name_a2s":"Uncletopia | Sydney | 6 | Community","protocol":17,"map":"cp_mountainlab","folder":"tf","game":"Team Fortress","app_id":440,"player_count":0,"max_players":24,"Bots":0,"server_type":"Dedicated","server_os":"Linux","password":true,"vac":true,"version":"7757534","steam_id":85568392925397960,"keywords":["cp","nocrits","nodmgspread","uncletopia"],"game_id":440,"stv_port":27066,"stv_name":"Uncletopia | Sydney | 6 | Community | STV","players":null},{"server_id":49,"name":"Uncletopia | Warsaw | 1 | All Maps","name_short":"waw-1","host":"waw-1.pl.uncletopia.com","port":27015,"enabled":true,"region":"eu","cc":"pl","latitude":52.2297,"longitude":21.017532,"reserved":0,"last_update":"0001-01-01T00:00:00Z","name_a2s":"","protocol":0,"map":"","folder":"","game":"","app_id":0,"player_count":0,"max_players":0,"Bots":0,"server_type":"","server_os":"","password":false,"vac":false,"version":"","steam_id":0,"keywords":null,"game_id":0,"stv_port":0,"stv_name":"","players":null},{"server_id":50,"name":"Uncletopia | Warsaw | 2 | All Maps","name_short":"waw-2","host":"waw-1.pl.uncletopia.com","port":27025,"enabled":true,"region":"eu","cc":"pl","latitude":52.2297,"longitude":21.017532,"reserved":0,"last_update":"0001-01-01T00:00:00Z","name_a2s":"Uncletopia | Warsaw | 2 | All Maps","protocol":17,"map":"koth_cascade","folder":"tf","game":"Team Fortress","app_id":440,"player_count":0,"max_players":24,"Bots":0,"server_type":"Dedicated","server_os":"Linux","password":true,"vac":true,"version":"7757534","steam_id":85568392925397851,"keywords":["cp","nocrits","nodmgspread","uncletopia"],"game_id":440,"stv_port":27026,"stv_name":"Uncletopia | Warsaw | 2 | All Maps | STV","players":null},{"server_id":51,"name":"Uncletopia | Warsaw | 3 | All Maps","name_short":"waw-3","host":"waw-1.pl.uncletopia.com","port":27035,"enabled":true,"region":"eu","cc":"pl","latitude":52.2297,"longitude":21.017532,"reserved":0,"last_update":"0001-01-01T00:00:00Z","name_a2s":"Uncletopia | Warsaw | 3 | All Maps","protocol":17,"map":"pl_upward","folder":"tf","game":"Team Fortress","app_id":440,"player_count":0,"max_players":24,"Bots":0,"server_type":"Dedicated","server_os":"Linux","password":true,"vac":true,"version":"7757534","steam_id":85568392925397852,"keywords":["nocrits","nodmgspread","payload","uncletopia"],"game_id":440,"stv_port":27036,"stv_name":"Uncletopia | Warsaw | 3 | All Maps | STV","players":null},{"server_id":52,"name":"Uncletopia | Warsaw | 4 | All Maps","name_short":"waw-4","host":"waw-1.pl.uncletopia.com","port":27045,"enabled":true,"region":"eu","cc":"pl","latitude":52.2297,"longitude":21.017532,"reserved":0,"last_update":"0001-01-01T00:00:00Z","name_a2s":"Uncletopia | Warsaw | 4 | All Maps","protocol":17,"map":"koth_highpass","folder":"tf","game":"Team Fortress","app_id":440,"player_count":0,"max_players":24,"Bots":0,"server_type":"Dedicated","server_os":"Linux","password":true,"vac":true,"version":"7757534","steam_id":85568392925397853,"keywords":["cp","nocrits","nodmgspread","uncletopia"],"game_id":440,"stv_port":27046,"stv_name":"Uncletopia | Warsaw | 4 | All Maps | STV","players":null},{"server_id":53,"name":"Uncletopia | Warsaw | 5 | Stopwatch Beta","name_short":"waw-5","host":"waw-1.pl.uncletopia.com","port":27055,"enabled":true,"region":"eu","cc":"pl","latitude":52.2297,"longitude":21.017532,"reserved":0,"last_update":"0001-01-01T00:00:00Z","name_a2s":"Uncletopia | Warsaw | 5 | Stopwatch Beta","protocol":17,"map":"workshop/koth_product_final.ugc454272353","folder":"tf","game":"Team Fortress","app_id":440,"player_count":0,"max_players":24,"Bots":0,"server_type":"Dedicated","server_os":"Linux","password":true,"vac":true,"version":"7757534","steam_id":85568392925397854,"keywords":["cp","nocrits","nodmgspread","uncletopia"],"game_id":440,"stv_port":27056,"stv_name":"Uncletopia | Warsaw | 5 | Stopwatch Beta | STV","players":null},{"server_id":54,"name":"Uncletopia | Warsaw | 6 | Community","name_short":"waw-6","host":"waw-1.pl.uncletopia.com","port":27065,"enabled":true,"region":"eu","cc":"pl","latitude":52.2297,"longitude":21.017532,"reserved":0,"last_update":"0001-01-01T00:00:00Z","name_a2s":"Uncletopia | Warsaw | 6 | Community","protocol":17,"map":"workshop/pl_vigil_rc9.ugc1266210012","folder":"tf","game":"Team Fortress","app_id":440,"player_count":0,"max_players":24,"Bots":0,"server_type":"Dedicated","server_os":"Linux","password":true,"vac":true,"version":"7757534","steam_id":85568392925397856,"keywords":["nocrits","nodmgspread","payload","uncletopia"],"game_id":440,"stv_port":27066,"stv_name":"Uncletopia | Warsaw | 6 | Community | STV","players":null}]}