{"status":true,"message":"","result":[{"server_id":9,"name":"Uncletopia | Atlanta | 1 | All Maps","name_short":"atl-1","host":"atl-1.us.uncletopia.com","port":27015,"enabled":true,"region":"us-east","cc":"us","latitude":33.753746,"longitude":-84.38633,"reserved":0,"last_update":"0001-01-01T00:00:00Z","name_a2s":"Uncletopia | Atlanta | 1 | All Maps","protocol":17,"map":"koth_highpass","folder":"tf","game":"Team Fortress","app_id":440,"player_count":22,"max_players":24,"Bots":0,"server_type":"Dedicated","server_os":"Linux","password":true,"vac":true,"version":"7708610","steam_id":85568392924469982,"keywords":["cp","nocrits","nodmgspread","uncletopia"],"game_id":440,"stv_port":27016,"stv_name":"Uncletopia | Atlanta | 1 | All Maps | STV","players":[{"user_id":228,"name":"BigBubble42","steam_id":76561198136286123,"connected_time":235000000000,"state":"active","ping":44},{"user_id":220,"name":"Baller","steam_id":76561198378240571,"connected_time":632000000000,"state":"active","ping":106},{"user_id":227,"name":"SuperJagops","steam_id":76561198034689716,"connected_time":269000000000,"state":"active","ping":78},{"user_id":198,"name":"ATL1 | on my hunting trip","steam_id":76561198315341646,"connected_time":2110000000000,"state":"active","ping":67},{"user_id":221,"name":"cosmik","steam_id":76561198071193180,"connected_time":616000000000,"state":"active","ping":54},{"user_id":187,"name":"Save your wifi","steam_id":76561198286147372,"connected_time":3009000000000,"state":"active","ping":49},{"user_id":210,"name":"Christoph Waltz eating a burger","steam_id":76561199215811448,"connected_time":1496000000000,"state":"active","ping":73},{"user_id":222,"name":"Xenny femmy","steam_id":76561198299269074,"connected_time":609000000000,"state":"active","ping":74},{"user_id":170,"name":"spaaaaace","steam_id":76561199085974120,"connected_time":4129000000000,"state":"active","ping":57},{"user_id":223,"name":"Malleo777","steam_id":76561198097995505,"connected_time":517000000000,"state":"active","ping":48},{"user_id":224,"name":"Tola Vadam","steam_id":76561198036248313,"connected_time":508000000000,"state":"active","ping":94},{"user_id":217,"name":"A Man Named Pancho","steam_id":76561197984895522,"connected_time":800000000000,"state":"active","ping":116},{"user_id":150,"name":"cola","steam_id":76561198374390458,"connected_time":5677000000000,"state":"active","ping":55},{"user_id":106,"name":"Reyloko","steam_id":76561198172480913,"connected_time":8791000000000,"state":"active","ping":87},{"user_id":225,"name":"zillo","steam_id":76561198932304620,"connected_time":484000000000,"state":"active","ping":59},{"user_id":121,"name":"uberheights #playoffsmode","steam_id":76561198236008378,"connected_time":8192000000000,"state":"active","ping":69},{"user_id":212,"name":"Stupid frogs!","steam_id":76561198069415057,"connected_time":1361000000000,"state":"active","ping":105},{"user_id":226,"name":"Engineer gaming","steam_id":76561198388421987,"connected_time":483000000000,"state":"active","ping":81},{"user_id":200,"name":"Inky (Coolest)","steam_id":76561198968337022,"connected_time":2085000000000,"state":"active","ping":52},{"user_id":214,"name":"William Wallace","steam_id":76561199343316814,"connected_time":1326000000000,"state":"active","ping":50},{"user_id":215,"name":"the ape","steam_id":76561198097847998,"connected_time":1238000000000,"state":"active","ping":43},{"user_id":158,"name":"Caoticaos","steam_id":76561198114800227,"connected_time":5382000000000,"state":"active","ping":114}]},{"server_id":400,"name":"Uncletopia | Atlanta | 3 | All Maps","name_short":"atl-3","host":"atl-1.us.uncletopia.com","port":27035,"enabled":true,"region":"us-east","cc":"us","latitude":33.753746,"longitude":-84.38633,"reserved":0,"last_update":"0001-01-01T00:00:00Z","name_a2s":"Uncletopia | Atlanta | 3 | All Maps","protocol":17,"map":"pl_snowycoast","folder":"tf","game":"Team Fortress","app_id":440,"player_count":24,"max_players":24,"Bots":0,"server_type":"Dedicated","server_os":"Linux","password":true,"vac":true,"version":"7708610","steam_id":85568392924515187,"keywords":["nocrits","nodmgspread","payload","uncletopia"],"game_id":440,"stv_port":27036,"stv_name":"Uncletopia | Atlanta | 3 | All Maps | STV","players":[{"user_id":6,"name":"Jesus Loves You57","steam_id":76561199058833769,"connected_time":1936000000000,"state":"active","ping":105},{"user_id":12,"name":"IHOP Dan","steam_id":76561198031204547,"connected_time":1718000000000,"state":"active","ping":47},{"user_id":8,"name":"DukDota","steam_id":76561198027121982,"connected_time":1837000000000,"state":"active","ping":71},{"user_id":38,"name":"rolt bagger","steam_id":76561198026664629,"connected_time":827000000000,"state":"active","ping":49},{"user_id":10,"name":"Ms.Isles","steam_id":76561198061646322,"connected_time":1764000000000,"state":"active","ping":69},{"user_id":37,"name":"Officer Mike","steam_id":76561198011641011,"connected_time":860000000000,"state":"active","ping":80},{"user_id":18,"name":"StormRage","steam_id":76561199435079308,"connected_time":1308000000000,"state":"active","ping":110},{"user_id":41,"name":"Very Merry Toaster","steam_id":76561198110748463,"connected_time":695000000000,"state":"active","ping":97},{"user_id":40,"name":"crazyredhead yt","steam_id":76561198297679010,"connected_time":740000000000,"state":"active","ping":164},{"user_id":19,"name":"TYPICAL HUMAN","steam_id":76561198060914982,"connected_time":1292000000000,"state":"active","ping":107},{"user_id":20,"name":"Vaporwave Enjoyer","steam_id":76561198141079925,"connected_time":1280000000000,"state":"active","ping":92},{"user_id":21,"name":"459d","steam_id":76561198336142389,"connected_time":1277000000000,"state":"active","ping":71},{"user_id":22,"name":"BIGGEST MAC","steam_id":76561198847517098,"connected_time":1268000000000,"state":"active","ping":93},{"user_id":23,"name":"KLABLEWY","steam_id":76561198062763756,"connected_time":1246000000000,"state":"active","ping":74},{"user_id":24,"name":"toad","steam_id":76561197988729190,"connected_time":1233000000000,"state":"active","ping":65},{"user_id":45,"name":"NotEngineer","steam_id":76561198040138739,"connected_time":188000000000,"state":"active","ping":82},{"user_id":27,"name":"33","steam_id":76561198894676484,"connected_time":1173000000000,"state":"active","ping":100},{"user_id":28,"name":"aeop","steam_id":76561198153671643,"connected_time":1153000000000,"state":"active","ping":81},{"user_id":43,"name":"Œ®","steam_id":76561198293893486,"connected_time":410000000000,"state":"active","ping":75},{"user_id":44,"name":"Bring Back SIVA","steam_id":76561199006212115,"connected_time":290000000000,"state":"active","ping":67},{"user_id":42,"name":"incearcagreu.TPB","steam_id":76561198353190933,"connected_time":690000000000,"state":"active","ping":173},{"user_id":33,"name":"chad","steam_id":76561198216109017,"connected_time":1058000000000,"state":"active","ping":75},{"user_id":34,"name":"SnakeEyes505","steam_id":76561198267634428,"connected_time":1034000000000,"state":"active","ping":86},{"user_id":35,"name":"ChainsawGuy","steam_id":76561198971626811,"connected_time":1006000000000,"state":"active","ping":102}]},{"server_id":401,"name":"Uncletopia | Atlanta | 4 | No Payload","name_short":"atl-4","host":"atl-1.us.uncletopia.com","port":27045,"enabled":true,"region":"us-east","cc":"us","latitude":33.753746,"longitude":-84.38633,"reserved":0,"last_update":"0001-01-01T00:00:00Z","name_a2s":"Uncletopia | Atlanta | 4 | No Payload","protocol":17,"map":"cp_vanguard","folder":"tf","game":"Team Fortress","app_id":440,"player_count":5,"max_players":24,"Bots":0,"server_type":"Dedicated","server_os":"Linux","password":true,"vac":true,"version":"7708610","steam_id":85568392924515188,"keywords":["cp","nocrits","nodmgspread","uncletopia"],"game_id":440,"stv_port":27046,"stv_name":"Uncletopia | Atlanta | 4 | No Payload | STV","players":[{"user_id":142,"name":"Crowmancer","steam_id":76561198056707334,"connected_time":2000000000,"state":"spawning","ping":71},{"user_id":139,"name":"Professional Brohamad","steam_id":76561198824025210,"connected_time":285000000000,"state":"active","ping":60},{"user_id":140,"name":"keffers | Chrimbus Time","steam_id":76561198202338796,"connected_time":181000000000,"state":"active","ping":92},{"user_id":24,"name":"Cozy","steam_id":76561198003807560,"connected_time":8879000000000,"state":"active","ping":163},{"user_id":19,"name":"Madkiller Max","steam_id":76561197974470705,"connected_time":9030000000000,"state":"active","ping":54}]},{"server_id":2,"name":"Uncletopia | Chicago | 1 | All Maps","name_short":"chi-1","host":"chi-1.us.uncletopia.com","port":27015,"enabled":true,"region":"us-central","cc":"us","latitude":41.881832,"longitude":-87.62318,"reserved":0,"last_update":"0001-01-01T00:00:00Z","name_a2s":"Uncletopia | Chicago | 1 | All Maps","protocol":17,"map":"cp_sunshine","folder":"tf","game":"Team Fortress","app_id":440,"player_count":24,"max_players":24,"Bots":0,"server_type":"Dedicated","server_os":"Linux","password":true,"vac":true,"version":"7708610","steam_id":85568392924469984,"keywords":["cp","nocrits","nodmgspread","uncletopia"],"game_id":440,"stv_port":27016,"stv_name":"Uncletopia | Chicago | 1 | All Maps | STV","players":[{"user_id":263,"name":"Skbonesin","steam_id":76561198180513878,"connected_time":1216000000000,"state":"active","ping":91},{"user_id":249,"name":"stop","steam_id":76561198268686419,"connected_time":2682000000000,"state":"active","ping":54},{"user_id":237,"name":"Chode Mode","steam_id":76561198353840477,"connected_time":3404000000000,"state":"active","ping":55},{"user_id":265,"name":"Veir≈´ Viseris","steam_id":76561197989857176,"connected_time":1090000000000,"state":"active","ping":158},{"user_id":250,"name":"Greg","steam_id":76561198299543780,"connected_time":2673000000000,"state":"active","ping":92},{"user_id":275,"name":"Ôº£ÔΩèÔΩÉÔΩèÔΩáÔΩèÔΩÅÔΩî","steam_id":76561198057508810,"connected_time":509000000000,"state":"active","ping":45},{"user_id":273,"name":"Big bathroom","steam_id":76561198034771900,"connected_time":683000000000,"state":"active","ping":69},{"user_id":270,"name":"John Darksoul","steam_id":76561198031675881,"connected_time":732000000000,"state":"active","ping":54},{"user_id":269,"name":"MirelurkWhisperer","steam_id":76561198145903749,"connected_time":753000000000,"state":"active","ping":71},{"user_id":266,"name":"Yes.","steam_id":76561198426986425,"connected_time":1059000000000,"state":"active","ping":164},{"user_id":271,"name":"üéÑAndreaJinglingüéÑ","steam_id":76561198198658783,"connected_time":725000000000,"state":"active","ping":64},{"user_id":212,"name":"SSBM Pelican","steam_id":76561198040697907,"connected_time":5925000000000,"state":"active","ping":61},{"user_id":261,"name":"pie gaming","steam_id":76561198072592880,"connected_time":1530000000000,"state":"active","ping":43},{"user_id":276,"name":"Pan Piotr","steam_id":76561198140016126,"connected_time":454000000000,"state":"active","ping":164},{"user_id":255,"name":"MaybeMars","steam_id":76561198084736804,"connected_time":2537000000000,"state":"active","ping":76},{"user_id":262,"name":"xerro","steam_id":76561198323340524,"connected_time":1321000000000,"state":"active","ping":147},{"user_id":274,"name":"St. Michael","steam_id":76561198037611052,"connected_time":651000000000,"state":"active","ping":70},{"user_id":218,"name":"Soap Man","steam_id":76561198000490235,"connected_time":5018000000000,"state":"active","ping":111},{"user_id":245,"name":"LeBron Joems","steam_id":76561198097160898,"connected_time":2728000000000,"state":"active","ping":59},{"user_id":222,"name":"Idealists","steam_id":76561198829068222,"connected_time":4767000000000,"state":"active","ping":61},{"user_id":248,"name":"t4rkus","steam_id":76561198233984300,"connected_time":2717000000000,"state":"active","ping":45},{"user_id":257,"name":"footoftheday","steam_id":76561198052712449,"connected_time":2257000000000,"state":"active","ping":64},{"user_id":259,"name":"Mythical Lag","steam_id":76561198347031281,"connected_time":2088000000000,"state":"active","ping":73},{"user_id":268,"name":"gps","steam_id":76561198067492304,"connected_time":872000000000,"state":"active","ping":78}]},{"server_id":106,"name":"Uncletopia | Chicago | 2 | All Maps","name_short":"chi-2","host":"chi-1.us.uncletopia.com","port":27025,"enabled":true,"region":"us-central","cc":"us","latitude":41.881832,"longitude":-87.62318,"reserved":0,"last_update":"0001-01-01T00:00:00Z","name_a2s":"Uncletopia | Chicago | 2 | All Maps","protocol":17,"map":"cp_egypt_final","folder":"tf","game":"Team Fortress","app_id":440,"player_count":24,"max_players":24,"Bots":0,"server_type":"Dedicated","server_os":"Linux","password":true,"vac":true,"version":"7708610","steam_id":85568392924469985,"keywords":["cp","nocrits","nodmgspread","uncletopia"],"game_id":440,"stv_port":27026,"stv_name":"Uncletopia | Chicago | 2 | All Maps | STV","players":[{"user_id":8,"name":"fan271","steam_id":76561198351919562,"connected_time":11330000000000,"state":"active","ping":70},{"user_id":113,"name":"'LaxAttack","steam_id":76561198044129346,"connected_time":2638000000000,"state":"active","ping":75},{"user_id":141,"name":"AkimboAoki","steam_id":76561198158323058,"connected_time":1015000000000,"state":"active","ping":90},{"user_id":136,"name":"primordialheath","steam_id":76561199386942638,"connected_time":1174000000000,"state":"active","ping":56},{"user_id":91,"name":"300 Ping Gaming [WLP]","steam_id":76561199042160997,"connected_time":4214000000000,"state":"active","ping":176},{"user_id":139,"name":"Dictatorial Karelian","steam_id":76561198196736457,"connected_time":1148000000000,"state":"active","ping":153},{"user_id":62,"name":"McNamJam","steam_id":76561198028128686,"connected_time":7686000000000,"state":"active","ping":94},{"user_id":114,"name":"christopher cumbus","steam_id":76561198146300875,"connected_time":2623000000000,"state":"active","ping":76},{"user_id":147,"name":"Captain Red","steam_id":76561198191587983,"connected_time":585000000000,"state":"active","ping":85},{"user_id":148,"name":"Fraglin","steam_id":76561198124964000,"connected_time":369000000000,"state":"active","ping":71},{"user_id":76,"name":"robbob","steam_id":76561198137375391,"connected_time":6409000000000,"state":"active","ping":166},{"user_id":89,"name":"xd Clover","steam_id":76561198038905361,"connected_time":4649000000000,"state":"active","ping":53},{"user_id":107,"name":"Œî ryan b'y","steam_id":76561197977850475,"connected_time":3115000000000,"state":"active","ping":108},{"user_id":140,"name":"John Smokes","steam_id":76561198865524383,"connected_time":1101000000000,"state":"active","ping":75},{"user_id":143,"name":"Snacks","steam_id":76561199084017155,"connected_time":1010000000000,"state":"active","ping":62},{"user_id":149,"name":"Kevin Y.","steam_id":76561198364331423,"connected_time":99000000000,"state":"active","ping":86},{"user_id":117,"name":"spunk pap","steam_id":76561198202278895,"connected_time":2317000000000,"state":"active","ping":71},{"user_id":125,"name":"AlyOop","steam_id":76561198990950767,"connected_time":1838000000000,"state":"active","ping":125},{"user_id":104,"name":"Rornir","steam_id":76561198081829615,"connected_time":3300000000000,"state":"active","ping":37},{"user_id":134,"name":"rubb3r","steam_id":76561198096874230,"connected_time":1207000000000,"state":"active","ping":70},{"user_id":145,"name":"Drakon","steam_id":76561198078210822,"connected_time":895000000000,"state":"active","ping":100},{"user_id":146,"name":"Critscare","steam_id":76561198087712508,"connected_time":877000000000,"state":"active","ping":45},{"user_id":68,"name":"Ekstra","steam_id":76561199031147010,"connected_time":7315000000000,"state":"active","ping":158},{"user_id":110,"name":"Kaiser Wilhelm II‚Ñ¢","steam_id":76561199073434606,"connected_time":2747000000000,"state":"active","ping":167}]},{"server_id":402,"name":"Uncletopia | Chicago | 3 | All Maps","name_short":"chi-3","host":"chi-1.us.uncletopia.com","port":27035,"enabled":true,"region":"us-central","cc":"us","latitude":41.881832,"longitude":-87.62318,"reserved":0,"last_update":"0001-01-01T00:00:00Z","name_a2s":"Uncletopia | Chicago | 3 | All Maps","protocol":17,"map":"pl_badwater","folder":"tf","game":"Team Fortress","app_id":440,"player_count":0,"max_players":24,"Bots":0,"server_type":"Dedicated","server_os":"Linux","password":true,"vac":true,"version":"7708610","steam_id":85568392924515191,"keywords":["nocrits","nodmgspread","payload","uncletopia"],"game_id":440,"stv_port":27036,"stv_name":"Uncletopia | Chicago | 3 | All Maps | STV","players":null},{"server_id":403,"name":"Uncletopia | Chicago | 4 | All Maps","name_short":"chi-4","host":"chi-1.us.uncletopia.com","port":27045,"enabled":true,"region":"us-central","cc":"us","latitude":41.881832,"longitude":-87.62318,"reserved":0,"last_update":"0001-01-01T00:00:00Z","name_a2s":"Uncletopia | Chicago | 4 | All Maps","protocol":17,"map":"cp_snakewater_final1","folder":"tf","game":"Team Fortress","app_id":440,"player_count":0,"max_players":24,"Bots":0,"server_type":"Dedicated","server_os":"Linux","password":true,"vac":true,"version":"7708610","steam_id":85568392924515193,"keywords":["cp","nocrits","nodmgspread","uncletopia"],"game_id":440,"stv_port":27046,"stv_name":"Uncletopia | Chicago | 4 | All Maps | STV","players":null},{"server_id":36,"name":"Uncletopia | Chicago | 5 | All Maps","name_short":"chi-5","host":"chi-2.us.uncletopia.com","port":27015,"enabled":true,"region":"us-central","cc":"us","latitude":41.881832,"longitude":-87.62318,"reserved":0,"last_update":"0001-01-01T00:00:00Z","name_a2s":"Uncletopia | Chicago | 5 | All Maps","protocol":17,"map":"pl_swiftwater_final1","folder":"tf","game":"Team Fortress","app_id":440,"player_count":24,"max_players":24,"Bots":0,"server_type":"Dedicated","server_os":"Linux","password":true,"vac":true,"version":"7708610","steam_id":85568392924866362,"keywords":["nocrits","nodmgspread","payload","uncletopia"],"game_id":440,"stv_port":27016,"stv_name":"Uncletopia | Chicago | 5 | All Maps | STV","players":[{"user_id":43,"name":"Open Mailbox","steam_id":76561198051933580,"connected_time":2904000000000,"state":"active","ping":87},{"user_id":59,"name":"Ambsicle","steam_id":76561198162003910,"connected_time":1630000000000,"state":"active","ping":69},{"user_id":44,"name":"Marsu","steam_id":76561198849305555,"connected_time":2865000000000,"state":"active","ping":75},{"user_id":84,"name":"Dittery","steam_id":76561198114899953,"connected_time":25000000000,"state":"active","ping":39},{"user_id":55,"name":"bryyte","steam_id":76561198012377833,"connected_time":2034000000000,"state":"active","ping":48},{"user_id":79,"name":"Coup de Grass","steam_id":76561198011643226,"connected_time":294000000000,"state":"active","ping":47},{"user_id":81,"name":"Spud \u003c3","steam_id":76561198208657333,"connected_time":91000000000,"state":"active","ping":51},{"user_id":80,"name":"Chucklin","steam_id":76561198010823579,"connected_time":99000000000,"state":"active","ping":82},{"user_id":60,"name":"6t26j","steam_id":76561198278282836,"connected_time":1626000000000,"state":"active","ping":55},{"user_id":82,"name":"Hernandez$","steam_id":76561198019324588,"connected_time":87000000000,"state":"active","ping":87},{"user_id":45,"name":"MagicGnome","steam_id":76561198060886742,"connected_time":2842000000000,"state":"active","ping":74},{"user_id":20,"name":"HK | KitKat |","steam_id":76561198196793415,"connected_time":4118000000000,"state":"active","ping":101},{"user_id":76,"name":"el muchacho","steam_id":76561198282632562,"connected_time":868000000000,"state":"active","ping":82},{"user_id":22,"name":"Lady Duckland","steam_id":76561198077092840,"connected_time":4082000000000,"state":"active","ping":59},{"user_id":83,"name":"Honey I shrunk the cum dummies","steam_id":76561198815337926,"connected_time":57000000000,"state":"active","ping":48},{"user_id":70,"name":"mangoface","steam_id":76561199028760996,"connected_time":1329000000000,"state":"active","ping":142},{"user_id":71,"name":"Quansen","steam_id":76561198151594550,"connected_time":1299000000000,"state":"active","ping":46},{"user_id":77,"name":"WalrusNyetheBonkGuy","steam_id":76561197995626774,"connected_time":727000000000,"state":"active","ping":100},{"user_id":72,"name":"dude","steam_id":76561198253202693,"connected_time":975000000000,"state":"active","ping":102},{"user_id":64,"name":"BoomieMcBoomPants","steam_id":76561198144516828,"connected_time":1556000000000,"state":"active","ping":116},{"user_id":74,"name":"Kromeousible","steam_id":76561198087317232,"connected_time":917000000000,"state":"active","ping":83},{"user_id":78,"name":"OneTrueCorvid","steam_id":76561199012953221,"connected_time":601000000000,"state":"active","ping":87},{"user_id":40,"name":"asfd","steam_id":76561198012566405,"connected_time":3331000000000,"state":"active","ping":63},{"user_id":65,"name":"Gumball Comics","steam_id":76561199105258784,"connected_time":1552000000000,"state":"active","ping":69}]},{"server_id":37,"name":"Uncletopia | Chicago | 6 | All Maps","name_short":"chi-6","host":"chi-2.us.uncletopia.com","port":27025,"enabled":true,"region":"us-central","cc":"us","latitude":41.881832,"longitude":-87.62318,"reserved":0,"last_update":"0001-01-01T00:00:00Z","name_a2s":"Uncletopia | Chicago | 6 | All Maps","protocol":17,"map":"koth_cascade","folder":"tf","game":"Team Fortress","app_id":440,"player_count":0,"max_players":24,"Bots":0,"server_type":"Dedicated","server_os":"Linux","password":true,"vac":true,"version":"7708610","steam_id":85568392924866363,"keywords":["cp","nocrits","nodmgspread","uncletopia"],"game_id":440,"stv_port":0,"stv_name":"","players":null},{"server_id":38,"name":"Uncletopia | Chicago | 7 | No Payload","name_short":"chi-7","host":"chi-2.us.uncletopia.com","port":27035,"enabled":true,"region":"us-central","cc":"us","latitude":41.881832,"longitude":-87.62318,"reserved":0,"last_update":"0001-01-01T00:00:00Z","name_a2s":"Uncletopia | Chicago | 7 | No Payload","protocol":17,"map":"koth_viaduct","folder":"tf","game":"Team Fortress","app_id":440,"player_count":0,"max_players":24,"Bots":0,"server_type":"Dedicated","server_os":"Linux","password":true,"vac":true,"version":"7708610","steam_id":85568392924866364,"keywords":["cp","nocrits","nodmgspread","uncletopia"],"game_id":440,"stv_port":0,"stv_name":"","players":null},{"server_id":39,"name":"Uncletopia | Chicago | 8 | Community","name_short":"chi-8","host":"chi-2.us.uncletopia.com","port":27045,"enabled":true,"region":"us-central","cc":"us","latitude":41.881832,"longitude":-87.62318,"reserved":0,"last_update":"0001-01-01T00:00:00Z","name_a2s":"Uncletopia | Chicago | 8 | Community","protocol":17,"map":"pl_pier","folder":"tf","game":"Team Fortress","app_id":440,"player_count":0,"max_players":24,"Bots":0,"server_type":"Dedicated","server_os":"Linux","password":true,"vac":true,"version":"7708610","steam_id":85568392924866365,"keywords":["nocrits","nodmgspread","payload","uncletopia"],"game_id":440,"stv_port":0,"stv_name":"","players":null},{"server_id":8,"name":"Uncletopia | Dallas | 1 | All Maps","name_short":"dal-1","host":"dal-1.us.uncletopia.com","port":27015,"enabled":true,"region":"us-central","cc":"us","latitude":32.779167,"longitude":-96.80889,"reserved":0,"last_update":"0001-01-01T00:00:00Z","name_a2s":"Uncletopia | Dallas | 1 | All Maps","protocol":17,"map":"cp_altitude","folder":"tf","game":"Team Fortress","app_id":440,"player_count":0,"max_players":24,"Bots":0,"server_type":"Dedicated","server_os":"Linux","password":true,"vac":true,"version":"7708610","steam_id":85568392924469986,"keywords":["cp","nocrits","nodmgspread","uncletopia"],"game_id":440,"stv_port":27016,"stv_name":"Uncletopia | Dallas | 1 | All Maps | STV","players":null},{"server_id":108,"name":"Uncletopia | Dallas | 2 | All Maps","name_short":"dal-2","host":"dal-1.us.uncletopia.com","port":27025,"enabled":true,"region":"us-central","cc":"us","latitude":32.779167,"longitude":-96.80889,"reserved":0,"last_update":"0001-01-01T00:00:00Z","name_a2s":"Uncletopia | Dallas | 2 | All Maps","protocol":17,"map":"pl_barnblitz","folder":"tf","game":"Team Fortress","app_id":440,"player_count":0,"max_players":24,"Bots":0,"server_type":"Dedicated","server_os":"Linux","password":true,"vac":true,"version":"7708610","steam_id":85568392924469988,"keywords":["nocrits","nodmgspread","payload","uncletopia"],"game_id":440,"stv_port":0,"stv_name":"","players":null},{"server_id":5,"name":"Uncletopia | Frankfurt | 1 | All Maps","name_short":"frk-1","host":"frk-1.de.uncletopia.com","port":27015,"enabled":true,"region":"eu","cc":"de","latitude":50.110924,"longitude":8.682127,"reserved":0,"last_update":"0001-01-01T00:00:00Z","name_a2s":"Uncletopia | Frankfurt | 1 | All Maps","protocol":17,"map":"pl_rumford_event","folder":"tf","game":"Team Fortress","app_id":440,"player_count":24,"max_players":24,"Bots":0,"server_type":"Dedicated","server_os":"Linux","password":true,"vac":true,"version":"7708610","steam_id":85568392924469989,"keywords":["nocrits","nodmgspread","payload","uncletopia"],"game_id":440,"stv_port":27016,"stv_name":"Uncletopia | Frankfurt | 1 | All Maps | STV","players":[{"user_id":443,"name":"Phodom","steam_id":76561198348490786,"connected_time":607000000000,"state":"active","ping":59},{"user_id":444,"name":"manure merchant","steam_id":76561198010109316,"connected_time":583000000000,"state":"active","ping":55},{"user_id":395,"name":"Festdoktor","steam_id":76561198058159271,"connected_time":3901000000000,"state":"active","ping":60},{"user_id":408,"name":"Deacon Dracul","steam_id":76561198046880663,"connected_time":2844000000000,"state":"active","ping":126},{"user_id":306,"name":"Spaenny","steam_id":76561198035850165,"connected_time":11244000000000,"state":"active","ping":52},{"user_id":429,"name":"Just another random","steam_id":76561198418538887,"connected_time":1684000000000,"state":"active","ping":92},{"user_id":426,"name":"goblinninja110","steam_id":76561198269159354,"connected_time":2076000000000,"state":"active","ping":65},{"user_id":441,"name":"AsuX","steam_id":76561197990333289,"connected_time":875000000000,"state":"active","ping":62},{"user_id":448,"name":"After8","steam_id":76561198090750865,"connected_time":271000000000,"state":"active","ping":60},{"user_id":435,"name":"Ducky[WADZ]üê§","steam_id":76561198060341245,"connected_time":1056000000000,"state":"active","ping":53},{"user_id":413,"name":"Step Sis Charlie","steam_id":76561199063329349,"connected_time":2629000000000,"state":"active","ping":105},{"user_id":445,"name":"one","steam_id":76561198018763570,"connected_time":411000000000,"state":"active","ping":104},{"user_id":396,"name":"Bones","steam_id":76561198065081225,"connected_time":3593000000000,"state":"active","ping":55},{"user_id":427,"name":"bigwish | bmod.tf","steam_id":76561197997859723,"connected_time":1969000000000,"state":"active","ping":66},{"user_id":446,"name":"Smith","steam_id":76561197993946455,"connected_time":343000000000,"state":"active","ping":54},{"user_id":397,"name":"LarsInABox","steam_id":76561198028329262,"connected_time":3589000000000,"state":"active","ping":74},{"user_id":439,"name":"1ggy.hf","steam_id":76561199236437662,"connected_time":983000000000,"state":"active","ping":79},{"user_id":424,"name":"GetExp","steam_id":76561198410131881,"connected_time":2184000000000,"state":"active","ping":62},{"user_id":425,"name":"DeCypher","steam_id":76561198171992619,"connected_time":2165000000000,"state":"active","ping":64},{"user_id":440,"name":"ghost","steam_id":76561198189940229,"connected_time":953000000000,"state":"active","ping":60},{"user_id":437,"name":"Montana","steam_id":76561198449437002,"connected_time":1039000000000,"state":"active","ping":90},{"user_id":420,"name":"Carl","steam_id":76561198045638738,"connected_time":2424000000000,"state":"active","ping":73},{"user_id":422,"name":"lad48","steam_id":76561198162146134,"connected_time":2324000000000,"state":"active","ping":107},{"user_id":289,"name":"nitroglycerin","steam_id":76561198080496833,"connected_time":12565000000000,"state":"active","ping":73}]},{"server_id":110,"name":"Uncletopia | Frankfurt | 2 | All Maps","name_short":"frk-2","host":"frk-1.de.uncletopia.com","port":27025,"enabled":true,"region":"eu","cc":"de","latitude":50.110924,"longitude":8.682127,"reserved":0,"last_update":"0001-01-01T00:00:00Z","name_a2s":"Uncletopia | Frankfurt | 2 | All Maps","protocol":17,"map":"pl_upward","folder":"tf","game":"Team Fortress","app_id":440,"player_count":17,"max_players":24,"Bots":0,"server_type":"Dedicated","server_os":"Linux","password":true,"vac":true,"version":"7708610","steam_id":85568392924469990,"keywords":["nocrits","nodmgspread","payload","uncletopia"],"game_id":440,"stv_port":27026,"stv_name":"Uncletopia | Frankfurt | 2 | All Maps | STV","players":[{"user_id":387,"name":"F","steam_id":76561199149462792,"connected_time":201000000000,"state":"active","ping":62},{"user_id":370,"name":"Cowboy Raphael","steam_id":76561198073392914,"connected_time":705000000000,"state":"active","ping":70},{"user_id":388,"name":"spacepotato08","steam_id":76561198878397952,"connected_time":197000000000,"state":"active","ping":70},{"user_id":385,"name":"Sad Slut","steam_id":76561198838277022,"connected_time":334000000000,"state":"active","ping":67},{"user_id":366,"name":"justin_ (f2p)","steam_id":76561198839843428,"connected_time":1149000000000,"state":"active","ping":227},{"user_id":374,"name":"Grovier","steam_id":76561198391878348,"connected_time":658000000000,"state":"active","ping":117},{"user_id":372,"name":"Fortezza","steam_id":76561198972539903,"connected_time":677000000000,"state":"active","ping":46},{"user_id":373,"name":"forsarN","steam_id":76561198053764094,"connected_time":675000000000,"state":"active","ping":71},{"user_id":375,"name":"Flint","steam_id":76561197995920776,"connected_time":607000000000,"state":"active","ping":46},{"user_id":389,"name":"freemantel30","steam_id":76561198065669800,"connected_time":146000000000,"state":"active","ping":53},{"user_id":377,"name":"hennessy","steam_id":76561198106912794,"connected_time":582000000000,"state":"active","ping":80},{"user_id":386,"name":"Lionball_3","steam_id":76561199084049796,"connected_time":272000000000,"state":"active","ping":79},{"user_id":380,"name":"Gleshnarb","steam_id":76561198106581442,"connected_time":542000000000,"state":"active","ping":74},{"user_id":390,"name":"DrExplosive","steam_id":76561198063678579,"connected_time":69000000000,"state":"active","ping":48},{"user_id":383,"name":"Amon Gus","steam_id":76561199094540960,"connected_time":460000000000,"state":"active","ping":51},{"user_id":391,"name":"Ennard777","steam_id":76561198965409493,"connected_time":32000000000,"state":"active","ping":124},{"user_id":392,"name":"AforeKingDwarf","steam_id":76561198043562926,"connected_time":25000000000,"state":"active","ping":51}]},{"server_id":308,"name":"Uncletopia | Frankfurt | 3 | All Maps","name_short":"frk-3","host":"frk-1.de.uncletopia.com","port":27035,"enabled":true,"region":"eu","cc":"de","latitude":50.110924,"longitude":8.682127,"reserved":0,"last_update":"0001-01-01T00:00:00Z","name_a2s":"Uncletopia | Frankfurt | 3 | All Maps","protocol":17,"map":"pl_hoodoo_final","folder":"tf","game":"Team Fortress","app_id":440,"player_count":24,"max_players":24,"Bots":0,"server_type":"Dedicated","server_os":"Linux","password":true,"vac":true,"version":"7708610","steam_id":85568392924504274,"keywords":["nocrits","nodmgspread","payload","uncletopia"],"game_id":440,"stv_port":27036,"stv_name":"Uncletopia | Frankfurt | 3 | All Maps | STV","players":[{"user_id":269,"name":"POW!","steam_id":76561198438343751,"connected_time":111000000000,"state":"active","ping":59},{"user_id":194,"name":"Pyro","steam_id":76561197972691893,"connected_time":3240000000000,"state":"active","ping":56},{"user_id":206,"name":"moser23","steam_id":76561197960543171,"connected_time":2562000000000,"state":"active","ping":45},{"user_id":267,"name":"Farmercy","steam_id":76561198000038039,"connected_time":329000000000,"state":"active","ping":60},{"user_id":205,"name":"ProfessorCrack","steam_id":76561199035475627,"connected_time":2648000000000,"state":"active","ping":82},{"user_id":254,"name":"quaindail dingle","steam_id":76561198010468661,"connected_time":862000000000,"state":"active","ping":111},{"user_id":217,"name":"Scrample","steam_id":76561198040422830,"connected_time":1925000000000,"state":"active","ping":49},{"user_id":255,"name":"kromek","steam_id":76561198878799253,"connected_time":848000000000,"state":"active","ping":67},{"user_id":259,"name":"Dankki","steam_id":76561198154222890,"connected_time":775000000000,"state":"active","ping":94},{"user_id":186,"name":"Bobby","steam_id":76561199012243561,"connected_time":3472000000000,"state":"active","ping":68},{"user_id":257,"name":"Big Trader","steam_id":76561197992364667,"connected_time":827000000000,"state":"active","ping":71},{"user_id":260,"name":"Platinum_Ace","steam_id":76561198872259385,"connected_time":764000000000,"state":"active","ping":149},{"user_id":265,"name":"gremlin GOD","steam_id":76561198169972571,"connected_time":657000000000,"state":"active","ping":67},{"user_id":193,"name":"Zateske","steam_id":76561198047446276,"connected_time":3290000000000,"state":"active","ping":58},{"user_id":210,"name":"kamekame","steam_id":76561198047108054,"connected_time":2299000000000,"state":"active","ping":89},{"user_id":261,"name":"VERS","steam_id":76561198884232373,"connected_time":763000000000,"state":"active","ping":48},{"user_id":263,"name":"sussie","steam_id":76561198272611488,"connected_time":690000000000,"state":"active","ping":66},{"user_id":250,"name":"\u003c|¬∞_¬∞|\u003e","steam_id":76561198150128676,"connected_time":1226000000000,"state":"active","ping":63},{"user_id":264,"name":"Wolvithe","steam_id":76561198142555612,"connected_time":690000000000,"state":"active","ping":51},{"user_id":262,"name":"king251311","steam_id":76561199063310889,"connected_time":747000000000,"state":"active","ping":66},{"user_id":234,"name":"SÃ∏Õ†ÃÅpoopy HÃ∏ÕÜÃÉÕÑÃÉÃêoovy","steam_id":76561198203305794,"connected_time":1591000000000,"state":"active","ping":67},{"user_id":268,"name":"HI5","steam_id":76561198065748504,"connected_time":207000000000,"state":"active","ping":75},{"user_id":228,"name":"hipster_doofus","steam_id":76561197970902697,"connected_time":1807000000000,"state":"active","ping":65},{"user_id":222,"name":"L√∂ys√§ Masa","steam_id":76561198343396172,"connected_time":1883000000000,"state":"active","ping":87}]},{"server_id":309,"name":"Uncletopia | Frankfurt | 4 | All Maps","name_short":"frk-4","host":"frk-1.de.uncletopia.com","port":27045,"enabled":true,"region":"eu","cc":"de","latitude":50.110924,"longitude":8.682127,"reserved":0,"last_update":"0001-01-01T00:00:00Z","name_a2s":"Uncletopia | Frankfurt | 4 | All Maps","protocol":17,"map":"pl_borneo","folder":"tf","game":"Team Fortress","app_id":440,"player_count":24,"max_players":24,"Bots":0,"server_type":"Dedicated","server_os":"Linux","password":true,"vac":true,"version":"7708610","steam_id":85568392924504275,"keywords":["nocrits","nodmgspread","payload","uncletopia"],"game_id":440,"stv_port":27046,"stv_name":"Uncletopia | Frankfurt | 4 | All Maps | STV","players":[{"user_id":574,"name":"X45Y","steam_id":76561198112534025,"connected_time":1449000000000,"state":"active","ping":43},{"user_id":584,"name":"G6 sherlock","steam_id":76561198802967796,"connected_time":987000000000,"state":"active","ping":120},{"user_id":586,"name":"My name is Spencer, Di Spencer","steam_id":76561198152697674,"connected_time":799000000000,"state":"active","ping":56},{"user_id":530,"name":"jingleboob","steam_id":76561198097507847,"connected_time":4646000000000,"state":"active","ping":74},{"user_id":585,"name":"where is my egg?","steam_id":76561198172542535,"connected_time":874000000000,"state":"active","ping":131},{"user_id":577,"name":"Hansiboo","steam_id":76561198332823809,"connected_time":1303000000000,"state":"active","ping":55},{"user_id":583,"name":"SoupeurConscient","steam_id":76561199404717904,"connected_time":1231000000000,"state":"active","ping":75},{"user_id":549,"name":"roblan11","steam_id":76561198066839258,"connected_time":3283000000000,"state":"active","ping":54},{"user_id":576,"name":"Bodyshot Gaming","steam_id":76561198079288943,"connected_time":1315000000000,"state":"active","ping":113},{"user_id":531,"name":"twitch.tv/biofun_","steam_id":76561198170609049,"connected_time":4597000000000,"state":"active","ping":62},{"user_id":477,"name":"gagalak","steam_id":76561198089979108,"connected_time":7383000000000,"state":"active","ping":93},{"user_id":561,"name":"Joe Mom(Biden)","steam_id":76561198866972538,"connected_time":3042000000000,"state":"active","ping":80},{"user_id":542,"name":"SynthBox3","steam_id":76561199094075745,"connected_time":3879000000000,"state":"active","ping":90},{"user_id":588,"name":"Milca_11","steam_id":76561198848650365,"connected_time":517000000000,"state":"active","ping":125},{"user_id":571,"name":"0xDEADBEEF","steam_id":76561199075416111,"connected_time":1890000000000,"state":"active","ping":79},{"user_id":573,"name":"NoVa","steam_id":76561198091306605,"connected_time":1745000000000,"state":"active","ping":67},{"user_id":578,"name":"Zazou","steam_id":76561198028076362,"connected_time":1297000000000,"state":"active","ping":59},{"user_id":512,"name":"jge","steam_id":76561198123186387,"connected_time":5879000000000,"state":"active","ping":59},{"user_id":579,"name":"steve","steam_id":76561198076135756,"connected_time":1288000000000,"state":"active","ping":50},{"user_id":550,"name":"name","steam_id":76561198152620745,"connected_time":3267000000000,"state":"active","ping":66},{"user_id":556,"name":"Simping for Pizza-san","steam_id":76561198067204908,"connected_time":3161000000000,"state":"active","ping":71},{"user_id":587,"name":":(","steam_id":76561198044465070,"connected_time":735000000000,"state":"active","ping":88},{"user_id":570,"name":"Gabys","steam_id":76561198282892553,"connected_time":1906000000000,"state":"active","ping":73},{"user_id":568,"name":"beefy \u003c3","steam_id":76561198045347066,"connected_time":2117000000000,"state":"active","ping":75}]},{"server_id":310,"name":"Uncletopia | Frankfurt | 5 | All Maps","name_short":"frk-5","host":"frk-1.de.uncletopia.com","port":27055,"enabled":true,"region":"eu","cc":"de","latitude":50.110924,"longitude":8.682127,"reserved":0,"last_update":"0001-01-01T00:00:00Z","name_a2s":"Uncletopia | Frankfurt | 5 | All Maps","protocol":17,"map":"pl_swiftwater_final1","folder":"tf","game":"Team Fortress","app_id":440,"player_count":24,"max_players":24,"Bots":0,"server_type":"Dedicated","server_os":"Linux","password":true,"vac":true,"version":"7708610","steam_id":85568392924504277,"keywords":["nocrits","nodmgspread","payload","uncletopia"],"game_id":440,"stv_port":27056,"stv_name":"Uncletopia | Frankfurt | 5 | All Maps | STV","players":[{"user_id":143,"name":"Jedi doggo","steam_id":76561198360026202,"connected_time":1916000000000,"state":"active","ping":75},{"user_id":112,"name":"Dunboi","steam_id":76561198120949216,"connected_time":3555000000000,"state":"active","ping":60},{"user_id":162,"name":"Godot","steam_id":76561198339980449,"connected_time":810000000000,"state":"active","ping":82},{"user_id":129,"name":"Evil weed wizard","steam_id":76561198076137526,"connected_time":2654000000000,"state":"active","ping":57},{"user_id":164,"name":"Florua","steam_id":76561198182297846,"connected_time":558000000000,"state":"active","ping":56},{"user_id":157,"name":"WeyBean","steam_id":76561198094478611,"connected_time":983000000000,"state":"active","ping":97},{"user_id":139,"name":"Emil","steam_id":76561198084773066,"connected_time":2082000000000,"state":"active","ping":56},{"user_id":127,"name":"Radƒçik","steam_id":76561198069181828,"connected_time":2689000000000,"state":"active","ping":90},{"user_id":144,"name":"Kodutah","steam_id":76561198203405574,"connected_time":1895000000000,"state":"active","ping":61},{"user_id":100,"name":"Drommar","steam_id":76561199219654706,"connected_time":4124000000000,"state":"active","ping":75},{"user_id":145,"name":"LadyMissfit","steam_id":76561198042236349,"connected_time":1891000000000,"state":"active","ping":57},{"user_id":169,"name":"Walle","steam_id":76561197995148937,"connected_time":490000000000,"state":"active","ping":67},{"user_id":163,"name":"Cillian","steam_id":76561199046965320,"connected_time":796000000000,"state":"active","ping":88},{"user_id":167,"name":"RogatiyZhuk","steam_id":76561199386822589,"connected_time":549000000000,"state":"active","ping":69},{"user_id":132,"name":"Scientific Idiocy","steam_id":76561198951206047,"connected_time":2463000000000,"state":"active","ping":79},{"user_id":172,"name":"S√≠theach","steam_id":76561198138915310,"connected_time":282000000000,"state":"active","ping":68},{"user_id":83,"name":"Oceanic | tuesday maybe","steam_id":76561197979741827,"connected_time":5246000000000,"state":"active","ping":62},{"user_id":149,"name":"boldno","steam_id":76561198127094314,"connected_time":1786000000000,"state":"active","ping":67},{"user_id":142,"name":"ZRD83[FR]","steam_id":76561198411341922,"connected_time":1955000000000,"state":"active","ping":68},{"user_id":170,"name":"Û†Å≥‚Åß‚ÅßMark","steam_id":76561198117226733,"connected_time":490000000000,"state":"active","ping":74},{"user_id":171,"name":"Samwise","steam_id":76561198160115838,"connected_time":477000000000,"state":"active","ping":75},{"user_id":135,"name":"Nomad994","steam_id":76561198051908201,"connected_time":2302000000000,"state":"active","ping":75},{"user_id":140,"name":"Salih","steam_id":76561198287934839,"connected_time":2052000000000,"state":"active","ping":59},{"user_id":138,"name":"Ab0nis","steam_id":76561197977179613,"connected_time":2182000000000,"state":"active","ping":72}]},{"server_id":311,"name":"Uncletopia | Frankfurt | 6 | All Maps","name_short":"frk-6","host":"frk-1.de.uncletopia.com","port":27065,"enabled":true,"region":"eu","cc":"de","latitude":50.110924,"longitude":8.682127,"reserved":0,"last_update":"0001-01-01T00:00:00Z","name_a2s":"Uncletopia | Frankfurt | 6 | All Maps","protocol":17,"map":"pl_barnblitz","folder":"tf","game":"Team Fortress","app_id":440,"player_count":22,"max_players":24,"Bots":0,"server_type":"Dedicated","server_os":"Linux","password":true,"vac":true,"version":"7708610","steam_id":85568392924504278,"keywords":["nocrits","nodmgspread","payload","uncletopia"],"game_id":440,"stv_port":27066,"stv_name":"Uncletopia | Frankfurt | 6 | All Maps | STV","players":[{"user_id":195,"name":"Shrimpeee","steam_id":76561199012689768,"connected_time":143000000000,"state":"active","ping":74},{"user_id":161,"name":"goprit","steam_id":76561198072518761,"connected_time":2151000000000,"state":"active","ping":75},{"user_id":196,"name":"Estyle","steam_id":76561198157804700,"connected_time":108000000000,"state":"active","ping":94},{"user_id":191,"name":"hawkblob","steam_id":76561198803720565,"connected_time":369000000000,"state":"active","ping":65},{"user_id":159,"name":"Cippo95","steam_id":76561198255311582,"connected_time":2554000000000,"state":"active","ping":90},{"user_id":142,"name":"XPullaHiiri","steam_id":76561198031652375,"connected_time":3410000000000,"state":"active","ping":76},{"user_id":192,"name":"[PW]aloxuhik","steam_id":76561197997042174,"connected_time":164000000000,"state":"active","ping":61},{"user_id":127,"name":"—Ç—É–∫–∫—É –∏—Ä–º–∞","steam_id":76561197998715016,"connected_time":4193000000000,"state":"active","ping":57},{"user_id":197,"name":"[LR-Looter]MrMurk","steam_id":76561198363380956,"connected_time":69000000000,"state":"active","ping":50},{"user_id":198,"name":"Hoodiebud","steam_id":76561198335687042,"connected_time":52000000000,"state":"active","ping":76},{"user_id":182,"name":"brtaba","steam_id":76561198796334790,"connected_time":972000000000,"state":"active","ping":68},{"user_id":188,"name":"rosepinkyfuzz","steam_id":76561198018546334,"connected_time":766000000000,"state":"active","ping":75},{"user_id":175,"name":"Mr. Mundy","steam_id":76561198132008918,"connected_time":1820000000000,"state":"active","ping":75},{"user_id":166,"name":"Doriian","steam_id":76561198071438810,"connected_time":2115000000000,"state":"active","ping":78},{"user_id":155,"name":"Hexagon","steam_id":76561198151205758,"connected_time":2746000000000,"state":"active","ping":59},{"user_id":128,"name":"Pabs :D","steam_id":76561198000016962,"connected_time":4155000000000,"state":"active","ping":60},{"user_id":194,"name":"Nick (Mute banned on Uncletopia","steam_id":76561198036109469,"connected_time":153000000000,"state":"active","ping":90},{"user_id":184,"name":"-p1xel","steam_id":76561198347431084,"connected_time":917000000000,"state":"active","ping":80},{"user_id":173,"name":"literally me","steam_id":76561198202990635,"connected_time":1935000000000,"state":"active","ping":60},{"user_id":185,"name":"43291842381","steam_id":76561198038160325,"connected_time":904000000000,"state":"active","ping":81},{"user_id":186,"name":"DarkFloy | Bomboclat Player","steam_id":76561198070650206,"connected_time":887000000000,"state":"active","ping":82},{"user_id":187,"name":"ƒáirno","steam_id":76561199010825303,"connected_time":869000000000,"state":"active","ping":68}]},{"server_id":23,"name":"Uncletopia | Frankfurt | 7 | No Payload","name_short":"frk-7","host":"frk-1.de.uncletopia.com","port":27075,"enabled":true,"region":"eu","cc":"de","latitude":50.110924,"longitude":8.682127,"reserved":0,"last_update":"0001-01-01T00:00:00Z","name_a2s":"Uncletopia | Frankfurt | 7 | No Payload","protocol":17,"map":"koth_nucleus","folder":"tf","game":"Team Fortress","app_id":440,"player_count":22,"max_players":24,"Bots":0,"server_type":"Dedicated","server_os":"Linux","password":true,"vac":true,"version":"7708610","steam_id":85568392924742827,"keywords":["cp","nocrits","nodmgspread","uncletopia"],"game_id":440,"stv_port":27076,"stv_name":"Uncletopia | Frankfurt | 7 | No Payload | STV","players":[{"user_id":28,"name":"BinaryTrees","steam_id":76561198046819746,"connected_time":2880000000000,"state":"active","ping":39},{"user_id":29,"name":"Gabhar","steam_id":76561198032468866,"connected_time":2854000000000,"state":"active","ping":59},{"user_id":31,"name":"autogynocelia","steam_id":76561198038995286,"connected_time":2365000000000,"state":"active","ping":162},{"user_id":57,"name":"Him","steam_id":76561198086400484,"connected_time":1428000000000,"state":"active","ping":66},{"user_id":60,"name":"Garden Freeman","steam_id":76561199073314677,"connected_time":946000000000,"state":"active","ping":67},{"user_id":36,"name":"forthingthe","steam_id":76561199370089653,"connected_time":1962000000000,"state":"active","ping":161},{"user_id":68,"name":"xXdoge gaming 42069Xx","steam_id":76561198372971096,"connected_time":215000000000,"state":"active","ping":67},{"user_id":42,"name":"Davii","steam_id":76561199172609547,"connected_time":1756000000000,"state":"active","ping":64},{"user_id":39,"name":"‚Ç™ F4.exe","steam_id":76561197997909480,"connected_time":1835000000000,"state":"active","ping":77},{"user_id":40,"name":"F4.exe","steam_id":76561198278822807,"connected_time":1827000000000,"state":"active","ping":58},{"user_id":41,"name":"weed fairy","steam_id":76561197998843096,"connected_time":1820000000000,"state":"active","ping":78},{"user_id":43,"name":"Acxsa","steam_id":76561198098979449,"connected_time":1742000000000,"state":"active","ping":76},{"user_id":44,"name":"Parkurist","steam_id":76561198811490369,"connected_time":1738000000000,"state":"active","ping":81},{"user_id":48,"name":"Lukero","steam_id":76561198301594341,"connected_time":1583000000000,"state":"active","ping":52},{"user_id":70,"name":"Chat","steam_id":76561198351286949,"connected_time":123000000000,"state":"active","ping":60},{"user_id":50,"name":"Frank","steam_id":76561198086672774,"connected_time":1566000000000,"state":"active","ping":84},{"user_id":52,"name":"Infamous Chef","steam_id":76561199093649915,"connected_time":1540000000000,"state":"active","ping":65},{"user_id":64,"name":"Old Hat","steam_id":76561197994673297,"connected_time":642000000000,"state":"active","ping":59},{"user_id":54,"name":"Rabizen","steam_id":76561198133242816,"connected_time":1503000000000,"state":"active","ping":89},{"user_id":62,"name":"Tomfool","steam_id":76561197993256481,"connected_time":775000000000,"state":"active","ping":75},{"user_id":56,"name":"Eisen","steam_id":76561198353630810,"connected_time":1479000000000,"state":"active","ping":150},{"user_id":58,"name":"snowii","steam_id":76561198836246326,"connected_time":1416000000000,"state":"active","ping":66}]},{"server_id":24,"name":"Uncletopia | Frankfurt | 8 | Community","name_short":"frk-8","host":"frk-1.de.uncletopia.com","port":27085,"enabled":true,"region":"eu","cc":"de","latitude":50.110924,"longitude":8.682127,"reserved":0,"last_update":"0001-01-01T00:00:00Z","name_a2s":"Uncletopia | Frankfurt | 8 | Community","protocol":17,"map":"workshop/koth_ramjam_v2_b2.ugc2865676487","folder":"tf","game":"Team Fortress","app_id":440,"player_count":0,"max_players":24,"Bots":0,"server_type":"Dedicated","server_os":"Linux","password":true,"vac":true,"version":"7708610","steam_id":85568392924742828,"keywords":["cp","nocrits","nodmgspread","uncletopia"],"game_id":440,"stv_port":27086,"stv_name":"Uncletopia | Frankfurt | 8 | Community | STV","players":null},{"server_id":202,"name":"Uncletopia | Hong Kong | 1 | All Maps","name_short":"hgk-1","host":"hgk-1.hk.uncletopia.com","port":27015,"enabled":true,"region":"asia","cc":"hk","latitude":22.302711,"longitude":114.177216,"reserved":0,"last_update":"0001-01-01T00:00:00Z","name_a2s":"Uncletopia | Hong Kong | 1 | All Maps","protocol":17,"map":"koth_lakeside_final","folder":"tf","game":"Team Fortress","app_id":440,"player_count":0,"max_players":24,"Bots":0,"server_type":"Dedicated","server_os":"Linux","password":true,"vac":true,"version":"7708610","steam_id":85568392924494504,"keywords":["cp","nocrits","nodmgspread","uncletopia"],"game_id":440,"stv_port":27016,"stv_name":"Uncletopia | Hong Kong | 1 | All Maps | STV","players":null},{"server_id":1,"name":"Uncletopia | Los Angeles | 1 | All Maps","name_short":"lax-1","host":"lax-1.us.uncletopia.com","port":27015,"enabled":true,"region":"us-west","cc":"us","latitude":33.94279,"longitude":-118.41004,"reserved":0,"last_update":"0001-01-01T00:00:00Z","name_a2s":"Uncletopia | Los Angeles | 1 | All Maps","protocol":17,"map":"cp_process_final","folder":"tf","game":"Team Fortress","app_id":440,"player_count":0,"max_players":24,"Bots":0,"server_type":"Dedicated","server_os":"Linux","password":true,"vac":true,"version":"7708610","steam_id":85568392924469991,"keywords":["cp","nocrits","nodmgspread","uncletopia"],"game_id":440,"stv_port":0,"stv_name":"","players":null},{"server_id":112,"name":"Uncletopia | Los Angeles | 2 | All Maps","name_short":"lax-2","host":"lax-1.us.uncletopia.com","port":27025,"enabled":true,"region":"us-west","cc":"us","latitude":33.94279,"longitude":-118.41004,"reserved":0,"last_update":"0001-01-01T00:00:00Z","name_a2s":"Uncletopia | Los Angeles | 2 | All Maps","protocol":17,"map":"cp_altitude","folder":"tf","game":"Team Fortress","app_id":440,"player_count":0,"max_players":24,"Bots":0,"server_type":"Dedicated","server_os":"Linux","password":true,"vac":true,"version":"7708610","steam_id":85568392924469992,"keywords":["cp","nocrits","nodmgspread","uncletopia"],"game_id":440,"stv_port":0,"stv_name":"","players":null},{"server_id":324,"name":"Uncletopia | Los Angeles | 3 | All Maps","name_short":"lax-3","host":"lax-1.us.uncletopia.com","port":27035,"enabled":true,"region":"us-west","cc":"us","latitude":33.94279,"longitude":-118.41004,"reserved":0,"last_update":"0001-01-01T00:00:00Z","name_a2s":"Uncletopia | Los Angeles | 3 | All Maps","protocol":17,"map":"pl_badwater","folder":"tf","game":"Team Fortress","app_id":440,"player_count":2,"max_players":24,"Bots":0,"server_type":"Dedicated","server_os":"Linux","password":true,"vac":true,"version":"7708610","steam_id":85568392924510198,"keywords":["nocrits","nodmgspread","payload","uncletopia"],"game_id":440,"stv_port":27036,"stv_name":"Uncletopia | Los Angeles | 3 | All Maps | STV","players":[{"user_id":10,"name":"trackpad gaming | f2p","steam_id":76561198840414371,"connected_time":197000000000,"state":"active","ping":67},{"user_id":11,"name":"The Assistant Regional Manager","steam_id":76561199221484936,"connected_time":180000000000,"state":"active","ping":52}]},{"server_id":25,"name":"Uncletopia | Los Angeles | 4 | No Payload","name_short":"lax-4","host":"lax-1.us.uncletopia.com","port":27045,"enabled":true,"region":"us-west","cc":"us","latitude":33.94279,"longitude":-118.41004,"reserved":0,"last_update":"0001-01-01T00:00:00Z","name_a2s":"Uncletopia | Los Angeles | 4 | No Payload","protocol":17,"map":"pl_upward","folder":"tf","game":"Team Fortress","app_id":440,"player_count":0,"max_players":24,"Bots":0,"server_type":"Dedicated","server_os":"Linux","password":true,"vac":true,"version":"7708610","steam_id":85568392924510199,"keywords":["nocrits","nodmgspread","payload","uncletopia"],"game_id":440,"stv_port":0,"stv_name":"","players":null},{"server_id":11,"name":"Uncletopia | London | 1 | All Maps","name_short":"lon-1","host":"lon-1.uk.uncletopia.com","port":27015,"enabled":true,"region":"eu","cc":"gb","latitude":51.509865,"longitude":-0.118092,"reserved":0,"last_update":"0001-01-01T00:00:00Z","name_a2s":"Uncletopia | London | 1 | All Maps","protocol":17,"map":"pl_pier","folder":"tf","game":"Team Fortress","app_id":440,"player_count":23,"max_players":24,"Bots":0,"server_type":"Dedicated","server_os":"Linux","password":true,"vac":true,"version":"7708610","steam_id":85568392924367362,"keywords":["nocrits","nodmgspread","payload","uncletopia"],"game_id":440,"stv_port":27016,"stv_name":"Uncletopia | London | 1 | All Maps | STV","players":[{"user_id":417,"name":"nudjura","steam_id":76561198281986139,"connected_time":452000000000,"state":"active","ping":35},{"user_id":423,"name":"Megamain","steam_id":76561198923772036,"connected_time":5000000000,"state":"spawning","ping":41},{"user_id":420,"name":"plazma","steam_id":76561198886594048,"connected_time":102000000000,"state":"active","ping":91},{"user_id":412,"name":"agsd37","steam_id":76561199064567309,"connected_time":800000000000,"state":"active","ping":50},{"user_id":338,"name":"‚ú™ J","steam_id":76561198094911581,"connected_time":7160000000000,"state":"active","ping":44},{"user_id":408,"name":"When Life gives you Lemons","steam_id":76561198318290663,"connected_time":1163000000000,"state":"active","ping":55},{"user_id":365,"name":"Sorky","steam_id":76561198007502339,"connected_time":5760000000000,"state":"active","ping":74},{"user_id":415,"name":"Aaron","steam_id":76561197990046953,"connected_time":734000000000,"state":"active","ping":53},{"user_id":389,"name":"Mango","steam_id":76561198139555709,"connected_time":3457000000000,"state":"active","ping":60},{"user_id":352,"name":"Kahvi","steam_id":76561198723244199,"connected_time":6568000000000,"state":"active","ping":88},{"user_id":402,"name":"peshay studio set 1996","steam_id":76561199026097466,"connected_time":2196000000000,"state":"active","ping":70},{"user_id":406,"name":"alien","steam_id":76561197968892194,"connected_time":1333000000000,"state":"active","ping":47},{"user_id":421,"name":"ff:ff:ff:ff:ff:ff","steam_id":76561198072122983,"connected_time":28000000000,"state":"active","ping":64},{"user_id":275,"name":"festive jones","steam_id":76561198073975078,"connected_time":10043000000000,"state":"active","ping":47},{"user_id":387,"name":"Will Toledo's No. 1 fan","steam_id":76561198397024973,"connected_time":3709000000000,"state":"active","ping":35},{"user_id":418,"name":"Sebtacular","steam_id":76561198334284616,"connected_time":366000000000,"state":"active","ping":66},{"user_id":225,"name":"Noob_with_source","steam_id":76561198870362103,"connected_time":13658000000000,"state":"active","ping":59},{"user_id":392,"name":"Morgulan","steam_id":76561198046564543,"connected_time":2622000000000,"state":"active","ping":56},{"user_id":372,"name":"Joseph Stalin LFT","steam_id":76561198033199746,"connected_time":4289000000000,"state":"active","ping":46},{"user_id":419,"name":"lexi ‚òÖ","steam_id":76561198988695461,"connected_time":285000000000,"state":"active","ping":43},{"user_id":422,"name":"MeerkatMal","steam_id":76561198041908807,"connected_time":26000000000,"state":"active","ping":62},{"user_id":414,"name":"Mapavri","steam_id":76561198370196400,"connected_time":782000000000,"state":"active","ping":123},{"user_id":404,"name":"jonttu","steam_id":76561198201999690,"connected_time":2048000000000,"state":"active","ping":97}]},{"server_id":114,"name":"Uncletopia | London | 2 | All Maps","name_short":"lon-2","host":"lon-1.uk.uncletopia.com","port":27025,"enabled":true,"region":"eu","cc":"gb","latitude":51.509865,"longitude":-0.118092,"reserved":0,"last_update":"0001-01-01T00:00:00Z","name_a2s":"Uncletopia | London | 2 | All Maps","protocol":17,"map":"pl_badwater","folder":"tf","game":"Team Fortress","app_id":440,"player_count":20,"max_players":24,"Bots":0,"server_type":"Dedicated","server_os":"Linux","password":true,"vac":true,"version":"7708610","steam_id":85568392924470941,"keywords":["nocrits","nodmgspread","payload","uncletopia"],"game_id":440,"stv_port":27026,"stv_name":"Uncletopia | London | 2 | All Maps | STV","players":[{"user_id":353,"name":"sareena","steam_id":76561198810194062,"connected_time":3590000000000,"state":"active","ping":65},{"user_id":375,"name":"PeptoBismol135","steam_id":76561198135387121,"connected_time":2322000000000,"state":"active","ping":123},{"user_id":393,"name":"War Ren","steam_id":76561198301524251,"connected_time":1052000000000,"state":"active","ping":50},{"user_id":332,"name":"Kylul_","steam_id":76561198042981061,"connected_time":4660000000000,"state":"active","ping":41},{"user_id":406,"name":"Arizona Pootis","steam_id":76561198982674420,"connected_time":37000000000,"state":"active","ping":44},{"user_id":354,"name":"herbsmoker_","steam_id":76561198046778795,"connected_time":3556000000000,"state":"active","ping":72},{"user_id":405,"name":"Somethingü§ô","steam_id":76561198375358222,"connected_time":242000000000,"state":"active","ping":45},{"user_id":407,"name":"Ziltoid","steam_id":76561198020753675,"connected_time":33000000000,"state":"active","ping":74},{"user_id":390,"name":"KarlRanzeier","steam_id":76561198066281337,"connected_time":1408000000000,"state":"active","ping":60},{"user_id":372,"name":"–ò–Ω—Å–ø–µ–∫—Ç–æ—Ä –ê—Ç–∞—Å","steam_id":76561199175688390,"connected_time":2579000000000,"state":"active","ping":81},{"user_id":360,"name":"Tasukeru","steam_id":76561198011909704,"connected_time":3176000000000,"state":"active","ping":60},{"user_id":398,"name":"Kokas","steam_id":76561197996786353,"connected_time":516000000000,"state":"active","ping":73},{"user_id":395,"name":"Revettah","steam_id":76561198040442214,"connected_time":770000000000,"state":"active","ping":40},{"user_id":368,"name":"kalaa ‚Ä†","steam_id":76561198134652336,"connected_time":2778000000000,"state":"active","ping":64},{"user_id":352,"name":"Him","steam_id":76561198155314925,"connected_time":3593000000000,"state":"active","ping":55},{"user_id":403,"name":"lomse_","steam_id":76561198146939162,"connected_time":413000000000,"state":"active","ping":52},{"user_id":404,"name":"Ritzy","steam_id":76561198381955342,"connected_time":272000000000,"state":"active","ping":41},{"user_id":359,"name":"ozhmium","steam_id":76561198060762216,"connected_time":3319000000000,"state":"active","ping":68},{"user_id":362,"name":"CapeCear","steam_id":76561198297487875,"connected_time":2924000000000,"state":"active","ping":73},{"user_id":371,"name":"DEMURE","steam_id":76561198263299590,"connected_time":2613000000000,"state":"active","ping":68}]},{"server_id":320,"name":"Uncletopia | London | 3 | All Maps","name_short":"lon-3","host":"lon-1.uk.uncletopia.com","port":27035,"enabled":true,"region":"eu","cc":"gb","latitude":51.509865,"longitude":-0.118092,"reserved":0,"last_update":"0001-01-01T00:00:00Z","name_a2s":"Uncletopia | London | 3 | All Maps","protocol":17,"map":"cp_snakewater_final1","folder":"tf","game":"Team Fortress","app_id":440,"player_count":22,"max_players":24,"Bots":0,"server_type":"Dedicated","server_os":"Linux","password":true,"vac":true,"version":"7708610","steam_id":85568392924510192,"keywords":["cp","nocrits","nodmgspread","uncletopia"],"game_id":440,"stv_port":27036,"stv_name":"Uncletopia | London | 3 | All Maps | STV","players":[{"user_id":264,"name":"Krof enjoyer","steam_id":76561199101777637,"connected_time":469000000000,"state":"active","ping":78},{"user_id":242,"name":"courtly proven masochist","steam_id":76561198977420882,"connected_time":1808000000000,"state":"active","ping":37},{"user_id":278,"name":"Lewylow","steam_id":76561198005425686,"connected_time":35000000000,"state":"spawning","ping":69},{"user_id":271,"name":"CamoS1250","steam_id":76561198309917434,"connected_time":171000000000,"state":"active","ping":151},{"user_id":204,"name":"NonProphet","steam_id":76561198280149820,"connected_time":4213000000000,"state":"active","ping":49},{"user_id":263,"name":"D E A D A S S !","steam_id":76561198170081058,"connected_time":687000000000,"state":"active","ping":55},{"user_id":243,"name":"Yelowchy","steam_id":76561198199416121,"connected_time":1758000000000,"state":"active","ping":101},{"user_id":206,"name":"Fat Pigeon","steam_id":76561198817940142,"connected_time":3798000000000,"state":"active","ping":45},{"user_id":239,"name":"glyph","steam_id":76561197980736364,"connected_time":1961000000000,"state":"active","ping":87},{"user_id":254,"name":"Tea Drinking Conqueror","steam_id":76561198799243030,"connected_time":1031000000000,"state":"active","ping":50},{"user_id":268,"name":"Mr. Huntsman","steam_id":76561197981910397,"connected_time":307000000000,"state":"active","ping":61},{"user_id":234,"name":"muppi","steam_id":76561198067765324,"connected_time":2169000000000,"state":"active","ping":64},{"user_id":277,"name":"mordecai.nmc","steam_id":76561197997223851,"connected_time":69000000000,"state":"active","ping":46},{"user_id":246,"name":"ChingaTuMadre.com","steam_id":76561199003163608,"connected_time":1657000000000,"state":"active","ping":174},{"user_id":270,"name":"small tony","steam_id":76561199141010349,"connected_time":278000000000,"state":"active","ping":95},{"user_id":274,"name":"Dan Stan The Mr Man","steam_id":76561198017134269,"connected_time":158000000000,"state":"active","ping":78},{"user_id":235,"name":"TheBeardedM1G","steam_id":76561198040208946,"connected_time":2123000000000,"state":"active","ping":45},{"user_id":252,"name":"MomoInTheBox","steam_id":76561197994150695,"connected_time":1156000000000,"state":"active","ping":89},{"user_id":265,"name":"stonebum","steam_id":76561198057004606,"connected_time":446000000000,"state":"active","ping":54},{"user_id":238,"name":"pyon","steam_id":76561198821425662,"connected_time":2003000000000,"state":"active","ping":63},{"user_id":233,"name":"loonies in the hall","steam_id":76561198216544293,"connected_time":2216000000000,"state":"active","ping":72},{"user_id":276,"name":"Alegz","steam_id":76561198287810139,"connected_time":139000000000,"state":"active","ping":88}]},{"server_id":321,"name":"Uncletopia | London | 4 | All Maps","name_short":"lon-4","host":"lon-1.uk.uncletopia.com","port":27045,"enabled":true,"region":"eu","cc":"gb","latitude":51.509865,"longitude":-0.118092,"reserved":0,"last_update":"0001-01-01T00:00:00Z","name_a2s":"Uncletopia | London | 4 | All Maps","protocol":17,"map":"pl_upward","folder":"tf","game":"Team Fortress","app_id":440,"player_count":23,"max_players":24,"Bots":0,"server_type":"Dedicated","server_os":"Linux","password":true,"vac":true,"version":"7708610","steam_id":85568392924510193,"keywords":["nocrits","nodmgspread","payload","uncletopia"],"game_id":440,"stv_port":27046,"stv_name":"Uncletopia | London | 4 | All Maps | STV","players":[{"user_id":592,"name":"jason","steam_id":76561198060780111,"connected_time":3706000000000,"state":"active","ping":73},{"user_id":521,"name":"giclure :;","steam_id":76561197986362828,"connected_time":7406000000000,"state":"active","ping":46},{"user_id":639,"name":"Ka","steam_id":76561198056465756,"connected_time":320000000000,"state":"active","ping":81},{"user_id":591,"name":"anian","steam_id":76561198061874598,"connected_time":3754000000000,"state":"active","ping":60},{"user_id":603,"name":"a great color","steam_id":76561198147277460,"connected_time":2873000000000,"state":"active","ping":61},{"user_id":627,"name":"garbage mikuknight","steam_id":76561198361819054,"connected_time":951000000000,"state":"active","ping":91},{"user_id":584,"name":"Valiant Mouse","steam_id":76561198119722453,"connected_time":4479000000000,"state":"active","ping":60},{"user_id":581,"name":"Gormbrain","steam_id":76561198020079511,"connected_time":4794000000000,"state":"active","ping":30},{"user_id":577,"name":"Slipskip","steam_id":76561198018493540,"connected_time":4830000000000,"state":"active","ping":51},{"user_id":641,"name":"lulu","steam_id":76561199147764133,"connected_time":235000000000,"state":"active","ping":70},{"user_id":617,"name":"Turtle","steam_id":76561198262110064,"connected_time":2036000000000,"state":"active","ping":166},{"user_id":636,"name":"La-Li-Lu-Le-Lo","steam_id":76561198047990600,"connected_time":467000000000,"state":"active","ping":45},{"user_id":623,"name":"dafydd","steam_id":76561198052200325,"connected_time":1368000000000,"state":"active","ping":85},{"user_id":618,"name":"Welder","steam_id":76561198355300561,"connected_time":2001000000000,"state":"active","ping":71},{"user_id":634,"name":"Someone","steam_id":76561199030195879,"connected_time":791000000000,"state":"active","ping":53},{"user_id":644,"name":"|20BB)\u003eMach","steam_id":76561198952487564,"connected_time":56000000000,"state":"active","ping":91},{"user_id":630,"name":"Mean Green Peen","steam_id":76561198228455736,"connected_time":934000000000,"state":"active","ping":54},{"user_id":631,"name":"Prsm","steam_id":76561198053344995,"connected_time":853000000000,"state":"active","ping":107},{"user_id":643,"name":"Yilow","steam_id":76561198040036642,"connected_time":97000000000,"state":"active","ping":64},{"user_id":633,"name":"CitroenSM","steam_id":76561199071383249,"connected_time":839000000000,"state":"active","ping":116},{"user_id":606,"name":"–ø–∞–≤–ø–≤–∞–ø–¥–æ–∫–∂–¥–ª—É—Ü\ufffd","steam_id":76561198163244605,"connected_time":2812000000000,"state":"active","ping":72},{"user_id":612,"name":"One armed fiddle enthusiast","steam_id":76561198045847051,"connected_time":2451000000000,"state":"active","ping":57},{"user_id":624,"name":"Megafrox","steam_id":76561199091818724,"connected_time":1191000000000,"state":"active","ping":97}]},{"server_id":21,"name":"Uncletopia | London | 5 | All Maps","name_short":"lon-5","host":"lon-1.uk.uncletopia.com","port":27055,"enabled":true,"region":"eu","cc":"gb","latitude":51.509865,"longitude":-0.118092,"reserved":0,"last_update":"0001-01-01T00:00:00Z","name_a2s":"Uncletopia | London | 5 | All Maps","protocol":17,"map":"koth_lakeside_final","folder":"tf","game":"Team Fortress","app_id":440,"player_count":0,"max_players":24,"Bots":0,"server_type":"Dedicated","server_os":"Linux","password":true,"vac":true,"version":"7708610","steam_id":85568392924742829,"keywords":["cp","nocrits","nodmgspread","uncletopia"],"game_id":440,"stv_port":0,"stv_name":"","players":null},{"server_id":22,"name":"Uncletopia | London | 6 | All Maps","name_short":"lon-6","host":"lon-1.uk.uncletopia.com","port":27065,"enabled":true,"region":"eu","cc":"gb","latitude":51.509865,"longitude":-0.118092,"reserved":0,"last_update":"0001-01-01T00:00:00Z","name_a2s":"Uncletopia | London | 6 | All Maps","protocol":17,"map":"koth_viaduct","folder":"tf","game":"Team Fortress","app_id":440,"player_count":0,"max_players":24,"Bots":0,"server_type":"Dedicated","server_os":"Linux","password":true,"vac":true,"version":"7708610","steam_id":85568392924742830,"keywords":["cp","nocrits","nodmgspread","uncletopia"],"game_id":440,"stv_port":0,"stv_name":"","players":null},{"server_id":40,"name":"Uncletopia | London | 7 | No Payload","name_short":"lon-7","host":"lon-1.uk.uncletopia.com","port":27075,"enabled":true,"region":"eu","cc":"gb","latitude":51.509865,"longitude":-0.118092,"reserved":0,"last_update":"0001-01-01T00:00:00Z","name_a2s":"Uncletopia | London | 7 | No Payload","protocol":17,"map":"plr_pipeline","folder":"tf","game":"Team Fortress","app_id":440,"player_count":0,"max_players":24,"Bots":0,"server_type":"Dedicated","server_os":"Linux","password":true,"vac":true,"version":"7708610","steam_id":85568392924964314,"keywords":["nocrits","nodmgspread","payload","uncletopia"],"game_id":440,"stv_port":27076,"stv_name":"Uncletopia | London | 7 | No Payload | STV","players":null},{"server_id":41,"name":"Uncletopia | London | 8 | Community","name_short":"lon-8","host":"lon-1.uk.uncletopia.com","port":27085,"enabled":true,"region":"eu","cc":"gb","latitude":51.509865,"longitude":-0.118092,"reserved":0,"last_update":"0001-01-01T00:00:00Z","name_a2s":"Uncletopia | London | 8 | Community","protocol":17,"map":"workshop/koth_product_final.ugc454272353","folder":"tf","game":"Team Fortress","app_id":440,"player_count":0,"max_players":24,"Bots":0,"server_type":"Dedicated","server_os":"Linux","password":true,"vac":true,"version":"7708610","steam_id":85568392924964315,"keywords":["cp","nocrits","nodmgspread","uncletopia"],"game_id":440,"stv_port":27086,"stv_name":"Uncletopia | London | 8 | Community | STV","players":null},{"server_id":300,"name":"Uncletopia | Montr√©al | 1 | All Maps","name_short":"mtl-1","host":"mtl-1.ca.uncletopia.com","port":27015,"enabled":true,"region":"us-east","cc":"ca","latitude":45.50889,"longitude":-73.56167,"reserved":0,"last_update":"0001-01-01T00:00:00Z","name_a2s":"Uncletopia | Montr√©al | 1 | All Maps","protocol":17,"map":"pl_snowycoast","folder":"tf","game":"Team Fortress","app_id":440,"player_count":0,"max_players":24,"Bots":0,"server_type":"Dedicated","server_os":"Linux","password":true,"vac":true,"version":"7708610","steam_id":85568392924500087,"keywords":["nocrits","nodmgspread","payload","uncletopia"],"game_id":440,"stv_port":27016,"stv_name":"Uncletopia | Montr√©al | 1 | All Maps | STV","players":null},{"server_id":301,"name":"Uncletopia | Montr√©al | 2 | All Maps","name_short":"mtl-2","host":"mtl-1.ca.uncletopia.com","port":27025,"enabled":true,"region":"us-east","cc":"ca","latitude":45.50889,"longitude":-73.56167,"reserved":0,"last_update":"0001-01-01T00:00:00Z","name_a2s":"Uncletopia | Montr√©al | 2 | All Maps","protocol":17,"map":"pl_frontier_final","folder":"tf","game":"Team Fortress","app_id":440,"player_count":0,"max_players":24,"Bots":0,"server_type":"Dedicated","server_os":"Linux","password":true,"vac":true,"version":"7708610","steam_id":85568392924500088,"keywords":["nocrits","nodmgspread","payload","uncletopia"],"game_id":440,"stv_port":0,"stv_name":"","players":null},{"server_id":302,"name":"Uncletopia | Montr√©al | 3 | All Maps","name_short":"mtl-3","host":"mtl-1.ca.uncletopia.com","port":27035,"enabled":true,"region":"us-east","cc":"ca","latitude":45.50889,"longitude":-73.56167,"reserved":0,"last_update":"0001-01-01T00:00:00Z","name_a2s":"Uncletopia | Montr√©al | 3 | All Maps","protocol":17,"map":"koth_highpass","folder":"tf","game":"Team Fortress","app_id":440,"player_count":0,"max_players":24,"Bots":0,"server_type":"Dedicated","server_os":"Linux","password":true,"vac":true,"version":"7708610","steam_id":85568392924500089,"keywords":["cp","nocrits","nodmgspread","uncletopia"],"game_id":440,"stv_port":27036,"stv_name":"Uncletopia | Montr√©al | 3 | All Maps | STV","players":null},{"server_id":303,"name":"Uncletopia | Montr√©al | 4 | No Payload","name_short":"mtl-4","host":"mtl-1.ca.uncletopia.com","port":27045,"enabled":true,"region":"us-east","cc":"ca","latitude":45.50889,"longitude":-73.56167,"reserved":0,"last_update":"0001-01-01T00:00:00Z","name_a2s":"Uncletopia | Montr√©al | 4 | No Payload","protocol":17,"map":"pl_frontier_final","folder":"tf","game":"Team Fortress","app_id":440,"player_count":0,"max_players":24,"Bots":0,"server_type":"Dedicated","server_os":"Linux","password":true,"vac":true,"version":"7708610","steam_id":85568392924500090,"keywords":["nocrits","nodmgspread","payload","uncletopia"],"game_id":440,"stv_port":0,"stv_name":"","players":null},{"server_id":13,"name":"Uncletopia | New York City | 1 | All Maps","name_short":"nyc-1","host":"nyc-1.us.uncletopia.com","port":27015,"enabled":true,"region":"us-east","cc":"us","latitude":40.73061,"longitude":-73.93524,"reserved":0,"last_update":"0001-01-01T00:00:00Z","name_a2s":"Uncletopia | New York City | 1 | All Maps","protocol":17,"map":"pl_swiftwater_final1","folder":"tf","game":"Team Fortress","app_id":440,"player_count":0,"max_players":24,"Bots":0,"server_type":"Dedicated","server_os":"Linux","password":true,"vac":true,"version":"7708610","steam_id":85568392924469993,"keywords":["nocrits","nodmgspread","payload","uncletopia"],"game_id":440,"stv_port":27016,"stv_name":"Uncletopia | New York City | 1 | All Maps | STV","players":null},{"server_id":14,"name":"Uncletopia | New York City | 2 | All Maps","name_short":"nyc-2","host":"nyc-1.us.uncletopia.com","port":27025,"enabled":true,"region":"us-east","cc":"us","latitude":40.73061,"longitude":-73.93524,"reserved":0,"last_update":"0001-01-01T00:00:00Z","name_a2s":"Uncletopia | New York City | 2 | All Maps","protocol":17,"map":"pl_pier","folder":"tf","game":"Team Fortress","app_id":440,"player_count":0,"max_players":24,"Bots":0,"server_type":"Dedicated","server_os":"Linux","password":true,"vac":true,"version":"7708610","steam_id":85568392924469994,"keywords":["nocrits","nodmgspread","payload","uncletopia"],"game_id":440,"stv_port":27026,"stv_name":"Uncletopia | New York City | 2 | All Maps | STV","players":null},{"server_id":15,"name":"Uncletopia | New York City | 3 | All Maps","name_short":"nyc-3","host":"nyc-1.us.uncletopia.com","port":27035,"enabled":true,"region":"us-east","cc":"us","latitude":40.73061,"longitude":-73.93524,"reserved":0,"last_update":"0001-01-01T00:00:00Z","name_a2s":"Uncletopia | New York City | 3 | All Maps","protocol":17,"map":"cp_sunshine","folder":"tf","game":"Team Fortress","app_id":440,"player_count":12,"max_players":24,"Bots":0,"server_type":"Dedicated","server_os":"Linux","password":true,"vac":true,"version":"7708610","steam_id":85568392924742820,"keywords":["cp","nocrits","nodmgspread","uncletopia"],"game_id":440,"stv_port":0,"stv_name":"","players":[{"user_id":2,"name":"GezmeRR TF2","steam_id":76561198043814532,"connected_time":381000000000,"state":"active","ping":128},{"user_id":3,"name":"nep-nep","steam_id":76561198303149838,"connected_time":378000000000,"state":"active","ping":104},{"user_id":4,"name":"[hoodie]","steam_id":76561198105408624,"connected_time":376000000000,"state":"active","ping":149},{"user_id":13,"name":"synin","steam_id":76561198076540384,"connected_time":65000000000,"state":"active","ping":101},{"user_id":6,"name":"Lord Commissar Drac","steam_id":76561198030371218,"connected_time":354000000000,"state":"active","ping":138},{"user_id":7,"name":"Danse","steam_id":76561198065545203,"connected_time":300000000000,"state":"active","ping":140},{"user_id":8,"name":"DragonXneoN","steam_id":76561198005974781,"connected_time":177000000000,"state":"active","ping":164},{"user_id":9,"name":"RedPyro2009","steam_id":76561198935824363,"connected_time":169000000000,"state":"active","ping":118},{"user_id":10,"name":"Marie","steam_id":76561198056104899,"connected_time":137000000000,"state":"active","ping":70},{"user_id":11,"name":"Moonadoo","steam_id":76561198133377546,"connected_time":92000000000,"state":"active","ping":85},{"user_id":12,"name":"Acro Banwagon","steam_id":76561198092451804,"connected_time":85000000000,"state":"active","ping":73},{"user_id":14,"name":"QuakAtack","steam_id":76561198870770157,"connected_time":38000000000,"state":"active","ping":107}]},{"server_id":16,"name":"Uncletopia | New York City | 4 | Community","name_short":"nyc-4","host":"nyc-1.us.uncletopia.com","port":27045,"enabled":true,"region":"us-east","cc":"us","latitude":40.73061,"longitude":-73.93524,"reserved":0,"last_update":"0001-01-01T00:00:00Z","name_a2s":"Uncletopia | New York City | 4 | Community","protocol":17,"map":"workshop/koth_ramjam_v2_b2.ugc2865676487","folder":"tf","game":"Team Fortress","app_id":440,"player_count":0,"max_players":24,"Bots":0,"server_type":"Dedicated","server_os":"Linux","password":true,"vac":true,"version":"7708610","steam_id":85568392924742821,"keywords":["cp","nocrits","nodmgspread","uncletopia"],"game_id":440,"stv_port":27046,"stv_name":"Uncletopia | New York City | 4 | Community | STV","players":null},{"server_id":142,"name":"Uncletopia | S√£o Paulo | 1 | All Maps","name_short":"sao-1","host":"sao-1.br.uncletopia.com","port":27015,"enabled":true,"region":"sa","cc":"br","latitude":-23.533773,"longitude":-46.62529,"reserved":0,"last_update":"0001-01-01T00:00:00Z","name_a2s":"Uncletopia | S√£o Paulo | 1 | All Maps","protocol":17,"map":"pl_upward","folder":"tf","game":"Team Fortress","app_id":440,"player_count":22,"max_players":24,"Bots":0,"server_type":"Dedicated","server_os":"Linux","password":true,"vac":true,"version":"7708610","steam_id":85568392924469996,"keywords":["nocrits","nodmgspread","payload","uncletopia"],"game_id":440,"stv_port":27016,"stv_name":"Uncletopia | S√£o Paulo | 1 | All Maps | STV","players":[{"user_id":172,"name":"agateduke","steam_id":76561199144842110,"connected_time":166000000000,"state":"spawning","ping":89},{"user_id":176,"name":"skelloiselpeca","steam_id":76561199442255844,"connected_time":17000000000,"state":"spawning","ping":104},{"user_id":161,"name":"Derretimento Geral 2017","steam_id":76561198194300069,"connected_time":804000000000,"state":"active","ping":57},{"user_id":86,"name":"Sanches","steam_id":76561198006932156,"connected_time":4876000000000,"state":"active","ping":91},{"user_id":30,"name":"PrÈÄö„Çä„ÅÆ‰ºùË™¨","steam_id":76561198976110673,"connected_time":9486000000000,"state":"active","ping":52},{"user_id":133,"name":"tc","steam_id":76561199046138076,"connected_time":2117000000000,"state":"active","ping":37},{"user_id":169,"name":"Yaruki","steam_id":76561198332577325,"connected_time":411000000000,"state":"active","ping":44},{"user_id":173,"name":"raulbicudo2006","steam_id":76561198872126053,"connected_time":141000000000,"state":"active","ping":59},{"user_id":170,"name":"Derfel","steam_id":76561198134643483,"connected_time":335000000000,"state":"active","ping":68},{"user_id":157,"name":"Baknaffek","steam_id":76561198298416173,"connected_time":1283000000000,"state":"active","ping":105},{"user_id":171,"name":"PHIKILL","steam_id":76561198261514412,"connected_time":247000000000,"state":"active","ping":55},{"user_id":54,"name":"Carlos 24","steam_id":76561198171272677,"connected_time":6905000000000,"state":"active","ping":73},{"user_id":75,"name":"Architect","steam_id":76561198895061602,"connected_time":5373000000000,"state":"active","ping":100},{"user_id":95,"name":"pastel","steam_id":76561198259174193,"connected_time":3918000000000,"state":"active","ping":34},{"user_id":174,"name":"pepitoelpajeros2","steam_id":76561198101382520,"connected_time":92000000000,"state":"active","ping":108},{"user_id":97,"name":"Gafra","steam_id":76561198062571191,"connected_time":3776000000000,"state":"active","ping":42},{"user_id":166,"name":"ADMsupremo","steam_id":76561199390102169,"connected_time":577000000000,"state":"active","ping":39},{"user_id":164,"name":"RedStar","steam_id":76561198100495977,"connected_time":661000000000,"state":"active","ping":66},{"user_id":83,"name":"brunotakeo12","steam_id":76561198449353746,"connected_time":4911000000000,"state":"active","ping":35},{"user_id":158,"name":"URINATE!!","steam_id":76561198380824431,"connected_time":1243000000000,"state":"active","ping":49},{"user_id":175,"name":"Pastito","steam_id":76561198147156483,"connected_time":46000000000,"state":"active","ping":82},{"user_id":167,"name":"Sr.Bilada","steam_id":76561198145392752,"connected_time":559000000000,"state":"active","ping":45}]},{"server_id":143,"name":"Uncletopia | S√£o Paulo | 2 | All Maps","name_short":"sao-2","host":"sao-2.br.uncletopia.com","port":27015,"enabled":true,"region":"sa","cc":"br","latitude":-23.533773,"longitude":-46.62529,"reserved":0,"last_update":"0001-01-01T00:00:00Z","name_a2s":"Uncletopia | S√£o Paulo | 2 | All Maps","protocol":17,"map":"cp_sunshine","folder":"tf","game":"Team Fortress","app_id":440,"player_count":3,"max_players":24,"Bots":0,"server_type":"Dedicated","server_os":"Linux","password":true,"vac":true,"version":"7708610","steam_id":85568392924485349,"keywords":["cp","nocrits","nodmgspread","uncletopia"],"game_id":440,"stv_port":27016,"stv_name":"Uncletopia | S√£o Paulo | 2 | All Maps | STV","players":[{"user_id":16,"name":"KyraZz","steam_id":76561199016767341,"connected_time":289000000000,"state":"active","ping":59},{"user_id":17,"name":"Eh o Shisae","steam_id":76561199382706555,"connected_time":211000000000,"state":"active","ping":54},{"user_id":18,"name":"WTF???","steam_id":76561198844350157,"connected_time":123000000000,"state":"spawning","ping":130}]},{"server_id":7,"name":"Uncletopia | Seattle | 1 | All Maps","name_short":"sea-1","host":"sea-1.us.uncletopia.com","port":27015,"enabled":true,"region":"us-west","cc":"us","latitude":47.608013,"longitude":-122.33517,"reserved":0,"last_update":"0001-01-01T00:00:00Z","name_a2s":"Uncletopia | Seattle | 1 | All Maps","protocol":17,"map":"koth_cascade","folder":"tf","game":"Team Fortress","app_id":440,"player_count":0,"max_players":24,"Bots":0,"server_type":"Dedicated","server_os":"Linux","password":true,"vac":true,"version":"7708610","steam_id":85568392924469997,"keywords":["cp","nocrits","nodmgspread","uncletopia"],"game_id":440,"stv_port":0,"stv_name":"","players":null},{"server_id":119,"name":"Uncletopia | Seattle | 2 | All Maps","name_short":"sea-2","host":"sea-1.us.uncletopia.com","port":27025,"enabled":true,"region":"us-west","cc":"us","latitude":47.608013,"longitude":-122.33517,"reserved":0,"last_update":"0001-01-01T00:00:00Z","name_a2s":"Uncletopia | Seattle | 2 | All Maps","protocol":17,"map":"cp_mountainlab","folder":"tf","game":"Team Fortress","app_id":440,"player_count":0,"max_players":24,"Bots":0,"server_type":"Dedicated","server_os":"Linux","password":true,"vac":true,"version":"7708610","steam_id":85568392924469998,"keywords":["cp","nocrits","nodmgspread","uncletopia"],"game_id":440,"stv_port":27026,"stv_name":"Uncletopia | Seattle | 2 | All Maps | STV","players":null},{"server_id":17,"name":"Uncletopia | San Francisco | 1 | All Maps","name_short":"sfo-1","host":"sfo-1.us.uncletopia.com","port":27015,"enabled":true,"region":"us-west","cc":"us","latitude":37.77397,"longitude":-122.4313,"reserved":0,"last_update":"0001-01-01T00:00:00Z","name_a2s":"Uncletopia | San Francisco | 1 | All Maps","protocol":17,"map":"koth_highpass","folder":"tf","game":"Team Fortress","app_id":440,"player_count":0,"max_players":24,"Bots":0,"server_type":"Dedicated","server_os":"Linux","password":true,"vac":true,"version":"7708610","steam_id":85568392924469999,"keywords":["cp","nocrits","nodmgspread","uncletopia"],"game_id":440,"stv_port":27016,"stv_name":"Uncletopia | San Francisco | 1 | All Maps | STV","players":null},{"server_id":18,"name":"Uncletopia | San Francisco | 2 | All Maps","name_short":"sfo-2","host":"sfo-1.us.uncletopia.com","port":27025,"enabled":true,"region":"us-west","cc":"us","latitude":37.77397,"longitude":-122.4313,"reserved":0,"last_update":"0001-01-01T00:00:00Z","name_a2s":"Uncletopia | San Francisco | 2 | All Maps","protocol":17,"map":"koth_cascade","folder":"tf","game":"Team Fortress","app_id":440,"player_count":0,"max_players":24,"Bots":0,"server_type":"Dedicated","server_os":"Linux","password":true,"vac":true,"version":"7708610","steam_id":85568392924470000,"keywords":["cp","nocrits","nodmgspread","uncletopia"],"game_id":440,"stv_port":0,"stv_name":"","players":null},{"server_id":19,"name":"Uncletopia | San Francisco | 3 | No Payload","name_short":"sfo-3","host":"sfo-1.us.uncletopia.com","port":27035,"enabled":true,"region":"us-west","cc":"us","latitude":37.77397,"longitude":-122.4313,"reserved":0,"last_update":"0001-01-01T00:00:00Z","name_a2s":"Uncletopia | San Francisco | 3 | No Payload","protocol":17,"map":"cp_snakewater_final1","folder":"tf","game":"Team Fortress","app_id":440,"player_count":0,"max_players":24,"Bots":0,"server_type":"Dedicated","server_os":"Linux","password":true,"vac":true,"version":"7708610","steam_id":85568392924742824,"keywords":["cp","nocrits","nodmgspread","uncletopia"],"game_id":440,"stv_port":0,"stv_name":"","players":null},{"server_id":20,"name":"Uncletopia | San Francisco | 4 | Community","name_short":"sfo-4","host":"sfo-1.us.uncletopia.com","port":27045,"enabled":true,"region":"us-west","cc":"us","latitude":37.77397,"longitude":-122.4313,"reserved":0,"last_update":"0001-01-01T00:00:00Z","name_a2s":"Uncletopia | San Francisco | 4 | Community","protocol":17,"map":"workshop/cp_sulfur_rc2.ugc619869471","folder":"tf","game":"Team Fortress","app_id":440,"player_count":0,"max_players":24,"Bots":0,"server_type":"Dedicated","server_os":"Linux","password":true,"vac":true,"version":"7708610","steam_id":85568392924742826,"keywords":["cp","nocrits","nodmgspread","uncletopia"],"game_id":440,"stv_port":27046,"stv_name":"Uncletopia | San Francisco | 4 | Community | STV","players":null},{"server_id":141,"name":"Uncletopia | Sydney | 1 | All Maps","name_short":"syd-1","host":"syd-1.au.uncletopia.com","port":27015,"enabled":true,"region":"au","cc":"au","latitude":-33.865143,"longitude":151.2099,"reserved":0,"last_update":"0001-01-01T00:00:00Z","name_a2s":"Uncletopia | Sydney | 1 | All Maps","protocol":17,"map":"pl_pier","folder":"tf","game":"Team Fortress","app_id":440,"player_count":0,"max_players":24,"Bots":0,"server_type":"Dedicated","server_os":"Linux","password":true,"vac":true,"version":"7708610","steam_id":85568392924470001,"keywords":["nocrits","nodmgspread","payload","uncletopia"],"game_id":440,"stv_port":0,"stv_name":"","players":null},{"server_id":123,"name":"Uncletopia | Sydney | 2 | All Maps","name_short":"syd-2","host":"syd-1.au.uncletopia.com","port":27025,"enabled":true,"region":"au","cc":"au","latitude":-33.865143,"longitude":151.2099,"reserved":0,"last_update":"0001-01-01T00:00:00Z","name_a2s":"Uncletopia | Sydney | 2 | All Maps","protocol":17,"map":"pl_snowycoast","folder":"tf","game":"Team Fortress","app_id":440,"player_count":0,"max_players":24,"Bots":0,"server_type":"Dedicated","server_os":"Linux","password":true,"vac":true,"version":"7708610","steam_id":85568392924470002,"keywords":["nocrits","nodmgspread","payload","uncletopia"],"game_id":440,"stv_port":0,"stv_name":"","players":null},{"server_id":395,"name":"Uncletopia | Sydney | 3 | All Maps","name_short":"syd-3","host":"syd-1.au.uncletopia.com","port":27035,"enabled":true,"region":"au","cc":"au","latitude":-33.865143,"longitude":151.2099,"reserved":0,"last_update":"0001-01-01T00:00:00Z","name_a2s":"Uncletopia | Sydney | 3 | All Maps","protocol":17,"map":"pl_badwater","folder":"tf","game":"Team Fortress","app_id":440,"player_count":0,"max_players":24,"Bots":0,"server_type":"Dedicated","server_os":"Linux","password":true,"vac":true,"version":"7708610","steam_id":85568392925194467,"keywords":["nocrits","nodmgspread","payload","uncletopia"],"game_id":440,"stv_port":0,"stv_name":"","players":null},{"server_id":396,"name":"Uncletopia | Sydney | 4 | All Maps","name_short":"syd-4","host":"syd-1.au.uncletopia.com","port":27045,"enabled":true,"region":"au","cc":"au","latitude":-33.865143,"longitude":151.2099,"reserved":0,"last_update":"0001-01-01T00:00:00Z","name_a2s":"Uncletopia | Sydney | 4 | All Maps","protocol":17,"map":"koth_lakeside_final","folder":"tf","game":"Team Fortress","app_id":440,"player_count":0,"max_players":24,"Bots":0,"server_type":"Dedicated","server_os":"Linux","password":true,"vac":true,"version":"7708610","steam_id":85568392925397958,"keywords":["cp","nocrits","nodmgspread","uncletopia"],"game_id":440,"stv_port":0,"stv_name":"","players":null},{"server_id":58,"name":"Uncletopia | Sydney | 5 | No Payload","name_short":"syd-5","host":"syd-1.au.uncletopia.com","port":27055,"enabled":true,"region":"au","cc":"au","latitude":-33.865143,"longitude":151.2099,"reserved":0,"last_update":"0001-01-01T00:00:00Z","name_a2s":"Uncletopia | Sydney | 5 | No Payload","protocol":17,"map":"koth_cascade","folder":"tf","game":"Team Fortress","app_id":440,"player_count":0,"max_players":24,"Bots":0,"server_type":"Dedicated","server_os":"Linux","password":true,"vac":true,"version":"7708610","steam_id":85568392925397959,"keywords":["cp","nocrits","nodmgspread","uncletopia"],"game_id":440,"stv_port":0,"stv_name":"","players":null},{"server_id":59,"name":"Uncletopia | Sydney | 6 | Community","name_short":"syd-6","host":"syd-1.au.uncletopia.com","port":27065,"enabled":true,"region":"au","cc":"au","latitude":-33.865143,"longitude":151.2099,"reserved":0,"last_update":"0001-01-01T00:00:00Z","name_a2s":"Uncletopia | Sydney | 6 | Community","protocol":17,"map":"pl_borneo","folder":"tf","game":"Team Fortress","app_id":440,"player_count":0,"max_players":24,"Bots":0,"server_type":"Dedicated","server_os":"Linux","password":true,"vac":true,"version":"7708610","steam_id":85568392925397960,"keywords":["nocrits","nodmgspread","payload","uncletopia"],"game_id":440,"stv_port":0,"stv_name":"","players":null},{"server_id":49,"name":"Uncletopia | Warsaw | 1 | All Maps","name_short":"waw-1","host":"waw-1.pl.uncletopia.com","port":27015,"enabled":true,"region":"eu","cc":"pl","latitude":52.2297,"longitude":21.017532,"reserved":0,"last_update":"0001-01-01T00:00:00Z","name_a2s":"Uncletopia | Warsaw | 1 | All Maps","protocol":17,"map":"pl_pier","folder":"tf","game":"Team Fortress","app_id":440,"player_count":0,"max_players":24,"Bots":0,"server_type":"Dedicated","server_os":"Linux","password":true,"vac":true,"version":"7708610","steam_id":85568392925397850,"keywords":["nocrits","nodmgspread","payload","uncletopia"],"game_id":440,"stv_port":27016,"stv_name":"Uncletopia | Warsaw | 1 | All Maps | STV","players":null},{"server_id":50,"name":"Uncletopia | Warsaw | 2 | All Maps","name_short":"waw-2","host":"waw-1.pl.uncletopia.com","port":27025,"enabled":true,"region":"eu","cc":"pl","latitude":52.2297,"longitude":21.017532,"reserved":0,"last_update":"0001-01-01T00:00:00Z","name_a2s":"Uncletopia | Warsaw | 2 | All Maps","protocol":17,"map":"koth_highpass","folder":"tf","game":"Team Fortress","app_id":440,"player_count":0,"max_players":24,"Bots":0,"server_type":"Dedicated","server_os":"Linux","password":true,"vac":true,"version":"7708610","steam_id":85568392925397851,"keywords":["cp","nocrits","nodmgspread","uncletopia"],"game_id":440,"stv_port":27026,"stv_name":"Uncletopia | Warsaw | 2 | All Maps | STV","players":null},{"server_id":51,"name":"Uncletopia | Warsaw | 3 | All Maps","name_short":"waw-3","host":"waw-1.pl.uncletopia.com","port":27035,"enabled":true,"region":"eu","cc":"pl","latitude":52.2297,"longitude":21.017532,"reserved":0,"last_update":"0001-01-01T00:00:00Z","name_a2s":"Uncletopia | Warsaw | 3 | All Maps","protocol":17,"map":"koth_cascade","folder":"tf","game":"Team Fortress","app_id":440,"player_count":0,"max_players":24,"Bots":0,"server_type":"Dedicated","server_os":"Linux","password":true,"vac":true,"version":"7708610","steam_id":85568392925397852,"keywords":["cp","nocrits","nodmgspread","uncletopia"],"game_id":440,"stv_port":0,"stv_name":"","players":null},{"server_id":52,"name":"Uncletopia | Warsaw | 4 | All Maps","name_short":"waw-4","host":"waw-1.pl.uncletopia.com","port":27045,"enabled":true,"region":"eu","cc":"pl","latitude":52.2297,"longitude":21.017532,"reserved":0,"last_update":"0001-01-01T00:00:00Z","name_a2s":"Uncletopia | Warsaw | 4 | All Maps","protocol":17,"map":"pl_snowycoast","folder":"tf","game":"Team Fortress","app_id":440,"player_count":1,"max_players":24,"Bots":0,"server_type":"Dedicated","server_os":"Linux","password":true,"vac":true,"version":"7708610","steam_id":85568392925397853,"keywords":["nocrits","nodmgspread","payload","uncletopia"],"game_id":440,"stv_port":27046,"stv_name":"Uncletopia | Warsaw | 4 | All Maps | STV","players":[{"user_id":5,"name":"APrettyGoodCircle","steam_id":76561198134409819,"connected_time":55000000000,"state":"active","ping":104}]},{"server_id":53,"name":"Uncletopia | Warsaw | 5 | No Payload","name_short":"waw-5","host":"waw-1.pl.uncletopia.com","port":27055,"enabled":true,"region":"eu","cc":"pl","latitude":52.2297,"longitude":21.017532,"reserved":0,"last_update":"0001-01-01T00:00:00Z","name_a2s":"Uncletopia | Warsaw | 5 | No Payload","protocol":17,"map":"cp_dustbowl","folder":"tf","game":"Team Fortress","app_id":440,"player_count":0,"max_players":24,"Bots":0,"server_type":"Dedicated","server_os":"Linux","password":true,"vac":true,"version":"7708610","steam_id":85568392925397854,"keywords":["cp","nocrits","nodmgspread","uncletopia"],"game_id":440,"stv_port":0,"stv_name":"","players":null},{"server_id":54,"name":"Uncletopia | Warsaw | 6 | Community","name_short":"waw-6","host":"waw-1.pl.uncletopia.com","port":27065,"enabled":true,"region":"eu","cc":"pl","latitude":52.2297,"longitude":21.017532,"reserved":0,"last_update":"0001-01-01T00:00:00Z","name_a2s":"Uncletopia | Warsaw | 6 | Community","protocol":17,"map":"koth_highpass","folder":"tf","game":"Team Fortress","app_id":440,"player_count":0,"max_players":24,"Bots":0,"server_type":"Dedicated","server_os":"Linux","password":true,"vac":true,"version":"7708610","steam_id":85568392925397856,"keywords":["cp","nocrits","nodmgspread","uncletopia"],"game_id":440,"stv_port":0,"stv_name":"","players":null}]}