{"status":true,"message":"","result":[{"server_id":9,"name":"Uncletopia | Atlanta | 1 | All Maps","name_short":"atl-1","host":"atl-1.us.uncletopia.com","port":27015,"enabled":true,"region":"us-east","cc":"us","latitude":33.753746,"longitude":-84.38633,"reserved":0,"last_update":"0001-01-01T00:00:00Z","name_a2s":"Uncletopia | Atlanta | 1 | All Maps","protocol":17,"map":"pl_pier","folder":"tf","game":"Team Fortress","app_id":440,"player_count":24,"max_players":24,"Bots":0,"server_type":"Dedicated","server_os":"Linux","password":true,"vac":true,"version":"7961495","steam_id":85568392924469982,"keywords":["nocrits","nodmgspread","payload","uncletopia"],"game_id":440,"stv_port":27016,"stv_name":"Uncletopia | Atlanta | 1 | All Maps | STV","players":[{"user_id":1440,"name":"Snivy","steam_id":76561198135488292,"connected_time":2220000000000,"state":"active","ping":87},{"user_id":1464,"name":"RocketRabbit","steam_id":76561198803062131,"connected_time":1249000000000,"state":"active","ping":61},{"user_id":1477,"name":"üü†„ÉÑ","steam_id":76561198018213050,"connected_time":176000000000,"state":"active","ping":56},{"user_id":1465,"name":"crazey","steam_id":76561198286510667,"connected_time":1197000000000,"state":"active","ping":109},{"user_id":1448,"name":"Le√≥n","steam_id":76561198056520268,"connected_time":1997000000000,"state":"active","ping":61},{"user_id":1413,"name":"ShadowDragon0125","steam_id":76561198343849022,"connected_time":4277000000000,"state":"active","ping":109},{"user_id":1455,"name":"Son Heung Min","steam_id":76561198363181742,"connected_time":1468000000000,"state":"active","ping":69},{"user_id":1451,"name":"AnnieM","steam_id":76561199435467297,"connected_time":1678000000000,"state":"active","ping":74},{"user_id":1445,"name":"Lavendr1001","steam_id":76561199058468170,"connected_time":2051000000000,"state":"active","ping":122},{"user_id":1476,"name":"Notsocreative","steam_id":76561198236372202,"connected_time":318000000000,"state":"active","ping":79},{"user_id":1460,"name":"IZISOO","steam_id":76561198970380577,"connected_time":1379000000000,"state":"active","ping":86},{"user_id":1478,"name":"GoodleShoes/ttv","steam_id":76561198030993521,"connected_time":118000000000,"state":"active","ping":91},{"user_id":1462,"name":"scotch","steam_id":76561198410837190,"connected_time":1292000000000,"state":"active","ping":111},{"user_id":1430,"name":"fitotutus","steam_id":76561197974993253,"connected_time":2714000000000,"state":"active","ping":105},{"user_id":1461,"name":"Visual Depression","steam_id":76561198825918366,"connected_time":1371000000000,"state":"active","ping":91},{"user_id":1473,"name":"n","steam_id":76561199061380038,"connected_time":766000000000,"state":"active","ping":60},{"user_id":1466,"name":"üéÑAndreaJinglingüéÑ","steam_id":76561198198658783,"connected_time":1189000000000,"state":"active","ping":139},{"user_id":1467,"name":"T√ñZI","steam_id":76561198045268695,"connected_time":1103000000000,"state":"active","ping":107},{"user_id":1472,"name":"goopshit","steam_id":76561198126489501,"connected_time":867000000000,"state":"active","ping":68},{"user_id":1255,"name":"Drygongames","steam_id":76561198250418424,"connected_time":17700000000000,"state":"active","ping":76},{"user_id":1468,"name":"Boxpipe","steam_id":76561197964501915,"connected_time":1053000000000,"state":"active","ping":69},{"user_id":1469,"name":"Fellere","steam_id":76561198113466170,"connected_time":1020000000000,"state":"active","ping":101},{"user_id":1475,"name":"Stauxie","steam_id":76561198255030077,"connected_time":345000000000,"state":"active","ping":54},{"user_id":1479,"name":"lu","steam_id":76561198080731872,"connected_time":57000000000,"state":"active","ping":75}]},{"server_id":104,"name":"Uncletopia | Atlanta | 2 | All Maps","name_short":"atl-2","host":"atl-1.us.uncletopia.com","port":27025,"enabled":true,"region":"us-east","cc":"us","latitude":33.753746,"longitude":-84.38633,"reserved":0,"last_update":"0001-01-01T00:00:00Z","name_a2s":"Uncletopia | Atlanta | 2 | All Maps","protocol":17,"map":"pl_swiftwater_final1","folder":"tf","game":"Team Fortress","app_id":440,"player_count":0,"max_players":24,"Bots":0,"server_type":"Dedicated","server_os":"Linux","password":true,"vac":true,"version":"7961495","steam_id":85568392924469983,"keywords":["nocrits","nodmgspread","payload","uncletopia"],"game_id":440,"stv_port":27026,"stv_name":"Uncletopia | Atlanta | 2 | All Maps | STV","players":null},{"server_id":400,"name":"Uncletopia | Atlanta | 3 | Stopwatch","name_short":"atl-3","host":"atl-1.us.uncletopia.com","port":27035,"enabled":true,"region":"us-east","cc":"us","latitude":33.753746,"longitude":-84.38633,"reserved":0,"last_update":"0001-01-01T00:00:00Z","name_a2s":"Uncletopia | Atlanta | 3 | Stopwatch","protocol":17,"map":"cp_metalworks","folder":"tf","game":"Team Fortress","app_id":440,"player_count":0,"max_players":24,"Bots":0,"server_type":"Dedicated","server_os":"Linux","password":true,"vac":true,"version":"7961495","steam_id":85568392924515187,"keywords":["cp","nocrits","nodmgspread","uncletopia"],"game_id":440,"stv_port":27036,"stv_name":"Uncletopia | Atlanta | 3 | Stopwatch | STV","players":null},{"server_id":401,"name":"Uncletopia | Atlanta | 4 | Community","name_short":"atl-4","host":"atl-1.us.uncletopia.com","port":27045,"enabled":true,"region":"us-east","cc":"us","latitude":33.753746,"longitude":-84.38633,"reserved":0,"last_update":"0001-01-01T00:00:00Z","name_a2s":"Uncletopia | Atlanta | 4 | Community","protocol":17,"map":"workshop/pl_divulgence_b4b.ugc2884808746","folder":"tf","game":"Team Fortress","app_id":440,"player_count":0,"max_players":24,"Bots":0,"server_type":"Dedicated","server_os":"Linux","password":true,"vac":true,"version":"7961495","steam_id":85568392924515188,"keywords":["nocrits","nodmgspread","payload","uncletopia"],"game_id":440,"stv_port":27046,"stv_name":"Uncletopia | Atlanta | 4 | Community | STV","players":null},{"server_id":2,"name":"Uncletopia | Chicago | 1 | All Maps","name_short":"chi-1","host":"chi-1.us.uncletopia.com","port":27015,"enabled":true,"region":"us-central","cc":"us","latitude":41.881832,"longitude":-87.62318,"reserved":0,"last_update":"0001-01-01T00:00:00Z","name_a2s":"Uncletopia | Chicago | 1 | All Maps","protocol":17,"map":"pl_badwater","folder":"tf","game":"Team Fortress","app_id":440,"player_count":23,"max_players":24,"Bots":0,"server_type":"Dedicated","server_os":"Linux","password":true,"vac":true,"version":"7961495","steam_id":85568392924469984,"keywords":["nocrits","nodmgspread","payload","uncletopia"],"game_id":440,"stv_port":27016,"stv_name":"Uncletopia | Chicago | 1 | All Maps | STV","players":[{"user_id":827,"name":"Pyroneer","steam_id":76561199368746761,"connected_time":510000000000,"state":"active","ping":183},{"user_id":835,"name":"urinary tract infection","steam_id":76561198855970134,"connected_time":237000000000,"state":"active","ping":86},{"user_id":839,"name":"Ôº≤Ôº•Ôº§","steam_id":76561198030282308,"connected_time":59000000000,"state":"active","ping":98},{"user_id":831,"name":"Space Lizard","steam_id":76561198056798193,"connected_time":317000000000,"state":"active","ping":73},{"user_id":795,"name":"DolphiN | RGL.gg","steam_id":76561198048614515,"connected_time":3479000000000,"state":"active","ping":59},{"user_id":812,"name":"Harbor Seal","steam_id":76561198162631724,"connected_time":1905000000000,"state":"active","ping":76},{"user_id":833,"name":"Yoshimelon","steam_id":76561198253054325,"connected_time":302000000000,"state":"active","ping":60},{"user_id":814,"name":"The Grim Heaper","steam_id":76561197987759101,"connected_time":1865000000000,"state":"active","ping":105},{"user_id":806,"name":"Raccoon Wizard","steam_id":76561198072562591,"connected_time":2534000000000,"state":"active","ping":75},{"user_id":799,"name":"SoldMyKidneyForCollege","steam_id":76561198096329559,"connected_time":3295000000000,"state":"active","ping":92},{"user_id":822,"name":"Dan","steam_id":76561199236719411,"connected_time":1183000000000,"state":"active","ping":75},{"user_id":834,"name":"TheBigEtrain","steam_id":76561198151893593,"connected_time":296000000000,"state":"active","ping":79},{"user_id":793,"name":"Shipmunk","steam_id":76561198063062670,"connected_time":3535000000000,"state":"active","ping":59},{"user_id":767,"name":"Filthy Acts at Reasonable Price","steam_id":76561198354615890,"connected_time":5134000000000,"state":"active","ping":57},{"user_id":826,"name":"Sunshine On Me","steam_id":76561198042570322,"connected_time":591000000000,"state":"active","ping":59},{"user_id":805,"name":"„ÄåMagic Otter„Äç","steam_id":76561198061499302,"connected_time":2568000000000,"state":"active","ping":75},{"user_id":836,"name":"Double Tapp","steam_id":76561197993847700,"connected_time":205000000000,"state":"active","ping":106},{"user_id":804,"name":"Glamrock Minty","steam_id":76561199021395084,"connected_time":2588000000000,"state":"active","ping":78},{"user_id":837,"name":"armaghgeddon‚Ñ¢","steam_id":76561198018519640,"connected_time":193000000000,"state":"active","ping":87},{"user_id":819,"name":"Jaystation","steam_id":76561198212065932,"connected_time":1389000000000,"state":"active","ping":57},{"user_id":809,"name":"Tommy Pickles (Very Cool)","steam_id":76561198391261463,"connected_time":2143000000000,"state":"active","ping":75},{"user_id":838,"name":"jerma but crying and lesbian","steam_id":76561198110661425,"connected_time":193000000000,"state":"active","ping":47},{"user_id":829,"name":"Hazeyboi","steam_id":76561198130687838,"connected_time":365000000000,"state":"active","ping":44}]},{"server_id":106,"name":"Uncletopia | Chicago | 2 | All Maps","name_short":"chi-2","host":"chi-1.us.uncletopia.com","port":27025,"enabled":true,"region":"us-central","cc":"us","latitude":41.881832,"longitude":-87.62318,"reserved":0,"last_update":"0001-01-01T00:00:00Z","name_a2s":"Uncletopia | Chicago | 2 | All Maps","protocol":17,"map":"pl_borneo","folder":"tf","game":"Team Fortress","app_id":440,"player_count":24,"max_players":24,"Bots":0,"server_type":"Dedicated","server_os":"Linux","password":true,"vac":true,"version":"7961495","steam_id":85568392924469985,"keywords":["nocrits","nodmgspread","payload","uncletopia"],"game_id":440,"stv_port":27026,"stv_name":"Uncletopia | Chicago | 2 | All Maps | STV","players":[{"user_id":764,"name":"sophia!!! (killer)","steam_id":76561198049802690,"connected_time":1076000000000,"state":"active","ping":96},{"user_id":757,"name":"squid game","steam_id":76561199248960166,"connected_time":1278000000000,"state":"active","ping":85},{"user_id":758,"name":"yeahelliot","steam_id":76561198167299951,"connected_time":1262000000000,"state":"active","ping":73},{"user_id":769,"name":"COCAINE TWINK","steam_id":76561198044809128,"connected_time":451000000000,"state":"active","ping":38},{"user_id":754,"name":"Owls = Government Drones","steam_id":76561198439793697,"connected_time":1535000000000,"state":"active","ping":76},{"user_id":745,"name":"DroidFreak36","steam_id":76561198028681032,"connected_time":3256000000000,"state":"active","ping":55},{"user_id":746,"name":"Kayak","steam_id":76561198370429263,"connected_time":3233000000000,"state":"active","ping":103},{"user_id":684,"name":"loser","steam_id":76561198259380127,"connected_time":8195000000000,"state":"active","ping":62},{"user_id":774,"name":"badboy6996","steam_id":76561197969386201,"connected_time":19000000000,"state":"active","ping":59},{"user_id":734,"name":"Mr. Tickle","steam_id":76561198126684647,"connected_time":4080000000000,"state":"active","ping":60},{"user_id":773,"name":"Professor","steam_id":76561198097038169,"connected_time":251000000000,"state":"active","ping":60},{"user_id":749,"name":"Gram Tokers Count Doinkula","steam_id":76561198112811565,"connected_time":2858000000000,"state":"active","ping":75},{"user_id":760,"name":"f1rst‚Åß‚Åß_inHale","steam_id":76561198390690755,"connected_time":1187000000000,"state":"active","ping":173},{"user_id":771,"name":"‚Ä∫ We Are You.j2 [NO SOUND]","steam_id":76561197995242200,"connected_time":427000000000,"state":"active","ping":96},{"user_id":723,"name":"Bond","steam_id":76561198089262776,"connected_time":4917000000000,"state":"active","ping":82},{"user_id":762,"name":"Fiendish Frog","steam_id":76561198029478821,"connected_time":1162000000000,"state":"active","ping":69},{"user_id":755,"name":"Novu","steam_id":76561198886997024,"connected_time":1418000000000,"state":"active","ping":88},{"user_id":765,"name":"ZirHeisenberg","steam_id":76561198356927429,"connected_time":1056000000000,"state":"active","ping":105},{"user_id":739,"name":"Tom Cr√∫aich","steam_id":76561197999439911,"connected_time":3883000000000,"state":"active","ping":76},{"user_id":751,"name":"JP\u003c3","steam_id":76561198126686695,"connected_time":2836000000000,"state":"active","ping":74},{"user_id":763,"name":"bloodyboorp","steam_id":76561199177105829,"connected_time":1142000000000,"state":"active","ping":139},{"user_id":772,"name":"Nessie is my Waifu","steam_id":76561198076021620,"connected_time":401000000000,"state":"active","ping":74},{"user_id":767,"name":"guy","steam_id":76561198079925551,"connected_time":486000000000,"state":"active","ping":63},{"user_id":744,"name":"Spicy Chicken","steam_id":76561198074209737,"connected_time":3549000000000,"state":"active","ping":61}]},{"server_id":402,"name":"Uncletopia | Chicago | 3 | All Maps","name_short":"chi-3","host":"chi-1.us.uncletopia.com","port":27035,"enabled":true,"region":"us-central","cc":"us","latitude":41.881832,"longitude":-87.62318,"reserved":0,"last_update":"0001-01-01T00:00:00Z","name_a2s":"Uncletopia | Chicago | 3 | All Maps","protocol":17,"map":"pl_thundermountain","folder":"tf","game":"Team Fortress","app_id":440,"player_count":8,"max_players":24,"Bots":0,"server_type":"Dedicated","server_os":"Linux","password":true,"vac":true,"version":"7961495","steam_id":85568392924515191,"keywords":["nocrits","nodmgspread","payload","uncletopia"],"game_id":440,"stv_port":27036,"stv_name":"Uncletopia | Chicago | 3 | All Maps | STV","players":[{"user_id":616,"name":"SKForm","steam_id":76561198381500437,"connected_time":2927000000000,"state":"active","ping":52},{"user_id":532,"name":"murda gang","steam_id":76561198136642793,"connected_time":9427000000000,"state":"active","ping":74},{"user_id":634,"name":"CupFruit","steam_id":76561198983993193,"connected_time":1429000000000,"state":"active","ping":65},{"user_id":633,"name":"Pepsiman","steam_id":76561198085789499,"connected_time":2048000000000,"state":"active","ping":60},{"user_id":647,"name":"LaChancla","steam_id":76561198971528917,"connected_time":35000000000,"state":"active","ping":75},{"user_id":637,"name":"FROGGY","steam_id":76561199196374308,"connected_time":943000000000,"state":"active","ping":70},{"user_id":644,"name":"LVL","steam_id":76561198334403617,"connected_time":447000000000,"state":"active","ping":53},{"user_id":550,"name":"MANWHERETFISMARIOJUDAH?","steam_id":76561198144766439,"connected_time":8665000000000,"state":"active","ping":40}]},{"server_id":403,"name":"Uncletopia | Chicago | 4 | All Maps","name_short":"chi-4","host":"chi-1.us.uncletopia.com","port":27045,"enabled":true,"region":"us-central","cc":"us","latitude":41.881832,"longitude":-87.62318,"reserved":0,"last_update":"0001-01-01T00:00:00Z","name_a2s":"Uncletopia | Chicago | 4 | All Maps","protocol":17,"map":"pl_upward","folder":"tf","game":"Team Fortress","app_id":440,"player_count":4,"max_players":24,"Bots":0,"server_type":"Dedicated","server_os":"Linux","password":true,"vac":true,"version":"7961495","steam_id":85568392924515193,"keywords":["nocrits","nodmgspread","payload","uncletopia"],"game_id":440,"stv_port":27046,"stv_name":"Uncletopia | Chicago | 4 | All Maps | STV","players":[{"user_id":835,"name":"teaf","steam_id":76561198406252824,"connected_time":1190000000000,"state":"active","ping":100},{"user_id":836,"name":"Bill","steam_id":76561198075391501,"connected_time":1108000000000,"state":"active","ping":60},{"user_id":838,"name":"faze africa","steam_id":76561198033285469,"connected_time":85000000000,"state":"active","ping":75},{"user_id":839,"name":"ApleBottom7","steam_id":76561199189620400,"connected_time":36000000000,"state":"active","ping":60}]},{"server_id":36,"name":"Uncletopia | Chicago | 5 | All Maps","name_short":"chi-5","host":"chi-2.us.uncletopia.com","port":27015,"enabled":true,"region":"us-central","cc":"us","latitude":41.881832,"longitude":-87.62318,"reserved":0,"last_update":"0001-01-01T00:00:00Z","name_a2s":"Uncletopia | Chicago | 5 | All Maps","protocol":17,"map":"pl_borneo","folder":"tf","game":"Team Fortress","app_id":440,"player_count":24,"max_players":24,"Bots":0,"server_type":"Dedicated","server_os":"Linux","password":true,"vac":true,"version":"7961495","steam_id":85568392924866362,"keywords":["nocrits","nodmgspread","payload","uncletopia"],"game_id":440,"stv_port":27016,"stv_name":"Uncletopia | Chicago | 5 | All Maps | STV","players":[{"user_id":758,"name":"Joebobio","steam_id":76561198024442760,"connected_time":2169000000000,"state":"active","ping":69},{"user_id":781,"name":"Chobin","steam_id":76561198046942778,"connected_time":536000000000,"state":"active","ping":221},{"user_id":779,"name":"BOBBYSMOKE","steam_id":76561198201872929,"connected_time":660000000000,"state":"active","ping":60},{"user_id":778,"name":"Apsev","steam_id":76561198119867604,"connected_time":677000000000,"state":"active","ping":70},{"user_id":762,"name":"Ono","steam_id":76561198024377986,"connected_time":1872000000000,"state":"active","ping":94},{"user_id":757,"name":"K","steam_id":76561198171446177,"connected_time":2289000000000,"state":"active","ping":102},{"user_id":763,"name":"Kean","steam_id":76561198147081884,"connected_time":1852000000000,"state":"active","ping":71},{"user_id":744,"name":"The Assistant Regional Manager","steam_id":76561199221484936,"connected_time":4199000000000,"state":"active","ping":124},{"user_id":715,"name":"PuggsNuggs","steam_id":76561198129753240,"connected_time":6957000000000,"state":"active","ping":73},{"user_id":755,"name":"aureli","steam_id":76561199031411031,"connected_time":2311000000000,"state":"active","ping":77},{"user_id":764,"name":"dteen","steam_id":76561198344884671,"connected_time":1782000000000,"state":"active","ping":85},{"user_id":743,"name":"PureDebt","steam_id":76561198982614367,"connected_time":4210000000000,"state":"active","ping":93},{"user_id":765,"name":"DivineBanana","steam_id":76561198026529731,"connected_time":1738000000000,"state":"active","ping":88},{"user_id":691,"name":"only a spoonful","steam_id":76561198113180616,"connected_time":8226000000000,"state":"active","ping":68},{"user_id":766,"name":"Barry Allen","steam_id":76561198272002383,"connected_time":1706000000000,"state":"active","ping":95},{"user_id":767,"name":"Tibbers802","steam_id":76561198126820813,"connected_time":1617000000000,"state":"active","ping":66},{"user_id":768,"name":"Ayylmao","steam_id":76561198104780147,"connected_time":1537000000000,"state":"active","ping":46},{"user_id":706,"name":"Cat‚Ñ¢","steam_id":76561198898241158,"connected_time":7348000000000,"state":"active","ping":74},{"user_id":769,"name":"scoobert","steam_id":76561199215184828,"connected_time":1519000000000,"state":"active","ping":70},{"user_id":747,"name":"GarbageTruck","steam_id":76561198080019414,"connected_time":4141000000000,"state":"active","ping":84},{"user_id":770,"name":"Commodore","steam_id":76561198042112852,"connected_time":1517000000000,"state":"active","ping":46},{"user_id":771,"name":"Zoraster","steam_id":76561198119446375,"connected_time":1468000000000,"state":"active","ping":73},{"user_id":780,"name":"Limp Shrimp","steam_id":76561198079459461,"connected_time":646000000000,"state":"active","ping":71},{"user_id":777,"name":"Techo","steam_id":76561199169405285,"connected_time":1042000000000,"state":"active","ping":107}]},{"server_id":37,"name":"Uncletopia | Chicago | 6 | All Maps","name_short":"chi-6","host":"chi-2.us.uncletopia.com","port":27025,"enabled":true,"region":"us-central","cc":"us","latitude":41.881832,"longitude":-87.62318,"reserved":0,"last_update":"0001-01-01T00:00:00Z","name_a2s":"Uncletopia | Chicago | 6 | All Maps","protocol":17,"map":"pl_pier","folder":"tf","game":"Team Fortress","app_id":440,"player_count":4,"max_players":24,"Bots":0,"server_type":"Dedicated","server_os":"Linux","password":true,"vac":true,"version":"7961495","steam_id":85568392924866363,"keywords":["nocrits","nodmgspread","payload","uncletopia"],"game_id":440,"stv_port":27026,"stv_name":"Uncletopia | Chicago | 6 | All Maps | STV","players":[{"user_id":636,"name":"Nazrin","steam_id":76561198246701796,"connected_time":762000000000,"state":"active","ping":75},{"user_id":597,"name":"Wise Tree","steam_id":76561198108606437,"connected_time":4461000000000,"state":"active","ping":53},{"user_id":590,"name":"Smooth, Refreshing Bleach‚Ñ¢","steam_id":76561197981060504,"connected_time":4553000000000,"state":"active","ping":46},{"user_id":569,"name":"winning","steam_id":76561198003206947,"connected_time":6474000000000,"state":"active","ping":55}]},{"server_id":38,"name":"Uncletopia | Chicago | 7 | Stopwatch","name_short":"chi-7","host":"chi-2.us.uncletopia.com","port":27035,"enabled":true,"region":"us-central","cc":"us","latitude":41.881832,"longitude":-87.62318,"reserved":0,"last_update":"0001-01-01T00:00:00Z","name_a2s":"Uncletopia | Chicago | 7 | Stopwatch","protocol":17,"map":"workshop/pl_barnblitz_pro7.ugc582280235","folder":"tf","game":"Team Fortress","app_id":440,"player_count":0,"max_players":24,"Bots":0,"server_type":"Dedicated","server_os":"Linux","password":true,"vac":true,"version":"7961495","steam_id":85568392924866364,"keywords":["nocrits","nodmgspread","payload","uncletopia"],"game_id":440,"stv_port":27036,"stv_name":"Uncletopia | Chicago | 7 | Stopwatch | STV","players":null},{"server_id":39,"name":"Uncletopia | Chicago | 8 | Community","name_short":"chi-8","host":"chi-2.us.uncletopia.com","port":27045,"enabled":true,"region":"us-central","cc":"us","latitude":41.881832,"longitude":-87.62318,"reserved":0,"last_update":"0001-01-01T00:00:00Z","name_a2s":"Uncletopia | Chicago | 8 | Community","protocol":17,"map":"workshop/koth_slaughter_rc1.ugc1712845210","folder":"tf","game":"Team Fortress","app_id":440,"player_count":0,"max_players":24,"Bots":0,"server_type":"Dedicated","server_os":"Linux","password":true,"vac":true,"version":"7961495","steam_id":85568392924866365,"keywords":["cp","nocrits","nodmgspread","uncletopia"],"game_id":440,"stv_port":27046,"stv_name":"Uncletopia | Chicago | 8 | Community | STV","players":null},{"server_id":8,"name":"Uncletopia | Dallas | 1 | All Maps","name_short":"dal-1","host":"dal-1.us.uncletopia.com","port":27015,"enabled":true,"region":"us-central","cc":"us","latitude":32.779167,"longitude":-96.80889,"reserved":0,"last_update":"0001-01-01T00:00:00Z","name_a2s":"Uncletopia | Dallas | 1 | All Maps","protocol":17,"map":"pl_barnblitz","folder":"tf","game":"Team Fortress","app_id":440,"player_count":24,"max_players":24,"Bots":0,"server_type":"Dedicated","server_os":"Linux","password":true,"vac":true,"version":"7961495","steam_id":85568392924469986,"keywords":["nocrits","nodmgspread","payload","uncletopia"],"game_id":440,"stv_port":27016,"stv_name":"Uncletopia | Dallas | 1 | All Maps | STV","players":[{"user_id":632,"name":"I am a mooshroom","steam_id":76561198104198295,"connected_time":2045000000000,"state":"active","ping":58},{"user_id":533,"name":"Texas","steam_id":76561198053276976,"connected_time":12450000000000,"state":"active","ping":92},{"user_id":580,"name":"„Äé cyill „Äè","steam_id":76561198157626135,"connected_time":7825000000000,"state":"active","ping":86},{"user_id":633,"name":"bobbymcbobington","steam_id":76561199089411172,"connected_time":1984000000000,"state":"active","ping":124},{"user_id":610,"name":"souljaboytellem.com","steam_id":76561198095824426,"connected_time":5127000000000,"state":"active","ping":71},{"user_id":648,"name":"th-th-th-throwback th-thursday","steam_id":76561198068257774,"connected_time":672000000000,"state":"active","ping":96},{"user_id":439,"name":"leesh","steam_id":76561198079603938,"connected_time":19299000000000,"state":"active","ping":60},{"user_id":618,"name":"DragonHunter994","steam_id":76561199076203907,"connected_time":3225000000000,"state":"active","ping":69},{"user_id":561,"name":"THRONGLER","steam_id":76561198198563466,"connected_time":9400000000000,"state":"active","ping":44},{"user_id":650,"name":"axolotl","steam_id":76561198028490882,"connected_time":38000000000,"state":"active","ping":64},{"user_id":646,"name":"ƒê√Ø…ê»ê…π…¶…Üa","steam_id":76561198981411945,"connected_time":790000000000,"state":"active","ping":73},{"user_id":628,"name":"flaccid","steam_id":76561198299241777,"connected_time":2392000000000,"state":"active","ping":99},{"user_id":641,"name":"Len","steam_id":76561199141913673,"connected_time":1600000000000,"state":"active","ping":43},{"user_id":649,"name":".-.. --- ...- . / -.-- --- ..-","steam_id":76561198002483206,"connected_time":393000000000,"state":"active","ping":46},{"user_id":637,"name":"LampMan","steam_id":76561198079857527,"connected_time":1890000000000,"state":"active","ping":56},{"user_id":619,"name":"albert581_gaming","steam_id":76561198219209367,"connected_time":3213000000000,"state":"active","ping":62},{"user_id":644,"name":"skyking","steam_id":76561198092703501,"connected_time":913000000000,"state":"active","ping":96},{"user_id":647,"name":"‚≠ê aloha! :3 ‚≠ê","steam_id":76561198148517055,"connected_time":788000000000,"state":"active","ping":128},{"user_id":639,"name":"God's Yoinkiest Sploinker","steam_id":76561198131631865,"connected_time":1774000000000,"state":"active","ping":82},{"user_id":601,"name":"Zero","steam_id":76561198033384990,"connected_time":5820000000000,"state":"active","ping":80},{"user_id":640,"name":"Bogey","steam_id":76561198096227944,"connected_time":1677000000000,"state":"active","ping":45},{"user_id":612,"name":"squinch","steam_id":76561198151135298,"connected_time":4133000000000,"state":"active","ping":73},{"user_id":584,"name":"Tommy Provolone","steam_id":76561198170062377,"connected_time":7179000000000,"state":"active","ping":62},{"user_id":623,"name":"plink","steam_id":76561198057829889,"connected_time":3143000000000,"state":"active","ping":58}]},{"server_id":108,"name":"Uncletopia | Dallas | 2 | All Maps","name_short":"dal-2","host":"dal-1.us.uncletopia.com","port":27025,"enabled":true,"region":"us-central","cc":"us","latitude":32.779167,"longitude":-96.80889,"reserved":0,"last_update":"0001-01-01T00:00:00Z","name_a2s":"Uncletopia | Dallas | 2 | All Maps","protocol":17,"map":"koth_lakeside_final","folder":"tf","game":"Team Fortress","app_id":440,"player_count":0,"max_players":24,"Bots":0,"server_type":"Dedicated","server_os":"Linux","password":true,"vac":true,"version":"7961495","steam_id":85568392924469988,"keywords":["cp","nocrits","nodmgspread","uncletopia"],"game_id":440,"stv_port":27026,"stv_name":"Uncletopia | Dallas | 2 | All Maps | STV","players":null},{"server_id":404,"name":"Uncletopia | Dallas | 3 | All Maps","name_short":"dal-3","host":"dal-1.us.uncletopia.com","port":27035,"enabled":true,"region":"us-central","cc":"us","latitude":32.779167,"longitude":-96.80889,"reserved":0,"last_update":"0001-01-01T00:00:00Z","name_a2s":"Uncletopia | Dallas | 3 | All Maps","protocol":17,"map":"pl_upward","folder":"tf","game":"Team Fortress","app_id":440,"player_count":24,"max_players":24,"Bots":0,"server_type":"Dedicated","server_os":"Linux","password":true,"vac":true,"version":"7961495","steam_id":85568392924515219,"keywords":["nocrits","nodmgspread","payload","uncletopia"],"game_id":440,"stv_port":27036,"stv_name":"Uncletopia | Dallas | 3 | All Maps | STV","players":[{"user_id":497,"name":"Stick","steam_id":76561198001509374,"connected_time":1353000000000,"state":"active","ping":48},{"user_id":493,"name":"yeller gibus","steam_id":76561198048174130,"connected_time":1577000000000,"state":"active","ping":100},{"user_id":488,"name":"Dagnasty","steam_id":76561198163651484,"connected_time":1929000000000,"state":"active","ping":100},{"user_id":513,"name":"Squid's","steam_id":76561198826820952,"connected_time":275000000000,"state":"active","ping":87},{"user_id":519,"name":"Peeing Wizard","steam_id":76561199102307630,"connected_time":130000000000,"state":"active","ping":87},{"user_id":492,"name":"Lazy","steam_id":76561198798969701,"connected_time":1614000000000,"state":"active","ping":101},{"user_id":507,"name":"st3shk4a","steam_id":76561198025322638,"connected_time":742000000000,"state":"active","ping":125},{"user_id":512,"name":"New Reno","steam_id":76561198156522866,"connected_time":379000000000,"state":"active","ping":74},{"user_id":514,"name":"Swifgz","steam_id":76561198162875756,"connected_time":275000000000,"state":"active","ping":90},{"user_id":515,"name":"Skip Hop Doo Bop","steam_id":76561199161571849,"connected_time":273000000000,"state":"active","ping":85},{"user_id":510,"name":"HeroOfTime","steam_id":76561199096218001,"connected_time":703000000000,"state":"active","ping":84},{"user_id":458,"name":"No.21 - Feral Scent","steam_id":76561198045844070,"connected_time":3089000000000,"state":"active","ping":52},{"user_id":424,"name":"Shmeapalicious7","steam_id":76561198425865340,"connected_time":6036000000000,"state":"active","ping":86},{"user_id":459,"name":"BreakfastTacos","steam_id":76561198847620442,"connected_time":3083000000000,"state":"active","ping":75},{"user_id":517,"name":"RatedM4Monkee","steam_id":76561198088397580,"connected_time":229000000000,"state":"active","ping":75},{"user_id":491,"name":"RanchEater","steam_id":76561198836436110,"connected_time":1651000000000,"state":"active","ping":91},{"user_id":509,"name":"gooch_masta","steam_id":76561198151578423,"connected_time":738000000000,"state":"active","ping":85},{"user_id":511,"name":"DeftlyDyl","steam_id":76561198098986187,"connected_time":392000000000,"state":"active","ping":85},{"user_id":480,"name":"rach9411","steam_id":76561198256535721,"connected_time":2256000000000,"state":"active","ping":142},{"user_id":503,"name":"zpalmtree","steam_id":76561198134307620,"connected_time":858000000000,"state":"active","ping":76},{"user_id":487,"name":"jumpingjacks","steam_id":76561197964839440,"connected_time":2019000000000,"state":"active","ping":88},{"user_id":470,"name":"Snoopy","steam_id":76561198273735974,"connected_time":2605000000000,"state":"active","ping":68},{"user_id":504,"name":"Buuw","steam_id":76561198085707714,"connected_time":836000000000,"state":"active","ping":66},{"user_id":518,"name":"DMRocks","steam_id":76561198248619468,"connected_time":216000000000,"state":"active","ping":93}]},{"server_id":405,"name":"Uncletopia | Dallas | 4 | Community","name_short":"dal-4","host":"dal-1.us.uncletopia.com","port":27045,"enabled":true,"region":"us-central","cc":"us","latitude":32.779167,"longitude":-96.80889,"reserved":0,"last_update":"0001-01-01T00:00:00Z","name_a2s":"Uncletopia | Dallas | 4 | Community","protocol":17,"map":"workshop/cp_propaganda_b18.ugc1603743849","folder":"tf","game":"Team Fortress","app_id":440,"player_count":0,"max_players":24,"Bots":0,"server_type":"Dedicated","server_os":"Linux","password":true,"vac":true,"version":"7961495","steam_id":85568392924515220,"keywords":["cp","nocrits","nodmgspread","uncletopia"],"game_id":440,"stv_port":27046,"stv_name":"Uncletopia | Dallas | 4 | Community | STV","players":null},{"server_id":5,"name":"Uncletopia | Frankfurt | 1 | All Maps","name_short":"frk-1","host":"frk-1.de.uncletopia.com","port":27015,"enabled":true,"region":"eu","cc":"de","latitude":50.110924,"longitude":8.682127,"reserved":0,"last_update":"0001-01-01T00:00:00Z","name_a2s":"Uncletopia | Frankfurt | 1 | All Maps","protocol":17,"map":"pl_snowycoast","folder":"tf","game":"Team Fortress","app_id":440,"player_count":0,"max_players":24,"Bots":0,"server_type":"Dedicated","server_os":"Linux","password":true,"vac":true,"version":"7961495","steam_id":85568392924469989,"keywords":["nocrits","nodmgspread","payload","uncletopia"],"game_id":440,"stv_port":27016,"stv_name":"Uncletopia | Frankfurt | 1 | All Maps | STV","players":null},{"server_id":110,"name":"Uncletopia | Frankfurt | 2 | All Maps","name_short":"frk-2","host":"frk-1.de.uncletopia.com","port":27025,"enabled":true,"region":"eu","cc":"de","latitude":50.110924,"longitude":8.682127,"reserved":0,"last_update":"0001-01-01T00:00:00Z","name_a2s":"Uncletopia | Frankfurt | 2 | All Maps","protocol":17,"map":"cp_dustbowl","folder":"tf","game":"Team Fortress","app_id":440,"player_count":0,"max_players":24,"Bots":0,"server_type":"Dedicated","server_os":"Linux","password":true,"vac":true,"version":"7961495","steam_id":85568392924469990,"keywords":["cp","nocrits","nodmgspread","uncletopia"],"game_id":440,"stv_port":27026,"stv_name":"Uncletopia | Frankfurt | 2 | All Maps | STV","players":null},{"server_id":308,"name":"Uncletopia | Frankfurt | 3 | All Maps","name_short":"frk-3","host":"frk-1.de.uncletopia.com","port":27035,"enabled":true,"region":"eu","cc":"de","latitude":50.110924,"longitude":8.682127,"reserved":0,"last_update":"0001-01-01T00:00:00Z","name_a2s":"Uncletopia | Frankfurt | 3 | All Maps","protocol":17,"map":"pl_barnblitz","folder":"tf","game":"Team Fortress","app_id":440,"player_count":0,"max_players":24,"Bots":0,"server_type":"Dedicated","server_os":"Linux","password":true,"vac":true,"version":"7961495","steam_id":85568392924504274,"keywords":["nocrits","nodmgspread","payload","uncletopia"],"game_id":440,"stv_port":27036,"stv_name":"Uncletopia | Frankfurt | 3 | All Maps | STV","players":null},{"server_id":309,"name":"Uncletopia | Frankfurt | 4 | All Maps","name_short":"frk-4","host":"frk-1.de.uncletopia.com","port":27045,"enabled":true,"region":"eu","cc":"de","latitude":50.110924,"longitude":8.682127,"reserved":0,"last_update":"0001-01-01T00:00:00Z","name_a2s":"Uncletopia | Frankfurt | 4 | All Maps","protocol":17,"map":"koth_highpass","folder":"tf","game":"Team Fortress","app_id":440,"player_count":0,"max_players":24,"Bots":0,"server_type":"Dedicated","server_os":"Linux","password":true,"vac":true,"version":"7961495","steam_id":85568392924504275,"keywords":["cp","nocrits","nodmgspread","uncletopia"],"game_id":440,"stv_port":27046,"stv_name":"Uncletopia | Frankfurt | 4 | All Maps | STV","players":null},{"server_id":310,"name":"Uncletopia | Frankfurt | 5 | All Maps","name_short":"frk-5","host":"frk-1.de.uncletopia.com","port":27055,"enabled":true,"region":"eu","cc":"de","latitude":50.110924,"longitude":8.682127,"reserved":0,"last_update":"0001-01-01T00:00:00Z","name_a2s":"Uncletopia | Frankfurt | 5 | All Maps","protocol":17,"map":"pl_badwater","folder":"tf","game":"Team Fortress","app_id":440,"player_count":0,"max_players":24,"Bots":0,"server_type":"Dedicated","server_os":"Linux","password":true,"vac":true,"version":"7961495","steam_id":85568392924504277,"keywords":["nocrits","nodmgspread","payload","uncletopia"],"game_id":440,"stv_port":27056,"stv_name":"Uncletopia | Frankfurt | 5 | All Maps | STV","players":null},{"server_id":311,"name":"Uncletopia | Frankfurt | 6 | All Maps","name_short":"frk-6","host":"frk-1.de.uncletopia.com","port":27065,"enabled":true,"region":"eu","cc":"de","latitude":50.110924,"longitude":8.682127,"reserved":0,"last_update":"0001-01-01T00:00:00Z","name_a2s":"Uncletopia | Frankfurt | 6 | All Maps","protocol":17,"map":"cp_altitude","folder":"tf","game":"Team Fortress","app_id":440,"player_count":0,"max_players":24,"Bots":0,"server_type":"Dedicated","server_os":"Linux","password":true,"vac":true,"version":"7961495","steam_id":85568392924504278,"keywords":["cp","nocrits","nodmgspread","uncletopia"],"game_id":440,"stv_port":27066,"stv_name":"Uncletopia | Frankfurt | 6 | All Maps | STV","players":null},{"server_id":23,"name":"Uncletopia | Frankfurt | 7 | Stopwatch","name_short":"frk-7","host":"frk-1.de.uncletopia.com","port":27075,"enabled":true,"region":"eu","cc":"de","latitude":50.110924,"longitude":8.682127,"reserved":0,"last_update":"0001-01-01T00:00:00Z","name_a2s":"Uncletopia | Frankfurt | 7 | Stopwatch","protocol":17,"map":"pl_frontier_final","folder":"tf","game":"Team Fortress","app_id":440,"player_count":0,"max_players":24,"Bots":0,"server_type":"Dedicated","server_os":"Linux","password":true,"vac":true,"version":"7961495","steam_id":85568392924742827,"keywords":["nocrits","nodmgspread","payload","uncletopia"],"game_id":440,"stv_port":27076,"stv_name":"Uncletopia | Frankfurt | 7 | Stopwatch | STV","players":null},{"server_id":24,"name":"Uncletopia | Frankfurt | 8 | Community","name_short":"frk-8","host":"frk-1.de.uncletopia.com","port":27085,"enabled":true,"region":"eu","cc":"de","latitude":50.110924,"longitude":8.682127,"reserved":0,"last_update":"0001-01-01T00:00:00Z","name_a2s":"Uncletopia | Frankfurt | 8 | Community","protocol":17,"map":"cp_mountainlab","folder":"tf","game":"Team Fortress","app_id":440,"player_count":0,"max_players":24,"Bots":0,"server_type":"Dedicated","server_os":"Linux","password":true,"vac":true,"version":"7961495","steam_id":85568392924742828,"keywords":["cp","nocrits","nodmgspread","uncletopia"],"game_id":440,"stv_port":27086,"stv_name":"Uncletopia | Frankfurt | 8 | Community | STV","players":null},{"server_id":202,"name":"Uncletopia | Hong Kong | 1 | All Maps","name_short":"hgk-1","host":"hgk-1.hk.uncletopia.com","port":27015,"enabled":true,"region":"asia","cc":"hk","latitude":22.302711,"longitude":114.177216,"reserved":0,"last_update":"0001-01-01T00:00:00Z","name_a2s":"Uncletopia | Hong Kong | 1 | All Maps","protocol":17,"map":"pl_snowycoast","folder":"tf","game":"Team Fortress","app_id":440,"player_count":24,"max_players":24,"Bots":0,"server_type":"Dedicated","server_os":"Linux","password":true,"vac":true,"version":"7961495","steam_id":85568392924494504,"keywords":["nocrits","nodmgspread","payload","uncletopia"],"game_id":440,"stv_port":27016,"stv_name":"Uncletopia | Hong Kong | 1 | All Maps | STV","players":[{"user_id":63,"name":"ArcticDolphin","steam_id":76561198203626319,"connected_time":5699000000000,"state":"active","ping":128},{"user_id":114,"name":"Isda","steam_id":76561198871392299,"connected_time":162000000000,"state":"active","ping":101},{"user_id":104,"name":"Hanta","steam_id":76561199031390218,"connected_time":994000000000,"state":"active","ping":165},{"user_id":111,"name":"i stole piston's t","steam_id":76561198055553140,"connected_time":491000000000,"state":"active","ping":79},{"user_id":72,"name":"Ë†¢ËÑ∏È™ëÂ£´ËÑ∏‰∏çË†¢","steam_id":76561198422372840,"connected_time":4898000000000,"state":"active","ping":52},{"user_id":84,"name":"toad„ÉÑ","steam_id":76561198082199290,"connected_time":3441000000000,"state":"active","ping":42},{"user_id":107,"name":"Prussian","steam_id":76561198974248745,"connected_time":872000000000,"state":"active","ping":62},{"user_id":59,"name":"Lu ‚úø","steam_id":76561198320532821,"connected_time":6482000000000,"state":"active","ping":59},{"user_id":89,"name":"corpse_cadaver","steam_id":76561199225360457,"connected_time":3203000000000,"state":"active","ping":73},{"user_id":68,"name":"‚òÖaÃ≤cÃ≤aÃ≤tÃ≤","steam_id":76561198334099003,"connected_time":5064000000000,"state":"active","ping":132},{"user_id":113,"name":"Crit-A-Cola Fan","steam_id":76561198836956034,"connected_time":441000000000,"state":"active","ping":122},{"user_id":99,"name":"U„Éª‚ôÄ„ÉªU kitty","steam_id":76561198149684436,"connected_time":1729000000000,"state":"active","ping":43},{"user_id":112,"name":"Spookie","steam_id":76561199158560796,"connected_time":491000000000,"state":"active","ping":117},{"user_id":100,"name":"‚¨û","steam_id":76561199373637717,"connected_time":1632000000000,"state":"active","ping":71},{"user_id":60,"name":"LEGS","steam_id":76561199111623890,"connected_time":6149000000000,"state":"active","ping":70},{"user_id":109,"name":"madame tussauds","steam_id":76561199474092971,"connected_time":871000000000,"state":"active","ping":103},{"user_id":102,"name":"Wx","steam_id":76561199217780897,"connected_time":1452000000000,"state":"active","ping":137},{"user_id":67,"name":"Kyo","steam_id":76561198088550274,"connected_time":5330000000000,"state":"active","ping":43},{"user_id":43,"name":"pyroman51","steam_id":76561198074339034,"connected_time":7257000000000,"state":"active","ping":82},{"user_id":98,"name":"Cheesey","steam_id":76561198975684137,"connected_time":1737000000000,"state":"active","ping":78},{"user_id":88,"name":"Samoyed","steam_id":76561198299150410,"connected_time":3316000000000,"state":"active","ping":90},{"user_id":80,"name":"ÍπÄÍ¥ëÎßå","steam_id":76561198295279503,"connected_time":4464000000000,"state":"active","ping":86},{"user_id":47,"name":"owl","steam_id":76561198088403016,"connected_time":7182000000000,"state":"active","ping":104},{"user_id":90,"name":"Drutzhfer","steam_id":76561198299948446,"connected_time":3201000000000,"state":"active","ping":109}]},{"server_id":1,"name":"Uncletopia | Los Angeles | 1 | All Maps","name_short":"lax-1","host":"lax-1.us.uncletopia.com","port":27015,"enabled":true,"region":"us-west","cc":"us","latitude":33.94279,"longitude":-118.41004,"reserved":0,"last_update":"0001-01-01T00:00:00Z","name_a2s":"Uncletopia | Los Angeles | 1 | All Maps","protocol":17,"map":"koth_highpass","folder":"tf","game":"Team Fortress","app_id":440,"player_count":0,"max_players":24,"Bots":0,"server_type":"Dedicated","server_os":"Linux","password":true,"vac":true,"version":"7961495","steam_id":85568392924469991,"keywords":["cp","nocrits","nodmgspread","uncletopia"],"game_id":440,"stv_port":27016,"stv_name":"Uncletopia | Los Angeles | 1 | All Maps | STV","players":null},{"server_id":112,"name":"Uncletopia | Los Angeles | 2 | All Maps","name_short":"lax-2","host":"lax-1.us.uncletopia.com","port":27025,"enabled":true,"region":"us-west","cc":"us","latitude":33.94279,"longitude":-118.41004,"reserved":0,"last_update":"0001-01-01T00:00:00Z","name_a2s":"Uncletopia | Los Angeles | 2 | All Maps","protocol":17,"map":"pl_thundermountain","folder":"tf","game":"Team Fortress","app_id":440,"player_count":24,"max_players":24,"Bots":0,"server_type":"Dedicated","server_os":"Linux","password":true,"vac":true,"version":"7961495","steam_id":85568392924469992,"keywords":["nocrits","nodmgspread","payload","uncletopia"],"game_id":440,"stv_port":27026,"stv_name":"Uncletopia | Los Angeles | 2 | All Maps | STV","players":[{"user_id":318,"name":"mew","steam_id":76561198118644686,"connected_time":40000000000,"state":"active","ping":54},{"user_id":316,"name":"Hepta11","steam_id":76561199092436510,"connected_time":278000000000,"state":"active","ping":62},{"user_id":275,"name":"mrthugpug1732","steam_id":76561198881200768,"connected_time":3059000000000,"state":"active","ping":57},{"user_id":310,"name":"BigGoose","steam_id":76561198833281392,"connected_time":930000000000,"state":"active","ping":72},{"user_id":309,"name":"Shikolaahg ‚å°","steam_id":76561198138742166,"connected_time":1051000000000,"state":"active","ping":71},{"user_id":294,"name":"Wyatt","steam_id":76561199068781227,"connected_time":2191000000000,"state":"active","ping":71},{"user_id":315,"name":"Tuffy","steam_id":76561198044179049,"connected_time":459000000000,"state":"active","ping":113},{"user_id":311,"name":"Cheetose Intolerant","steam_id":76561198013399809,"connected_time":907000000000,"state":"active","ping":46},{"user_id":280,"name":"Maurdakar","steam_id":76561197983420976,"connected_time":2621000000000,"state":"active","ping":122},{"user_id":295,"name":"liftin'","steam_id":76561199089515791,"connected_time":2189000000000,"state":"active","ping":52},{"user_id":305,"name":"CaiGaming","steam_id":76561198313023508,"connected_time":1567000000000,"state":"active","ping":73},{"user_id":306,"name":"kwetzal","steam_id":76561198845749671,"connected_time":1557000000000,"state":"active","ping":64},{"user_id":299,"name":"PunyHappyFace","steam_id":76561198118059305,"connected_time":1807000000000,"state":"active","ping":45},{"user_id":319,"name":"An00bis","steam_id":76561198044084508,"connected_time":8000000000,"state":"active","ping":81},{"user_id":287,"name":"Nato #ClashGG","steam_id":76561198161062837,"connected_time":2472000000000,"state":"active","ping":57},{"user_id":272,"name":"WEEGEE47","steam_id":76561198369175939,"connected_time":3234000000000,"state":"active","ping":56},{"user_id":285,"name":"Goat","steam_id":76561198068447650,"connected_time":2500000000000,"state":"active","ping":101},{"user_id":296,"name":"buhn","steam_id":76561198106117196,"connected_time":2025000000000,"state":"active","ping":53},{"user_id":264,"name":"TF2 b4nny fanfic","steam_id":76561198011442255,"connected_time":3873000000000,"state":"active","ping":49},{"user_id":308,"name":"buddy","steam_id":76561198193457726,"connected_time":1493000000000,"state":"active","ping":52},{"user_id":205,"name":"walrooos","steam_id":76561198024521839,"connected_time":7365000000000,"state":"active","ping":48},{"user_id":312,"name":"Shidol","steam_id":76561197964164783,"connected_time":849000000000,"state":"active","ping":50},{"user_id":298,"name":"perc 10","steam_id":76561198116471653,"connected_time":1847000000000,"state":"active","ping":62},{"user_id":262,"name":"Haven","steam_id":76561198087584756,"connected_time":3957000000000,"state":"active","ping":71}]},{"server_id":324,"name":"Uncletopia | Los Angeles | 3 | All Maps","name_short":"lax-3","host":"lax-1.us.uncletopia.com","port":27035,"enabled":true,"region":"us-west","cc":"us","latitude":33.94279,"longitude":-118.41004,"reserved":0,"last_update":"0001-01-01T00:00:00Z","name_a2s":"Uncletopia | Los Angeles | 3 | All Maps","protocol":17,"map":"pl_borneo","folder":"tf","game":"Team Fortress","app_id":440,"player_count":22,"max_players":24,"Bots":0,"server_type":"Dedicated","server_os":"Linux","password":true,"vac":true,"version":"7961495","steam_id":85568392924510198,"keywords":["nocrits","nodmgspread","payload","uncletopia"],"game_id":440,"stv_port":27036,"stv_name":"Uncletopia | Los Angeles | 3 | All Maps | STV","players":[{"user_id":267,"name":"‚ô• bibi ‚ô•","steam_id":76561198354864687,"connected_time":95000000000,"state":"active","ping":99},{"user_id":266,"name":"Ralph Kramden (Slim Charles)","steam_id":76561197981687895,"connected_time":497000000000,"state":"active","ping":55},{"user_id":241,"name":"p","steam_id":76561198256257931,"connected_time":2466000000000,"state":"active","ping":47},{"user_id":265,"name":"LtAlexandro","steam_id":76561198997494266,"connected_time":514000000000,"state":"active","ping":70},{"user_id":260,"name":"Maid 'n' China","steam_id":76561198423392976,"connected_time":1341000000000,"state":"active","ping":62},{"user_id":259,"name":"mr goodman","steam_id":76561198811561721,"connected_time":1442000000000,"state":"active","ping":49},{"user_id":243,"name":"milk then cereal","steam_id":76561198047168548,"connected_time":2422000000000,"state":"active","ping":45},{"user_id":261,"name":"meta slave","steam_id":76561199467334502,"connected_time":1334000000000,"state":"active","ping":49},{"user_id":213,"name":"ùìºùìπùì∏ùì∏ùì¥ùîÇ","steam_id":76561198300009292,"connected_time":4031000000000,"state":"active","ping":75},{"user_id":245,"name":"mintsmatchamocha","steam_id":76561198420094402,"connected_time":2121000000000,"state":"active","ping":42},{"user_id":246,"name":"RC","steam_id":76561198048127881,"connected_time":2052000000000,"state":"active","ping":45},{"user_id":256,"name":"Reef","steam_id":76561199130187039,"connected_time":1682000000000,"state":"active","ping":70},{"user_id":247,"name":"Pacemaker","steam_id":76561198046865217,"connected_time":2051000000000,"state":"active","ping":38},{"user_id":231,"name":"Cat on the Moon","steam_id":76561198272661627,"connected_time":3229000000000,"state":"active","ping":47},{"user_id":257,"name":"DV","steam_id":76561198295570806,"connected_time":1668000000000,"state":"active","ping":60},{"user_id":249,"name":"QUANDALE DINGLE GAMING #SAVE TF","steam_id":76561199285434768,"connected_time":2035000000000,"state":"active","ping":61},{"user_id":226,"name":"ElectronX","steam_id":76561198116034988,"connected_time":3620000000000,"state":"active","ping":51},{"user_id":251,"name":"Matches_                       ","steam_id":76561198048925904,"connected_time":1977000000000,"state":"active","ping":63},{"user_id":220,"name":"LittleJiggles","steam_id":76561198134898322,"connected_time":3957000000000,"state":"active","ping":104},{"user_id":268,"name":"Zanzi","steam_id":76561198210915428,"connected_time":88000000000,"state":"active","ping":60},{"user_id":272,"name":"Granny from Hoodwinked","steam_id":76561198116389072,"connected_time":20000000000,"state":"active","ping":93},{"user_id":227,"name":"shreklover69","steam_id":76561198054070811,"connected_time":3608000000000,"state":"active","ping":50}]},{"server_id":25,"name":"Uncletopia | Los Angeles | 4 | Stopwatch","name_short":"lax-4","host":"lax-1.us.uncletopia.com","port":27045,"enabled":true,"region":"us-west","cc":"us","latitude":33.94279,"longitude":-118.41004,"reserved":0,"last_update":"0001-01-01T00:00:00Z","name_a2s":"Uncletopia | Los Angeles | 4 | Stopwatch","protocol":17,"map":"pl_swiftwater_final1","folder":"tf","game":"Team Fortress","app_id":440,"player_count":0,"max_players":24,"Bots":0,"server_type":"Dedicated","server_os":"Linux","password":true,"vac":true,"version":"7961495","steam_id":85568392924510199,"keywords":["nocrits","nodmgspread","payload","uncletopia"],"game_id":440,"stv_port":27046,"stv_name":"Uncletopia | Los Angeles | 4 | Stopwatch | STV","players":null},{"server_id":11,"name":"Uncletopia | London | 1 | All Maps","name_short":"lon-1","host":"lon-1.uk.uncletopia.com","port":27015,"enabled":true,"region":"eu","cc":"gb","latitude":51.509865,"longitude":-0.118092,"reserved":0,"last_update":"0001-01-01T00:00:00Z","name_a2s":"Uncletopia | London | 1 | All Maps","protocol":17,"map":"cp_foundry","folder":"tf","game":"Team Fortress","app_id":440,"player_count":23,"max_players":24,"Bots":0,"server_type":"Dedicated","server_os":"Linux","password":true,"vac":true,"version":"7961495","steam_id":85568392924367362,"keywords":["cp","nocrits","nodmgspread","uncletopia"],"game_id":440,"stv_port":27016,"stv_name":"Uncletopia | London | 1 | All Maps | STV","players":[{"user_id":25,"name":"no dm","steam_id":76561198031087615,"connected_time":3479000000000,"state":"active","ping":107},{"user_id":40,"name":"TheFox.tf","steam_id":76561197996851702,"connected_time":1555000000000,"state":"active","ping":75},{"user_id":41,"name":"M√©bh √ìg MacT√≠re","steam_id":76561198346399624,"connected_time":1466000000000,"state":"active","ping":85},{"user_id":42,"name":"Hugh","steam_id":76561198976348754,"connected_time":1384000000000,"state":"active","ping":39},{"user_id":43,"name":"sv_MrGibbs","steam_id":76561198114071972,"connected_time":1324000000000,"state":"active","ping":50},{"user_id":44,"name":"me (real)","steam_id":76561198013770973,"connected_time":1248000000000,"state":"active","ping":67},{"user_id":65,"name":"Dot","steam_id":76561198047299145,"connected_time":44000000000,"state":"active","ping":88},{"user_id":10,"name":"Perpetual Pub Push","steam_id":76561198256714846,"connected_time":4506000000000,"state":"active","ping":44},{"user_id":46,"name":"Û†Ä°Û†Ä°","steam_id":76561198399390201,"connected_time":1110000000000,"state":"active","ping":92},{"user_id":48,"name":"Beron the Colossus","steam_id":76561198091998555,"connected_time":758000000000,"state":"active","ping":106},{"user_id":52,"name":"Storm's Foreshadow","steam_id":76561198098462526,"connected_time":440000000000,"state":"active","ping":74},{"user_id":50,"name":"Tawpaya","steam_id":76561198143565248,"connected_time":702000000000,"state":"active","ping":60},{"user_id":51,"name":"slow learner","steam_id":76561198036730191,"connected_time":579000000000,"state":"active","ping":29},{"user_id":53,"name":"Remosapien","steam_id":76561198877209716,"connected_time":361000000000,"state":"active","ping":44},{"user_id":54,"name":"xX_DogWater-Gaming69_Xx","steam_id":76561198335486000,"connected_time":317000000000,"state":"active","ping":66},{"user_id":55,"name":"Egg Hunter","steam_id":76561199372365790,"connected_time":297000000000,"state":"active","ping":110},{"user_id":57,"name":"halo1v2","steam_id":76561198032106750,"connected_time":205000000000,"state":"active","ping":55},{"user_id":58,"name":"Turbo Virgin","steam_id":76561198437058450,"connected_time":140000000000,"state":"active","ping":89},{"user_id":59,"name":"Narvhal√∏","steam_id":76561198147495474,"connected_time":128000000000,"state":"active","ping":42},{"user_id":60,"name":"void_tech_1234","steam_id":76561198245254406,"connected_time":128000000000,"state":"active","ping":141},{"user_id":61,"name":"Frylock","steam_id":76561198050292560,"connected_time":88000000000,"state":"active","ping":51},{"user_id":63,"name":"Gruncle PUXXY's Menstrual Shows","steam_id":76561197995465137,"connected_time":65000000000,"state":"active","ping":175},{"user_id":64,"name":"maZe","steam_id":76561198025769991,"connected_time":64000000000,"state":"active","ping":129}]},{"server_id":114,"name":"Uncletopia | London | 2 | All Maps","name_short":"lon-2","host":"lon-1.uk.uncletopia.com","port":27025,"enabled":true,"region":"eu","cc":"gb","latitude":51.509865,"longitude":-0.118092,"reserved":0,"last_update":"0001-01-01T00:00:00Z","name_a2s":"Uncletopia | London | 2 | All Maps","protocol":17,"map":"koth_lakeside_final","folder":"tf","game":"Team Fortress","app_id":440,"player_count":0,"max_players":24,"Bots":0,"server_type":"Dedicated","server_os":"Linux","password":true,"vac":true,"version":"7961495","steam_id":85568392924470941,"keywords":["cp","nocrits","nodmgspread","uncletopia"],"game_id":440,"stv_port":27026,"stv_name":"Uncletopia | London | 2 | All Maps | STV","players":null},{"server_id":320,"name":"Uncletopia | London | 3 | All Maps","name_short":"lon-3","host":"lon-1.uk.uncletopia.com","port":27035,"enabled":true,"region":"eu","cc":"gb","latitude":51.509865,"longitude":-0.118092,"reserved":0,"last_update":"0001-01-01T00:00:00Z","name_a2s":"Uncletopia | London | 3 | All Maps","protocol":17,"map":"cp_process_final","folder":"tf","game":"Team Fortress","app_id":440,"player_count":0,"max_players":24,"Bots":0,"server_type":"Dedicated","server_os":"Linux","password":true,"vac":true,"version":"7961495","steam_id":85568392924510192,"keywords":["cp","nocrits","nodmgspread","uncletopia"],"game_id":440,"stv_port":27036,"stv_name":"Uncletopia | London | 3 | All Maps | STV","players":null},{"server_id":321,"name":"Uncletopia | London | 4 | All Maps","name_short":"lon-4","host":"lon-1.uk.uncletopia.com","port":27045,"enabled":true,"region":"eu","cc":"gb","latitude":51.509865,"longitude":-0.118092,"reserved":0,"last_update":"0001-01-01T00:00:00Z","name_a2s":"Uncletopia | London | 4 | All Maps","protocol":17,"map":"koth_cascade","folder":"tf","game":"Team Fortress","app_id":440,"player_count":0,"max_players":24,"Bots":0,"server_type":"Dedicated","server_os":"Linux","password":true,"vac":true,"version":"7961495","steam_id":85568392924510193,"keywords":["cp","nocrits","nodmgspread","uncletopia"],"game_id":440,"stv_port":27046,"stv_name":"Uncletopia | London | 4 | All Maps | STV","players":null},{"server_id":21,"name":"Uncletopia | London | 5 | All Maps","name_short":"lon-5","host":"lon-1.uk.uncletopia.com","port":27055,"enabled":true,"region":"eu","cc":"gb","latitude":51.509865,"longitude":-0.118092,"reserved":0,"last_update":"0001-01-01T00:00:00Z","name_a2s":"Uncletopia | London | 5 | All Maps","protocol":17,"map":"koth_lakeside_final","folder":"tf","game":"Team Fortress","app_id":440,"player_count":0,"max_players":24,"Bots":0,"server_type":"Dedicated","server_os":"Linux","password":true,"vac":true,"version":"7961495","steam_id":85568392924742829,"keywords":["cp","nocrits","nodmgspread","uncletopia"],"game_id":440,"stv_port":27056,"stv_name":"Uncletopia | London | 5 | All Maps | STV","players":null},{"server_id":22,"name":"Uncletopia | London | 6 | All Maps","name_short":"lon-6","host":"lon-1.uk.uncletopia.com","port":27065,"enabled":true,"region":"eu","cc":"gb","latitude":51.509865,"longitude":-0.118092,"reserved":0,"last_update":"0001-01-01T00:00:00Z","name_a2s":"Uncletopia | London | 6 | All Maps","protocol":17,"map":"cp_dustbowl","folder":"tf","game":"Team Fortress","app_id":440,"player_count":0,"max_players":24,"Bots":0,"server_type":"Dedicated","server_os":"Linux","password":true,"vac":true,"version":"7961495","steam_id":85568392924742830,"keywords":["cp","nocrits","nodmgspread","uncletopia"],"game_id":440,"stv_port":27066,"stv_name":"Uncletopia | London | 6 | All Maps | STV","players":null},{"server_id":40,"name":"Uncletopia | London | 7 | Stopwatch","name_short":"lon-7","host":"lon-1.uk.uncletopia.com","port":27075,"enabled":true,"region":"eu","cc":"gb","latitude":51.509865,"longitude":-0.118092,"reserved":0,"last_update":"0001-01-01T00:00:00Z","name_a2s":"Uncletopia | London | 7 | Stopwatch","protocol":17,"map":"koth_lakeside_final","folder":"tf","game":"Team Fortress","app_id":440,"player_count":0,"max_players":24,"Bots":0,"server_type":"Dedicated","server_os":"Linux","password":true,"vac":true,"version":"7961495","steam_id":85568392924964314,"keywords":["cp","nocrits","nodmgspread","uncletopia"],"game_id":440,"stv_port":27076,"stv_name":"Uncletopia | London | 7 | Stopwatch | STV","players":null},{"server_id":41,"name":"Uncletopia | London | 8 | Community","name_short":"lon-8","host":"lon-1.uk.uncletopia.com","port":27085,"enabled":true,"region":"eu","cc":"gb","latitude":51.509865,"longitude":-0.118092,"reserved":0,"last_update":"0001-01-01T00:00:00Z","name_a2s":"Uncletopia | London | 8 | Community","protocol":17,"map":"cp_snakewater_final1","folder":"tf","game":"Team Fortress","app_id":440,"player_count":0,"max_players":24,"Bots":0,"server_type":"Dedicated","server_os":"Linux","password":true,"vac":true,"version":"7961495","steam_id":85568392924964315,"keywords":["cp","nocrits","nodmgspread","uncletopia"],"game_id":440,"stv_port":27086,"stv_name":"Uncletopia | London | 8 | Community | STV","players":null},{"server_id":300,"name":"Uncletopia | Montr√©al | 1 | One Thousand Uncles","name_short":"mtl-1","host":"mtl-1.ca.uncletopia.com","port":27015,"enabled":true,"region":"us-east","cc":"ca","latitude":45.50889,"longitude":-73.56167,"reserved":0,"last_update":"0001-01-01T00:00:00Z","name_a2s":"","protocol":0,"map":"","folder":"","game":"","app_id":0,"player_count":0,"max_players":0,"Bots":0,"server_type":"","server_os":"","password":false,"vac":false,"version":"","steam_id":0,"keywords":null,"game_id":0,"stv_port":0,"stv_name":"","players":null},{"server_id":301,"name":"Uncletopia | Montr√©al | 2 | One Thousand Uncles","name_short":"mtl-2","host":"mtl-1.ca.uncletopia.com","port":27025,"enabled":true,"region":"us-east","cc":"ca","latitude":45.50889,"longitude":-73.56167,"reserved":0,"last_update":"0001-01-01T00:00:00Z","name_a2s":"","protocol":0,"map":"","folder":"","game":"","app_id":0,"player_count":3,"max_players":0,"Bots":0,"server_type":"","server_os":"","password":false,"vac":false,"version":"","steam_id":0,"keywords":null,"game_id":0,"stv_port":0,"stv_name":"","players":[{"user_id":219,"name":"Holiday Fartcruise","steam_id":76561198043851584,"connected_time":3278000000000,"state":"active","ping":121},{"user_id":253,"name":"Gay Cake","steam_id":76561198004388831,"connected_time":785000000000,"state":"active","ping":74},{"user_id":254,"name":"Featherless Biped","steam_id":76561198034171721,"connected_time":463000000000,"state":"active","ping":73}]},{"server_id":302,"name":"Uncletopia | Montr√©al | 3 | One Thousand Uncles","name_short":"mtl-3","host":"mtl-1.ca.uncletopia.com","port":27035,"enabled":true,"region":"us-east","cc":"ca","latitude":45.50889,"longitude":-73.56167,"reserved":0,"last_update":"0001-01-01T00:00:00Z","name_a2s":"","protocol":0,"map":"","folder":"","game":"","app_id":0,"player_count":0,"max_players":0,"Bots":0,"server_type":"","server_os":"","password":false,"vac":false,"version":"","steam_id":0,"keywords":null,"game_id":0,"stv_port":0,"stv_name":"","players":null},{"server_id":13,"name":"Uncletopia | New York City | 1 | All Maps","name_short":"nyc-1","host":"nyc-1.us.uncletopia.com","port":27015,"enabled":true,"region":"us-east","cc":"us","latitude":40.73061,"longitude":-73.93524,"reserved":0,"last_update":"0001-01-01T00:00:00Z","name_a2s":"Uncletopia | New York City | 1 | All Maps","protocol":17,"map":"cp_snakewater_final1","folder":"tf","game":"Team Fortress","app_id":440,"player_count":24,"max_players":24,"Bots":0,"server_type":"Dedicated","server_os":"Linux","password":true,"vac":true,"version":"7961495","steam_id":85568392924469993,"keywords":["cp","nocrits","nodmgspread","uncletopia"],"game_id":440,"stv_port":27016,"stv_name":"Uncletopia | New York City | 1 | All Maps | STV","players":[{"user_id":752,"name":"Some_Arse","steam_id":76561198039095394,"connected_time":4108000000000,"state":"active","ping":67},{"user_id":744,"name":"Kerpal45","steam_id":76561198153340350,"connected_time":5157000000000,"state":"active","ping":85},{"user_id":742,"name":"Chechens Spotted","steam_id":76561199028910893,"connected_time":5602000000000,"state":"active","ping":70},{"user_id":760,"name":"RomanLegate","steam_id":76561198931699640,"connected_time":3643000000000,"state":"active","ping":71},{"user_id":761,"name":"Scum Knight | T.I.D.K.","steam_id":76561198282444763,"connected_time":3511000000000,"state":"active","ping":52},{"user_id":789,"name":"dipp","steam_id":76561198395577807,"connected_time":1016000000000,"state":"active","ping":59},{"user_id":777,"name":"Koishi","steam_id":76561198054541054,"connected_time":2707000000000,"state":"active","ping":46},{"user_id":785,"name":"Bewen","steam_id":76561198325334261,"connected_time":2003000000000,"state":"active","ping":41},{"user_id":756,"name":"Nola","steam_id":76561198969082311,"connected_time":3978000000000,"state":"active","ping":114},{"user_id":799,"name":"Ashton","steam_id":76561198300590302,"connected_time":283000000000,"state":"active","ping":73},{"user_id":766,"name":"Terror-Billy #SaveTF2","steam_id":76561198328141870,"connected_time":3052000000000,"state":"active","ping":64},{"user_id":790,"name":"for the king","steam_id":76561197973488858,"connected_time":966000000000,"state":"active","ping":46},{"user_id":767,"name":"Keegan","steam_id":76561198051325763,"connected_time":3018000000000,"state":"active","ping":162},{"user_id":786,"name":"WibbyOne","steam_id":76561198052843846,"connected_time":1790000000000,"state":"active","ping":39},{"user_id":769,"name":"HooHay","steam_id":76561199350870177,"connected_time":2946000000000,"state":"active","ping":79},{"user_id":778,"name":"BB Lorexav","steam_id":76561198207565988,"connected_time":2626000000000,"state":"active","ping":78},{"user_id":791,"name":"Mole","steam_id":76561198069909083,"connected_time":941000000000,"state":"active","ping":59},{"user_id":772,"name":"Hipster_Giraffe","steam_id":76561198069701092,"connected_time":2835000000000,"state":"active","ping":93},{"user_id":781,"name":"Person","steam_id":76561198093244204,"connected_time":2476000000000,"state":"active","ping":70},{"user_id":793,"name":"Sputnuts","steam_id":76561198236857310,"connected_time":921000000000,"state":"active","ping":45},{"user_id":798,"name":"b","steam_id":76561198118211523,"connected_time":332000000000,"state":"active","ping":43},{"user_id":788,"name":"beast from the east","steam_id":76561198267624034,"connected_time":1238000000000,"state":"active","ping":66},{"user_id":796,"name":"kikikikoboy","steam_id":76561198073380271,"connected_time":621000000000,"state":"active","ping":69},{"user_id":784,"name":"Tyth","steam_id":76561198062543298,"connected_time":2246000000000,"state":"active","ping":107}]},{"server_id":14,"name":"Uncletopia | New York City | 2 | All Maps","name_short":"nyc-2","host":"nyc-1.us.uncletopia.com","port":27025,"enabled":true,"region":"us-east","cc":"us","latitude":40.73061,"longitude":-73.93524,"reserved":0,"last_update":"0001-01-01T00:00:00Z","name_a2s":"Uncletopia | New York City | 2 | All Maps","protocol":17,"map":"pl_borneo","folder":"tf","game":"Team Fortress","app_id":440,"player_count":24,"max_players":24,"Bots":0,"server_type":"Dedicated","server_os":"Linux","password":true,"vac":true,"version":"7961495","steam_id":85568392924469994,"keywords":["nocrits","nodmgspread","payload","uncletopia"],"game_id":440,"stv_port":27026,"stv_name":"Uncletopia | New York City | 2 | All Maps | STV","players":[{"user_id":814,"name":"msay","steam_id":76561198170888029,"connected_time":2826000000000,"state":"active","ping":82},{"user_id":838,"name":"tax evasion dog","steam_id":76561198082293288,"connected_time":1068000000000,"state":"active","ping":74},{"user_id":817,"name":"GoldtoothFour","steam_id":76561198055529332,"connected_time":2619000000000,"state":"active","ping":70},{"user_id":827,"name":"gerg","steam_id":76561197997127387,"connected_time":1797000000000,"state":"active","ping":119},{"user_id":786,"name":"GunSpy872","steam_id":76561198290866348,"connected_time":5513000000000,"state":"active","ping":60},{"user_id":852,"name":"A Rope, for big pits","steam_id":76561198068044782,"connected_time":512000000000,"state":"active","ping":53},{"user_id":853,"name":"spooky","steam_id":76561198882986104,"connected_time":139000000000,"state":"active","ping":69},{"user_id":828,"name":"\"Psychotic Chiaki Nanami\" GF","steam_id":76561198164782653,"connected_time":1795000000000,"state":"active","ping":46},{"user_id":829,"name":"gwen","steam_id":76561198046815360,"connected_time":1793000000000,"state":"active","ping":108},{"user_id":854,"name":"Botmode","steam_id":76561198242227952,"connected_time":75000000000,"state":"active","ping":87},{"user_id":770,"name":"space man","steam_id":76561198066333670,"connected_time":6746000000000,"state":"active","ping":71},{"user_id":830,"name":"social distance warrior","steam_id":76561198128992994,"connected_time":1784000000000,"state":"active","ping":104},{"user_id":730,"name":"dyson","steam_id":76561199081837220,"connected_time":10498000000000,"state":"active","ping":78},{"user_id":851,"name":"apple juice pimp","steam_id":76561198072075420,"connected_time":715000000000,"state":"active","ping":52},{"user_id":799,"name":"ndvr","steam_id":76561199379200102,"connected_time":4168000000000,"state":"active","ping":53},{"user_id":748,"name":"flappyflap2","steam_id":76561198285048973,"connected_time":9237000000000,"state":"active","ping":38},{"user_id":841,"name":"Flashtasm","steam_id":76561198026635660,"connected_time":1021000000000,"state":"active","ping":76},{"user_id":843,"name":"A Struggling Arby's Location","steam_id":76561198063517044,"connected_time":983000000000,"state":"active","ping":47},{"user_id":811,"name":"Acubens","steam_id":76561198142862130,"connected_time":2997000000000,"state":"active","ping":70},{"user_id":833,"name":"T12a55","steam_id":76561199228993903,"connected_time":1723000000000,"state":"active","ping":165},{"user_id":844,"name":"Bob","steam_id":76561198071249852,"connected_time":982000000000,"state":"active","ping":91},{"user_id":801,"name":"That Sentry Is A Spy!","steam_id":76561198069395625,"connected_time":3508000000000,"state":"active","ping":59},{"user_id":834,"name":"SHAZBOT","steam_id":76561198068536790,"connected_time":1721000000000,"state":"active","ping":72},{"user_id":823,"name":"Snoogs","steam_id":76561198444880931,"connected_time":2329000000000,"state":"active","ping":63}]},{"server_id":15,"name":"Uncletopia | New York City | 3 | Stopwatch","name_short":"nyc-3","host":"nyc-1.us.uncletopia.com","port":27035,"enabled":true,"region":"us-east","cc":"us","latitude":40.73061,"longitude":-73.93524,"reserved":0,"last_update":"0001-01-01T00:00:00Z","name_a2s":"Uncletopia | New York City | 3 | Stopwatch","protocol":17,"map":"pl_upward","folder":"tf","game":"Team Fortress","app_id":440,"player_count":0,"max_players":24,"Bots":0,"server_type":"Dedicated","server_os":"Linux","password":true,"vac":true,"version":"7961495","steam_id":85568392924742820,"keywords":["nocrits","nodmgspread","payload","uncletopia"],"game_id":440,"stv_port":27036,"stv_name":"Uncletopia | New York City | 3 | Stopwatch | STV","players":null},{"server_id":16,"name":"Uncletopia | New York City | 4 | Community","name_short":"nyc-4","host":"nyc-1.us.uncletopia.com","port":27045,"enabled":true,"region":"us-east","cc":"us","latitude":40.73061,"longitude":-73.93524,"reserved":0,"last_update":"0001-01-01T00:00:00Z","name_a2s":"Uncletopia | New York City | 4 | Community","protocol":17,"map":"workshop/koth_ramjam_rc1.ugc459778887","folder":"tf","game":"Team Fortress","app_id":440,"player_count":0,"max_players":24,"Bots":0,"server_type":"Dedicated","server_os":"Linux","password":true,"vac":true,"version":"7961495","steam_id":85568392924742821,"keywords":["cp","nocrits","nodmgspread","uncletopia"],"game_id":440,"stv_port":27046,"stv_name":"Uncletopia | New York City | 4 | Community | STV","players":null},{"server_id":142,"name":"Uncletopia | S√£o Paulo | 1 | All Maps","name_short":"sao-1","host":"sao-1.br.uncletopia.com","port":27015,"enabled":true,"region":"sa","cc":"br","latitude":-23.533773,"longitude":-46.62529,"reserved":0,"last_update":"0001-01-01T00:00:00Z","name_a2s":"Uncletopia | S√£o Paulo | 1 | All Maps","protocol":17,"map":"koth_highpass","folder":"tf","game":"Team Fortress","app_id":440,"player_count":0,"max_players":24,"Bots":0,"server_type":"Dedicated","server_os":"Linux","password":true,"vac":true,"version":"7961495","steam_id":85568392924469996,"keywords":["cp","nocrits","nodmgspread","uncletopia"],"game_id":440,"stv_port":27016,"stv_name":"Uncletopia | S√£o Paulo | 1 | All Maps | STV","players":null},{"server_id":143,"name":"Uncletopia | S√£o Paulo | 2 | Community","name_short":"sao-2","host":"sao-2.br.uncletopia.com","port":27015,"enabled":true,"region":"sa","cc":"br","latitude":-23.533773,"longitude":-46.62529,"reserved":0,"last_update":"0001-01-01T00:00:00Z","name_a2s":"Uncletopia | S√£o Paulo | 2 | Community","protocol":17,"map":"workshop/koth_product_final.ugc454272353","folder":"tf","game":"Team Fortress","app_id":440,"player_count":2,"max_players":24,"Bots":0,"server_type":"Dedicated","server_os":"Linux","password":true,"vac":true,"version":"7961495","steam_id":85568392924485349,"keywords":["cp","nocrits","nodmgspread","uncletopia"],"game_id":440,"stv_port":27016,"stv_name":"Uncletopia | S√£o Paulo | 2 | Community | STV","players":[{"user_id":128,"name":"Seleste","steam_id":76561199099945745,"connected_time":2267000000000,"state":"active","ping":88},{"user_id":129,"name":"CHABLAU","steam_id":76561198808436182,"connected_time":1489000000000,"state":"active","ping":150}]},{"server_id":7,"name":"Uncletopia | Seattle | 1 | All Maps","name_short":"sea-1","host":"sea-1.us.uncletopia.com","port":27015,"enabled":true,"region":"us-west","cc":"us","latitude":47.608013,"longitude":-122.33517,"reserved":0,"last_update":"0001-01-01T00:00:00Z","name_a2s":"Uncletopia | Seattle | 1 | All Maps","protocol":17,"map":"pl_upward","folder":"tf","game":"Team Fortress","app_id":440,"player_count":23,"max_players":24,"Bots":0,"server_type":"Dedicated","server_os":"Linux","password":true,"vac":true,"version":"7961495","steam_id":85568392924469997,"keywords":["nocrits","nodmgspread","payload","uncletopia"],"game_id":440,"stv_port":27016,"stv_name":"Uncletopia | Seattle | 1 | All Maps | STV","players":[{"user_id":775,"name":"An Old Lady","steam_id":76561198047480318,"connected_time":2978000000000,"state":"active","ping":70},{"user_id":790,"name":"SadFapping","steam_id":76561198076651049,"connected_time":1744000000000,"state":"active","ping":44},{"user_id":764,"name":"gorlab","steam_id":76561198025089694,"connected_time":3955000000000,"state":"active","ping":64},{"user_id":800,"name":"cubibluer","steam_id":76561198197405295,"connected_time":609000000000,"state":"active","ping":59},{"user_id":804,"name":"xdddddddddddddddddddddddddddd","steam_id":76561198842909288,"connected_time":546000000000,"state":"active","ping":132},{"user_id":766,"name":"mega","steam_id":76561198089520959,"connected_time":3920000000000,"state":"active","ping":96},{"user_id":806,"name":"DUNKS","steam_id":76561198130701643,"connected_time":305000000000,"state":"active","ping":49},{"user_id":808,"name":"Sniff","steam_id":76561198010270922,"connected_time":104000000000,"state":"active","ping":57},{"user_id":727,"name":"evilOlive","steam_id":76561198106222025,"connected_time":5815000000000,"state":"active","ping":76},{"user_id":792,"name":"pyrotechnic","steam_id":76561198043558709,"connected_time":1720000000000,"state":"active","ping":45},{"user_id":791,"name":"Toaster (Hamilton Beach)","steam_id":76561198039891934,"connected_time":1743000000000,"state":"active","ping":60},{"user_id":793,"name":"R5-D4","steam_id":76561198025196439,"connected_time":1586000000000,"state":"active","ping":58},{"user_id":613,"name":"soup","steam_id":76561198043209046,"connected_time":14263000000000,"state":"active","ping":68},{"user_id":805,"name":"chimplicity","steam_id":76561198012097062,"connected_time":534000000000,"state":"active","ping":100},{"user_id":748,"name":"oo","steam_id":76561198119626492,"connected_time":4776000000000,"state":"active","ping":83},{"user_id":782,"name":"Attrition","steam_id":76561197969881916,"connected_time":2740000000000,"state":"active","ping":56},{"user_id":789,"name":"fungi","steam_id":76561198169755734,"connected_time":2246000000000,"state":"active","ping":61},{"user_id":771,"name":"NEBULA","steam_id":76561198086878595,"connected_time":3000000000000,"state":"active","ping":68},{"user_id":807,"name":"fragadelphia","steam_id":76561198066116363,"connected_time":305000000000,"state":"active","ping":45},{"user_id":794,"name":"rushy :))","steam_id":76561198065825165,"connected_time":1548000000000,"state":"active","ping":100},{"user_id":709,"name":"Spectre","steam_id":76561198037535169,"connected_time":7007000000000,"state":"active","ping":70},{"user_id":795,"name":"Gregg Rulz ok","steam_id":76561199027131213,"connected_time":1346000000000,"state":"active","ping":50},{"user_id":796,"name":"Smile","steam_id":76561198110008786,"connected_time":1345000000000,"state":"active","ping":56}]},{"server_id":119,"name":"Uncletopia | Seattle | 2 | All Maps","name_short":"sea-2","host":"sea-1.us.uncletopia.com","port":27025,"enabled":true,"region":"us-west","cc":"us","latitude":47.608013,"longitude":-122.33517,"reserved":0,"last_update":"0001-01-01T00:00:00Z","name_a2s":"Uncletopia | Seattle | 2 | All Maps","protocol":17,"map":"pl_badwater","folder":"tf","game":"Team Fortress","app_id":440,"player_count":24,"max_players":24,"Bots":0,"server_type":"Dedicated","server_os":"Linux","password":true,"vac":true,"version":"7961495","steam_id":85568392924469998,"keywords":["nocrits","nodmgspread","payload","uncletopia"],"game_id":440,"stv_port":27026,"stv_name":"Uncletopia | Seattle | 2 | All Maps | STV","players":[{"user_id":657,"name":"Fehr","steam_id":76561198037749723,"connected_time":982000000000,"state":"active","ping":75},{"user_id":665,"name":"Dragus","steam_id":76561198032967285,"connected_time":566000000000,"state":"active","ping":115},{"user_id":627,"name":"doopsies","steam_id":76561198083000867,"connected_time":3800000000000,"state":"active","ping":46},{"user_id":651,"name":"ashie","steam_id":76561198043990701,"connected_time":1923000000000,"state":"active","ping":34},{"user_id":668,"name":"G2 DamDam","steam_id":76561198173095997,"connected_time":284000000000,"state":"active","ping":104},{"user_id":616,"name":"tomandjerry085","steam_id":76561198800789071,"connected_time":4197000000000,"state":"active","ping":71},{"user_id":670,"name":"the meat man","steam_id":76561198037921140,"connected_time":165000000000,"state":"active","ping":68},{"user_id":653,"name":"ilun","steam_id":76561198042913843,"connected_time":1839000000000,"state":"active","ping":55},{"user_id":654,"name":"Mr. DeLarge","steam_id":76561198336820066,"connected_time":1686000000000,"state":"active","ping":50},{"user_id":605,"name":"wendigo","steam_id":76561197994528974,"connected_time":5664000000000,"state":"active","ping":87},{"user_id":642,"name":"Lili","steam_id":76561199488457138,"connected_time":2678000000000,"state":"active","ping":52},{"user_id":628,"name":"Batso","steam_id":76561198106589452,"connected_time":3788000000000,"state":"active","ping":74},{"user_id":669,"name":"sleepy‚äπ","steam_id":76561199200969139,"connected_time":212000000000,"state":"active","ping":130},{"user_id":648,"name":"Donny Q","steam_id":76561198020901703,"connected_time":2377000000000,"state":"active","ping":45},{"user_id":595,"name":"killer fish","steam_id":76561198858474714,"connected_time":6417000000000,"state":"active","ping":47},{"user_id":660,"name":"Wiggs is the Shiggs","steam_id":76561198078379719,"connected_time":812000000000,"state":"active","ping":90},{"user_id":659,"name":"Person Man","steam_id":76561198293857963,"connected_time":875000000000,"state":"active","ping":87},{"user_id":663,"name":"supcupman","steam_id":76561198051513866,"connected_time":593000000000,"state":"active","ping":65},{"user_id":656,"name":"Kn√∏ckd√∏lian","steam_id":76561198094063122,"connected_time":1160000000000,"state":"active","ping":74},{"user_id":636,"name":"almonds","steam_id":76561198809812979,"connected_time":2964000000000,"state":"active","ping":61},{"user_id":664,"name":"BreadGod","steam_id":76561198050665205,"connected_time":583000000000,"state":"active","ping":120},{"user_id":666,"name":"Context","steam_id":76561197972634187,"connected_time":562000000000,"state":"active","ping":57},{"user_id":672,"name":"rice white","steam_id":76561198320732910,"connected_time":107000000000,"state":"active","ping":122},{"user_id":662,"name":"sandman","steam_id":76561198144772540,"connected_time":766000000000,"state":"active","ping":116}]},{"server_id":406,"name":"Uncletopia | Seattle | 3 | Stopwatch","name_short":"sea-3","host":"sea-1.us.uncletopia.com","port":27035,"enabled":true,"region":"us-west","cc":"us","latitude":47.608013,"longitude":-122.33517,"reserved":0,"last_update":"0001-01-01T00:00:00Z","name_a2s":"Uncletopia | Seattle | 3 | Stopwatch","protocol":17,"map":"koth_lakeside_final","folder":"tf","game":"Team Fortress","app_id":440,"player_count":0,"max_players":24,"Bots":0,"server_type":"Dedicated","server_os":"Linux","password":true,"vac":true,"version":"7961495","steam_id":85568392924515217,"keywords":["cp","nocrits","nodmgspread","uncletopia"],"game_id":440,"stv_port":27036,"stv_name":"Uncletopia | Seattle | 3 | Stopwatch | STV","players":null},{"server_id":17,"name":"Uncletopia | San Francisco | 1 | All Maps","name_short":"sfo-1","host":"sfo-1.us.uncletopia.com","port":27015,"enabled":true,"region":"us-west","cc":"us","latitude":37.77397,"longitude":-122.4313,"reserved":0,"last_update":"0001-01-01T00:00:00Z","name_a2s":"Uncletopia | San Francisco | 1 | All Maps","protocol":17,"map":"pl_pier","folder":"tf","game":"Team Fortress","app_id":440,"player_count":23,"max_players":24,"Bots":0,"server_type":"Dedicated","server_os":"Linux","password":true,"vac":true,"version":"7961495","steam_id":85568392924469999,"keywords":["nocrits","nodmgspread","payload","uncletopia"],"game_id":440,"stv_port":27016,"stv_name":"Uncletopia | San Francisco | 1 | All Maps | STV","players":[{"user_id":171,"name":"nfseskimo","steam_id":76561198078745666,"connected_time":243000000000,"state":"active","ping":61},{"user_id":172,"name":"Gerbias","steam_id":76561198001002427,"connected_time":242000000000,"state":"active","ping":61},{"user_id":173,"name":"xnrogers","steam_id":76561198169718975,"connected_time":201000000000,"state":"active","ping":93},{"user_id":167,"name":"*sammich","steam_id":76561198119621232,"connected_time":1033000000000,"state":"active","ping":77},{"user_id":163,"name":"THE man is EPIC","steam_id":76561198085410777,"connected_time":1158000000000,"state":"active","ping":98},{"user_id":174,"name":"StrategicRNG","steam_id":76561198315105281,"connected_time":165000000000,"state":"active","ping":88},{"user_id":164,"name":"Many Bees' Chilling","steam_id":76561198079641282,"connected_time":1142000000000,"state":"active","ping":93},{"user_id":170,"name":"Theodore John Kaczynski","steam_id":76561199127590316,"connected_time":281000000000,"state":"active","ping":73},{"user_id":175,"name":"RectalExam","steam_id":76561197970502312,"connected_time":55000000000,"state":"active","ping":107},{"user_id":176,"name":"Tomoscones","steam_id":76561198813586588,"connected_time":49000000000,"state":"active","ping":64},{"user_id":166,"name":"Dickride Gaming","steam_id":76561198169915227,"connected_time":1114000000000,"state":"active","ping":53},{"user_id":146,"name":"Esue Ijae","steam_id":76561199268519057,"connected_time":2341000000000,"state":"active","ping":64},{"user_id":177,"name":"Kdash","steam_id":76561198043829155,"connected_time":41000000000,"state":"active","ping":98},{"user_id":139,"name":"El Gato Paranoico","steam_id":76561198116567116,"connected_time":2582000000000,"state":"active","ping":105},{"user_id":178,"name":"i need to see your balls","steam_id":76561198168492250,"connected_time":41000000000,"state":"active","ping":65},{"user_id":168,"name":"Do cOck","steam_id":76561198132755619,"connected_time":689000000000,"state":"active","ping":51},{"user_id":149,"name":"Do No Harm","steam_id":76561199264073138,"connected_time":2318000000000,"state":"active","ping":88},{"user_id":179,"name":"Quaalude","steam_id":76561198100177449,"connected_time":28000000000,"state":"spawning","ping":229},{"user_id":152,"name":"Skoad","steam_id":76561198104650528,"connected_time":2241000000000,"state":"active","ping":87},{"user_id":134,"name":"soccer2010","steam_id":76561198404271005,"connected_time":2782000000000,"state":"active","ping":60},{"user_id":151,"name":"Hydroxianchaos","steam_id":76561198043786828,"connected_time":2264000000000,"state":"active","ping":114},{"user_id":158,"name":"Fungal","steam_id":76561198078973439,"connected_time":1971000000000,"state":"active","ping":59},{"user_id":153,"name":"Defeat","steam_id":76561198065203818,"connected_time":2220000000000,"state":"active","ping":60}]},{"server_id":18,"name":"Uncletopia | San Francisco | 2 | All Maps","name_short":"sfo-2","host":"sfo-1.us.uncletopia.com","port":27025,"enabled":true,"region":"us-west","cc":"us","latitude":37.77397,"longitude":-122.4313,"reserved":0,"last_update":"0001-01-01T00:00:00Z","name_a2s":"Uncletopia | San Francisco | 2 | All Maps","protocol":17,"map":"pl_badwater","folder":"tf","game":"Team Fortress","app_id":440,"player_count":24,"max_players":24,"Bots":0,"server_type":"Dedicated","server_os":"Linux","password":true,"vac":true,"version":"7961495","steam_id":85568392924470000,"keywords":["nocrits","nodmgspread","payload","uncletopia"],"game_id":440,"stv_port":27026,"stv_name":"Uncletopia | San Francisco | 2 | All Maps | STV","players":[{"user_id":62,"name":"rebecca railer 2077","steam_id":76561198028569570,"connected_time":9621000000000,"state":"active","ping":121},{"user_id":81,"name":"Grand","steam_id":76561198290143399,"connected_time":6189000000000,"state":"active","ping":70},{"user_id":115,"name":"Buswolley","steam_id":76561197995205571,"connected_time":77000000000,"state":"active","ping":38},{"user_id":114,"name":"SolarusD","steam_id":76561198029279861,"connected_time":179000000000,"state":"active","ping":53},{"user_id":31,"name":"Tabby!!!!","steam_id":76561198018288153,"connected_time":10760000000000,"state":"active","ping":102},{"user_id":103,"name":"Joy in A Box","steam_id":76561198156820753,"connected_time":2522000000000,"state":"active","ping":185},{"user_id":95,"name":"ADMlN!!! he doin it sideways","steam_id":76561198085470745,"connected_time":2982000000000,"state":"active","ping":45},{"user_id":33,"name":"bf","steam_id":76561198026032347,"connected_time":10674000000000,"state":"active","ping":66},{"user_id":27,"name":"Lone Dancer","steam_id":76561199096241116,"connected_time":11132000000000,"state":"active","ping":120},{"user_id":109,"name":"Gugomo","steam_id":76561198121428316,"connected_time":1590000000000,"state":"active","ping":36},{"user_id":69,"name":"Sweets","steam_id":76561198998446307,"connected_time":8539000000000,"state":"active","ping":75},{"user_id":41,"name":"Vaccine Eater","steam_id":76561198026301425,"connected_time":10140000000000,"state":"active","ping":61},{"user_id":104,"name":"Eris","steam_id":76561198120775038,"connected_time":2500000000000,"state":"active","ping":64},{"user_id":73,"name":"slapgnuts","steam_id":76561198848874098,"connected_time":7409000000000,"state":"active","ping":104},{"user_id":105,"name":"perro","steam_id":76561199055667840,"connected_time":2457000000000,"state":"active","ping":119},{"user_id":93,"name":"Lambchop","steam_id":76561198043900363,"connected_time":3174000000000,"state":"active","ping":59},{"user_id":116,"name":"=^_^=","steam_id":76561199189127781,"connected_time":68000000000,"state":"active","ping":111},{"user_id":70,"name":"Gm_Sweet","steam_id":76561199445091548,"connected_time":8391000000000,"state":"active","ping":83},{"user_id":80,"name":"Lj3online","steam_id":76561198009960926,"connected_time":6661000000000,"state":"active","ping":71},{"user_id":111,"name":"Dapper","steam_id":76561198103189993,"connected_time":885000000000,"state":"active","ping":141},{"user_id":102,"name":"Throws Before BrosÛ†Ä°","steam_id":76561197992905530,"connected_time":2670000000000,"state":"active","ping":43},{"user_id":94,"name":"Igrium","steam_id":76561198119549811,"connected_time":2985000000000,"state":"active","ping":55},{"user_id":83,"name":"magocpotat","steam_id":76561198116136297,"connected_time":5821000000000,"state":"active","ping":87},{"user_id":64,"name":"Cheezbeargur","steam_id":76561198164702899,"connected_time":9066000000000,"state":"active","ping":45}]},{"server_id":19,"name":"Uncletopia | San Francisco | 3 | Stopwatch","name_short":"sfo-3","host":"sfo-1.us.uncletopia.com","port":27035,"enabled":true,"region":"us-west","cc":"us","latitude":37.77397,"longitude":-122.4313,"reserved":0,"last_update":"0001-01-01T00:00:00Z","name_a2s":"Uncletopia | San Francisco | 3 | Stopwatch","protocol":17,"map":"cp_sunshine","folder":"tf","game":"Team Fortress","app_id":440,"player_count":0,"max_players":24,"Bots":0,"server_type":"Dedicated","server_os":"Linux","password":true,"vac":true,"version":"7961495","steam_id":85568392924742824,"keywords":["cp","nocrits","nodmgspread","uncletopia"],"game_id":440,"stv_port":27036,"stv_name":"Uncletopia | San Francisco | 3 | Stopwatch | STV","players":null},{"server_id":20,"name":"Uncletopia | San Francisco | 4 | Community","name_short":"sfo-4","host":"sfo-1.us.uncletopia.com","port":27045,"enabled":true,"region":"us-west","cc":"us","latitude":37.77397,"longitude":-122.4313,"reserved":0,"last_update":"0001-01-01T00:00:00Z","name_a2s":"Uncletopia | San Francisco | 4 | Community","protocol":17,"map":"workshop/koth_trenchfoot_b1a.ugc731436616","folder":"tf","game":"Team Fortress","app_id":440,"player_count":0,"max_players":24,"Bots":0,"server_type":"Dedicated","server_os":"Linux","password":true,"vac":true,"version":"7961495","steam_id":85568392924742826,"keywords":["cp","nocrits","nodmgspread","uncletopia"],"game_id":440,"stv_port":27046,"stv_name":"Uncletopia | San Francisco | 4 | Community | STV","players":null},{"server_id":141,"name":"Uncletopia | Sydney | 1 | All Maps","name_short":"syd-1","host":"syd-1.au.uncletopia.com","port":27015,"enabled":true,"region":"au","cc":"au","latitude":-33.865143,"longitude":151.2099,"reserved":0,"last_update":"0001-01-01T00:00:00Z","name_a2s":"Uncletopia | Sydney | 1 | All Maps","protocol":17,"map":"pl_upward","folder":"tf","game":"Team Fortress","app_id":440,"player_count":24,"max_players":24,"Bots":0,"server_type":"Dedicated","server_os":"Linux","password":true,"vac":true,"version":"7961495","steam_id":85568392924470001,"keywords":["nocrits","nodmgspread","payload","uncletopia"],"game_id":440,"stv_port":27016,"stv_name":"Uncletopia | Sydney | 1 | All Maps | STV","players":[{"user_id":91,"name":"Milk Man","steam_id":76561198882677157,"connected_time":4198000000000,"state":"active","ping":84},{"user_id":118,"name":"using a laptop","steam_id":76561199445302425,"connected_time":806000000000,"state":"active","ping":151},{"user_id":122,"name":"goob","steam_id":76561199480479443,"connected_time":533000000000,"state":"active","ping":86},{"user_id":120,"name":"Exposkanila","steam_id":76561198072810722,"connected_time":576000000000,"state":"active","ping":58},{"user_id":129,"name":"Cap'n Swag","steam_id":76561198379918920,"connected_time":448000000000,"state":"active","ping":73},{"user_id":130,"name":"AceChillus","steam_id":76561198178119043,"connected_time":391000000000,"state":"active","ping":43},{"user_id":119,"name":"Selling Anti-Matter for $543","steam_id":76561198070708382,"connected_time":592000000000,"state":"active","ping":45},{"user_id":125,"name":"helton1 #NerfCrossbow","steam_id":76561198841855657,"connected_time":490000000000,"state":"active","ping":56},{"user_id":95,"name":"Wet Wizard","steam_id":76561198277879991,"connected_time":3803000000000,"state":"active","ping":49},{"user_id":116,"name":"Krypter","steam_id":76561197993331582,"connected_time":1160000000000,"state":"active","ping":62},{"user_id":132,"name":"Flat White","steam_id":76561198410190974,"connected_time":331000000000,"state":"active","ping":87},{"user_id":126,"name":"No Scrubs","steam_id":76561197969619053,"connected_time":479000000000,"state":"active","ping":74},{"user_id":131,"name":"sentry, buster","steam_id":76561198048064049,"connected_time":355000000000,"state":"active","ping":75},{"user_id":127,"name":"Fire_Dragon1","steam_id":76561198978045930,"connected_time":474000000000,"state":"active","ping":59},{"user_id":117,"name":"Your Local Karen Hunter","steam_id":76561199469410668,"connected_time":926000000000,"state":"active","ping":101},{"user_id":105,"name":"Ty","steam_id":76561198217211780,"connected_time":2095000000000,"state":"active","ping":55},{"user_id":75,"name":"Wuzzle (Trans rights)","steam_id":76561198009868777,"connected_time":5480000000000,"state":"active","ping":62},{"user_id":133,"name":"Judgement","steam_id":76561198165570322,"connected_time":93000000000,"state":"active","ping":39},{"user_id":134,"name":"berko","steam_id":76561198012286680,"connected_time":87000000000,"state":"active","ping":76},{"user_id":83,"name":"Reefo","steam_id":76561198161626796,"connected_time":5091000000000,"state":"active","ping":68},{"user_id":84,"name":"horrid webbon ·òõ‚ÅêÃ§·ïê·ê∑","steam_id":76561198061998379,"connected_time":5050000000000,"state":"active","ping":46},{"user_id":104,"name":"CheeseFlag126","steam_id":76561199262769917,"connected_time":2113000000000,"state":"active","ping":62},{"user_id":108,"name":"full of concrete","steam_id":76561198067978287,"connected_time":1755000000000,"state":"active","ping":95},{"user_id":94,"name":"Pompadouraus","steam_id":76561198327530525,"connected_time":3959000000000,"state":"active","ping":81}]},{"server_id":123,"name":"Uncletopia | Sydney | 2 | All Maps","name_short":"syd-2","host":"syd-1.au.uncletopia.com","port":27025,"enabled":true,"region":"au","cc":"au","latitude":-33.865143,"longitude":151.2099,"reserved":0,"last_update":"0001-01-01T00:00:00Z","name_a2s":"Uncletopia | Sydney | 2 | All Maps","protocol":17,"map":"koth_cascade","folder":"tf","game":"Team Fortress","app_id":440,"player_count":0,"max_players":24,"Bots":0,"server_type":"Dedicated","server_os":"Linux","password":true,"vac":true,"version":"7961495","steam_id":85568392924470002,"keywords":["cp","nocrits","nodmgspread","uncletopia"],"game_id":440,"stv_port":27026,"stv_name":"Uncletopia | Sydney | 2 | All Maps | STV","players":null},{"server_id":395,"name":"Uncletopia | Sydney | 3 | All Maps","name_short":"syd-3","host":"syd-1.au.uncletopia.com","port":27035,"enabled":true,"region":"au","cc":"au","latitude":-33.865143,"longitude":151.2099,"reserved":0,"last_update":"0001-01-01T00:00:00Z","name_a2s":"Uncletopia | Sydney | 3 | All Maps","protocol":17,"map":"pl_barnblitz","folder":"tf","game":"Team Fortress","app_id":440,"player_count":0,"max_players":24,"Bots":0,"server_type":"Dedicated","server_os":"Linux","password":true,"vac":true,"version":"7961495","steam_id":85568392925194467,"keywords":["nocrits","nodmgspread","payload","uncletopia"],"game_id":440,"stv_port":27036,"stv_name":"Uncletopia | Sydney | 3 | All Maps | STV","players":null},{"server_id":396,"name":"Uncletopia | Sydney | 4 | All Maps","name_short":"syd-4","host":"syd-1.au.uncletopia.com","port":27045,"enabled":true,"region":"au","cc":"au","latitude":-33.865143,"longitude":151.2099,"reserved":0,"last_update":"0001-01-01T00:00:00Z","name_a2s":"Uncletopia | Sydney | 4 | All Maps","protocol":17,"map":"pl_barnblitz","folder":"tf","game":"Team Fortress","app_id":440,"player_count":16,"max_players":24,"Bots":0,"server_type":"Dedicated","server_os":"Linux","password":true,"vac":true,"version":"7961495","steam_id":85568392925397958,"keywords":["nocrits","nodmgspread","payload","uncletopia"],"game_id":440,"stv_port":27046,"stv_name":"Uncletopia | Sydney | 4 | All Maps | STV","players":[{"user_id":172,"name":"sweeney","steam_id":76561198164574293,"connected_time":26000000000,"state":"active","ping":175},{"user_id":125,"name":"Dr Joe Rogan","steam_id":76561198249435392,"connected_time":3648000000000,"state":"active","ping":97},{"user_id":146,"name":"Mooty","steam_id":76561198301293435,"connected_time":2307000000000,"state":"active","ping":55},{"user_id":126,"name":"John Pork","steam_id":76561198291410614,"connected_time":3627000000000,"state":"active","ping":109},{"user_id":168,"name":"StevenGreenOnline64","steam_id":76561198058512735,"connected_time":389000000000,"state":"active","ping":54},{"user_id":122,"name":"Sentry Gun (EpicGuy4227)","steam_id":76561198094132328,"connected_time":3949000000000,"state":"active","ping":52},{"user_id":161,"name":"Cylinda","steam_id":76561198094041769,"connected_time":1118000000000,"state":"active","ping":45},{"user_id":170,"name":"Drunk David","steam_id":76561198118905640,"connected_time":164000000000,"state":"active","ping":66},{"user_id":171,"name":"–ö–æ–ª–æ—Ç—Å –±—É–¥–µ–º)","steam_id":76561199385431881,"connected_time":101000000000,"state":"active","ping":413},{"user_id":159,"name":"Fps","steam_id":76561198077651488,"connected_time":1331000000000,"state":"active","ping":41},{"user_id":85,"name":"diamond","steam_id":76561198206754736,"connected_time":6513000000000,"state":"active","ping":45},{"user_id":49,"name":"JP","steam_id":76561198026221737,"connected_time":8324000000000,"state":"active","ping":46},{"user_id":141,"name":"voxii","steam_id":76561198099698281,"connected_time":2583000000000,"state":"active","ping":72},{"user_id":153,"name":"Vaconcovat","steam_id":76561198024284041,"connected_time":2120000000000,"state":"active","ping":59},{"user_id":164,"name":"Jimmy \"Pre-Firing\" Wong the 5th","steam_id":76561198152485272,"connected_time":886000000000,"state":"active","ping":48},{"user_id":104,"name":"Ajtuay","steam_id":76561198221550108,"connected_time":5637000000000,"state":"active","ping":54}]},{"server_id":58,"name":"Uncletopia | Sydney | 5 | Stopwatch","name_short":"syd-5","host":"syd-1.au.uncletopia.com","port":27055,"enabled":true,"region":"au","cc":"au","latitude":-33.865143,"longitude":151.2099,"reserved":0,"last_update":"0001-01-01T00:00:00Z","name_a2s":"Uncletopia | Sydney | 5 | Stopwatch","protocol":17,"map":"workshop/pl_barnblitz_pro7.ugc582280235","folder":"tf","game":"Team Fortress","app_id":440,"player_count":0,"max_players":24,"Bots":0,"server_type":"Dedicated","server_os":"Linux","password":true,"vac":true,"version":"7961495","steam_id":85568392925397959,"keywords":["nocrits","nodmgspread","payload","uncletopia"],"game_id":440,"stv_port":27056,"stv_name":"Uncletopia | Sydney | 5 | Stopwatch | STV","players":null},{"server_id":59,"name":"Uncletopia | Sydney | 6 | Community","name_short":"syd-6","host":"syd-1.au.uncletopia.com","port":27065,"enabled":true,"region":"au","cc":"au","latitude":-33.865143,"longitude":151.2099,"reserved":0,"last_update":"0001-01-01T00:00:00Z","name_a2s":"Uncletopia | Sydney | 6 | Community","protocol":17,"map":"workshop/pl_fifthcurve_rc1.ugc648227046","folder":"tf","game":"Team Fortress","app_id":440,"player_count":0,"max_players":24,"Bots":0,"server_type":"Dedicated","server_os":"Linux","password":true,"vac":true,"version":"7961495","steam_id":85568392925397960,"keywords":["nocrits","nodmgspread","payload","uncletopia"],"game_id":440,"stv_port":27066,"stv_name":"Uncletopia | Sydney | 6 | Community | STV","players":null},{"server_id":49,"name":"Uncletopia | Warsaw | 1 | One Thousand Uncles","name_short":"waw-1","host":"waw-1.pl.uncletopia.com","port":27015,"enabled":true,"region":"eu","cc":"pl","latitude":52.2297,"longitude":21.017532,"reserved":0,"last_update":"0001-01-01T00:00:00Z","name_a2s":"Uncletopia | Warsaw | 1 | One Thousand Uncles","protocol":17,"map":"pl_thundermountain","folder":"tf","game":"Team Fortress","app_id":440,"player_count":24,"max_players":32,"Bots":16,"server_type":"Dedicated","server_os":"Linux","password":true,"vac":true,"version":"7961495","steam_id":85568392925397850,"keywords":["alltalk","bots","danepve","increased_maxplayers","nocrits","norespawntime","payload","uncletopia"],"game_id":440,"stv_port":0,"stv_name":"","players":[{"user_id":21,"name":"zer0_file000","steam_id":76561199437677522,"connected_time":6275000000000,"state":"active","ping":921},{"user_id":20,"name":"Noam","steam_id":76561198057789807,"connected_time":7530000000000,"state":"active","ping":115},{"user_id":39,"name":"tyroksi :D","steam_id":76561198103875245,"connected_time":5470000000000,"state":"active","ping":100},{"user_id":44,"name":"Holttem","steam_id":76561198055365769,"connected_time":2040000000000,"state":"active","ping":85},{"user_id":42,"name":"VileEvilLevi","steam_id":76561199226291414,"connected_time":2958000000000,"state":"active","ping":208},{"user_id":52,"name":"Melnik","steam_id":76561199499800287,"connected_time":26000000000,"state":"spawning","ping":74},{"user_id":47,"name":"ikcikoR","steam_id":76561198208906749,"connected_time":1768000000000,"state":"active","ping":43},{"user_id":50,"name":"TPScout","steam_id":76561198353808504,"connected_time":531000000000,"state":"active","ping":164}]},{"server_id":50,"name":"Uncletopia | Warsaw | 2 | One Thousand Uncles","name_short":"waw-2","host":"waw-1.pl.uncletopia.com","port":27025,"enabled":true,"region":"eu","cc":"pl","latitude":52.2297,"longitude":21.017532,"reserved":0,"last_update":"0001-01-01T00:00:00Z","name_a2s":"Uncletopia | Warsaw | 2 | One Thousand Uncles","protocol":17,"map":"pl_goldrush","folder":"tf","game":"Team Fortress","app_id":440,"player_count":0,"max_players":32,"Bots":0,"server_type":"Dedicated","server_os":"Linux","password":true,"vac":true,"version":"7961495","steam_id":85568392925397851,"keywords":["alltalk","danepve","increased_maxplayers","nocrits","norespawntime","payload","uncletopia"],"game_id":440,"stv_port":0,"stv_name":"","players":null},{"server_id":51,"name":"Uncletopia | Warsaw | 3 | All Maps","name_short":"waw-3","host":"waw-1.pl.uncletopia.com","port":27035,"enabled":true,"region":"eu","cc":"pl","latitude":52.2297,"longitude":21.017532,"reserved":0,"last_update":"0001-01-01T00:00:00Z","name_a2s":"Uncletopia | Warsaw | 3 | All Maps","protocol":17,"map":"plr_pipeline","folder":"tf","game":"Team Fortress","app_id":440,"player_count":0,"max_players":24,"Bots":0,"server_type":"Dedicated","server_os":"Linux","password":true,"vac":true,"version":"7961495","steam_id":85568392925397852,"keywords":["nocrits","nodmgspread","payload","uncletopia"],"game_id":440,"stv_port":27036,"stv_name":"Uncletopia | Warsaw | 3 | All Maps | STV","players":null},{"server_id":52,"name":"Uncletopia | Warsaw | 4 | All Maps","name_short":"waw-4","host":"waw-1.pl.uncletopia.com","port":27045,"enabled":true,"region":"eu","cc":"pl","latitude":52.2297,"longitude":21.017532,"reserved":0,"last_update":"0001-01-01T00:00:00Z","name_a2s":"Uncletopia | Warsaw | 4 | All Maps","protocol":17,"map":"cp_coldfront","folder":"tf","game":"Team Fortress","app_id":440,"player_count":0,"max_players":24,"Bots":0,"server_type":"Dedicated","server_os":"Linux","password":true,"vac":true,"version":"7961495","steam_id":85568392925397853,"keywords":["cp","nocrits","nodmgspread","uncletopia"],"game_id":440,"stv_port":27046,"stv_name":"Uncletopia | Warsaw | 4 | All Maps | STV","players":null},{"server_id":53,"name":"Uncletopia | Warsaw | 5 | Stopwatch","name_short":"waw-5","host":"waw-1.pl.uncletopia.com","port":27055,"enabled":true,"region":"eu","cc":"pl","latitude":52.2297,"longitude":21.017532,"reserved":0,"last_update":"0001-01-01T00:00:00Z","name_a2s":"Uncletopia | Warsaw | 5 | Stopwatch","protocol":17,"map":"workshop/koth_bagel_rc6.ugc2514036946","folder":"tf","game":"Team Fortress","app_id":440,"player_count":0,"max_players":24,"Bots":0,"server_type":"Dedicated","server_os":"Linux","password":true,"vac":true,"version":"7961495","steam_id":85568392925397854,"keywords":["cp","nocrits","nodmgspread","uncletopia"],"game_id":440,"stv_port":27056,"stv_name":"Uncletopia | Warsaw | 5 | Stopwatch | STV","players":null},{"server_id":54,"name":"Uncletopia | Warsaw | 6 | Community","name_short":"waw-6","host":"waw-1.pl.uncletopia.com","port":27065,"enabled":true,"region":"eu","cc":"pl","latitude":52.2297,"longitude":21.017532,"reserved":0,"last_update":"0001-01-01T00:00:00Z","name_a2s":"Uncletopia | Warsaw | 6 | Community","protocol":17,"map":"workshop/pl_badwater_pro_v12.ugc2142942074","folder":"tf","game":"Team Fortress","app_id":440,"player_count":1,"max_players":24,"Bots":0,"server_type":"Dedicated","server_os":"Linux","password":true,"vac":true,"version":"7961495","steam_id":85568392925397856,"keywords":["nocrits","nodmgspread","payload","uncletopia"],"game_id":440,"stv_port":27066,"stv_name":"Uncletopia | Warsaw | 6 | Community | STV","players":[{"user_id":3,"name":"spy gaming","steam_id":76561199466225157,"connected_time":107000000000,"state":"active","ping":42}]}]}