{"status":true,"message":"","result":[{"server_id":9,"name":"Uncletopia | Atlanta | 1 | All Maps","name_short":"atl-1","host":"atl-1.us.uncletopia.com","port":27015,"enabled":true,"region":"us-east","cc":"us","latitude":33.753746,"longitude":-84.38633,"reserved":0,"last_update":"0001-01-01T00:00:00Z","name_a2s":"Uncletopia | Atlanta | 1 | All Maps","protocol":17,"map":"pl_barnblitz","folder":"tf","game":"Team Fortress","app_id":440,"player_count":23,"max_players":24,"Bots":0,"server_type":"Dedicated","server_os":"Linux","password":true,"vac":true,"version":"7961495","steam_id":85568392924469982,"keywords":["nocrits","nodmgspread","payload","uncletopia"],"game_id":440,"stv_port":27016,"stv_name":"Uncletopia | Atlanta | 1 | All Maps | STV","players":[{"user_id":708,"name":"| tanuki","steam_id":76561198050934893,"connected_time":421000000000,"state":"active","ping":144},{"user_id":709,"name":"펨보이","steam_id":76561199468748840,"connected_time":408000000000,"state":"active","ping":65},{"user_id":707,"name":"Xyverle","steam_id":76561198799726415,"connected_time":491000000000,"state":"active","ping":81},{"user_id":696,"name":"ΣlectrσWingPixy","steam_id":76561198118670424,"connected_time":1177000000000,"state":"active","ping":69},{"user_id":687,"name":"Matthew Phong","steam_id":76561198143132686,"connected_time":2203000000000,"state":"active","ping":90},{"user_id":710,"name":"Weehawky TF2NeedsMoreCowbell","steam_id":76561198012833523,"connected_time":375000000000,"state":"active","ping":95},{"user_id":698,"name":"juanjoesc","steam_id":76561198186368430,"connected_time":1091000000000,"state":"active","ping":115},{"user_id":711,"name":"Lumberjane37 (She/Her)","steam_id":76561198014841793,"connected_time":315000000000,"state":"active","ping":108},{"user_id":700,"name":"Klitz Penischmidt","steam_id":76561198050582941,"connected_time":977000000000,"state":"active","ping":80},{"user_id":666,"name":"Colossal Falafel","steam_id":76561198108086245,"connected_time":2927000000000,"state":"active","ping":70},{"user_id":640,"name":"Ludcmorais","steam_id":76561198359217809,"connected_time":4692000000000,"state":"active","ping":178},{"user_id":712,"name":"CORVO","steam_id":76561199320547010,"connected_time":238000000000,"state":"active","ping":194},{"user_id":713,"name":"Dragoninventor (He/Him)","steam_id":76561198956224948,"connected_time":229000000000,"state":"active","ping":87},{"user_id":692,"name":"Tybg123","steam_id":76561198084422657,"connected_time":1805000000000,"state":"active","ping":100},{"user_id":714,"name":"dzcreeper","steam_id":76561198072250723,"connected_time":211000000000,"state":"active","ping":114},{"user_id":715,"name":"Living_Kamikaze","steam_id":76561198147522181,"connected_time":206000000000,"state":"active","ping":74},{"user_id":717,"name":"Female Gamer","steam_id":76561199366482682,"connected_time":190000000000,"state":"active","ping":126},{"user_id":684,"name":"Kyle Kushman","steam_id":76561199257008060,"connected_time":2404000000000,"state":"active","ping":89},{"user_id":718,"name":"i like bread","steam_id":76561199125254487,"connected_time":48000000000,"state":"active","ping":186},{"user_id":686,"name":"*Gage*","steam_id":76561197975233869,"connected_time":2309000000000,"state":"active","ping":86},{"user_id":719,"name":"Starseeing Oracle","steam_id":76561198097720124,"connected_time":32000000000,"state":"active","ping":163},{"user_id":705,"name":"Dr.Coomer PH.D","steam_id":76561198144558937,"connected_time":747000000000,"state":"active","ping":92},{"user_id":691,"name":"He rolls his own","steam_id":76561198058162684,"connected_time":1922000000000,"state":"active","ping":81}]},{"server_id":104,"name":"Uncletopia | Atlanta | 2 | All Maps","name_short":"atl-2","host":"atl-1.us.uncletopia.com","port":27025,"enabled":true,"region":"us-east","cc":"us","latitude":33.753746,"longitude":-84.38633,"reserved":0,"last_update":"0001-01-01T00:00:00Z","name_a2s":"Uncletopia | Atlanta | 2 | All Maps","protocol":17,"map":"cp_dustbowl","folder":"tf","game":"Team Fortress","app_id":440,"player_count":0,"max_players":24,"Bots":0,"server_type":"Dedicated","server_os":"Linux","password":true,"vac":true,"version":"7961495","steam_id":85568392924469983,"keywords":["cp","nocrits","nodmgspread","uncletopia"],"game_id":440,"stv_port":27026,"stv_name":"Uncletopia | Atlanta | 2 | All Maps | STV","players":null},{"server_id":400,"name":"Uncletopia | Atlanta | 3 | Stopwatch","name_short":"atl-3","host":"atl-1.us.uncletopia.com","port":27035,"enabled":true,"region":"us-east","cc":"us","latitude":33.753746,"longitude":-84.38633,"reserved":0,"last_update":"0001-01-01T00:00:00Z","name_a2s":"Uncletopia | Atlanta | 3 | Stopwatch","protocol":17,"map":"cp_process_final","folder":"tf","game":"Team Fortress","app_id":440,"player_count":0,"max_players":24,"Bots":0,"server_type":"Dedicated","server_os":"Linux","password":true,"vac":true,"version":"7961495","steam_id":85568392924515187,"keywords":["cp","nocrits","nodmgspread","uncletopia"],"game_id":440,"stv_port":27036,"stv_name":"Uncletopia | Atlanta | 3 | Stopwatch | STV","players":null},{"server_id":401,"name":"Uncletopia | Atlanta | 4 | Community","name_short":"atl-4","host":"atl-1.us.uncletopia.com","port":27045,"enabled":true,"region":"us-east","cc":"us","latitude":33.753746,"longitude":-84.38633,"reserved":0,"last_update":"0001-01-01T00:00:00Z","name_a2s":"Uncletopia | Atlanta | 4 | Community","protocol":17,"map":"workshop/koth_product_final.ugc454272353","folder":"tf","game":"Team Fortress","app_id":440,"player_count":0,"max_players":24,"Bots":0,"server_type":"Dedicated","server_os":"Linux","password":true,"vac":true,"version":"7961495","steam_id":85568392924515188,"keywords":["cp","nocrits","nodmgspread","uncletopia"],"game_id":440,"stv_port":27046,"stv_name":"Uncletopia | Atlanta | 4 | Community | STV","players":null},{"server_id":2,"name":"Uncletopia | Chicago | 1 | All Maps","name_short":"chi-1","host":"chi-1.us.uncletopia.com","port":27015,"enabled":true,"region":"us-central","cc":"us","latitude":41.881832,"longitude":-87.62318,"reserved":0,"last_update":"0001-01-01T00:00:00Z","name_a2s":"Uncletopia | Chicago | 1 | All Maps","protocol":17,"map":"koth_viaduct","folder":"tf","game":"Team Fortress","app_id":440,"player_count":0,"max_players":24,"Bots":0,"server_type":"Dedicated","server_os":"Linux","password":true,"vac":true,"version":"7961495","steam_id":85568392924469984,"keywords":["cp","nocrits","nodmgspread","uncletopia"],"game_id":440,"stv_port":27016,"stv_name":"Uncletopia | Chicago | 1 | All Maps | STV","players":null},{"server_id":106,"name":"Uncletopia | Chicago | 2 | All Maps","name_short":"chi-2","host":"chi-1.us.uncletopia.com","port":27025,"enabled":true,"region":"us-central","cc":"us","latitude":41.881832,"longitude":-87.62318,"reserved":0,"last_update":"0001-01-01T00:00:00Z","name_a2s":"Uncletopia | Chicago | 2 | All Maps","protocol":17,"map":"cp_dustbowl","folder":"tf","game":"Team Fortress","app_id":440,"player_count":23,"max_players":24,"Bots":0,"server_type":"Dedicated","server_os":"Linux","password":true,"vac":true,"version":"7961495","steam_id":85568392924469985,"keywords":["cp","nocrits","nodmgspread","uncletopia"],"game_id":440,"stv_port":27026,"stv_name":"Uncletopia | Chicago | 2 | All Maps | STV","players":[{"user_id":705,"name":"Yongle","steam_id":76561198068591156,"connected_time":411000000000,"state":"active","ping":50},{"user_id":698,"name":"BunnyBlitz","steam_id":76561198165881112,"connected_time":1048000000000,"state":"active","ping":87},{"user_id":685,"name":"robe","steam_id":76561198238166694,"connected_time":1687000000000,"state":"active","ping":51},{"user_id":649,"name":"skaska4","steam_id":76561198080606141,"connected_time":5559000000000,"state":"active","ping":82},{"user_id":695,"name":"r0la","steam_id":76561198128315340,"connected_time":1276000000000,"state":"active","ping":165},{"user_id":683,"name":"Unable to Aim","steam_id":76561198268826049,"connected_time":1816000000000,"state":"active","ping":47},{"user_id":622,"name":"A Walnut #BUFFTHESPEED","steam_id":76561198136655837,"connected_time":7632000000000,"state":"active","ping":119},{"user_id":707,"name":"Mank","steam_id":76561198189421005,"connected_time":322000000000,"state":"active","ping":49},{"user_id":691,"name":"Gay Cake","steam_id":76561198004388831,"connected_time":1405000000000,"state":"active","ping":66},{"user_id":714,"name":"Dzhoshua","steam_id":76561198071915251,"connected_time":141000000000,"state":"active","ping":63},{"user_id":702,"name":"Always Here for You","steam_id":76561198219252313,"connected_time":566000000000,"state":"active","ping":63},{"user_id":703,"name":"Ask Nicely For Heals","steam_id":76561198138478907,"connected_time":558000000000,"state":"active","ping":91},{"user_id":688,"name":"Shortbane","steam_id":76561198247166584,"connected_time":1569000000000,"state":"active","ping":78},{"user_id":668,"name":"Nalga","steam_id":76561198371792699,"connected_time":3370000000000,"state":"active","ping":94},{"user_id":700,"name":"rat 2","steam_id":76561198197297414,"connected_time":961000000000,"state":"active","ping":36},{"user_id":709,"name":"scrapheap","steam_id":76561198202407087,"connected_time":288000000000,"state":"active","ping":80},{"user_id":692,"name":"Holiday Fartcruise","steam_id":76561198043851584,"connected_time":1394000000000,"state":"active","ping":117},{"user_id":715,"name":"on that zaza?","steam_id":76561198038713198,"connected_time":68000000000,"state":"active","ping":66},{"user_id":697,"name":"Quack","steam_id":76561199086339263,"connected_time":1240000000000,"state":"active","ping":91},{"user_id":627,"name":"Castroy","steam_id":76561198108160099,"connected_time":7530000000000,"state":"active","ping":46},{"user_id":669,"name":"Phillips 66","steam_id":76561198026875868,"connected_time":3362000000000,"state":"active","ping":54},{"user_id":712,"name":"Node⋄","steam_id":76561198219359475,"connected_time":276000000000,"state":"active","ping":79},{"user_id":676,"name":"baedeker","steam_id":76561199081837220,"connected_time":2453000000000,"state":"active","ping":67}]},{"server_id":402,"name":"Uncletopia | Chicago | 3 | All Maps","name_short":"chi-3","host":"chi-1.us.uncletopia.com","port":27035,"enabled":true,"region":"us-central","cc":"us","latitude":41.881832,"longitude":-87.62318,"reserved":0,"last_update":"0001-01-01T00:00:00Z","name_a2s":"Uncletopia | Chicago | 3 | All Maps","protocol":17,"map":"koth_cascade","folder":"tf","game":"Team Fortress","app_id":440,"player_count":0,"max_players":24,"Bots":0,"server_type":"Dedicated","server_os":"Linux","password":true,"vac":true,"version":"7961495","steam_id":85568392924515191,"keywords":["cp","nocrits","nodmgspread","uncletopia"],"game_id":440,"stv_port":27036,"stv_name":"Uncletopia | Chicago | 3 | All Maps | STV","players":null},{"server_id":403,"name":"Uncletopia | Chicago | 4 | All Maps","name_short":"chi-4","host":"chi-1.us.uncletopia.com","port":27045,"enabled":true,"region":"us-central","cc":"us","latitude":41.881832,"longitude":-87.62318,"reserved":0,"last_update":"0001-01-01T00:00:00Z","name_a2s":"Uncletopia | Chicago | 4 | All Maps","protocol":17,"map":"pl_barnblitz","folder":"tf","game":"Team Fortress","app_id":440,"player_count":0,"max_players":24,"Bots":0,"server_type":"Dedicated","server_os":"Linux","password":true,"vac":true,"version":"7961495","steam_id":85568392924515193,"keywords":["nocrits","nodmgspread","payload","uncletopia"],"game_id":440,"stv_port":27046,"stv_name":"Uncletopia | Chicago | 4 | All Maps | STV","players":null},{"server_id":36,"name":"Uncletopia | Chicago | 5 | All Maps","name_short":"chi-5","host":"chi-2.us.uncletopia.com","port":27015,"enabled":true,"region":"us-central","cc":"us","latitude":41.881832,"longitude":-87.62318,"reserved":0,"last_update":"0001-01-01T00:00:00Z","name_a2s":"Uncletopia | Chicago | 5 | All Maps","protocol":17,"map":"cp_snakewater_final1","folder":"tf","game":"Team Fortress","app_id":440,"player_count":6,"max_players":24,"Bots":0,"server_type":"Dedicated","server_os":"Linux","password":true,"vac":true,"version":"7961495","steam_id":85568392924866362,"keywords":["cp","nocrits","nodmgspread","uncletopia"],"game_id":440,"stv_port":27016,"stv_name":"Uncletopia | Chicago | 5 | All Maps | STV","players":[{"user_id":782,"name":"Kamin","steam_id":76561198255299559,"connected_time":232000000000,"state":"active","ping":77},{"user_id":783,"name":"Amari","steam_id":76561198272446730,"connected_time":19000000000,"state":"active","ping":77},{"user_id":737,"name":"AzzAzzINMAzTER","steam_id":76561198274750661,"connected_time":4262000000000,"state":"active","ping":57},{"user_id":732,"name":"Give Me Your Huo-Longs","steam_id":76561198255619557,"connected_time":4373000000000,"state":"active","ping":44},{"user_id":769,"name":"poggerchamp","steam_id":76561199145124973,"connected_time":1361000000000,"state":"active","ping":74},{"user_id":757,"name":"The Edumacator","steam_id":76561198347157125,"connected_time":2338000000000,"state":"active","ping":140}]},{"server_id":37,"name":"Uncletopia | Chicago | 6 | All Maps","name_short":"chi-6","host":"chi-2.us.uncletopia.com","port":27025,"enabled":true,"region":"us-central","cc":"us","latitude":41.881832,"longitude":-87.62318,"reserved":0,"last_update":"0001-01-01T00:00:00Z","name_a2s":"Uncletopia | Chicago | 6 | All Maps","protocol":17,"map":"pl_borneo","folder":"tf","game":"Team Fortress","app_id":440,"player_count":22,"max_players":24,"Bots":0,"server_type":"Dedicated","server_os":"Linux","password":true,"vac":true,"version":"7961495","steam_id":85568392924866363,"keywords":["nocrits","nodmgspread","payload","uncletopia"],"game_id":440,"stv_port":27026,"stv_name":"Uncletopia | Chicago | 6 | All Maps | STV","players":[{"user_id":556,"name":"veno","steam_id":76561198110261781,"connected_time":97000000000,"state":"active","ping":74},{"user_id":411,"name":"Mufalito","steam_id":76561198951889482,"connected_time":11603000000000,"state":"active","ping":136},{"user_id":476,"name":"The Professor","steam_id":76561198113760863,"connected_time":6203000000000,"state":"active","ping":58},{"user_id":541,"name":"Watt","steam_id":76561198083798206,"connected_time":760000000000,"state":"active","ping":138},{"user_id":555,"name":"daemon","steam_id":76561198001541433,"connected_time":210000000000,"state":"active","ping":76},{"user_id":517,"name":"Geodude","steam_id":76561198113364714,"connected_time":3178000000000,"state":"active","ping":60},{"user_id":481,"name":"meowfang","steam_id":76561198123056791,"connected_time":5719000000000,"state":"active","ping":64},{"user_id":542,"name":"Coolstuff","steam_id":76561198178350213,"connected_time":715000000000,"state":"active","ping":58},{"user_id":557,"name":"Carlos from Baja California","steam_id":76561198273738828,"connected_time":42000000000,"state":"active","ping":124},{"user_id":529,"name":"coda","steam_id":76561198092052685,"connected_time":1633000000000,"state":"active","ping":60},{"user_id":544,"name":"Julian","steam_id":76561198975824400,"connected_time":675000000000,"state":"active","ping":37},{"user_id":545,"name":"Toskasha|ttv","steam_id":76561198044647017,"connected_time":650000000000,"state":"active","ping":101},{"user_id":522,"name":"hittign dabong","steam_id":76561198097588802,"connected_time":3051000000000,"state":"active","ping":47},{"user_id":511,"name":"Nestor","steam_id":76561198070782619,"connected_time":3379000000000,"state":"active","ping":70},{"user_id":554,"name":"Hazeyboi","steam_id":76561198130687838,"connected_time":267000000000,"state":"active","ping":48},{"user_id":546,"name":"the meat man","steam_id":76561198037921140,"connected_time":558000000000,"state":"active","ping":95},{"user_id":527,"name":"turtle","steam_id":76561198112673874,"connected_time":1705000000000,"state":"active","ping":107},{"user_id":552,"name":"Yeti","steam_id":76561198176049478,"connected_time":321000000000,"state":"active","ping":83},{"user_id":380,"name":"zpalmtree","steam_id":76561198134307620,"connected_time":14335000000000,"state":"active","ping":85},{"user_id":550,"name":"Biscipline","steam_id":76561198019206178,"connected_time":422000000000,"state":"active","ping":75},{"user_id":521,"name":"zod","steam_id":76561198071374501,"connected_time":3128000000000,"state":"active","ping":60},{"user_id":537,"name":"Orange","steam_id":76561198046966962,"connected_time":1114000000000,"state":"active","ping":69}]},{"server_id":38,"name":"Uncletopia | Chicago | 7 | Stopwatch","name_short":"chi-7","host":"chi-2.us.uncletopia.com","port":27035,"enabled":true,"region":"us-central","cc":"us","latitude":41.881832,"longitude":-87.62318,"reserved":0,"last_update":"0001-01-01T00:00:00Z","name_a2s":"Uncletopia | Chicago | 7 | Stopwatch","protocol":17,"map":"workshop/pl_summercoast_rc8e.ugc1761528829","folder":"tf","game":"Team Fortress","app_id":440,"player_count":0,"max_players":24,"Bots":0,"server_type":"Dedicated","server_os":"Linux","password":true,"vac":true,"version":"7961495","steam_id":85568392924866364,"keywords":["nocrits","nodmgspread","payload","uncletopia"],"game_id":440,"stv_port":27036,"stv_name":"Uncletopia | Chicago | 7 | Stopwatch | STV","players":null},{"server_id":39,"name":"Uncletopia | Chicago | 8 | Community","name_short":"chi-8","host":"chi-2.us.uncletopia.com","port":27045,"enabled":true,"region":"us-central","cc":"us","latitude":41.881832,"longitude":-87.62318,"reserved":0,"last_update":"0001-01-01T00:00:00Z","name_a2s":"Uncletopia | Chicago | 8 | Community","protocol":17,"map":"pl_pier","folder":"tf","game":"Team Fortress","app_id":440,"player_count":0,"max_players":24,"Bots":0,"server_type":"Dedicated","server_os":"Linux","password":true,"vac":true,"version":"7961495","steam_id":85568392924866365,"keywords":["nocrits","nodmgspread","payload","uncletopia"],"game_id":440,"stv_port":27046,"stv_name":"Uncletopia | Chicago | 8 | Community | STV","players":null},{"server_id":8,"name":"Uncletopia | Dallas | 1 | All Maps","name_short":"dal-1","host":"dal-1.us.uncletopia.com","port":27015,"enabled":true,"region":"us-central","cc":"us","latitude":32.779167,"longitude":-96.80889,"reserved":0,"last_update":"0001-01-01T00:00:00Z","name_a2s":"Uncletopia | Dallas | 1 | All Maps","protocol":17,"map":"pl_swiftwater_final1","folder":"tf","game":"Team Fortress","app_id":440,"player_count":17,"max_players":24,"Bots":0,"server_type":"Dedicated","server_os":"Linux","password":true,"vac":true,"version":"7961495","steam_id":85568392924469986,"keywords":["nocrits","nodmgspread","payload","uncletopia"],"game_id":440,"stv_port":27016,"stv_name":"Uncletopia | Dallas | 1 | All Maps | STV","players":[{"user_id":987,"name":"dobo","steam_id":76561197998785704,"connected_time":162000000000,"state":"active","ping":83},{"user_id":917,"name":"flame","steam_id":76561198079321914,"connected_time":4368000000000,"state":"active","ping":96},{"user_id":957,"name":"SaaxoM","steam_id":76561198208256603,"connected_time":1594000000000,"state":"active","ping":78},{"user_id":985,"name":"kuani","steam_id":76561199061380038,"connected_time":191000000000,"state":"active","ping":71},{"user_id":925,"name":"Monte","steam_id":76561198097499917,"connected_time":4286000000000,"state":"active","ping":60},{"user_id":952,"name":"BARON VON FLUFF AND STUFF","steam_id":76561198036325020,"connected_time":2074000000000,"state":"active","ping":74},{"user_id":979,"name":"FlamingWolf","steam_id":76561199017291229,"connected_time":645000000000,"state":"active","ping":55},{"user_id":970,"name":"whorgampus","steam_id":76561198043610132,"connected_time":994000000000,"state":"active","ping":75},{"user_id":971,"name":"Engideer","steam_id":76561198145733164,"connected_time":984000000000,"state":"active","ping":41},{"user_id":972,"name":"Noisgamer02","steam_id":76561198129665722,"connected_time":909000000000,"state":"active","ping":67},{"user_id":976,"name":"Scoops M'Gooch","steam_id":76561198048423812,"connected_time":749000000000,"state":"active","ping":89},{"user_id":935,"name":"rexelfhcir","steam_id":76561199018207049,"connected_time":3541000000000,"state":"active","ping":69},{"user_id":959,"name":"TEAM FORTRESS 2","steam_id":76561198819943354,"connected_time":1353000000000,"state":"active","ping":49},{"user_id":977,"name":"Random","steam_id":76561198318879454,"connected_time":744000000000,"state":"active","ping":77},{"user_id":988,"name":"Kirbothebrony","steam_id":76561198971911330,"connected_time":147000000000,"state":"active","ping":65},{"user_id":941,"name":"Camper","steam_id":76561198972004586,"connected_time":2769000000000,"state":"active","ping":74},{"user_id":983,"name":"Meepster","steam_id":76561198146305159,"connected_time":420000000000,"state":"active","ping":88}]},{"server_id":108,"name":"Uncletopia | Dallas | 2 | All Maps","name_short":"dal-2","host":"dal-1.us.uncletopia.com","port":27025,"enabled":true,"region":"us-central","cc":"us","latitude":32.779167,"longitude":-96.80889,"reserved":0,"last_update":"0001-01-01T00:00:00Z","name_a2s":"Uncletopia | Dallas | 2 | All Maps","protocol":17,"map":"cp_dustbowl","folder":"tf","game":"Team Fortress","app_id":440,"player_count":18,"max_players":24,"Bots":0,"server_type":"Dedicated","server_os":"Linux","password":true,"vac":true,"version":"7961495","steam_id":85568392924469988,"keywords":["cp","nocrits","nodmgspread","uncletopia"],"game_id":440,"stv_port":27026,"stv_name":"Uncletopia | Dallas | 2 | All Maps | STV","players":[{"user_id":458,"name":"samuraiso4","steam_id":76561199068623664,"connected_time":1091000000000,"state":"active","ping":100},{"user_id":459,"name":"percy","steam_id":76561198301623717,"connected_time":341000000000,"state":"active","ping":78},{"user_id":460,"name":"Bill Clinton's alter ego","steam_id":76561198803785984,"connected_time":261000000000,"state":"active","ping":46},{"user_id":450,"name":"dobby","steam_id":76561198012274834,"connected_time":2202000000000,"state":"active","ping":69},{"user_id":403,"name":"motherfucker 2.0","steam_id":76561198141189209,"connected_time":6345000000000,"state":"active","ping":40},{"user_id":432,"name":"Koffy","steam_id":76561198184386039,"connected_time":3999000000000,"state":"active","ping":66},{"user_id":440,"name":"raw.niuroumian lft","steam_id":76561198033033884,"connected_time":3262000000000,"state":"active","ping":88},{"user_id":461,"name":"Vorpas Jabwak","steam_id":76561198112186064,"connected_time":130000000000,"state":"active","ping":72},{"user_id":441,"name":"Woozy","steam_id":76561198008220735,"connected_time":3250000000000,"state":"active","ping":64},{"user_id":434,"name":"Titar Industries","steam_id":76561198143078476,"connected_time":3674000000000,"state":"active","ping":90},{"user_id":416,"name":"Smug","steam_id":76561198448205229,"connected_time":5434000000000,"state":"active","ping":72},{"user_id":428,"name":"Randle of John","steam_id":76561198328210524,"connected_time":4637000000000,"state":"active","ping":90},{"user_id":435,"name":"b7","steam_id":76561197987243470,"connected_time":3662000000000,"state":"active","ping":71},{"user_id":429,"name":"Dreamer","steam_id":76561198081974528,"connected_time":4188000000000,"state":"active","ping":68},{"user_id":402,"name":"Makowako","steam_id":76561199016565502,"connected_time":6539000000000,"state":"active","ping":101},{"user_id":444,"name":"meow","steam_id":76561198046948758,"connected_time":3117000000000,"state":"active","ping":74},{"user_id":423,"name":"sexo.airport's fridays","steam_id":76561199106104716,"connected_time":4940000000000,"state":"active","ping":145},{"user_id":325,"name":"Brenda Delam","steam_id":76561198006983771,"connected_time":11561000000000,"state":"active","ping":84}]},{"server_id":404,"name":"Uncletopia | Dallas | 3 | All Maps","name_short":"dal-3","host":"dal-1.us.uncletopia.com","port":27035,"enabled":true,"region":"us-central","cc":"us","latitude":32.779167,"longitude":-96.80889,"reserved":0,"last_update":"0001-01-01T00:00:00Z","name_a2s":"Uncletopia | Dallas | 3 | All Maps","protocol":17,"map":"cp_sunshine","folder":"tf","game":"Team Fortress","app_id":440,"player_count":0,"max_players":24,"Bots":0,"server_type":"Dedicated","server_os":"Linux","password":true,"vac":true,"version":"7961495","steam_id":85568392924515219,"keywords":["cp","nocrits","nodmgspread","uncletopia"],"game_id":440,"stv_port":27036,"stv_name":"Uncletopia | Dallas | 3 | All Maps | STV","players":null},{"server_id":405,"name":"Uncletopia | Dallas | 4 | Community","name_short":"dal-4","host":"dal-1.us.uncletopia.com","port":27045,"enabled":true,"region":"us-central","cc":"us","latitude":32.779167,"longitude":-96.80889,"reserved":0,"last_update":"0001-01-01T00:00:00Z","name_a2s":"Uncletopia | Dallas | 4 | Community","protocol":17,"map":"workshop/cp_fulgur_rc2a.ugc2068252300","folder":"tf","game":"Team Fortress","app_id":440,"player_count":0,"max_players":24,"Bots":0,"server_type":"Dedicated","server_os":"Linux","password":true,"vac":true,"version":"7961495","steam_id":85568392924515220,"keywords":["cp","nocrits","nodmgspread","uncletopia"],"game_id":440,"stv_port":27046,"stv_name":"Uncletopia | Dallas | 4 | Community | STV","players":null},{"server_id":5,"name":"Uncletopia | Frankfurt | 1 | All Maps","name_short":"frk-1","host":"frk-1.de.uncletopia.com","port":27015,"enabled":true,"region":"eu","cc":"de","latitude":50.110924,"longitude":8.682127,"reserved":0,"last_update":"0001-01-01T00:00:00Z","name_a2s":"Uncletopia | Frankfurt | 1 | All Maps","protocol":17,"map":"koth_highpass","folder":"tf","game":"Team Fortress","app_id":440,"player_count":0,"max_players":24,"Bots":0,"server_type":"Dedicated","server_os":"Linux","password":true,"vac":true,"version":"7961495","steam_id":85568392924469989,"keywords":["cp","nocrits","nodmgspread","uncletopia"],"game_id":440,"stv_port":27016,"stv_name":"Uncletopia | Frankfurt | 1 | All Maps | STV","players":null},{"server_id":110,"name":"Uncletopia | Frankfurt | 2 | All Maps","name_short":"frk-2","host":"frk-1.de.uncletopia.com","port":27025,"enabled":true,"region":"eu","cc":"de","latitude":50.110924,"longitude":8.682127,"reserved":0,"last_update":"0001-01-01T00:00:00Z","name_a2s":"Uncletopia | Frankfurt | 2 | All Maps","protocol":17,"map":"cp_dustbowl","folder":"tf","game":"Team Fortress","app_id":440,"player_count":0,"max_players":24,"Bots":0,"server_type":"Dedicated","server_os":"Linux","password":true,"vac":true,"version":"7961495","steam_id":85568392924469990,"keywords":["cp","nocrits","nodmgspread","uncletopia"],"game_id":440,"stv_port":27026,"stv_name":"Uncletopia | Frankfurt | 2 | All Maps | STV","players":null},{"server_id":308,"name":"Uncletopia | Frankfurt | 3 | All Maps","name_short":"frk-3","host":"frk-1.de.uncletopia.com","port":27035,"enabled":true,"region":"eu","cc":"de","latitude":50.110924,"longitude":8.682127,"reserved":0,"last_update":"0001-01-01T00:00:00Z","name_a2s":"Uncletopia | Frankfurt | 3 | All Maps","protocol":17,"map":"pl_barnblitz","folder":"tf","game":"Team Fortress","app_id":440,"player_count":0,"max_players":24,"Bots":0,"server_type":"Dedicated","server_os":"Linux","password":true,"vac":true,"version":"7961495","steam_id":85568392924504274,"keywords":["nocrits","nodmgspread","payload","uncletopia"],"game_id":440,"stv_port":27036,"stv_name":"Uncletopia | Frankfurt | 3 | All Maps | STV","players":null},{"server_id":309,"name":"Uncletopia | Frankfurt | 4 | All Maps","name_short":"frk-4","host":"frk-1.de.uncletopia.com","port":27045,"enabled":true,"region":"eu","cc":"de","latitude":50.110924,"longitude":8.682127,"reserved":0,"last_update":"0001-01-01T00:00:00Z","name_a2s":"Uncletopia | Frankfurt | 4 | All Maps","protocol":17,"map":"koth_highpass","folder":"tf","game":"Team Fortress","app_id":440,"player_count":0,"max_players":24,"Bots":0,"server_type":"Dedicated","server_os":"Linux","password":true,"vac":true,"version":"7961495","steam_id":85568392924504275,"keywords":["cp","nocrits","nodmgspread","uncletopia"],"game_id":440,"stv_port":27046,"stv_name":"Uncletopia | Frankfurt | 4 | All Maps | STV","players":null},{"server_id":310,"name":"Uncletopia | Frankfurt | 5 | All Maps","name_short":"frk-5","host":"frk-1.de.uncletopia.com","port":27055,"enabled":true,"region":"eu","cc":"de","latitude":50.110924,"longitude":8.682127,"reserved":0,"last_update":"0001-01-01T00:00:00Z","name_a2s":"Uncletopia | Frankfurt | 5 | All Maps","protocol":17,"map":"pl_barnblitz","folder":"tf","game":"Team Fortress","app_id":440,"player_count":1,"max_players":24,"Bots":0,"server_type":"Dedicated","server_os":"Linux","password":true,"vac":true,"version":"7961495","steam_id":85568392924504277,"keywords":["nocrits","nodmgspread","payload","uncletopia"],"game_id":440,"stv_port":27056,"stv_name":"Uncletopia | Frankfurt | 5 | All Maps | STV","players":[{"user_id":7,"name":"Darwin's Danger Shield from TF2","steam_id":76561199214163032,"connected_time":166000000000,"state":"spawning","ping":71}]},{"server_id":311,"name":"Uncletopia | Frankfurt | 6 | All Maps","name_short":"frk-6","host":"frk-1.de.uncletopia.com","port":27065,"enabled":true,"region":"eu","cc":"de","latitude":50.110924,"longitude":8.682127,"reserved":0,"last_update":"0001-01-01T00:00:00Z","name_a2s":"Uncletopia | Frankfurt | 6 | All Maps","protocol":17,"map":"cp_altitude","folder":"tf","game":"Team Fortress","app_id":440,"player_count":0,"max_players":24,"Bots":0,"server_type":"Dedicated","server_os":"Linux","password":true,"vac":true,"version":"7961495","steam_id":85568392924504278,"keywords":["cp","nocrits","nodmgspread","uncletopia"],"game_id":440,"stv_port":27066,"stv_name":"Uncletopia | Frankfurt | 6 | All Maps | STV","players":null},{"server_id":23,"name":"Uncletopia | Frankfurt | 7 | Stopwatch","name_short":"frk-7","host":"frk-1.de.uncletopia.com","port":27075,"enabled":true,"region":"eu","cc":"de","latitude":50.110924,"longitude":8.682127,"reserved":0,"last_update":"0001-01-01T00:00:00Z","name_a2s":"Uncletopia | Frankfurt | 7 | Stopwatch","protocol":17,"map":"pl_frontier_final","folder":"tf","game":"Team Fortress","app_id":440,"player_count":0,"max_players":24,"Bots":0,"server_type":"Dedicated","server_os":"Linux","password":true,"vac":true,"version":"7961495","steam_id":85568392924742827,"keywords":["nocrits","nodmgspread","payload","uncletopia"],"game_id":440,"stv_port":27076,"stv_name":"Uncletopia | Frankfurt | 7 | Stopwatch | STV","players":null},{"server_id":24,"name":"Uncletopia | Frankfurt | 8 | Community","name_short":"frk-8","host":"frk-1.de.uncletopia.com","port":27085,"enabled":true,"region":"eu","cc":"de","latitude":50.110924,"longitude":8.682127,"reserved":0,"last_update":"0001-01-01T00:00:00Z","name_a2s":"Uncletopia | Frankfurt | 8 | Community","protocol":17,"map":"cp_mountainlab","folder":"tf","game":"Team Fortress","app_id":440,"player_count":0,"max_players":24,"Bots":0,"server_type":"Dedicated","server_os":"Linux","password":true,"vac":true,"version":"7961495","steam_id":85568392924742828,"keywords":["cp","nocrits","nodmgspread","uncletopia"],"game_id":440,"stv_port":27086,"stv_name":"Uncletopia | Frankfurt | 8 | Community | STV","players":null},{"server_id":202,"name":"Uncletopia | Hong Kong | 1 | All Maps","name_short":"hgk-1","host":"hgk-1.hk.uncletopia.com","port":27015,"enabled":true,"region":"asia","cc":"hk","latitude":22.302711,"longitude":114.177216,"reserved":0,"last_update":"0001-01-01T00:00:00Z","name_a2s":"Uncletopia | Hong Kong | 1 | All Maps","protocol":17,"map":"cp_process_final","folder":"tf","game":"Team Fortress","app_id":440,"player_count":7,"max_players":24,"Bots":0,"server_type":"Dedicated","server_os":"Linux","password":true,"vac":true,"version":"7961495","steam_id":85568392924494504,"keywords":["cp","nocrits","nodmgspread","uncletopia"],"game_id":440,"stv_port":27016,"stv_name":"Uncletopia | Hong Kong | 1 | All Maps | STV","players":[{"user_id":100,"name":"[Sicky] I twin-charged your kid","steam_id":76561198228084940,"connected_time":1240000000000,"state":"active","ping":30},{"user_id":102,"name":"dread","steam_id":76561198130933659,"connected_time":1157000000000,"state":"active","ping":46},{"user_id":103,"name":"marisaloses","steam_id":76561199033032870,"connected_time":1148000000000,"state":"active","ping":113},{"user_id":110,"name":"Poli","steam_id":76561199118278155,"connected_time":562000000000,"state":"active","ping":60},{"user_id":111,"name":"MongGoyo63","steam_id":76561198349540834,"connected_time":307000000000,"state":"active","ping":72},{"user_id":114,"name":"ævidd","steam_id":76561198447451285,"connected_time":86000000000,"state":"active","ping":125}]},{"server_id":1,"name":"Uncletopia | Los Angeles | 1 | All Maps","name_short":"lax-1","host":"lax-1.us.uncletopia.com","port":27015,"enabled":true,"region":"us-west","cc":"us","latitude":33.94279,"longitude":-118.41004,"reserved":0,"last_update":"0001-01-01T00:00:00Z","name_a2s":"Uncletopia | Los Angeles | 1 | All Maps","protocol":17,"map":"cp_process_final","folder":"tf","game":"Team Fortress","app_id":440,"player_count":24,"max_players":24,"Bots":0,"server_type":"Dedicated","server_os":"Linux","password":true,"vac":true,"version":"7961495","steam_id":85568392924469991,"keywords":["cp","nocrits","nodmgspread","uncletopia"],"game_id":440,"stv_port":27016,"stv_name":"Uncletopia | Los Angeles | 1 | All Maps | STV","players":[{"user_id":357,"name":"lol","steam_id":76561198026491738,"connected_time":2699000000000,"state":"active","ping":65},{"user_id":370,"name":"Irony is pretty cringy","steam_id":76561198120391460,"connected_time":1359000000000,"state":"active","ping":44},{"user_id":384,"name":"ena - d","steam_id":76561198072329335,"connected_time":239000000000,"state":"active","ping":93},{"user_id":369,"name":"FriskyDemon","steam_id":76561198043684646,"connected_time":1620000000000,"state":"active","ping":74},{"user_id":328,"name":"Swag5","steam_id":76561198065311356,"connected_time":3738000000000,"state":"active","ping":55},{"user_id":313,"name":"blast a hoe","steam_id":76561198294281809,"connected_time":5404000000000,"state":"active","ping":57},{"user_id":358,"name":"swagaholic","steam_id":76561199014715203,"connected_time":2681000000000,"state":"active","ping":58},{"user_id":374,"name":"stink vector","steam_id":76561198004413600,"connected_time":1016000000000,"state":"active","ping":68},{"user_id":383,"name":"blehz","steam_id":76561198048429098,"connected_time":269000000000,"state":"active","ping":75},{"user_id":376,"name":"Omegashart","steam_id":76561198209393060,"connected_time":980000000000,"state":"active","ping":76},{"user_id":341,"name":"opensymbols","steam_id":76561199001161289,"connected_time":3578000000000,"state":"active","ping":57},{"user_id":361,"name":"TüCold","steam_id":76561198111278197,"connected_time":2426000000000,"state":"active","ping":66},{"user_id":362,"name":"Ethanol Buttchugger","steam_id":76561199127590316,"connected_time":2395000000000,"state":"active","ping":62},{"user_id":380,"name":"St. Michael","steam_id":76561198037611052,"connected_time":764000000000,"state":"active","ping":74},{"user_id":377,"name":"♥ Squirrely ♥","steam_id":76561198122228055,"connected_time":971000000000,"state":"active","ping":75},{"user_id":347,"name":"scringo","steam_id":76561198169969030,"connected_time":3465000000000,"state":"active","ping":59},{"user_id":378,"name":"Vitae Kakon","steam_id":76561198307440313,"connected_time":934000000000,"state":"active","ping":57},{"user_id":338,"name":"suburban dude","steam_id":76561198044838901,"connected_time":3648000000000,"state":"active","ping":61},{"user_id":385,"name":"Kerrplunk","steam_id":76561198058211496,"connected_time":210000000000,"state":"active","ping":73},{"user_id":372,"name":"Context","steam_id":76561197972634187,"connected_time":1153000000000,"state":"active","ping":40},{"user_id":339,"name":"error","steam_id":76561198160792857,"connected_time":3637000000000,"state":"active","ping":58},{"user_id":363,"name":"TheBrocklobster","steam_id":76561198039682984,"connected_time":2382000000000,"state":"active","ping":65},{"user_id":317,"name":"meph","steam_id":76561198149683030,"connected_time":5336000000000,"state":"active","ping":75},{"user_id":379,"name":"Sergeant Snowflake","steam_id":76561198041474489,"connected_time":859000000000,"state":"active","ping":116}]},{"server_id":112,"name":"Uncletopia | Los Angeles | 2 | All Maps","name_short":"lax-2","host":"lax-1.us.uncletopia.com","port":27025,"enabled":true,"region":"us-west","cc":"us","latitude":33.94279,"longitude":-118.41004,"reserved":0,"last_update":"0001-01-01T00:00:00Z","name_a2s":"Uncletopia | Los Angeles | 2 | All Maps","protocol":17,"map":"cp_sunshine","folder":"tf","game":"Team Fortress","app_id":440,"player_count":0,"max_players":24,"Bots":0,"server_type":"Dedicated","server_os":"Linux","password":true,"vac":true,"version":"7961495","steam_id":85568392924469992,"keywords":["cp","nocrits","nodmgspread","uncletopia"],"game_id":440,"stv_port":27026,"stv_name":"Uncletopia | Los Angeles | 2 | All Maps | STV","players":null},{"server_id":324,"name":"Uncletopia | Los Angeles | 3 | All Maps","name_short":"lax-3","host":"lax-1.us.uncletopia.com","port":27035,"enabled":true,"region":"us-west","cc":"us","latitude":33.94279,"longitude":-118.41004,"reserved":0,"last_update":"0001-01-01T00:00:00Z","name_a2s":"Uncletopia | Los Angeles | 3 | All Maps","protocol":17,"map":"koth_viaduct","folder":"tf","game":"Team Fortress","app_id":440,"player_count":0,"max_players":24,"Bots":0,"server_type":"Dedicated","server_os":"Linux","password":true,"vac":true,"version":"7961495","steam_id":85568392924510198,"keywords":["cp","nocrits","nodmgspread","uncletopia"],"game_id":440,"stv_port":27036,"stv_name":"Uncletopia | Los Angeles | 3 | All Maps | STV","players":null},{"server_id":25,"name":"Uncletopia | Los Angeles | 4 | Stopwatch","name_short":"lax-4","host":"lax-1.us.uncletopia.com","port":27045,"enabled":true,"region":"us-west","cc":"us","latitude":33.94279,"longitude":-118.41004,"reserved":0,"last_update":"0001-01-01T00:00:00Z","name_a2s":"Uncletopia | Los Angeles | 4 | Stopwatch","protocol":17,"map":"workshop/koth_bagel_rc6.ugc2514036946","folder":"tf","game":"Team Fortress","app_id":440,"player_count":0,"max_players":24,"Bots":0,"server_type":"Dedicated","server_os":"Linux","password":true,"vac":true,"version":"7961495","steam_id":85568392924510199,"keywords":["cp","nocrits","nodmgspread","uncletopia"],"game_id":440,"stv_port":27046,"stv_name":"Uncletopia | Los Angeles | 4 | Stopwatch | STV","players":null},{"server_id":11,"name":"Uncletopia | London | 1 | All Maps","name_short":"lon-1","host":"lon-1.uk.uncletopia.com","port":27015,"enabled":true,"region":"eu","cc":"gb","latitude":51.509865,"longitude":-0.118092,"reserved":0,"last_update":"0001-01-01T00:00:00Z","name_a2s":"Uncletopia | London | 1 | All Maps","protocol":17,"map":"koth_highpass","folder":"tf","game":"Team Fortress","app_id":440,"player_count":15,"max_players":24,"Bots":0,"server_type":"Dedicated","server_os":"Linux","password":true,"vac":true,"version":"7961495","steam_id":85568392924367362,"keywords":["cp","nocrits","nodmgspread","uncletopia"],"game_id":440,"stv_port":27016,"stv_name":"Uncletopia | London | 1 | All Maps | STV","players":[{"user_id":4,"name":"scott steiners strongest warrio","steam_id":76561198148888622,"connected_time":1761000000000,"state":"active","ping":54},{"user_id":5,"name":"Niccole","steam_id":76561198126998695,"connected_time":1243000000000,"state":"active","ping":154},{"user_id":15,"name":"Falco","steam_id":76561199061187430,"connected_time":303000000000,"state":"active","ping":56},{"user_id":7,"name":"thog","steam_id":76561198219901556,"connected_time":1185000000000,"state":"active","ping":104},{"user_id":8,"name":"noseb","steam_id":76561199480942903,"connected_time":1059000000000,"state":"active","ping":72},{"user_id":9,"name":"Neimon","steam_id":76561198343485710,"connected_time":908000000000,"state":"active","ping":130},{"user_id":16,"name":"Piesel","steam_id":76561198985453063,"connected_time":235000000000,"state":"active","ping":78},{"user_id":11,"name":"peace sniper","steam_id":76561198265192382,"connected_time":599000000000,"state":"active","ping":66},{"user_id":12,"name":"Amandus","steam_id":76561198036281079,"connected_time":539000000000,"state":"active","ping":62},{"user_id":13,"name":"ObiNotKenobi","steam_id":76561198340018440,"connected_time":511000000000,"state":"active","ping":96},{"user_id":14,"name":"FurbyZone","steam_id":76561198268344503,"connected_time":504000000000,"state":"active","ping":42},{"user_id":19,"name":"ramedlaV^^","steam_id":76561198074352339,"connected_time":171000000000,"state":"active","ping":60},{"user_id":18,"name":"JyroSope","steam_id":76561198297046115,"connected_time":189000000000,"state":"active","ping":83},{"user_id":21,"name":"Narvhalø","steam_id":76561198147495474,"connected_time":62000000000,"state":"active","ping":41},{"user_id":22,"name":"bryophyta","steam_id":76561197968945306,"connected_time":52000000000,"state":"active","ping":60}]},{"server_id":114,"name":"Uncletopia | London | 2 | All Maps","name_short":"lon-2","host":"lon-1.uk.uncletopia.com","port":27025,"enabled":true,"region":"eu","cc":"gb","latitude":51.509865,"longitude":-0.118092,"reserved":0,"last_update":"0001-01-01T00:00:00Z","name_a2s":"Uncletopia | London | 2 | All Maps","protocol":17,"map":"koth_lakeside_final","folder":"tf","game":"Team Fortress","app_id":440,"player_count":0,"max_players":24,"Bots":0,"server_type":"Dedicated","server_os":"Linux","password":true,"vac":true,"version":"7961495","steam_id":85568392924470941,"keywords":["cp","nocrits","nodmgspread","uncletopia"],"game_id":440,"stv_port":27026,"stv_name":"Uncletopia | London | 2 | All Maps | STV","players":null},{"server_id":320,"name":"Uncletopia | London | 3 | All Maps","name_short":"lon-3","host":"lon-1.uk.uncletopia.com","port":27035,"enabled":true,"region":"eu","cc":"gb","latitude":51.509865,"longitude":-0.118092,"reserved":0,"last_update":"0001-01-01T00:00:00Z","name_a2s":"Uncletopia | London | 3 | All Maps","protocol":17,"map":"pl_frontier_final","folder":"tf","game":"Team Fortress","app_id":440,"player_count":0,"max_players":24,"Bots":0,"server_type":"Dedicated","server_os":"Linux","password":true,"vac":true,"version":"7961495","steam_id":85568392924510192,"keywords":["nocrits","nodmgspread","payload","uncletopia"],"game_id":440,"stv_port":27036,"stv_name":"Uncletopia | London | 3 | All Maps | STV","players":null},{"server_id":321,"name":"Uncletopia | London | 4 | All Maps","name_short":"lon-4","host":"lon-1.uk.uncletopia.com","port":27045,"enabled":true,"region":"eu","cc":"gb","latitude":51.509865,"longitude":-0.118092,"reserved":0,"last_update":"0001-01-01T00:00:00Z","name_a2s":"Uncletopia | London | 4 | All Maps","protocol":17,"map":"koth_cascade","folder":"tf","game":"Team Fortress","app_id":440,"player_count":0,"max_players":24,"Bots":0,"server_type":"Dedicated","server_os":"Linux","password":true,"vac":true,"version":"7961495","steam_id":85568392924510193,"keywords":["cp","nocrits","nodmgspread","uncletopia"],"game_id":440,"stv_port":27046,"stv_name":"Uncletopia | London | 4 | All Maps | STV","players":null},{"server_id":21,"name":"Uncletopia | London | 5 | All Maps","name_short":"lon-5","host":"lon-1.uk.uncletopia.com","port":27055,"enabled":true,"region":"eu","cc":"gb","latitude":51.509865,"longitude":-0.118092,"reserved":0,"last_update":"0001-01-01T00:00:00Z","name_a2s":"Uncletopia | London | 5 | All Maps","protocol":17,"map":"koth_lakeside_final","folder":"tf","game":"Team Fortress","app_id":440,"player_count":0,"max_players":24,"Bots":0,"server_type":"Dedicated","server_os":"Linux","password":true,"vac":true,"version":"7961495","steam_id":85568392924742829,"keywords":["cp","nocrits","nodmgspread","uncletopia"],"game_id":440,"stv_port":27056,"stv_name":"Uncletopia | London | 5 | All Maps | STV","players":null},{"server_id":22,"name":"Uncletopia | London | 6 | All Maps","name_short":"lon-6","host":"lon-1.uk.uncletopia.com","port":27065,"enabled":true,"region":"eu","cc":"gb","latitude":51.509865,"longitude":-0.118092,"reserved":0,"last_update":"0001-01-01T00:00:00Z","name_a2s":"Uncletopia | London | 6 | All Maps","protocol":17,"map":"cp_process_final","folder":"tf","game":"Team Fortress","app_id":440,"player_count":0,"max_players":24,"Bots":0,"server_type":"Dedicated","server_os":"Linux","password":true,"vac":true,"version":"7961495","steam_id":85568392924742830,"keywords":["cp","nocrits","nodmgspread","uncletopia"],"game_id":440,"stv_port":27066,"stv_name":"Uncletopia | London | 6 | All Maps | STV","players":null},{"server_id":40,"name":"Uncletopia | London | 7 | Stopwatch","name_short":"lon-7","host":"lon-1.uk.uncletopia.com","port":27075,"enabled":true,"region":"eu","cc":"gb","latitude":51.509865,"longitude":-0.118092,"reserved":0,"last_update":"0001-01-01T00:00:00Z","name_a2s":"Uncletopia | London | 7 | Stopwatch","protocol":17,"map":"koth_lakeside_final","folder":"tf","game":"Team Fortress","app_id":440,"player_count":0,"max_players":24,"Bots":0,"server_type":"Dedicated","server_os":"Linux","password":true,"vac":true,"version":"7961495","steam_id":85568392924964314,"keywords":["cp","nocrits","nodmgspread","uncletopia"],"game_id":440,"stv_port":27076,"stv_name":"Uncletopia | London | 7 | Stopwatch | STV","players":null},{"server_id":41,"name":"Uncletopia | London | 8 | Community","name_short":"lon-8","host":"lon-1.uk.uncletopia.com","port":27085,"enabled":true,"region":"eu","cc":"gb","latitude":51.509865,"longitude":-0.118092,"reserved":0,"last_update":"0001-01-01T00:00:00Z","name_a2s":"Uncletopia | London | 8 | Community","protocol":17,"map":"cp_snakewater_final1","folder":"tf","game":"Team Fortress","app_id":440,"player_count":0,"max_players":24,"Bots":0,"server_type":"Dedicated","server_os":"Linux","password":true,"vac":true,"version":"7961495","steam_id":85568392924964315,"keywords":["cp","nocrits","nodmgspread","uncletopia"],"game_id":440,"stv_port":27086,"stv_name":"Uncletopia | London | 8 | Community | STV","players":null},{"server_id":300,"name":"Uncletopia | Montréal | 1 | One Thousand Uncles","name_short":"mtl-1","host":"mtl-1.ca.uncletopia.com","port":27015,"enabled":true,"region":"us-east","cc":"ca","latitude":45.50889,"longitude":-73.56167,"reserved":0,"last_update":"0001-01-01T00:00:00Z","name_a2s":"","protocol":0,"map":"","folder":"","game":"","app_id":0,"player_count":0,"max_players":0,"Bots":0,"server_type":"","server_os":"","password":false,"vac":false,"version":"","steam_id":0,"keywords":null,"game_id":0,"stv_port":0,"stv_name":"","players":null},{"server_id":301,"name":"Uncletopia | Montréal | 2 | One Thousand Uncles","name_short":"mtl-2","host":"mtl-1.ca.uncletopia.com","port":27025,"enabled":true,"region":"us-east","cc":"ca","latitude":45.50889,"longitude":-73.56167,"reserved":0,"last_update":"0001-01-01T00:00:00Z","name_a2s":"","protocol":0,"map":"","folder":"","game":"","app_id":0,"player_count":0,"max_players":0,"Bots":0,"server_type":"","server_os":"","password":false,"vac":false,"version":"","steam_id":0,"keywords":null,"game_id":0,"stv_port":0,"stv_name":"","players":null},{"server_id":302,"name":"Uncletopia | Montréal | 3 | One Thousand Uncles","name_short":"mtl-3","host":"mtl-1.ca.uncletopia.com","port":27035,"enabled":true,"region":"us-east","cc":"ca","latitude":45.50889,"longitude":-73.56167,"reserved":0,"last_update":"0001-01-01T00:00:00Z","name_a2s":"","protocol":0,"map":"","folder":"","game":"","app_id":0,"player_count":0,"max_players":0,"Bots":0,"server_type":"","server_os":"","password":false,"vac":false,"version":"","steam_id":0,"keywords":null,"game_id":0,"stv_port":0,"stv_name":"","players":null},{"server_id":13,"name":"Uncletopia | New York City | 1 | All Maps","name_short":"nyc-1","host":"nyc-1.us.uncletopia.com","port":27015,"enabled":true,"region":"us-east","cc":"us","latitude":40.73061,"longitude":-73.93524,"reserved":0,"last_update":"0001-01-01T00:00:00Z","name_a2s":"Uncletopia | New York City | 1 | All Maps","protocol":17,"map":"pl_borneo","folder":"tf","game":"Team Fortress","app_id":440,"player_count":0,"max_players":24,"Bots":0,"server_type":"Dedicated","server_os":"Linux","password":true,"vac":true,"version":"7961495","steam_id":85568392924469993,"keywords":["nocrits","nodmgspread","payload","uncletopia"],"game_id":440,"stv_port":27016,"stv_name":"Uncletopia | New York City | 1 | All Maps | STV","players":null},{"server_id":14,"name":"Uncletopia | New York City | 2 | All Maps","name_short":"nyc-2","host":"nyc-1.us.uncletopia.com","port":27025,"enabled":true,"region":"us-east","cc":"us","latitude":40.73061,"longitude":-73.93524,"reserved":0,"last_update":"0001-01-01T00:00:00Z","name_a2s":"Uncletopia | New York City | 2 | All Maps","protocol":17,"map":"cp_snakewater_final1","folder":"tf","game":"Team Fortress","app_id":440,"player_count":0,"max_players":24,"Bots":0,"server_type":"Dedicated","server_os":"Linux","password":true,"vac":true,"version":"7961495","steam_id":85568392924469994,"keywords":["cp","nocrits","nodmgspread","uncletopia"],"game_id":440,"stv_port":27026,"stv_name":"Uncletopia | New York City | 2 | All Maps | STV","players":null},{"server_id":15,"name":"Uncletopia | New York City | 3 | Stopwatch","name_short":"nyc-3","host":"nyc-1.us.uncletopia.com","port":27035,"enabled":true,"region":"us-east","cc":"us","latitude":40.73061,"longitude":-73.93524,"reserved":0,"last_update":"0001-01-01T00:00:00Z","name_a2s":"Uncletopia | New York City | 3 | Stopwatch","protocol":17,"map":"workshop/pl_badwater_pro_v12.ugc2142942074","folder":"tf","game":"Team Fortress","app_id":440,"player_count":0,"max_players":24,"Bots":0,"server_type":"Dedicated","server_os":"Linux","password":true,"vac":true,"version":"7961495","steam_id":85568392924742820,"keywords":["nocrits","nodmgspread","payload","uncletopia"],"game_id":440,"stv_port":27036,"stv_name":"Uncletopia | New York City | 3 | Stopwatch | STV","players":null},{"server_id":16,"name":"Uncletopia | New York City | 4 | Community","name_short":"nyc-4","host":"nyc-1.us.uncletopia.com","port":27045,"enabled":true,"region":"us-east","cc":"us","latitude":40.73061,"longitude":-73.93524,"reserved":0,"last_update":"0001-01-01T00:00:00Z","name_a2s":"Uncletopia | New York City | 4 | Community","protocol":17,"map":"workshop/cp_snowbase_b21.ugc2081770490","folder":"tf","game":"Team Fortress","app_id":440,"player_count":0,"max_players":24,"Bots":0,"server_type":"Dedicated","server_os":"Linux","password":true,"vac":true,"version":"7961495","steam_id":85568392924742821,"keywords":["cp","nocrits","nodmgspread","uncletopia"],"game_id":440,"stv_port":27046,"stv_name":"Uncletopia | New York City | 4 | Community | STV","players":null},{"server_id":142,"name":"Uncletopia | São Paulo | 1 | All Maps","name_short":"sao-1","host":"sao-1.br.uncletopia.com","port":27015,"enabled":true,"region":"sa","cc":"br","latitude":-23.533773,"longitude":-46.62529,"reserved":0,"last_update":"0001-01-01T00:00:00Z","name_a2s":"Uncletopia | São Paulo | 1 | All Maps","protocol":17,"map":"koth_lakeside_final","folder":"tf","game":"Team Fortress","app_id":440,"player_count":0,"max_players":24,"Bots":0,"server_type":"Dedicated","server_os":"Linux","password":true,"vac":true,"version":"7961495","steam_id":85568392924469996,"keywords":["cp","nocrits","nodmgspread","uncletopia"],"game_id":440,"stv_port":27016,"stv_name":"Uncletopia | São Paulo | 1 | All Maps | STV","players":null},{"server_id":143,"name":"Uncletopia | São Paulo | 2 | Community","name_short":"sao-2","host":"sao-2.br.uncletopia.com","port":27015,"enabled":true,"region":"sa","cc":"br","latitude":-23.533773,"longitude":-46.62529,"reserved":0,"last_update":"0001-01-01T00:00:00Z","name_a2s":"Uncletopia | São Paulo | 2 | Community","protocol":17,"map":"workshop/rd_asteroid_redux_b1.ugc2154902912","folder":"tf","game":"Team Fortress","app_id":440,"player_count":0,"max_players":24,"Bots":0,"server_type":"Dedicated","server_os":"Linux","password":true,"vac":true,"version":"7961495","steam_id":85568392924485349,"keywords":["beta","nocrits","nodmgspread","rd","uncletopia"],"game_id":440,"stv_port":27016,"stv_name":"Uncletopia | São Paulo | 2 | Community | STV","players":null},{"server_id":7,"name":"Uncletopia | Seattle | 1 | All Maps","name_short":"sea-1","host":"sea-1.us.uncletopia.com","port":27015,"enabled":true,"region":"us-west","cc":"us","latitude":47.608013,"longitude":-122.33517,"reserved":0,"last_update":"0001-01-01T00:00:00Z","name_a2s":"Uncletopia | Seattle | 1 | All Maps","protocol":17,"map":"cp_powerhouse","folder":"tf","game":"Team Fortress","app_id":440,"player_count":24,"max_players":24,"Bots":0,"server_type":"Dedicated","server_os":"Linux","password":true,"vac":true,"version":"7961495","steam_id":85568392924469997,"keywords":["cp","nocrits","nodmgspread","uncletopia"],"game_id":440,"stv_port":27016,"stv_name":"Uncletopia | Seattle | 1 | All Maps | STV","players":[{"user_id":795,"name":"Dapper","steam_id":76561198103189993,"connected_time":1465000000000,"state":"active","ping":73},{"user_id":774,"name":"Grand","steam_id":76561198290143399,"connected_time":4117000000000,"state":"active","ping":74},{"user_id":727,"name":"Attrition","steam_id":76561197969881916,"connected_time":10906000000000,"state":"active","ping":55},{"user_id":781,"name":"Corpe","steam_id":76561198054490549,"connected_time":2625000000000,"state":"active","ping":56},{"user_id":799,"name":"adios","steam_id":76561198027298961,"connected_time":560000000000,"state":"active","ping":105},{"user_id":773,"name":"soup","steam_id":76561198043209046,"connected_time":4315000000000,"state":"active","ping":66},{"user_id":660,"name":"Daz","steam_id":76561198041431938,"connected_time":15994000000000,"state":"active","ping":49},{"user_id":784,"name":"owl","steam_id":76561198088403016,"connected_time":2504000000000,"state":"active","ping":154},{"user_id":761,"name":"Lé Mon","steam_id":76561198078626283,"connected_time":6229000000000,"state":"active","ping":44},{"user_id":792,"name":"Scorpianswag","steam_id":76561198260651036,"connected_time":1775000000000,"state":"active","ping":60},{"user_id":754,"name":"gorlab","steam_id":76561198025089694,"connected_time":6783000000000,"state":"active","ping":60},{"user_id":767,"name":"Truffles","steam_id":76561198095868800,"connected_time":4792000000000,"state":"active","ping":95},{"user_id":737,"name":"Melly","steam_id":76561198045867175,"connected_time":9636000000000,"state":"active","ping":62},{"user_id":790,"name":"Japanese Pizza Girlfriend","steam_id":76561198044855147,"connected_time":1904000000000,"state":"active","ping":44},{"user_id":785,"name":"Ayayayayayayayayahuasca","steam_id":76561199002906056,"connected_time":2502000000000,"state":"active","ping":34},{"user_id":735,"name":"Zee✞","steam_id":76561198274550638,"connected_time":9673000000000,"state":"active","ping":116},{"user_id":778,"name":"Totally_faraam","steam_id":76561199230162663,"connected_time":2779000000000,"state":"active","ping":85},{"user_id":715,"name":"Grassman (Cc)","steam_id":76561198026488532,"connected_time":11886000000000,"state":"active","ping":62},{"user_id":770,"name":"Sniff","steam_id":76561198010270922,"connected_time":4348000000000,"state":"active","ping":71},{"user_id":730,"name":"Sweets","steam_id":76561198998446307,"connected_time":10357000000000,"state":"active","ping":70},{"user_id":760,"name":"DubiousDodo","steam_id":76561198828172686,"connected_time":6249000000000,"state":"active","ping":73},{"user_id":786,"name":"ed","steam_id":76561198080475712,"connected_time":2254000000000,"state":"active","ping":97},{"user_id":798,"name":"lesbiowned","steam_id":76561197989933601,"connected_time":920000000000,"state":"active","ping":59},{"user_id":787,"name":"Dog","steam_id":76561198041841128,"connected_time":2238000000000,"state":"active","ping":81}]},{"server_id":119,"name":"Uncletopia | Seattle | 2 | All Maps","name_short":"sea-2","host":"sea-1.us.uncletopia.com","port":27025,"enabled":true,"region":"us-west","cc":"us","latitude":47.608013,"longitude":-122.33517,"reserved":0,"last_update":"0001-01-01T00:00:00Z","name_a2s":"Uncletopia | Seattle | 2 | All Maps","protocol":17,"map":"cp_process_final","folder":"tf","game":"Team Fortress","app_id":440,"player_count":13,"max_players":24,"Bots":0,"server_type":"Dedicated","server_os":"Linux","password":true,"vac":true,"version":"7961495","steam_id":85568392924469998,"keywords":["cp","nocrits","nodmgspread","uncletopia"],"game_id":440,"stv_port":27026,"stv_name":"Uncletopia | Seattle | 2 | All Maps | STV","players":[{"user_id":457,"name":"NightGhost1400","steam_id":76561198810730471,"connected_time":1919000000000,"state":"active","ping":63},{"user_id":453,"name":"banjobun","steam_id":76561198116814525,"connected_time":2590000000000,"state":"active","ping":42},{"user_id":477,"name":"Athena","steam_id":76561198249736590,"connected_time":241000000000,"state":"active","ping":47},{"user_id":478,"name":"The Bubonic leper","steam_id":76561198185841053,"connected_time":118000000000,"state":"active","ping":46},{"user_id":474,"name":"Shrew","steam_id":76561198085421224,"connected_time":383000000000,"state":"active","ping":45},{"user_id":472,"name":"Bradz","steam_id":76561198175090085,"connected_time":497000000000,"state":"active","ping":85},{"user_id":468,"name":"IT WAS 3-1","steam_id":76561198355975688,"connected_time":816000000000,"state":"active","ping":45},{"user_id":469,"name":"ACK","steam_id":76561198130390689,"connected_time":794000000000,"state":"active","ping":61},{"user_id":475,"name":"13","steam_id":76561198206866237,"connected_time":374000000000,"state":"active","ping":53},{"user_id":450,"name":"Hawksgamer","steam_id":76561198152405941,"connected_time":3208000000000,"state":"active","ping":45},{"user_id":445,"name":"Mr8bittripper","steam_id":76561198133894229,"connected_time":3381000000000,"state":"active","ping":42},{"user_id":447,"name":"Shazzy","steam_id":76561198145460523,"connected_time":3348000000000,"state":"active","ping":75},{"user_id":448,"name":"crouching tiger heavy","steam_id":76561198121767390,"connected_time":3334000000000,"state":"active","ping":105}]},{"server_id":406,"name":"Uncletopia | Seattle | 3 | Stopwatch","name_short":"sea-3","host":"sea-1.us.uncletopia.com","port":27035,"enabled":true,"region":"us-west","cc":"us","latitude":47.608013,"longitude":-122.33517,"reserved":0,"last_update":"0001-01-01T00:00:00Z","name_a2s":"Uncletopia | Seattle | 3 | Stopwatch","protocol":17,"map":"workshop/koth_ramjam_rc1.ugc459778887","folder":"tf","game":"Team Fortress","app_id":440,"player_count":0,"max_players":24,"Bots":0,"server_type":"Dedicated","server_os":"Linux","password":true,"vac":true,"version":"7961495","steam_id":85568392924515217,"keywords":["cp","nocrits","nodmgspread","uncletopia"],"game_id":440,"stv_port":27036,"stv_name":"Uncletopia | Seattle | 3 | Stopwatch | STV","players":null},{"server_id":17,"name":"Uncletopia | San Francisco | 1 | All Maps","name_short":"sfo-1","host":"sfo-1.us.uncletopia.com","port":27015,"enabled":true,"region":"us-west","cc":"us","latitude":37.77397,"longitude":-122.4313,"reserved":0,"last_update":"0001-01-01T00:00:00Z","name_a2s":"Uncletopia | San Francisco | 1 | All Maps","protocol":17,"map":"cp_mountainlab","folder":"tf","game":"Team Fortress","app_id":440,"player_count":0,"max_players":24,"Bots":0,"server_type":"Dedicated","server_os":"Linux","password":true,"vac":true,"version":"7961495","steam_id":85568392924469999,"keywords":["cp","nocrits","nodmgspread","uncletopia"],"game_id":440,"stv_port":27016,"stv_name":"Uncletopia | San Francisco | 1 | All Maps | STV","players":null},{"server_id":18,"name":"Uncletopia | San Francisco | 2 | All Maps","name_short":"sfo-2","host":"sfo-1.us.uncletopia.com","port":27025,"enabled":true,"region":"us-west","cc":"us","latitude":37.77397,"longitude":-122.4313,"reserved":0,"last_update":"0001-01-01T00:00:00Z","name_a2s":"Uncletopia | San Francisco | 2 | All Maps","protocol":17,"map":"cp_snakewater_final1","folder":"tf","game":"Team Fortress","app_id":440,"player_count":0,"max_players":24,"Bots":0,"server_type":"Dedicated","server_os":"Linux","password":true,"vac":true,"version":"7961495","steam_id":85568392924470000,"keywords":["cp","nocrits","nodmgspread","uncletopia"],"game_id":440,"stv_port":27026,"stv_name":"Uncletopia | San Francisco | 2 | All Maps | STV","players":null},{"server_id":19,"name":"Uncletopia | San Francisco | 3 | Stopwatch","name_short":"sfo-3","host":"sfo-1.us.uncletopia.com","port":27035,"enabled":true,"region":"us-west","cc":"us","latitude":37.77397,"longitude":-122.4313,"reserved":0,"last_update":"0001-01-01T00:00:00Z","name_a2s":"Uncletopia | San Francisco | 3 | Stopwatch","protocol":17,"map":"cp_process_final","folder":"tf","game":"Team Fortress","app_id":440,"player_count":0,"max_players":24,"Bots":0,"server_type":"Dedicated","server_os":"Linux","password":true,"vac":true,"version":"7961495","steam_id":85568392924742824,"keywords":["cp","nocrits","nodmgspread","uncletopia"],"game_id":440,"stv_port":27036,"stv_name":"Uncletopia | San Francisco | 3 | Stopwatch | STV","players":null},{"server_id":20,"name":"Uncletopia | San Francisco | 4 | Community","name_short":"sfo-4","host":"sfo-1.us.uncletopia.com","port":27045,"enabled":true,"region":"us-west","cc":"us","latitude":37.77397,"longitude":-122.4313,"reserved":0,"last_update":"0001-01-01T00:00:00Z","name_a2s":"Uncletopia | San Francisco | 4 | Community","protocol":17,"map":"workshop/koth_trenchfoot_ab1.ugc731436616","folder":"tf","game":"Team Fortress","app_id":440,"player_count":0,"max_players":24,"Bots":0,"server_type":"Dedicated","server_os":"Linux","password":true,"vac":true,"version":"7961495","steam_id":85568392924742826,"keywords":["cp","nocrits","nodmgspread","uncletopia"],"game_id":440,"stv_port":27046,"stv_name":"Uncletopia | San Francisco | 4 | Community | STV","players":null},{"server_id":141,"name":"Uncletopia | Sydney | 1 | All Maps","name_short":"syd-1","host":"syd-1.au.uncletopia.com","port":27015,"enabled":true,"region":"au","cc":"au","latitude":-33.865143,"longitude":151.2099,"reserved":0,"last_update":"0001-01-01T00:00:00Z","name_a2s":"Uncletopia | Sydney | 1 | All Maps","protocol":17,"map":"koth_lakeside_final","folder":"tf","game":"Team Fortress","app_id":440,"player_count":0,"max_players":24,"Bots":0,"server_type":"Dedicated","server_os":"Linux","password":true,"vac":true,"version":"7961495","steam_id":85568392924470001,"keywords":["cp","nocrits","nodmgspread","uncletopia"],"game_id":440,"stv_port":27016,"stv_name":"Uncletopia | Sydney | 1 | All Maps | STV","players":null},{"server_id":123,"name":"Uncletopia | Sydney | 2 | All Maps","name_short":"syd-2","host":"syd-1.au.uncletopia.com","port":27025,"enabled":true,"region":"au","cc":"au","latitude":-33.865143,"longitude":151.2099,"reserved":0,"last_update":"0001-01-01T00:00:00Z","name_a2s":"Uncletopia | Sydney | 2 | All Maps","protocol":17,"map":"koth_lakeside_final","folder":"tf","game":"Team Fortress","app_id":440,"player_count":0,"max_players":24,"Bots":0,"server_type":"Dedicated","server_os":"Linux","password":true,"vac":true,"version":"7961495","steam_id":85568392924470002,"keywords":["cp","nocrits","nodmgspread","uncletopia"],"game_id":440,"stv_port":27026,"stv_name":"Uncletopia | Sydney | 2 | All Maps | STV","players":null},{"server_id":395,"name":"Uncletopia | Sydney | 3 | All Maps","name_short":"syd-3","host":"syd-1.au.uncletopia.com","port":27035,"enabled":true,"region":"au","cc":"au","latitude":-33.865143,"longitude":151.2099,"reserved":0,"last_update":"0001-01-01T00:00:00Z","name_a2s":"Uncletopia | Sydney | 3 | All Maps","protocol":17,"map":"koth_highpass","folder":"tf","game":"Team Fortress","app_id":440,"player_count":25,"max_players":24,"Bots":0,"server_type":"Dedicated","server_os":"Linux","password":true,"vac":true,"version":"7961495","steam_id":85568392925194467,"keywords":["cp","nocrits","nodmgspread","uncletopia"],"game_id":440,"stv_port":27036,"stv_name":"Uncletopia | Sydney | 3 | All Maps | STV","players":[{"user_id":148,"name":"TheGoodGuy","steam_id":76561197994105505,"connected_time":4000000000,"state":"spawning","ping":37},{"user_id":143,"name":"i \u003c3 drain gang","steam_id":76561198237563430,"connected_time":409000000000,"state":"active","ping":55},{"user_id":145,"name":"Stab Calloway","steam_id":76561198027827983,"connected_time":396000000000,"state":"active","ping":42},{"user_id":105,"name":"cakey","steam_id":76561198173746761,"connected_time":2949000000000,"state":"active","ping":46},{"user_id":115,"name":"The Feared","steam_id":76561198380825547,"connected_time":2497000000000,"state":"active","ping":86},{"user_id":129,"name":"Paper","steam_id":76561198041517737,"connected_time":1142000000000,"state":"active","ping":44},{"user_id":131,"name":"Dog With Headphones","steam_id":76561198111076916,"connected_time":1037000000000,"state":"active","ping":67},{"user_id":147,"name":"FascismSalad","steam_id":76561198262410973,"connected_time":99000000000,"state":"active","ping":47},{"user_id":71,"name":"RAZE","steam_id":76561198194871175,"connected_time":5893000000000,"state":"active","ping":59},{"user_id":91,"name":"Pompadouraus","steam_id":76561198327530525,"connected_time":4667000000000,"state":"active","ping":74},{"user_id":116,"name":"OOGA","steam_id":76561199332729835,"connected_time":2485000000000,"state":"active","ping":74},{"user_id":135,"name":"Foap","steam_id":76561198110418119,"connected_time":847000000000,"state":"active","ping":83},{"user_id":133,"name":"Penguinator5000","steam_id":76561198038183553,"connected_time":958000000000,"state":"active","ping":54},{"user_id":126,"name":"J2PWN","steam_id":76561198409287854,"connected_time":1847000000000,"state":"active","ping":93},{"user_id":136,"name":"Asl:3x","steam_id":76561198972095766,"connected_time":831000000000,"state":"active","ping":37},{"user_id":42,"name":"beans (real)","steam_id":76561198085708153,"connected_time":8807000000000,"state":"active","ping":85},{"user_id":137,"name":"Snowy","steam_id":76561198255720598,"connected_time":798000000000,"state":"active","ping":44},{"user_id":117,"name":"Brud","steam_id":76561198123542239,"connected_time":2472000000000,"state":"active","ping":48},{"user_id":138,"name":"Scotland Forever","steam_id":76561199026861527,"connected_time":785000000000,"state":"active","ping":74},{"user_id":82,"name":"TheBeanBoy","steam_id":76561198041163829,"connected_time":5192000000000,"state":"active","ping":55},{"user_id":121,"name":"Teamfighting","steam_id":76561198160135508,"connected_time":2278000000000,"state":"active","ping":53},{"user_id":144,"name":"monnickev","steam_id":76561198252587162,"connected_time":408000000000,"state":"active","ping":44},{"user_id":146,"name":"Pebuis","steam_id":76561198315666723,"connected_time":390000000000,"state":"active","ping":68},{"user_id":140,"name":"CheeseFlag126","steam_id":76561199262769917,"connected_time":780000000000,"state":"active","ping":63},{"user_id":149,"name":"Slime the Protogen","steam_id":76561198070632295,"connected_time":1000000000,"state":"spawning","ping":39}]},{"server_id":396,"name":"Uncletopia | Sydney | 4 | All Maps","name_short":"syd-4","host":"syd-1.au.uncletopia.com","port":27045,"enabled":true,"region":"au","cc":"au","latitude":-33.865143,"longitude":151.2099,"reserved":0,"last_update":"0001-01-01T00:00:00Z","name_a2s":"Uncletopia | Sydney | 4 | All Maps","protocol":17,"map":"cp_dustbowl","folder":"tf","game":"Team Fortress","app_id":440,"player_count":0,"max_players":24,"Bots":0,"server_type":"Dedicated","server_os":"Linux","password":true,"vac":true,"version":"7961495","steam_id":85568392925397958,"keywords":["cp","nocrits","nodmgspread","uncletopia"],"game_id":440,"stv_port":27046,"stv_name":"Uncletopia | Sydney | 4 | All Maps | STV","players":null},{"server_id":58,"name":"Uncletopia | Sydney | 5 | Stopwatch","name_short":"syd-5","host":"syd-1.au.uncletopia.com","port":27055,"enabled":true,"region":"au","cc":"au","latitude":-33.865143,"longitude":151.2099,"reserved":0,"last_update":"0001-01-01T00:00:00Z","name_a2s":"Uncletopia | Sydney | 5 | Stopwatch","protocol":17,"map":"pl_frontier_final","folder":"tf","game":"Team Fortress","app_id":440,"player_count":0,"max_players":24,"Bots":0,"server_type":"Dedicated","server_os":"Linux","password":true,"vac":true,"version":"7961495","steam_id":85568392925397959,"keywords":["nocrits","nodmgspread","payload","uncletopia"],"game_id":440,"stv_port":27056,"stv_name":"Uncletopia | Sydney | 5 | Stopwatch | STV","players":null},{"server_id":59,"name":"Uncletopia | Sydney | 6 | Community","name_short":"syd-6","host":"syd-1.au.uncletopia.com","port":27065,"enabled":true,"region":"au","cc":"au","latitude":-33.865143,"longitude":151.2099,"reserved":0,"last_update":"0001-01-01T00:00:00Z","name_a2s":"Uncletopia | Sydney | 6 | Community","protocol":17,"map":"cp_sunshine","folder":"tf","game":"Team Fortress","app_id":440,"player_count":0,"max_players":24,"Bots":0,"server_type":"Dedicated","server_os":"Linux","password":true,"vac":true,"version":"7961495","steam_id":85568392925397960,"keywords":["cp","nocrits","nodmgspread","uncletopia"],"game_id":440,"stv_port":27066,"stv_name":"Uncletopia | Sydney | 6 | Community | STV","players":null},{"server_id":49,"name":"Uncletopia | Warsaw | 1 | One Thousand Uncles","name_short":"waw-1","host":"waw-1.pl.uncletopia.com","port":27015,"enabled":true,"region":"eu","cc":"pl","latitude":52.2297,"longitude":21.017532,"reserved":0,"last_update":"0001-01-01T00:00:00Z","name_a2s":"Uncletopia | Warsaw | 1 | One Thousand Uncles","protocol":17,"map":"pl_upward","folder":"tf","game":"Team Fortress","app_id":440,"player_count":0,"max_players":32,"Bots":0,"server_type":"Dedicated","server_os":"Linux","password":true,"vac":true,"version":"7961495","steam_id":85568392925397850,"keywords":["alltalk","danepve","increased_maxplayers","nocrits","norespawntime","payload","uncletopia"],"game_id":440,"stv_port":0,"stv_name":"","players":null},{"server_id":50,"name":"Uncletopia | Warsaw | 2 | One Thousand Uncles","name_short":"waw-2","host":"waw-1.pl.uncletopia.com","port":27025,"enabled":true,"region":"eu","cc":"pl","latitude":52.2297,"longitude":21.017532,"reserved":0,"last_update":"0001-01-01T00:00:00Z","name_a2s":"Uncletopia | Warsaw | 2 | One Thousand Uncles","protocol":17,"map":"pl_goldrush","folder":"tf","game":"Team Fortress","app_id":440,"player_count":0,"max_players":32,"Bots":0,"server_type":"Dedicated","server_os":"Linux","password":true,"vac":true,"version":"7961495","steam_id":85568392925397851,"keywords":["alltalk","danepve","increased_maxplayers","nocrits","norespawntime","payload","uncletopia"],"game_id":440,"stv_port":0,"stv_name":"","players":null},{"server_id":51,"name":"Uncletopia | Warsaw | 3 | All Maps","name_short":"waw-3","host":"waw-1.pl.uncletopia.com","port":27035,"enabled":true,"region":"eu","cc":"pl","latitude":52.2297,"longitude":21.017532,"reserved":0,"last_update":"0001-01-01T00:00:00Z","name_a2s":"Uncletopia | Warsaw | 3 | All Maps","protocol":17,"map":"plr_pipeline","folder":"tf","game":"Team Fortress","app_id":440,"player_count":0,"max_players":24,"Bots":0,"server_type":"Dedicated","server_os":"Linux","password":true,"vac":true,"version":"7961495","steam_id":85568392925397852,"keywords":["nocrits","nodmgspread","payload","uncletopia"],"game_id":440,"stv_port":27036,"stv_name":"Uncletopia | Warsaw | 3 | All Maps | STV","players":null},{"server_id":52,"name":"Uncletopia | Warsaw | 4 | All Maps","name_short":"waw-4","host":"waw-1.pl.uncletopia.com","port":27045,"enabled":true,"region":"eu","cc":"pl","latitude":52.2297,"longitude":21.017532,"reserved":0,"last_update":"0001-01-01T00:00:00Z","name_a2s":"Uncletopia | Warsaw | 4 | All Maps","protocol":17,"map":"koth_highpass","folder":"tf","game":"Team Fortress","app_id":440,"player_count":0,"max_players":24,"Bots":0,"server_type":"Dedicated","server_os":"Linux","password":true,"vac":true,"version":"7961495","steam_id":85568392925397853,"keywords":["cp","nocrits","nodmgspread","uncletopia"],"game_id":440,"stv_port":27046,"stv_name":"Uncletopia | Warsaw | 4 | All Maps | STV","players":null},{"server_id":53,"name":"Uncletopia | Warsaw | 5 | Stopwatch","name_short":"waw-5","host":"waw-1.pl.uncletopia.com","port":27055,"enabled":true,"region":"eu","cc":"pl","latitude":52.2297,"longitude":21.017532,"reserved":0,"last_update":"0001-01-01T00:00:00Z","name_a2s":"Uncletopia | Warsaw | 5 | Stopwatch","protocol":17,"map":"workshop/koth_bagel_rc6.ugc2514036946","folder":"tf","game":"Team Fortress","app_id":440,"player_count":0,"max_players":24,"Bots":0,"server_type":"Dedicated","server_os":"Linux","password":true,"vac":true,"version":"7961495","steam_id":85568392925397854,"keywords":["cp","nocrits","nodmgspread","uncletopia"],"game_id":440,"stv_port":27056,"stv_name":"Uncletopia | Warsaw | 5 | Stopwatch | STV","players":null},{"server_id":54,"name":"Uncletopia | Warsaw | 6 | Community","name_short":"waw-6","host":"waw-1.pl.uncletopia.com","port":27065,"enabled":true,"region":"eu","cc":"pl","latitude":52.2297,"longitude":21.017532,"reserved":0,"last_update":"0001-01-01T00:00:00Z","name_a2s":"Uncletopia | Warsaw | 6 | Community","protocol":17,"map":"workshop/pl_badwater_pro_v12.ugc2142942074","folder":"tf","game":"Team Fortress","app_id":440,"player_count":0,"max_players":24,"Bots":0,"server_type":"Dedicated","server_os":"Linux","password":true,"vac":true,"version":"7961495","steam_id":85568392925397856,"keywords":["nocrits","nodmgspread","payload","uncletopia"],"game_id":440,"stv_port":27066,"stv_name":"Uncletopia | Warsaw | 6 | Community | STV","players":null}]}