{"status":true,"message":"","result":[{"server_id":2,"name":"Uncletopia | Chicago | 1 | All Maps","name_short":"chi-1","host":"chi-1.us.uncletopia.com","port":27015,"enabled":true,"region":"us-central","cc":"us","latitude":41.881832,"longitude":-87.62318,"reserved":0,"last_update":"0001-01-01T00:00:00Z","name_a2s":"Uncletopia | Chicago | 1 | All Maps","protocol":17,"map":"koth_cascade","folder":"tf","game":"Team Fortress","app_id":440,"player_count":24,"max_players":24,"Bots":0,"server_type":"Dedicated","server_os":"Linux","password":true,"vac":true,"version":"7961495","steam_id":85568392924469984,"keywords":["cp","nocrits","nodmgspread","uncletopia"],"game_id":440,"stv_port":27016,"stv_name":"Uncletopia | Chicago | 1 | All Maps | STV","players":[{"user_id":120,"name":"pink hair and pronouns","steam_id":76561198066227208,"connected_time":654000000000,"state":"active","ping":60},{"user_id":75,"name":"βlight","steam_id":76561198811130843,"connected_time":3658000000000,"state":"active","ping":71},{"user_id":86,"name":"suzuya #meowment","steam_id":76561199207991492,"connected_time":2203000000000,"state":"active","ping":60},{"user_id":125,"name":"TwErC","steam_id":76561198141482152,"connected_time":582000000000,"state":"active","ping":86},{"user_id":121,"name":"DeadErebus","steam_id":76561198286117045,"connected_time":649000000000,"state":"active","ping":33},{"user_id":118,"name":"Ojen","steam_id":76561197998414482,"connected_time":819000000000,"state":"active","ping":63},{"user_id":119,"name":"LucentOwl","steam_id":76561198140978957,"connected_time":679000000000,"state":"active","ping":58},{"user_id":131,"name":"Big Puff","steam_id":76561198209820681,"connected_time":7000000000,"state":"active","ping":68},{"user_id":126,"name":"NTFrost","steam_id":76561198015130396,"connected_time":544000000000,"state":"active","ping":140},{"user_id":82,"name":"Kiss Master","steam_id":76561198289572271,"connected_time":3483000000000,"state":"active","ping":76},{"user_id":46,"name":"cat","steam_id":76561198096347625,"connected_time":7154000000000,"state":"active","ping":75},{"user_id":98,"name":"mikey","steam_id":76561198095803763,"connected_time":2129000000000,"state":"active","ping":86},{"user_id":71,"name":"B.","steam_id":76561198040445907,"connected_time":5001000000000,"state":"active","ping":73},{"user_id":123,"name":"hank","steam_id":76561197977182378,"connected_time":623000000000,"state":"active","ping":49},{"user_id":77,"name":"crunchy obama","steam_id":76561198044485217,"connected_time":3645000000000,"state":"active","ping":105},{"user_id":95,"name":"Broadsword","steam_id":76561198011160411,"connected_time":2138000000000,"state":"active","ping":92},{"user_id":127,"name":"5mech","steam_id":76561198979167520,"connected_time":411000000000,"state":"active","ping":59},{"user_id":112,"name":"Boredom2013","steam_id":76561198066426686,"connected_time":1500000000000,"state":"active","ping":111},{"user_id":117,"name":"Elena Manetta","steam_id":76561197998344054,"connected_time":862000000000,"state":"active","ping":60},{"user_id":115,"name":"Raizen","steam_id":76561199092445367,"connected_time":1239000000000,"state":"active","ping":51},{"user_id":81,"name":"Argo","steam_id":76561198353725622,"connected_time":3557000000000,"state":"active","ping":84},{"user_id":101,"name":"Mury","steam_id":76561198069743049,"connected_time":1961000000000,"state":"active","ping":92},{"user_id":105,"name":"Fredfredfood","steam_id":76561198072824802,"connected_time":1932000000000,"state":"active","ping":60},{"user_id":130,"name":"Joker","steam_id":76561198341537452,"connected_time":119000000000,"state":"active","ping":82}]},{"server_id":106,"name":"Uncletopia | Chicago | 2 | All Maps","name_short":"chi-2","host":"chi-1.us.uncletopia.com","port":27025,"enabled":true,"region":"us-central","cc":"us","latitude":41.881832,"longitude":-87.62318,"reserved":0,"last_update":"0001-01-01T00:00:00Z","name_a2s":"Uncletopia | Chicago | 2 | All Maps","protocol":17,"map":"cp_dustbowl","folder":"tf","game":"Team Fortress","app_id":440,"player_count":24,"max_players":24,"Bots":0,"server_type":"Dedicated","server_os":"Linux","password":true,"vac":true,"version":"7961495","steam_id":85568392924469985,"keywords":["cp","nocrits","nodmgspread","uncletopia"],"game_id":440,"stv_port":27026,"stv_name":"Uncletopia | Chicago | 2 | All Maps | STV","players":[{"user_id":7,"name":"vyx","steam_id":76561198037205391,"connected_time":4863000000000,"state":"active","ping":65},{"user_id":46,"name":"beaten to mental retardation","steam_id":76561198152139282,"connected_time":1619000000000,"state":"active","ping":71},{"user_id":53,"name":"Eggie","steam_id":76561199018655610,"connected_time":1023000000000,"state":"active","ping":67},{"user_id":48,"name":"fasty","steam_id":76561199243229769,"connected_time":1413000000000,"state":"active","ping":44},{"user_id":16,"name":"swaghetti yolognese","steam_id":76561198838282369,"connected_time":2991000000000,"state":"active","ping":75},{"user_id":57,"name":"my mom","steam_id":76561199225201569,"connected_time":812000000000,"state":"active","ping":70},{"user_id":58,"name":"δ","steam_id":76561198046278452,"connected_time":601000000000,"state":"active","ping":105},{"user_id":19,"name":"boneboy88","steam_id":76561199231079499,"connected_time":2695000000000,"state":"active","ping":76},{"user_id":59,"name":"Im High","steam_id":76561198049954886,"connected_time":214000000000,"state":"active","ping":66},{"user_id":21,"name":"mark","steam_id":76561198200380143,"connected_time":2565000000000,"state":"active","ping":143},{"user_id":49,"name":"cpg","steam_id":76561198853515541,"connected_time":1254000000000,"state":"active","ping":89},{"user_id":40,"name":"NamelessBear™","steam_id":76561198014564006,"connected_time":1916000000000,"state":"active","ping":77},{"user_id":24,"name":"Old Sport","steam_id":76561198135435875,"connected_time":2471000000000,"state":"active","ping":98},{"user_id":28,"name":"Fish","steam_id":76561198872926297,"connected_time":2426000000000,"state":"active","ping":85},{"user_id":26,"name":"BarrowBaron","steam_id":76561198013633236,"connected_time":2460000000000,"state":"active","ping":51},{"user_id":50,"name":"Clud","steam_id":76561198258058762,"connected_time":1212000000000,"state":"active","ping":77},{"user_id":47,"name":"Soju","steam_id":76561198044130442,"connected_time":1592000000000,"state":"active","ping":85},{"user_id":51,"name":"Chiki","steam_id":76561198063590320,"connected_time":1145000000000,"state":"active","ping":57},{"user_id":44,"name":"Emily50AE","steam_id":76561198088619665,"connected_time":1775000000000,"state":"active","ping":71},{"user_id":52,"name":"asbestos","steam_id":76561198079178866,"connected_time":1045000000000,"state":"active","ping":68},{"user_id":33,"name":"Augister","steam_id":76561199069883830,"connected_time":2288000000000,"state":"active","ping":50},{"user_id":41,"name":"peebs","steam_id":76561198261319753,"connected_time":1912000000000,"state":"active","ping":70},{"user_id":42,"name":"wearing my sunday pants","steam_id":76561198834106533,"connected_time":1888000000000,"state":"active","ping":78},{"user_id":43,"name":"GCG","steam_id":76561198050406064,"connected_time":1858000000000,"state":"active","ping":108}]},{"server_id":402,"name":"Uncletopia | Chicago | 3 | All Maps","name_short":"chi-3","host":"chi-1.us.uncletopia.com","port":27035,"enabled":true,"region":"us-central","cc":"us","latitude":41.881832,"longitude":-87.62318,"reserved":0,"last_update":"0001-01-01T00:00:00Z","name_a2s":"Uncletopia | Chicago | 3 | All Maps","protocol":17,"map":"koth_cascade","folder":"tf","game":"Team Fortress","app_id":440,"player_count":0,"max_players":24,"Bots":0,"server_type":"Dedicated","server_os":"Linux","password":true,"vac":true,"version":"7961495","steam_id":85568392924515191,"keywords":["cp","nocrits","nodmgspread","uncletopia"],"game_id":440,"stv_port":27036,"stv_name":"Uncletopia | Chicago | 3 | All Maps | STV","players":null},{"server_id":403,"name":"Uncletopia | Chicago | 4 | All Maps","name_short":"chi-4","host":"chi-1.us.uncletopia.com","port":27045,"enabled":true,"region":"us-central","cc":"us","latitude":41.881832,"longitude":-87.62318,"reserved":0,"last_update":"0001-01-01T00:00:00Z","name_a2s":"Uncletopia | Chicago | 4 | All Maps","protocol":17,"map":"koth_lakeside_final","folder":"tf","game":"Team Fortress","app_id":440,"player_count":0,"max_players":24,"Bots":0,"server_type":"Dedicated","server_os":"Linux","password":true,"vac":true,"version":"7961495","steam_id":85568392924515193,"keywords":["cp","nocrits","nodmgspread","uncletopia"],"game_id":440,"stv_port":27046,"stv_name":"Uncletopia | Chicago | 4 | All Maps | STV","players":null},{"server_id":36,"name":"Uncletopia | Chicago | 5 | All Maps","name_short":"chi-5","host":"chi-2.us.uncletopia.com","port":27015,"enabled":true,"region":"us-central","cc":"us","latitude":41.881832,"longitude":-87.62318,"reserved":0,"last_update":"0001-01-01T00:00:00Z","name_a2s":"Uncletopia | Chicago | 5 | All Maps","protocol":17,"map":"pl_frontier_final","folder":"tf","game":"Team Fortress","app_id":440,"player_count":0,"max_players":24,"Bots":0,"server_type":"Dedicated","server_os":"Linux","password":true,"vac":true,"version":"7961495","steam_id":85568392924866362,"keywords":["nocrits","nodmgspread","payload","uncletopia"],"game_id":440,"stv_port":27016,"stv_name":"Uncletopia | Chicago | 5 | All Maps | STV","players":null},{"server_id":37,"name":"Uncletopia | Chicago | 6 | All Maps","name_short":"chi-6","host":"chi-2.us.uncletopia.com","port":27025,"enabled":true,"region":"us-central","cc":"us","latitude":41.881832,"longitude":-87.62318,"reserved":0,"last_update":"0001-01-01T00:00:00Z","name_a2s":"Uncletopia | Chicago | 6 | All Maps","protocol":17,"map":"cp_snakewater_final1","folder":"tf","game":"Team Fortress","app_id":440,"player_count":0,"max_players":24,"Bots":0,"server_type":"Dedicated","server_os":"Linux","password":true,"vac":true,"version":"7961495","steam_id":85568392924866363,"keywords":["cp","nocrits","nodmgspread","uncletopia"],"game_id":440,"stv_port":27026,"stv_name":"Uncletopia | Chicago | 6 | All Maps | STV","players":null},{"server_id":38,"name":"Uncletopia | Chicago | 7 | Stopwatch Beta","name_short":"chi-7","host":"chi-2.us.uncletopia.com","port":27035,"enabled":true,"region":"us-central","cc":"us","latitude":41.881832,"longitude":-87.62318,"reserved":0,"last_update":"0001-01-01T00:00:00Z","name_a2s":"Uncletopia | Chicago | 7 | Stopwatch Beta","protocol":17,"map":"cp_process_final","folder":"tf","game":"Team Fortress","app_id":440,"player_count":0,"max_players":24,"Bots":0,"server_type":"Dedicated","server_os":"Linux","password":true,"vac":true,"version":"7961495","steam_id":85568392924866364,"keywords":["cp","nocrits","nodmgspread","uncletopia"],"game_id":440,"stv_port":27036,"stv_name":"Uncletopia | Chicago | 7 | Stopwatch Beta | STV","players":null},{"server_id":39,"name":"Uncletopia | Chicago | 8 | Community","name_short":"chi-8","host":"chi-2.us.uncletopia.com","port":27045,"enabled":true,"region":"us-central","cc":"us","latitude":41.881832,"longitude":-87.62318,"reserved":0,"last_update":"0001-01-01T00:00:00Z","name_a2s":"Uncletopia | Chicago | 8 | Community","protocol":17,"map":"cp_snakewater_final1","folder":"tf","game":"Team Fortress","app_id":440,"player_count":0,"max_players":24,"Bots":0,"server_type":"Dedicated","server_os":"Linux","password":true,"vac":true,"version":"7961495","steam_id":85568392924866365,"keywords":["cp","nocrits","nodmgspread","uncletopia"],"game_id":440,"stv_port":27046,"stv_name":"Uncletopia | Chicago | 8 | Community | STV","players":null},{"server_id":8,"name":"Uncletopia | Dallas | 1 | All Maps","name_short":"dal-1","host":"dal-1.us.uncletopia.com","port":27015,"enabled":true,"region":"us-central","cc":"us","latitude":32.779167,"longitude":-96.80889,"reserved":0,"last_update":"0001-01-01T00:00:00Z","name_a2s":"Uncletopia | Dallas | 1 | All Maps","protocol":17,"map":"koth_highpass","folder":"tf","game":"Team Fortress","app_id":440,"player_count":0,"max_players":24,"Bots":0,"server_type":"Dedicated","server_os":"Linux","password":true,"vac":true,"version":"7961495","steam_id":85568392924469986,"keywords":["cp","nocrits","nodmgspread","uncletopia"],"game_id":440,"stv_port":27016,"stv_name":"Uncletopia | Dallas | 1 | All Maps | STV","players":null},{"server_id":108,"name":"Uncletopia | Dallas | 2 | All Maps","name_short":"dal-2","host":"dal-1.us.uncletopia.com","port":27025,"enabled":true,"region":"us-central","cc":"us","latitude":32.779167,"longitude":-96.80889,"reserved":0,"last_update":"0001-01-01T00:00:00Z","name_a2s":"Uncletopia | Dallas | 2 | All Maps","protocol":17,"map":"koth_cascade","folder":"tf","game":"Team Fortress","app_id":440,"player_count":2,"max_players":24,"Bots":0,"server_type":"Dedicated","server_os":"Linux","password":true,"vac":true,"version":"7961495","steam_id":85568392924469988,"keywords":["cp","nocrits","nodmgspread","uncletopia"],"game_id":440,"stv_port":27026,"stv_name":"Uncletopia | Dallas | 2 | All Maps | STV","players":[{"user_id":9,"name":"NuggBugguwu","steam_id":76561199396414430,"connected_time":1127000000000,"state":"active","ping":71},{"user_id":10,"name":"ericcartmangaming24","steam_id":76561199233479031,"connected_time":510000000000,"state":"active","ping":72}]},{"server_id":5,"name":"Uncletopia | Frankfurt | 1 | All Maps","name_short":"frk-1","host":"frk-1.de.uncletopia.com","port":27015,"enabled":true,"region":"eu","cc":"de","latitude":50.110924,"longitude":8.682127,"reserved":0,"last_update":"0001-01-01T00:00:00Z","name_a2s":"Uncletopia | Frankfurt | 1 | All Maps","protocol":17,"map":"pl_thundermountain","folder":"tf","game":"Team Fortress","app_id":440,"player_count":24,"max_players":24,"Bots":0,"server_type":"Dedicated","server_os":"Linux","password":true,"vac":true,"version":"7961495","steam_id":85568392924469989,"keywords":["nocrits","nodmgspread","payload","uncletopia"],"game_id":440,"stv_port":27016,"stv_name":"Uncletopia | Frankfurt | 1 | All Maps | STV","players":[{"user_id":269,"name":"Eqxd","steam_id":76561199055592635,"connected_time":2080000000000,"state":"active","ping":102},{"user_id":260,"name":"FlameTheGame","steam_id":76561198841108519,"connected_time":2538000000000,"state":"active","ping":89},{"user_id":290,"name":"Burrito","steam_id":76561198023919089,"connected_time":338000000000,"state":"active","ping":84},{"user_id":283,"name":"Brinier","steam_id":76561199012604288,"connected_time":528000000000,"state":"active","ping":56},{"user_id":284,"name":"loading...","steam_id":76561199153812702,"connected_time":509000000000,"state":"active","ping":121},{"user_id":261,"name":"Pinochet","steam_id":76561198194042394,"connected_time":2515000000000,"state":"active","ping":145},{"user_id":264,"name":"Eggcracker","steam_id":76561199274850641,"connected_time":2474000000000,"state":"active","ping":98},{"user_id":275,"name":"[T]aKer","steam_id":76561198001778013,"connected_time":1250000000000,"state":"active","ping":58},{"user_id":252,"name":"Big Bear","steam_id":76561198136546764,"connected_time":3067000000000,"state":"active","ping":108},{"user_id":273,"name":"ossop","steam_id":76561198045271499,"connected_time":1529000000000,"state":"active","ping":66},{"user_id":238,"name":"TheRubberDuccy","steam_id":76561199023194086,"connected_time":3975000000000,"state":"active","ping":90},{"user_id":265,"name":"miiq130","steam_id":76561198188010666,"connected_time":2442000000000,"state":"active","ping":75},{"user_id":291,"name":"to jest kurwa kursor","steam_id":76561198228941832,"connected_time":68000000000,"state":"active","ping":82},{"user_id":201,"name":"PlebCord","steam_id":76561198120685803,"connected_time":5988000000000,"state":"active","ping":80},{"user_id":240,"name":"garlic bread","steam_id":76561198932375584,"connected_time":3928000000000,"state":"active","ping":102},{"user_id":276,"name":"Kelesch","steam_id":76561198043938997,"connected_time":1007000000000,"state":"active","ping":75},{"user_id":280,"name":"Toaster Roaster","steam_id":76561198158213601,"connected_time":801000000000,"state":"active","ping":85},{"user_id":285,"name":"Alekk","steam_id":76561198093533143,"connected_time":492000000000,"state":"active","ping":70},{"user_id":272,"name":"lunaire","steam_id":76561198163344452,"connected_time":1796000000000,"state":"active","ping":75},{"user_id":126,"name":"realness","steam_id":76561199129226935,"connected_time":9738000000000,"state":"active","ping":90},{"user_id":233,"name":"Kapitan Polska","steam_id":76561197968069413,"connected_time":4606000000000,"state":"active","ping":75},{"user_id":271,"name":"Hejko","steam_id":76561198963293449,"connected_time":1849000000000,"state":"active","ping":72},{"user_id":286,"name":"sz(k)","steam_id":76561198118500940,"connected_time":442000000000,"state":"active","ping":64}]},{"server_id":110,"name":"Uncletopia | Frankfurt | 2 | All Maps","name_short":"frk-2","host":"frk-1.de.uncletopia.com","port":27025,"enabled":true,"region":"eu","cc":"de","latitude":50.110924,"longitude":8.682127,"reserved":0,"last_update":"0001-01-01T00:00:00Z","name_a2s":"Uncletopia | Frankfurt | 2 | All Maps","protocol":17,"map":"pl_upward","folder":"tf","game":"Team Fortress","app_id":440,"player_count":24,"max_players":24,"Bots":0,"server_type":"Dedicated","server_os":"Linux","password":true,"vac":true,"version":"7961495","steam_id":85568392924469990,"keywords":["nocrits","nodmgspread","payload","uncletopia"],"game_id":440,"stv_port":27026,"stv_name":"Uncletopia | Frankfurt | 2 | All Maps | STV","players":[{"user_id":140,"name":"Pan Pan","steam_id":76561199074670515,"connected_time":5537000000000,"state":"active","ping":91},{"user_id":200,"name":"Rex Z'Beq","steam_id":76561199300590000,"connected_time":464000000000,"state":"active","ping":82},{"user_id":168,"name":"I.AM.THE.BOOP.WHICH.IS.APROACHI","steam_id":76561198049342507,"connected_time":2628000000000,"state":"active","ping":83},{"user_id":193,"name":"yeldad","steam_id":76561198447264153,"connected_time":692000000000,"state":"active","ping":134},{"user_id":155,"name":"Kurage","steam_id":76561198021221288,"connected_time":4945000000000,"state":"active","ping":55},{"user_id":185,"name":"Puppy","steam_id":76561198284766141,"connected_time":1306000000000,"state":"active","ping":48},{"user_id":188,"name":"Donald Duck Boner Autism","steam_id":76561198092232955,"connected_time":1083000000000,"state":"active","ping":60},{"user_id":206,"name":"LJ","steam_id":76561198026723805,"connected_time":197000000000,"state":"active","ping":61},{"user_id":205,"name":"BluDiamynt","steam_id":76561198894231340,"connected_time":216000000000,"state":"active","ping":68},{"user_id":207,"name":"cuddle","steam_id":76561198805181599,"connected_time":184000000000,"state":"active","ping":61},{"user_id":192,"name":"Salamon","steam_id":76561198280756561,"connected_time":708000000000,"state":"active","ping":109},{"user_id":194,"name":"panakid","steam_id":76561198364121077,"connected_time":689000000000,"state":"active","ping":92},{"user_id":179,"name":"i have kids in my basement","steam_id":76561199226128663,"connected_time":1739000000000,"state":"active","ping":77},{"user_id":214,"name":"Bayoyo","steam_id":76561199069591774,"connected_time":27000000000,"state":"spawning","ping":59},{"user_id":174,"name":"Pan Piotr","steam_id":76561198140016126,"connected_time":2168000000000,"state":"active","ping":68},{"user_id":195,"name":"OTP DynamoDM","steam_id":76561198150755391,"connected_time":677000000000,"state":"active","ping":47},{"user_id":209,"name":"Schiever","steam_id":76561198052136026,"connected_time":167000000000,"state":"active","ping":58},{"user_id":215,"name":"KNARRER","steam_id":76561199130777953,"connected_time":3000000000,"state":"spawning","ping":41},{"user_id":210,"name":"Amon Gus","steam_id":76561199094540960,"connected_time":150000000000,"state":"active","ping":62},{"user_id":204,"name":"XiaBit","steam_id":76561199204102465,"connected_time":264000000000,"state":"active","ping":75},{"user_id":203,"name":"The One (and only)","steam_id":76561198827193499,"connected_time":362000000000,"state":"active","ping":68},{"user_id":156,"name":"Maru","steam_id":76561198030931030,"connected_time":4885000000000,"state":"active","ping":65},{"user_id":178,"name":"BreadAcres","steam_id":76561198098217082,"connected_time":1965000000000,"state":"active","ping":56},{"user_id":160,"name":"LOWSKILLGAMING","steam_id":76561198093073758,"connected_time":4515000000000,"state":"active","ping":68}]},{"server_id":308,"name":"Uncletopia | Frankfurt | 3 | All Maps","name_short":"frk-3","host":"frk-1.de.uncletopia.com","port":27035,"enabled":true,"region":"eu","cc":"de","latitude":50.110924,"longitude":8.682127,"reserved":0,"last_update":"0001-01-01T00:00:00Z","name_a2s":"Uncletopia | Frankfurt | 3 | All Maps","protocol":17,"map":"pl_swiftwater_final1","folder":"tf","game":"Team Fortress","app_id":440,"player_count":17,"max_players":24,"Bots":0,"server_type":"Dedicated","server_os":"Linux","password":true,"vac":true,"version":"7961495","steam_id":85568392924504274,"keywords":["nocrits","nodmgspread","payload","uncletopia"],"game_id":440,"stv_port":27036,"stv_name":"Uncletopia | Frankfurt | 3 | All Maps | STV","players":[{"user_id":152,"name":"I drink 3D printer ink","steam_id":76561198056434693,"connected_time":1341000000000,"state":"active","ping":45},{"user_id":168,"name":"goblin (real)","steam_id":76561198868286775,"connected_time":235000000000,"state":"active","ping":89},{"user_id":161,"name":"『The Fenro』","steam_id":76561198327628443,"connected_time":996000000000,"state":"active","ping":87},{"user_id":146,"name":"Archer","steam_id":76561197994239444,"connected_time":1482000000000,"state":"active","ping":100},{"user_id":170,"name":"BasLutnya","steam_id":76561198050575776,"connected_time":179000000000,"state":"active","ping":75},{"user_id":130,"name":"Generál Kiwi","steam_id":76561198255946537,"connected_time":2931000000000,"state":"active","ping":40},{"user_id":125,"name":"The Beta Plan!","steam_id":76561198052835284,"connected_time":3338000000000,"state":"active","ping":58},{"user_id":165,"name":"XNorec","steam_id":76561198015778815,"connected_time":375000000000,"state":"active","ping":70},{"user_id":124,"name":"T_G_G","steam_id":76561199114568070,"connected_time":3418000000000,"state":"active","ping":85},{"user_id":140,"name":"Fuvuk","steam_id":76561198044458593,"connected_time":2283000000000,"state":"active","ping":89},{"user_id":156,"name":"Anadddest","steam_id":76561198992528373,"connected_time":1321000000000,"state":"active","ping":72},{"user_id":102,"name":"are you dreaming ?","steam_id":76561198272166623,"connected_time":4885000000000,"state":"active","ping":60},{"user_id":157,"name":"Jabussy","steam_id":76561198111148719,"connected_time":1300000000000,"state":"active","ping":68},{"user_id":136,"name":"DaeNIEL","steam_id":76561198222301068,"connected_time":2672000000000,"state":"active","ping":67},{"user_id":122,"name":"Fales","steam_id":76561198126124929,"connected_time":3466000000000,"state":"active","ping":70},{"user_id":158,"name":"Not A Fake Uncletopia Server","steam_id":76561198152871288,"connected_time":1293000000000,"state":"active","ping":65},{"user_id":164,"name":"Dill Killem","steam_id":76561199071571354,"connected_time":631000000000,"state":"active","ping":75}]},{"server_id":309,"name":"Uncletopia | Frankfurt | 4 | All Maps","name_short":"frk-4","host":"frk-1.de.uncletopia.com","port":27045,"enabled":true,"region":"eu","cc":"de","latitude":50.110924,"longitude":8.682127,"reserved":0,"last_update":"0001-01-01T00:00:00Z","name_a2s":"Uncletopia | Frankfurt | 4 | All Maps","protocol":17,"map":"pl_badwater","folder":"tf","game":"Team Fortress","app_id":440,"player_count":0,"max_players":24,"Bots":0,"server_type":"Dedicated","server_os":"Linux","password":true,"vac":true,"version":"7961495","steam_id":85568392924504275,"keywords":["nocrits","nodmgspread","payload","uncletopia"],"game_id":440,"stv_port":27046,"stv_name":"Uncletopia | Frankfurt | 4 | All Maps | STV","players":null},{"server_id":310,"name":"Uncletopia | Frankfurt | 5 | All Maps","name_short":"frk-5","host":"frk-1.de.uncletopia.com","port":27055,"enabled":true,"region":"eu","cc":"de","latitude":50.110924,"longitude":8.682127,"reserved":0,"last_update":"0001-01-01T00:00:00Z","name_a2s":"Uncletopia | Frankfurt | 5 | All Maps","protocol":17,"map":"pl_swiftwater_final1","folder":"tf","game":"Team Fortress","app_id":440,"player_count":22,"max_players":24,"Bots":0,"server_type":"Dedicated","server_os":"Linux","password":true,"vac":true,"version":"7961495","steam_id":85568392924504277,"keywords":["nocrits","nodmgspread","payload","uncletopia"],"game_id":440,"stv_port":27056,"stv_name":"Uncletopia | Frankfurt | 5 | All Maps | STV","players":[{"user_id":12,"name":"Lordware","steam_id":76561198022011299,"connected_time":1555000000000,"state":"active","ping":87},{"user_id":14,"name":"PumpkinMan","steam_id":76561198929162354,"connected_time":1510000000000,"state":"active","ping":74},{"user_id":10,"name":"Panzerschoki","steam_id":76561198211621756,"connected_time":1603000000000,"state":"active","ping":55},{"user_id":11,"name":"Rambles","steam_id":76561198400406140,"connected_time":1589000000000,"state":"active","ping":58},{"user_id":15,"name":"RafaeLY","steam_id":76561199115934983,"connected_time":1434000000000,"state":"active","ping":75},{"user_id":44,"name":"Tusho","steam_id":76561198115447383,"connected_time":196000000000,"state":"active","ping":130},{"user_id":32,"name":"God himself.","steam_id":76561198309874415,"connected_time":634000000000,"state":"active","ping":47},{"user_id":41,"name":"fronin","steam_id":76561198189553021,"connected_time":262000000000,"state":"active","ping":65},{"user_id":49,"name":"Nipa5000","steam_id":76561199027332005,"connected_time":71000000000,"state":"active","ping":79},{"user_id":21,"name":"you like buff tf2 men don't you","steam_id":76561198837586838,"connected_time":1050000000000,"state":"active","ping":69},{"user_id":22,"name":"Dirty Harry","steam_id":76561198813079990,"connected_time":1022000000000,"state":"active","ping":60},{"user_id":27,"name":"FuntimeGoose","steam_id":76561198893252155,"connected_time":777000000000,"state":"active","ping":60},{"user_id":34,"name":"Sklandu Rausis","steam_id":76561198150212823,"connected_time":574000000000,"state":"active","ping":69},{"user_id":36,"name":"UglyTwinYgor","steam_id":76561198132718039,"connected_time":375000000000,"state":"active","ping":77},{"user_id":31,"name":"Larry Penus","steam_id":76561198207546233,"connected_time":680000000000,"state":"active","ping":58},{"user_id":42,"name":"glyph","steam_id":76561197980736364,"connected_time":257000000000,"state":"active","ping":77},{"user_id":47,"name":"fast3r","steam_id":76561198415542035,"connected_time":127000000000,"state":"active","ping":57},{"user_id":38,"name":"antonio.jurjevic@brazzers.hr","steam_id":76561198179392402,"connected_time":287000000000,"state":"active","ping":46},{"user_id":39,"name":"Minimi","steam_id":76561198873850443,"connected_time":275000000000,"state":"active","ping":58},{"user_id":40,"name":"Dolcelatte","steam_id":76561198038501770,"connected_time":263000000000,"state":"active","ping":49},{"user_id":43,"name":"✯NE0N✯","steam_id":76561198084916656,"connected_time":253000000000,"state":"active","ping":71},{"user_id":46,"name":"pajer0","steam_id":76561198002913482,"connected_time":180000000000,"state":"active","ping":100}]},{"server_id":311,"name":"Uncletopia | Frankfurt | 6 | All Maps","name_short":"frk-6","host":"frk-1.de.uncletopia.com","port":27065,"enabled":true,"region":"eu","cc":"de","latitude":50.110924,"longitude":8.682127,"reserved":0,"last_update":"0001-01-01T00:00:00Z","name_a2s":"Uncletopia | Frankfurt | 6 | All Maps","protocol":17,"map":"cp_process_final","folder":"tf","game":"Team Fortress","app_id":440,"player_count":24,"max_players":24,"Bots":0,"server_type":"Dedicated","server_os":"Linux","password":true,"vac":true,"version":"7961495","steam_id":85568392924504278,"keywords":["cp","nocrits","nodmgspread","uncletopia"],"game_id":440,"stv_port":27066,"stv_name":"Uncletopia | Frankfurt | 6 | All Maps | STV","players":[{"user_id":174,"name":"fluffy474","steam_id":76561198375486320,"connected_time":1134000000000,"state":"active","ping":70},{"user_id":186,"name":"matteohk","steam_id":76561199174862026,"connected_time":283000000000,"state":"active","ping":79},{"user_id":184,"name":"Basinox","steam_id":76561198019628384,"connected_time":363000000000,"state":"active","ping":67},{"user_id":98,"name":"Will - no sound","steam_id":76561198173329977,"connected_time":6341000000000,"state":"active","ping":73},{"user_id":185,"name":"xavier","steam_id":76561198076494034,"connected_time":343000000000,"state":"active","ping":51},{"user_id":139,"name":"James","steam_id":76561198138558005,"connected_time":3672000000000,"state":"active","ping":80},{"user_id":168,"name":"Ch4bby","steam_id":76561198058792875,"connected_time":1543000000000,"state":"active","ping":60},{"user_id":175,"name":"ja","steam_id":76561199228540618,"connected_time":1133000000000,"state":"active","ping":66},{"user_id":179,"name":"EG swag messiah","steam_id":76561198072916231,"connected_time":788000000000,"state":"active","ping":75},{"user_id":187,"name":"SpaceBoxxer","steam_id":76561198798211513,"connected_time":182000000000,"state":"active","ping":78},{"user_id":158,"name":"Spinya","steam_id":76561198086653667,"connected_time":2552000000000,"state":"active","ping":69},{"user_id":188,"name":"Annie Wilkes","steam_id":76561198071210041,"connected_time":172000000000,"state":"active","ping":59},{"user_id":193,"name":"P3rsErkki","steam_id":76561198063093495,"connected_time":15000000000,"state":"spawning","ping":59},{"user_id":171,"name":"hbivnm","steam_id":76561197996468677,"connected_time":1411000000000,"state":"active","ping":60},{"user_id":183,"name":"Oskar","steam_id":76561198061794019,"connected_time":520000000000,"state":"active","ping":57},{"user_id":190,"name":"AFerociousTeddyBearSlayer","steam_id":76561198247447256,"connected_time":95000000000,"state":"active","ping":61},{"user_id":191,"name":"KnugenIV","steam_id":76561198127091993,"connected_time":94000000000,"state":"active","ping":58},{"user_id":129,"name":"john fortress","steam_id":76561198013237629,"connected_time":4053000000000,"state":"active","ping":111},{"user_id":162,"name":"A3517","steam_id":76561198346434027,"connected_time":2059000000000,"state":"active","ping":114},{"user_id":192,"name":"wouris","steam_id":76561198876188003,"connected_time":76000000000,"state":"active","ping":56},{"user_id":135,"name":"That Brown Nerd","steam_id":76561198196685086,"connected_time":3848000000000,"state":"active","ping":58},{"user_id":167,"name":"mèx","steam_id":76561197975951572,"connected_time":1636000000000,"state":"active","ping":58},{"user_id":156,"name":"Anri Okita's Massive Milkers","steam_id":76561199186352720,"connected_time":2726000000000,"state":"active","ping":75},{"user_id":147,"name":"Programmer Socks Gaming","steam_id":76561198982674420,"connected_time":3287000000000,"state":"active","ping":57}]},{"server_id":23,"name":"Uncletopia | Frankfurt | 7 | Stopwatch Beta","name_short":"frk-7","host":"frk-1.de.uncletopia.com","port":27075,"enabled":true,"region":"eu","cc":"de","latitude":50.110924,"longitude":8.682127,"reserved":0,"last_update":"0001-01-01T00:00:00Z","name_a2s":"Uncletopia | Frankfurt | 7 | Stopwatch Beta","protocol":17,"map":"workshop/koth_ashville_final.ugc2130459942","folder":"tf","game":"Team Fortress","app_id":440,"player_count":0,"max_players":24,"Bots":0,"server_type":"Dedicated","server_os":"Linux","password":true,"vac":true,"version":"7961495","steam_id":85568392924742827,"keywords":["cp","nocrits","nodmgspread","uncletopia"],"game_id":440,"stv_port":27076,"stv_name":"Uncletopia | Frankfurt | 7 | Stopwatch Beta | STV","players":null},{"server_id":24,"name":"Uncletopia | Frankfurt | 8 | Community","name_short":"frk-8","host":"frk-1.de.uncletopia.com","port":27085,"enabled":true,"region":"eu","cc":"de","latitude":50.110924,"longitude":8.682127,"reserved":0,"last_update":"0001-01-01T00:00:00Z","name_a2s":"Uncletopia | Frankfurt | 8 | Community","protocol":17,"map":"workshop/cp_overgrown_rc8.ugc503939302","folder":"tf","game":"Team Fortress","app_id":440,"player_count":0,"max_players":24,"Bots":0,"server_type":"Dedicated","server_os":"Linux","password":true,"vac":true,"version":"7961495","steam_id":85568392924742828,"keywords":["cp","nocrits","nodmgspread","uncletopia"],"game_id":440,"stv_port":27086,"stv_name":"Uncletopia | Frankfurt | 8 | Community | STV","players":null},{"server_id":202,"name":"Uncletopia | Hong Kong | 1 | All Maps","name_short":"hgk-1","host":"hgk-1.hk.uncletopia.com","port":27015,"enabled":true,"region":"asia","cc":"hk","latitude":22.302711,"longitude":114.177216,"reserved":0,"last_update":"0001-01-01T00:00:00Z","name_a2s":"Uncletopia | Hong Kong | 1 | All Maps","protocol":17,"map":"pl_barnblitz","folder":"tf","game":"Team Fortress","app_id":440,"player_count":24,"max_players":24,"Bots":0,"server_type":"Dedicated","server_os":"Linux","password":true,"vac":true,"version":"7961495","steam_id":85568392924494504,"keywords":["nocrits","nodmgspread","payload","uncletopia"],"game_id":440,"stv_port":27016,"stv_name":"Uncletopia | Hong Kong | 1 | All Maps | STV","players":[{"user_id":412,"name":"Corhix","steam_id":76561198968706355,"connected_time":488000000000,"state":"active","ping":55},{"user_id":394,"name":"mother","steam_id":76561199158853202,"connected_time":1788000000000,"state":"active","ping":60},{"user_id":360,"name":"Hay","steam_id":76561199438952901,"connected_time":3857000000000,"state":"active","ping":53},{"user_id":400,"name":"blobeye","steam_id":76561198420018387,"connected_time":1558000000000,"state":"active","ping":44},{"user_id":213,"name":"Headmouth","steam_id":76561198019789855,"connected_time":10111000000000,"state":"active","ping":129},{"user_id":405,"name":"steam","steam_id":76561199491032524,"connected_time":1211000000000,"state":"active","ping":91},{"user_id":414,"name":"elcanggoro","steam_id":76561199139343632,"connected_time":354000000000,"state":"active","ping":102},{"user_id":415,"name":"Corn_Archer","steam_id":76561199185044554,"connected_time":279000000000,"state":"active","ping":68},{"user_id":406,"name":"SEX","steam_id":76561198374545561,"connected_time":1022000000000,"state":"active","ping":80},{"user_id":361,"name":"no vc no c","steam_id":76561197989503095,"connected_time":3852000000000,"state":"active","ping":90},{"user_id":385,"name":"Samoyed","steam_id":76561198299150410,"connected_time":2377000000000,"state":"active","ping":81},{"user_id":401,"name":"sierra","steam_id":76561197969873415,"connected_time":1505000000000,"state":"active","ping":100},{"user_id":391,"name":"善良の墨","steam_id":76561199102754539,"connected_time":1974000000000,"state":"active","ping":86},{"user_id":357,"name":"Stewb","steam_id":76561198131423270,"connected_time":3907000000000,"state":"active","ping":106},{"user_id":395,"name":"DUDE","steam_id":76561198017159562,"connected_time":1785000000000,"state":"active","ping":82},{"user_id":235,"name":"Sniper Terrorizer","steam_id":76561198263447234,"connected_time":8814000000000,"state":"active","ping":95},{"user_id":364,"name":"nautilussub0","steam_id":76561199103651547,"connected_time":3727000000000,"state":"active","ping":99},{"user_id":418,"name":"Slonk","steam_id":76561198845070475,"connected_time":168000000000,"state":"active","ping":107},{"user_id":371,"name":"Cipher(I_Lag_a_lot_bare_with_me","steam_id":76561198796591492,"connected_time":3248000000000,"state":"active","ping":112},{"user_id":409,"name":"we ball","steam_id":76561199480939609,"connected_time":706000000000,"state":"active","ping":76},{"user_id":417,"name":"U・♀・U kitty","steam_id":76561198149684436,"connected_time":224000000000,"state":"active","ping":42},{"user_id":403,"name":"meowsh","steam_id":76561198060448954,"connected_time":1461000000000,"state":"active","ping":82},{"user_id":410,"name":"Kyo","steam_id":76561198088550274,"connected_time":589000000000,"state":"active","ping":43},{"user_id":295,"name":"Ivy","steam_id":76561198400698408,"connected_time":4731000000000,"state":"active","ping":96}]},{"server_id":1,"name":"Uncletopia | Los Angeles | 1 | All Maps","name_short":"lax-1","host":"lax-1.us.uncletopia.com","port":27015,"enabled":true,"region":"us-west","cc":"us","latitude":33.94279,"longitude":-118.41004,"reserved":0,"last_update":"0001-01-01T00:00:00Z","name_a2s":"Uncletopia | Los Angeles | 1 | All Maps","protocol":17,"map":"cp_snakewater_final1","folder":"tf","game":"Team Fortress","app_id":440,"player_count":0,"max_players":24,"Bots":0,"server_type":"Dedicated","server_os":"Linux","password":true,"vac":true,"version":"7961495","steam_id":85568392924469991,"keywords":["cp","nocrits","nodmgspread","uncletopia"],"game_id":440,"stv_port":27016,"stv_name":"Uncletopia | Los Angeles | 1 | All Maps | STV","players":null},{"server_id":112,"name":"Uncletopia | Los Angeles | 2 | All Maps","name_short":"lax-2","host":"lax-1.us.uncletopia.com","port":27025,"enabled":true,"region":"us-west","cc":"us","latitude":33.94279,"longitude":-118.41004,"reserved":0,"last_update":"0001-01-01T00:00:00Z","name_a2s":"Uncletopia | Los Angeles | 2 | All Maps","protocol":17,"map":"pl_swiftwater_final1","folder":"tf","game":"Team Fortress","app_id":440,"player_count":0,"max_players":24,"Bots":0,"server_type":"Dedicated","server_os":"Linux","password":true,"vac":true,"version":"7961495","steam_id":85568392924469992,"keywords":["nocrits","nodmgspread","payload","uncletopia"],"game_id":440,"stv_port":27026,"stv_name":"Uncletopia | Los Angeles | 2 | All Maps | STV","players":null},{"server_id":324,"name":"Uncletopia | Los Angeles | 3 | All Maps","name_short":"lax-3","host":"lax-1.us.uncletopia.com","port":27035,"enabled":true,"region":"us-west","cc":"us","latitude":33.94279,"longitude":-118.41004,"reserved":0,"last_update":"0001-01-01T00:00:00Z","name_a2s":"Uncletopia | Los Angeles | 3 | All Maps","protocol":17,"map":"pl_pier","folder":"tf","game":"Team Fortress","app_id":440,"player_count":0,"max_players":24,"Bots":0,"server_type":"Dedicated","server_os":"Linux","password":true,"vac":true,"version":"7961495","steam_id":85568392924510198,"keywords":["nocrits","nodmgspread","payload","uncletopia"],"game_id":440,"stv_port":27036,"stv_name":"Uncletopia | Los Angeles | 3 | All Maps | STV","players":null},{"server_id":25,"name":"Uncletopia | Los Angeles | 4 | Stopwatch Beta","name_short":"lax-4","host":"lax-1.us.uncletopia.com","port":27045,"enabled":true,"region":"us-west","cc":"us","latitude":33.94279,"longitude":-118.41004,"reserved":0,"last_update":"0001-01-01T00:00:00Z","name_a2s":"Uncletopia | Los Angeles | 4 | Stopwatch Beta","protocol":17,"map":"pl_frontier_final","folder":"tf","game":"Team Fortress","app_id":440,"player_count":0,"max_players":24,"Bots":0,"server_type":"Dedicated","server_os":"Linux","password":true,"vac":true,"version":"7961495","steam_id":85568392924510199,"keywords":["nocrits","nodmgspread","payload","uncletopia"],"game_id":440,"stv_port":27046,"stv_name":"Uncletopia | Los Angeles | 4 | Stopwatch Beta | STV","players":null},{"server_id":11,"name":"Uncletopia | London | 1 | All Maps","name_short":"lon-1","host":"lon-1.uk.uncletopia.com","port":27015,"enabled":true,"region":"eu","cc":"gb","latitude":51.509865,"longitude":-0.118092,"reserved":0,"last_update":"0001-01-01T00:00:00Z","name_a2s":"Uncletopia | London | 1 | All Maps","protocol":17,"map":"cp_dustbowl","folder":"tf","game":"Team Fortress","app_id":440,"player_count":16,"max_players":24,"Bots":0,"server_type":"Dedicated","server_os":"Linux","password":true,"vac":true,"version":"7961495","steam_id":85568392924367362,"keywords":["cp","nocrits","nodmgspread","uncletopia"],"game_id":440,"stv_port":27016,"stv_name":"Uncletopia | London | 1 | All Maps | STV","players":[{"user_id":395,"name":"Miss Wovett","steam_id":76561199066742526,"connected_time":175000000000,"state":"active","ping":54},{"user_id":382,"name":"Streaker","steam_id":76561198859213547,"connected_time":1368000000000,"state":"active","ping":100},{"user_id":400,"name":"_Corvo_","steam_id":76561198129339188,"connected_time":44000000000,"state":"active","ping":94},{"user_id":396,"name":"The Sun in Rags","steam_id":76561198169990975,"connected_time":130000000000,"state":"active","ping":51},{"user_id":366,"name":"Mr. Highlander (suit and tie)","steam_id":76561198167104693,"connected_time":2016000000000,"state":"active","ping":70},{"user_id":372,"name":"♣Генсек Поноса","steam_id":76561198796404149,"connected_time":1918000000000,"state":"active","ping":110},{"user_id":373,"name":"Snake-chan","steam_id":76561199044755854,"connected_time":1888000000000,"state":"active","ping":84},{"user_id":343,"name":"Ed geen","steam_id":76561198184360615,"connected_time":4058000000000,"state":"active","ping":90},{"user_id":355,"name":"Nipper ripper","steam_id":76561198058970707,"connected_time":3613000000000,"state":"active","ping":54},{"user_id":375,"name":"JUST","steam_id":76561198069064885,"connected_time":1848000000000,"state":"active","ping":52},{"user_id":393,"name":"MargoulGetron","steam_id":76561198020551698,"connected_time":329000000000,"state":"active","ping":47},{"user_id":368,"name":"t.tv/siiqull","steam_id":76561198133341026,"connected_time":2005000000000,"state":"active","ping":98},{"user_id":376,"name":"mister squibward","steam_id":76561198718760200,"connected_time":1799000000000,"state":"active","ping":45},{"user_id":387,"name":"Toaster1337","steam_id":76561198103706881,"connected_time":899000000000,"state":"active","ping":60},{"user_id":380,"name":"Ushlus","steam_id":76561199225270732,"connected_time":1620000000000,"state":"active","ping":137},{"user_id":394,"name":"exRage","steam_id":76561198449953655,"connected_time":189000000000,"state":"active","ping":56}]},{"server_id":114,"name":"Uncletopia | London | 2 | All Maps","name_short":"lon-2","host":"lon-1.uk.uncletopia.com","port":27025,"enabled":true,"region":"eu","cc":"gb","latitude":51.509865,"longitude":-0.118092,"reserved":0,"last_update":"0001-01-01T00:00:00Z","name_a2s":"Uncletopia | London | 2 | All Maps","protocol":17,"map":"koth_harvest_final","folder":"tf","game":"Team Fortress","app_id":440,"player_count":24,"max_players":24,"Bots":0,"server_type":"Dedicated","server_os":"Linux","password":true,"vac":true,"version":"7961495","steam_id":85568392924470941,"keywords":["cp","nocrits","nodmgspread","uncletopia"],"game_id":440,"stv_port":27026,"stv_name":"Uncletopia | London | 2 | All Maps | STV","players":[{"user_id":423,"name":"Warpzel65","steam_id":76561198799303596,"connected_time":2218000000000,"state":"active","ping":115},{"user_id":422,"name":"t0ksi","steam_id":76561198107240798,"connected_time":2370000000000,"state":"active","ping":75},{"user_id":426,"name":"Edith","steam_id":76561198867635722,"connected_time":1899000000000,"state":"active","ping":168},{"user_id":453,"name":"korben","steam_id":76561199121918383,"connected_time":376000000000,"state":"active","ping":79},{"user_id":442,"name":"oxidius","steam_id":76561198261730746,"connected_time":1305000000000,"state":"active","ping":50},{"user_id":457,"name":"lazer","steam_id":76561198049983016,"connected_time":75000000000,"state":"active","ping":90},{"user_id":433,"name":"MudFlap","steam_id":76561198257541676,"connected_time":1525000000000,"state":"active","ping":104},{"user_id":405,"name":"chocolate flavoured femboy","steam_id":76561198819353867,"connected_time":3842000000000,"state":"active","ping":31},{"user_id":360,"name":"The Creator of Sex","steam_id":76561198385989487,"connected_time":7300000000000,"state":"active","ping":99},{"user_id":436,"name":"Penis Contortionist","steam_id":76561198073663784,"connected_time":1459000000000,"state":"active","ping":36},{"user_id":451,"name":"gingus bobing IV","steam_id":76561198197851753,"connected_time":748000000000,"state":"active","ping":80},{"user_id":437,"name":"Samwell","steam_id":76561198182340393,"connected_time":1453000000000,"state":"active","ping":49},{"user_id":450,"name":"soupalognionycrouton","steam_id":76561199021878433,"connected_time":776000000000,"state":"active","ping":80},{"user_id":402,"name":"Sixie","steam_id":76561198251675360,"connected_time":3933000000000,"state":"active","ping":52},{"user_id":448,"name":"Sir Cauterize","steam_id":76561198047079422,"connected_time":927000000000,"state":"active","ping":50},{"user_id":432,"name":"hammertime","steam_id":76561199097714393,"connected_time":1598000000000,"state":"active","ping":164},{"user_id":459,"name":"TomNoSocks","steam_id":76561198114071046,"connected_time":16000000000,"state":"spawning","ping":48},{"user_id":446,"name":"God's Goofiest Goober","steam_id":76561198103175187,"connected_time":974000000000,"state":"active","ping":70},{"user_id":375,"name":"Zonts","steam_id":76561198850176432,"connected_time":6757000000000,"state":"active","ping":86},{"user_id":456,"name":"Kylute","steam_id":76561198447504417,"connected_time":101000000000,"state":"active","ping":44},{"user_id":439,"name":"Blobbaz","steam_id":76561198031076278,"connected_time":1447000000000,"state":"active","ping":54},{"user_id":449,"name":"strideΔ","steam_id":76561199007826093,"connected_time":923000000000,"state":"active","ping":83},{"user_id":458,"name":"Jara.","steam_id":76561197992207165,"connected_time":42000000000,"state":"active","ping":99},{"user_id":452,"name":"Yummy Kabobz","steam_id":76561198067661705,"connected_time":692000000000,"state":"active","ping":114}]},{"server_id":320,"name":"Uncletopia | London | 3 | All Maps","name_short":"lon-3","host":"lon-1.uk.uncletopia.com","port":27035,"enabled":true,"region":"eu","cc":"gb","latitude":51.509865,"longitude":-0.118092,"reserved":0,"last_update":"0001-01-01T00:00:00Z","name_a2s":"Uncletopia | London | 3 | All Maps","protocol":17,"map":"pl_snowycoast","folder":"tf","game":"Team Fortress","app_id":440,"player_count":12,"max_players":24,"Bots":0,"server_type":"Dedicated","server_os":"Linux","password":true,"vac":true,"version":"7961495","steam_id":85568392924510192,"keywords":["nocrits","nodmgspread","payload","uncletopia"],"game_id":440,"stv_port":27036,"stv_name":"Uncletopia | London | 3 | All Maps | STV","players":[{"user_id":287,"name":"n//?!bu","steam_id":76561198307037169,"connected_time":95000000000,"state":"active","ping":59},{"user_id":285,"name":"timvs5","steam_id":76561198136646312,"connected_time":263000000000,"state":"active","ping":58},{"user_id":240,"name":"Lux","steam_id":76561198060417740,"connected_time":3901000000000,"state":"active","ping":45},{"user_id":252,"name":"KipxSateee","steam_id":76561198149158137,"connected_time":3036000000000,"state":"active","ping":71},{"user_id":260,"name":"W","steam_id":76561198273623211,"connected_time":2113000000000,"state":"active","ping":91},{"user_id":286,"name":"Rohnus","steam_id":76561198074049934,"connected_time":250000000000,"state":"active","ping":55},{"user_id":289,"name":"Afri #freeguillotine","steam_id":76561198798803845,"connected_time":69000000000,"state":"active","ping":47},{"user_id":277,"name":"BenteBent","steam_id":76561198297920637,"connected_time":981000000000,"state":"active","ping":44},{"user_id":291,"name":"Lilypadio","steam_id":76561198090146457,"connected_time":61000000000,"state":"active","ping":45},{"user_id":283,"name":"K4ne","steam_id":76561198362544562,"connected_time":448000000000,"state":"active","ping":69},{"user_id":237,"name":"Michal jordan","steam_id":76561199106262610,"connected_time":4124000000000,"state":"active","ping":71}]},{"server_id":321,"name":"Uncletopia | London | 4 | All Maps","name_short":"lon-4","host":"lon-1.uk.uncletopia.com","port":27045,"enabled":true,"region":"eu","cc":"gb","latitude":51.509865,"longitude":-0.118092,"reserved":0,"last_update":"0001-01-01T00:00:00Z","name_a2s":"Uncletopia | London | 4 | All Maps","protocol":17,"map":"koth_cascade","folder":"tf","game":"Team Fortress","app_id":440,"player_count":9,"max_players":24,"Bots":0,"server_type":"Dedicated","server_os":"Linux","password":true,"vac":true,"version":"7961495","steam_id":85568392924510193,"keywords":["cp","nocrits","nodmgspread","uncletopia"],"game_id":440,"stv_port":27046,"stv_name":"Uncletopia | London | 4 | All Maps | STV","players":[{"user_id":5,"name":"Marxyboi","steam_id":76561198403805509,"connected_time":1305000000000,"state":"active","ping":63},{"user_id":6,"name":"Hyperion","steam_id":76561198167749909,"connected_time":1249000000000,"state":"active","ping":54},{"user_id":8,"name":"I-I","steam_id":76561198267969436,"connected_time":982000000000,"state":"active","ping":73},{"user_id":9,"name":"nvmHastee","steam_id":76561199371458295,"connected_time":936000000000,"state":"active","ping":74},{"user_id":10,"name":"Ruth(-less bitch)","steam_id":76561198150006573,"connected_time":868000000000,"state":"active","ping":56},{"user_id":12,"name":"LordLumox","steam_id":76561199026731264,"connected_time":230000000000,"state":"active","ping":57},{"user_id":14,"name":"LumaGamerLOL","steam_id":76561198952358599,"connected_time":219000000000,"state":"active","ping":69},{"user_id":15,"name":"Teathling","steam_id":76561198061580505,"connected_time":216000000000,"state":"active","ping":45},{"user_id":16,"name":"beeb","steam_id":76561198211644077,"connected_time":91000000000,"state":"active","ping":60}]},{"server_id":21,"name":"Uncletopia | London | 5 | All Maps","name_short":"lon-5","host":"lon-1.uk.uncletopia.com","port":27055,"enabled":true,"region":"eu","cc":"gb","latitude":51.509865,"longitude":-0.118092,"reserved":0,"last_update":"0001-01-01T00:00:00Z","name_a2s":"Uncletopia | London | 5 | All Maps","protocol":17,"map":"cp_dustbowl","folder":"tf","game":"Team Fortress","app_id":440,"player_count":22,"max_players":24,"Bots":0,"server_type":"Dedicated","server_os":"Linux","password":true,"vac":true,"version":"7961495","steam_id":85568392924742829,"keywords":["cp","nocrits","nodmgspread","uncletopia"],"game_id":440,"stv_port":27056,"stv_name":"Uncletopia | London | 5 | All Maps | STV","players":[{"user_id":95,"name":"LurkingPancake","steam_id":76561199488567082,"connected_time":844000000000,"state":"active","ping":106},{"user_id":97,"name":"Cookies and Bakies","steam_id":76561198017442928,"connected_time":473000000000,"state":"active","ping":62},{"user_id":62,"name":"our lord and saviour Pan","steam_id":76561198394963563,"connected_time":3071000000000,"state":"active","ping":60},{"user_id":30,"name":"toomas2018(real)","steam_id":76561199105796083,"connected_time":4152000000000,"state":"active","ping":89},{"user_id":36,"name":"Crisp Rat","steam_id":76561198252853460,"connected_time":3776000000000,"state":"active","ping":68},{"user_id":103,"name":"Max Power","steam_id":76561198019269089,"connected_time":218000000000,"state":"active","ping":56},{"user_id":78,"name":"İslam'ın Zinciri - Sylas","steam_id":76561198419812739,"connected_time":2059000000000,"state":"active","ping":95},{"user_id":39,"name":"UnusedEngine","steam_id":76561199281868902,"connected_time":3753000000000,"state":"active","ping":45},{"user_id":104,"name":"Jenkins","steam_id":76561198931604818,"connected_time":114000000000,"state":"active","ping":146},{"user_id":81,"name":"flushed emoji hd","steam_id":76561198253021490,"connected_time":1984000000000,"state":"active","ping":48},{"user_id":96,"name":"SunZi","steam_id":76561198139243535,"connected_time":805000000000,"state":"active","ping":78},{"user_id":43,"name":"smell_my_cheese","steam_id":76561198008517427,"connected_time":3641000000000,"state":"active","ping":56},{"user_id":91,"name":"Krefa12","steam_id":76561198268375393,"connected_time":1237000000000,"state":"active","ping":90},{"user_id":85,"name":"I I","steam_id":76561199101935057,"connected_time":1835000000000,"state":"active","ping":104},{"user_id":74,"name":"eddee","steam_id":76561198046121468,"connected_time":2269000000000,"state":"active","ping":42},{"user_id":87,"name":"DooWooD","steam_id":76561198335810106,"connected_time":1747000000000,"state":"active","ping":85},{"user_id":86,"name":"Reomk","steam_id":76561198309314129,"connected_time":1789000000000,"state":"active","ping":79},{"user_id":67,"name":"Maks","steam_id":76561198315278876,"connected_time":2819000000000,"state":"active","ping":42},{"user_id":51,"name":"EEEEEH","steam_id":76561198126717413,"connected_time":3518000000000,"state":"active","ping":87},{"user_id":93,"name":"Avitz","steam_id":76561197986150359,"connected_time":1228000000000,"state":"active","ping":44},{"user_id":54,"name":"Silvestro","steam_id":76561198021660066,"connected_time":3437000000000,"state":"active","ping":87},{"user_id":90,"name":"void_tech_1234","steam_id":76561198245254406,"connected_time":1479000000000,"state":"active","ping":62}]},{"server_id":22,"name":"Uncletopia | London | 6 | All Maps","name_short":"lon-6","host":"lon-1.uk.uncletopia.com","port":27065,"enabled":true,"region":"eu","cc":"gb","latitude":51.509865,"longitude":-0.118092,"reserved":0,"last_update":"0001-01-01T00:00:00Z","name_a2s":"Uncletopia | London | 6 | All Maps","protocol":17,"map":"koth_lakeside_final","folder":"tf","game":"Team Fortress","app_id":440,"player_count":0,"max_players":24,"Bots":0,"server_type":"Dedicated","server_os":"Linux","password":true,"vac":true,"version":"7961495","steam_id":85568392924742830,"keywords":["cp","nocrits","nodmgspread","uncletopia"],"game_id":440,"stv_port":27066,"stv_name":"Uncletopia | London | 6 | All Maps | STV","players":null},{"server_id":40,"name":"Uncletopia | London | 7 | No Payload","name_short":"lon-7","host":"lon-1.uk.uncletopia.com","port":27075,"enabled":true,"region":"eu","cc":"gb","latitude":51.509865,"longitude":-0.118092,"reserved":0,"last_update":"0001-01-01T00:00:00Z","name_a2s":"Uncletopia | London | 7 | No Payload","protocol":17,"map":"pl_snowycoast","folder":"tf","game":"Team Fortress","app_id":440,"player_count":0,"max_players":24,"Bots":0,"server_type":"Dedicated","server_os":"Linux","password":true,"vac":true,"version":"7961495","steam_id":85568392924964314,"keywords":["nocrits","nodmgspread","payload","uncletopia"],"game_id":440,"stv_port":27076,"stv_name":"Uncletopia | London | 7 | No Payload | STV","players":null},{"server_id":41,"name":"Uncletopia | London | 8 | Community","name_short":"lon-8","host":"lon-1.uk.uncletopia.com","port":27085,"enabled":true,"region":"eu","cc":"gb","latitude":51.509865,"longitude":-0.118092,"reserved":0,"last_update":"0001-01-01T00:00:00Z","name_a2s":"Uncletopia | London | 8 | Community","protocol":17,"map":"koth_viaduct","folder":"tf","game":"Team Fortress","app_id":440,"player_count":0,"max_players":24,"Bots":0,"server_type":"Dedicated","server_os":"Linux","password":true,"vac":true,"version":"7961495","steam_id":85568392924964315,"keywords":["cp","nocrits","nodmgspread","uncletopia"],"game_id":440,"stv_port":27086,"stv_name":"Uncletopia | London | 8 | Community | STV","players":null},{"server_id":300,"name":"Uncletopia | Montréal | 1 | All Maps","name_short":"mtl-1","host":"mtl-1.ca.uncletopia.com","port":27015,"enabled":true,"region":"us-east","cc":"ca","latitude":45.50889,"longitude":-73.56167,"reserved":0,"last_update":"0001-01-01T00:00:00Z","name_a2s":"Uncletopia | Montréal | 1 | All Maps","protocol":17,"map":"koth_cascade","folder":"tf","game":"Team Fortress","app_id":440,"player_count":0,"max_players":24,"Bots":0,"server_type":"Dedicated","server_os":"Linux","password":true,"vac":true,"version":"7961495","steam_id":85568392924500087,"keywords":["cp","nocrits","nodmgspread","uncletopia"],"game_id":440,"stv_port":27016,"stv_name":"Uncletopia | Montréal | 1 | All Maps | STV","players":null},{"server_id":301,"name":"Uncletopia | Montréal | 2 | All Maps","name_short":"mtl-2","host":"mtl-1.ca.uncletopia.com","port":27025,"enabled":true,"region":"us-east","cc":"ca","latitude":45.50889,"longitude":-73.56167,"reserved":0,"last_update":"0001-01-01T00:00:00Z","name_a2s":"Uncletopia | Montréal | 2 | All Maps","protocol":17,"map":"koth_cascade","folder":"tf","game":"Team Fortress","app_id":440,"player_count":0,"max_players":24,"Bots":0,"server_type":"Dedicated","server_os":"Linux","password":true,"vac":true,"version":"7961495","steam_id":85568392924500088,"keywords":["cp","nocrits","nodmgspread","uncletopia"],"game_id":440,"stv_port":27026,"stv_name":"Uncletopia | Montréal | 2 | All Maps | STV","players":null},{"server_id":302,"name":"Uncletopia | Montréal | 3 | All Maps","name_short":"mtl-3","host":"mtl-1.ca.uncletopia.com","port":27035,"enabled":true,"region":"us-east","cc":"ca","latitude":45.50889,"longitude":-73.56167,"reserved":0,"last_update":"0001-01-01T00:00:00Z","name_a2s":"Uncletopia | Montréal | 3 | All Maps","protocol":17,"map":"pl_upward","folder":"tf","game":"Team Fortress","app_id":440,"player_count":0,"max_players":24,"Bots":0,"server_type":"Dedicated","server_os":"Linux","password":true,"vac":true,"version":"7961495","steam_id":85568392924500089,"keywords":["nocrits","nodmgspread","payload","uncletopia"],"game_id":440,"stv_port":27036,"stv_name":"Uncletopia | Montréal | 3 | All Maps | STV","players":null},{"server_id":303,"name":"Uncletopia | Montréal | 4 | No Payload","name_short":"mtl-4","host":"mtl-1.ca.uncletopia.com","port":27045,"enabled":true,"region":"us-east","cc":"ca","latitude":45.50889,"longitude":-73.56167,"reserved":0,"last_update":"0001-01-01T00:00:00Z","name_a2s":"Uncletopia | Montréal | 4 | No Payload","protocol":17,"map":"cp_mountainlab","folder":"tf","game":"Team Fortress","app_id":440,"player_count":0,"max_players":24,"Bots":0,"server_type":"Dedicated","server_os":"Linux","password":true,"vac":true,"version":"7961495","steam_id":85568392924500090,"keywords":["cp","nocrits","nodmgspread","uncletopia"],"game_id":440,"stv_port":27046,"stv_name":"Uncletopia | Montréal | 4 | No Payload | STV","players":null},{"server_id":13,"name":"Uncletopia | New York City | 1 | All Maps","name_short":"nyc-1","host":"nyc-1.us.uncletopia.com","port":27015,"enabled":true,"region":"us-east","cc":"us","latitude":40.73061,"longitude":-73.93524,"reserved":0,"last_update":"0001-01-01T00:00:00Z","name_a2s":"Uncletopia | New York City | 1 | All Maps","protocol":17,"map":"cp_dustbowl","folder":"tf","game":"Team Fortress","app_id":440,"player_count":24,"max_players":24,"Bots":0,"server_type":"Dedicated","server_os":"Linux","password":true,"vac":true,"version":"7961495","steam_id":85568392924469993,"keywords":["cp","nocrits","nodmgspread","uncletopia"],"game_id":440,"stv_port":27016,"stv_name":"Uncletopia | New York City | 1 | All Maps | STV","players":[{"user_id":4,"name":"Kai_The_Gr8","steam_id":76561199015682820,"connected_time":3896000000000,"state":"active","ping":47},{"user_id":16,"name":"Kinda_Clownish","steam_id":76561198309111836,"connected_time":2602000000000,"state":"active","ping":130},{"user_id":6,"name":"wugmup","steam_id":76561199096287734,"connected_time":3553000000000,"state":"active","ping":123},{"user_id":40,"name":"ATL1 | Zillers","steam_id":76561198095248744,"connected_time":499000000000,"state":"active","ping":135},{"user_id":8,"name":"DrMisteryous2","steam_id":76561198336307012,"connected_time":3444000000000,"state":"active","ping":179},{"user_id":15,"name":"MF Dan","steam_id":76561198055563649,"connected_time":2675000000000,"state":"active","ping":56},{"user_id":42,"name":"'LaxAttack","steam_id":76561198044129346,"connected_time":440000000000,"state":"active","ping":60},{"user_id":11,"name":"basilthenasa","steam_id":76561199388111764,"connected_time":3252000000000,"state":"active","ping":157},{"user_id":41,"name":"Epifiny","steam_id":76561198027958086,"connected_time":491000000000,"state":"active","ping":78},{"user_id":33,"name":"Sagoogoo","steam_id":76561198176061614,"connected_time":1133000000000,"state":"active","ping":82},{"user_id":17,"name":"Career","steam_id":76561198028542212,"connected_time":2518000000000,"state":"active","ping":74},{"user_id":43,"name":"The ghostly Piss MN","steam_id":76561198209197020,"connected_time":430000000000,"state":"active","ping":57},{"user_id":19,"name":"truebosnianking","steam_id":76561199440060597,"connected_time":2319000000000,"state":"active","ping":158},{"user_id":20,"name":"acxeu","steam_id":76561198394435000,"connected_time":2271000000000,"state":"active","ping":51},{"user_id":38,"name":"Arus","steam_id":76561198052567193,"connected_time":883000000000,"state":"active","ping":59},{"user_id":22,"name":"EndlessSalmon","steam_id":76561199186016469,"connected_time":1883000000000,"state":"active","ping":67},{"user_id":23,"name":"Yo-yo’s for Hobo’s","steam_id":76561198068539003,"connected_time":1843000000000,"state":"active","ping":109},{"user_id":35,"name":"Ostin","steam_id":76561197993726444,"connected_time":955000000000,"state":"active","ping":93},{"user_id":32,"name":"sqerkbo","steam_id":76561198080012700,"connected_time":1323000000000,"state":"active","ping":44},{"user_id":39,"name":"Ata","steam_id":76561198349085545,"connected_time":516000000000,"state":"active","ping":81},{"user_id":29,"name":"Creme","steam_id":76561198034166729,"connected_time":1651000000000,"state":"active","ping":66},{"user_id":34,"name":"is there anything unfappable?","steam_id":76561198032259680,"connected_time":1091000000000,"state":"active","ping":61},{"user_id":31,"name":"Fish","steam_id":76561199258053772,"connected_time":1592000000000,"state":"active","ping":74},{"user_id":37,"name":"i’m very hungry","steam_id":76561198337692867,"connected_time":933000000000,"state":"active","ping":67}]},{"server_id":14,"name":"Uncletopia | New York City | 2 | All Maps","name_short":"nyc-2","host":"nyc-1.us.uncletopia.com","port":27025,"enabled":true,"region":"us-east","cc":"us","latitude":40.73061,"longitude":-73.93524,"reserved":0,"last_update":"0001-01-01T00:00:00Z","name_a2s":"Uncletopia | New York City | 2 | All Maps","protocol":17,"map":"pl_upward","folder":"tf","game":"Team Fortress","app_id":440,"player_count":0,"max_players":24,"Bots":0,"server_type":"Dedicated","server_os":"Linux","password":true,"vac":true,"version":"7961495","steam_id":85568392924469994,"keywords":["nocrits","nodmgspread","payload","uncletopia"],"game_id":440,"stv_port":27026,"stv_name":"Uncletopia | New York City | 2 | All Maps | STV","players":null},{"server_id":15,"name":"Uncletopia | New York City | 3 | Stopwatch Beta","name_short":"nyc-3","host":"nyc-1.us.uncletopia.com","port":27035,"enabled":true,"region":"us-east","cc":"us","latitude":40.73061,"longitude":-73.93524,"reserved":0,"last_update":"0001-01-01T00:00:00Z","name_a2s":"Uncletopia | New York City | 3 | Stopwatch Beta","protocol":17,"map":"cp_sunshine","folder":"tf","game":"Team Fortress","app_id":440,"player_count":2,"max_players":24,"Bots":0,"server_type":"Dedicated","server_os":"Linux","password":true,"vac":true,"version":"7961495","steam_id":85568392924742820,"keywords":["cp","nocrits","nodmgspread","uncletopia"],"game_id":440,"stv_port":27036,"stv_name":"Uncletopia | New York City | 3 | Stopwatch Beta | STV","players":[{"user_id":5,"name":"Lonely_gamer","steam_id":76561199181918295,"connected_time":101000000000,"state":"active","ping":220},{"user_id":6,"name":"The1douglas69","steam_id":76561199163489550,"connected_time":0,"state":"connecting","ping":0}]},{"server_id":16,"name":"Uncletopia | New York City | 4 | Community","name_short":"nyc-4","host":"nyc-1.us.uncletopia.com","port":27045,"enabled":true,"region":"us-east","cc":"us","latitude":40.73061,"longitude":-73.93524,"reserved":0,"last_update":"0001-01-01T00:00:00Z","name_a2s":"Uncletopia | New York City | 4 | Community","protocol":17,"map":"workshop/cp_glacier_rc6.ugc2905735376","folder":"tf","game":"Team Fortress","app_id":440,"player_count":0,"max_players":24,"Bots":0,"server_type":"Dedicated","server_os":"Linux","password":true,"vac":true,"version":"7961495","steam_id":85568392924742821,"keywords":["cp","nocrits","nodmgspread","uncletopia"],"game_id":440,"stv_port":27046,"stv_name":"Uncletopia | New York City | 4 | Community | STV","players":null},{"server_id":142,"name":"Uncletopia | São Paulo | 1 | All Maps","name_short":"sao-1","host":"sao-1.br.uncletopia.com","port":27015,"enabled":true,"region":"sa","cc":"br","latitude":-23.533773,"longitude":-46.62529,"reserved":0,"last_update":"0001-01-01T00:00:00Z","name_a2s":"Uncletopia | São Paulo | 1 | All Maps","protocol":17,"map":"pl_upward","folder":"tf","game":"Team Fortress","app_id":440,"player_count":0,"max_players":24,"Bots":0,"server_type":"Dedicated","server_os":"Linux","password":true,"vac":true,"version":"7961495","steam_id":85568392924469996,"keywords":["nocrits","nodmgspread","payload","uncletopia"],"game_id":440,"stv_port":27016,"stv_name":"Uncletopia | São Paulo | 1 | All Maps | STV","players":null},{"server_id":143,"name":"Uncletopia | São Paulo | 2 | All Maps","name_short":"sao-2","host":"sao-2.br.uncletopia.com","port":27015,"enabled":true,"region":"sa","cc":"br","latitude":-23.533773,"longitude":-46.62529,"reserved":0,"last_update":"0001-01-01T00:00:00Z","name_a2s":"Uncletopia | São Paulo | 2 | All Maps","protocol":17,"map":"koth_cascade","folder":"tf","game":"Team Fortress","app_id":440,"player_count":0,"max_players":24,"Bots":0,"server_type":"Dedicated","server_os":"Linux","password":true,"vac":true,"version":"7961495","steam_id":85568392924485349,"keywords":["cp","nocrits","nodmgspread","uncletopia"],"game_id":440,"stv_port":27016,"stv_name":"Uncletopia | São Paulo | 2 | All Maps | STV","players":null},{"server_id":7,"name":"Uncletopia | Seattle | 1 | All Maps","name_short":"sea-1","host":"sea-1.us.uncletopia.com","port":27015,"enabled":true,"region":"us-west","cc":"us","latitude":47.608013,"longitude":-122.33517,"reserved":0,"last_update":"0001-01-01T00:00:00Z","name_a2s":"Uncletopia | Seattle | 1 | All Maps","protocol":17,"map":"koth_cascade","folder":"tf","game":"Team Fortress","app_id":440,"player_count":0,"max_players":24,"Bots":0,"server_type":"Dedicated","server_os":"Linux","password":true,"vac":true,"version":"7961495","steam_id":85568392924469997,"keywords":["cp","nocrits","nodmgspread","uncletopia"],"game_id":440,"stv_port":27016,"stv_name":"Uncletopia | Seattle | 1 | All Maps | STV","players":null},{"server_id":119,"name":"Uncletopia | Seattle | 2 | All Maps","name_short":"sea-2","host":"sea-1.us.uncletopia.com","port":27025,"enabled":true,"region":"us-west","cc":"us","latitude":47.608013,"longitude":-122.33517,"reserved":0,"last_update":"0001-01-01T00:00:00Z","name_a2s":"Uncletopia | Seattle | 2 | All Maps","protocol":17,"map":"pl_barnblitz","folder":"tf","game":"Team Fortress","app_id":440,"player_count":0,"max_players":24,"Bots":0,"server_type":"Dedicated","server_os":"Linux","password":true,"vac":true,"version":"7961495","steam_id":85568392924469998,"keywords":["nocrits","nodmgspread","payload","uncletopia"],"game_id":440,"stv_port":27026,"stv_name":"Uncletopia | Seattle | 2 | All Maps | STV","players":null},{"server_id":406,"name":"Uncletopia | Seattle | 3 | Stopwatch Beta","name_short":"sea-3","host":"sea-1.us.uncletopia.com","port":27035,"enabled":true,"region":"us-west","cc":"us","latitude":47.608013,"longitude":-122.33517,"reserved":0,"last_update":"0001-01-01T00:00:00Z","name_a2s":"Uncletopia | Seattle | 3 | Stopwatch Beta","protocol":17,"map":"cp_mountainlab","folder":"tf","game":"Team Fortress","app_id":440,"player_count":0,"max_players":24,"Bots":0,"server_type":"Dedicated","server_os":"Linux","password":true,"vac":true,"version":"7961495","steam_id":85568392924515217,"keywords":["cp","nocrits","nodmgspread","uncletopia"],"game_id":440,"stv_port":27036,"stv_name":"Uncletopia | Seattle | 3 | Stopwatch Beta | STV","players":null},{"server_id":17,"name":"Uncletopia | San Francisco | 1 | All Maps","name_short":"sfo-1","host":"sfo-1.us.uncletopia.com","port":27015,"enabled":true,"region":"us-west","cc":"us","latitude":37.77397,"longitude":-122.4313,"reserved":0,"last_update":"0001-01-01T00:00:00Z","name_a2s":"Uncletopia | San Francisco | 1 | All Maps","protocol":17,"map":"pl_frontier_final","folder":"tf","game":"Team Fortress","app_id":440,"player_count":0,"max_players":24,"Bots":0,"server_type":"Dedicated","server_os":"Linux","password":true,"vac":true,"version":"7932396","steam_id":85568392924469999,"keywords":["nocrits","nodmgspread","payload","uncletopia"],"game_id":440,"stv_port":27016,"stv_name":"Uncletopia | San Francisco | 1 | All Maps | STV","players":null},{"server_id":18,"name":"Uncletopia | San Francisco | 2 | All Maps","name_short":"sfo-2","host":"sfo-1.us.uncletopia.com","port":27025,"enabled":true,"region":"us-west","cc":"us","latitude":37.77397,"longitude":-122.4313,"reserved":0,"last_update":"0001-01-01T00:00:00Z","name_a2s":"Uncletopia | San Francisco | 2 | All Maps","protocol":17,"map":"cp_snakewater_final1","folder":"tf","game":"Team Fortress","app_id":440,"player_count":0,"max_players":24,"Bots":0,"server_type":"Dedicated","server_os":"Linux","password":true,"vac":true,"version":"7932396","steam_id":85568392924470000,"keywords":["cp","nocrits","nodmgspread","uncletopia"],"game_id":440,"stv_port":27026,"stv_name":"Uncletopia | San Francisco | 2 | All Maps | STV","players":null},{"server_id":19,"name":"Uncletopia | San Francisco | 3 | Stopwatch Beta","name_short":"sfo-3","host":"sfo-1.us.uncletopia.com","port":27035,"enabled":true,"region":"us-west","cc":"us","latitude":37.77397,"longitude":-122.4313,"reserved":0,"last_update":"0001-01-01T00:00:00Z","name_a2s":"Uncletopia | San Francisco | 3 | Stopwatch Beta","protocol":17,"map":"koth_lakeside_final","folder":"tf","game":"Team Fortress","app_id":440,"player_count":0,"max_players":24,"Bots":0,"server_type":"Dedicated","server_os":"Linux","password":true,"vac":true,"version":"7932396","steam_id":85568392924742824,"keywords":["cp","nocrits","nodmgspread","uncletopia"],"game_id":440,"stv_port":27036,"stv_name":"Uncletopia | San Francisco | 3 | Stopwatch Beta | STV","players":null},{"server_id":20,"name":"Uncletopia | San Francisco | 4 | Community","name_short":"sfo-4","host":"sfo-1.us.uncletopia.com","port":27045,"enabled":true,"region":"us-west","cc":"us","latitude":37.77397,"longitude":-122.4313,"reserved":0,"last_update":"0001-01-01T00:00:00Z","name_a2s":"Uncletopia | San Francisco | 4 | Community","protocol":17,"map":"pl_borneo","folder":"tf","game":"Team Fortress","app_id":440,"player_count":0,"max_players":24,"Bots":0,"server_type":"Dedicated","server_os":"Linux","password":true,"vac":true,"version":"7932396","steam_id":85568392924742826,"keywords":["nocrits","nodmgspread","payload","uncletopia"],"game_id":440,"stv_port":27046,"stv_name":"Uncletopia | San Francisco | 4 | Community | STV","players":null},{"server_id":141,"name":"Uncletopia | Sydney | 1 | All Maps","name_short":"syd-1","host":"syd-1.au.uncletopia.com","port":27015,"enabled":true,"region":"au","cc":"au","latitude":-33.865143,"longitude":151.2099,"reserved":0,"last_update":"0001-01-01T00:00:00Z","name_a2s":"Uncletopia | Sydney | 1 | All Maps","protocol":17,"map":"cp_process_final","folder":"tf","game":"Team Fortress","app_id":440,"player_count":4,"max_players":24,"Bots":0,"server_type":"Dedicated","server_os":"Linux","password":true,"vac":true,"version":"7961495","steam_id":85568392924470001,"keywords":["cp","nocrits","nodmgspread","uncletopia"],"game_id":440,"stv_port":27016,"stv_name":"Uncletopia | Sydney | 1 | All Maps | STV","players":[{"user_id":487,"name":"theally105","steam_id":76561199171663406,"connected_time":470000000000,"state":"active","ping":231},{"user_id":456,"name":"go! mango mango","steam_id":76561198069941287,"connected_time":2682000000000,"state":"active","ping":94},{"user_id":480,"name":"Clarence","steam_id":76561198872898353,"connected_time":949000000000,"state":"active","ping":109},{"user_id":457,"name":"Witchus Bitchus","steam_id":76561198068655726,"connected_time":2639000000000,"state":"active","ping":109}]},{"server_id":123,"name":"Uncletopia | Sydney | 2 | All Maps","name_short":"syd-2","host":"syd-1.au.uncletopia.com","port":27025,"enabled":true,"region":"au","cc":"au","latitude":-33.865143,"longitude":151.2099,"reserved":0,"last_update":"0001-01-01T00:00:00Z","name_a2s":"Uncletopia | Sydney | 2 | All Maps","protocol":17,"map":"cp_mountainlab","folder":"tf","game":"Team Fortress","app_id":440,"player_count":0,"max_players":24,"Bots":0,"server_type":"Dedicated","server_os":"Linux","password":true,"vac":true,"version":"7961495","steam_id":85568392924470002,"keywords":["cp","nocrits","nodmgspread","uncletopia"],"game_id":440,"stv_port":27026,"stv_name":"Uncletopia | Sydney | 2 | All Maps | STV","players":null},{"server_id":395,"name":"Uncletopia | Sydney | 3 | All Maps","name_short":"syd-3","host":"syd-1.au.uncletopia.com","port":27035,"enabled":true,"region":"au","cc":"au","latitude":-33.865143,"longitude":151.2099,"reserved":0,"last_update":"0001-01-01T00:00:00Z","name_a2s":"Uncletopia | Sydney | 3 | All Maps","protocol":17,"map":"koth_harvest_final","folder":"tf","game":"Team Fortress","app_id":440,"player_count":0,"max_players":24,"Bots":0,"server_type":"Dedicated","server_os":"Linux","password":true,"vac":true,"version":"7961495","steam_id":85568392925194467,"keywords":["cp","nocrits","nodmgspread","uncletopia"],"game_id":440,"stv_port":27036,"stv_name":"Uncletopia | Sydney | 3 | All Maps | STV","players":null},{"server_id":396,"name":"Uncletopia | Sydney | 4 | All Maps","name_short":"syd-4","host":"syd-1.au.uncletopia.com","port":27045,"enabled":true,"region":"au","cc":"au","latitude":-33.865143,"longitude":151.2099,"reserved":0,"last_update":"0001-01-01T00:00:00Z","name_a2s":"Uncletopia | Sydney | 4 | All Maps","protocol":17,"map":"koth_cascade","folder":"tf","game":"Team Fortress","app_id":440,"player_count":0,"max_players":24,"Bots":0,"server_type":"Dedicated","server_os":"Linux","password":true,"vac":true,"version":"7961495","steam_id":85568392925397958,"keywords":["cp","nocrits","nodmgspread","uncletopia"],"game_id":440,"stv_port":27046,"stv_name":"Uncletopia | Sydney | 4 | All Maps | STV","players":null},{"server_id":58,"name":"Uncletopia | Sydney | 5 | Stopwatch Beta","name_short":"syd-5","host":"syd-1.au.uncletopia.com","port":27055,"enabled":true,"region":"au","cc":"au","latitude":-33.865143,"longitude":151.2099,"reserved":0,"last_update":"0001-01-01T00:00:00Z","name_a2s":"Uncletopia | Sydney | 5 | Stopwatch Beta","protocol":17,"map":"koth_viaduct","folder":"tf","game":"Team Fortress","app_id":440,"player_count":0,"max_players":24,"Bots":0,"server_type":"Dedicated","server_os":"Linux","password":true,"vac":true,"version":"7961495","steam_id":85568392925397959,"keywords":["cp","nocrits","nodmgspread","uncletopia"],"game_id":440,"stv_port":27056,"stv_name":"Uncletopia | Sydney | 5 | Stopwatch Beta | STV","players":null},{"server_id":59,"name":"Uncletopia | Sydney | 6 | Community","name_short":"syd-6","host":"syd-1.au.uncletopia.com","port":27065,"enabled":true,"region":"au","cc":"au","latitude":-33.865143,"longitude":151.2099,"reserved":0,"last_update":"0001-01-01T00:00:00Z","name_a2s":"Uncletopia | Sydney | 6 | Community","protocol":17,"map":"workshop/koth_ramjam_rc1.ugc459778887","folder":"tf","game":"Team Fortress","app_id":440,"player_count":0,"max_players":24,"Bots":0,"server_type":"Dedicated","server_os":"Linux","password":true,"vac":true,"version":"7961495","steam_id":85568392925397960,"keywords":["cp","nocrits","nodmgspread","uncletopia"],"game_id":440,"stv_port":27066,"stv_name":"Uncletopia | Sydney | 6 | Community | STV","players":null},{"server_id":49,"name":"Uncletopia | Warsaw | 1 | All Maps","name_short":"waw-1","host":"waw-1.pl.uncletopia.com","port":27015,"enabled":true,"region":"eu","cc":"pl","latitude":52.2297,"longitude":21.017532,"reserved":0,"last_update":"0001-01-01T00:00:00Z","name_a2s":"","protocol":0,"map":"","folder":"","game":"","app_id":0,"player_count":0,"max_players":0,"Bots":0,"server_type":"","server_os":"","password":false,"vac":false,"version":"","steam_id":0,"keywords":null,"game_id":0,"stv_port":0,"stv_name":"","players":null},{"server_id":50,"name":"Uncletopia | Warsaw | 2 | All Maps","name_short":"waw-2","host":"waw-1.pl.uncletopia.com","port":27025,"enabled":true,"region":"eu","cc":"pl","latitude":52.2297,"longitude":21.017532,"reserved":0,"last_update":"0001-01-01T00:00:00Z","name_a2s":"Uncletopia | Warsaw | 2 | All Maps","protocol":17,"map":"cp_mountainlab","folder":"tf","game":"Team Fortress","app_id":440,"player_count":0,"max_players":24,"Bots":0,"server_type":"Dedicated","server_os":"Linux","password":true,"vac":true,"version":"7961495","steam_id":85568392925397851,"keywords":["cp","nocrits","nodmgspread","uncletopia"],"game_id":440,"stv_port":27026,"stv_name":"Uncletopia | Warsaw | 2 | All Maps | STV","players":null},{"server_id":51,"name":"Uncletopia | Warsaw | 3 | All Maps","name_short":"waw-3","host":"waw-1.pl.uncletopia.com","port":27035,"enabled":true,"region":"eu","cc":"pl","latitude":52.2297,"longitude":21.017532,"reserved":0,"last_update":"0001-01-01T00:00:00Z","name_a2s":"Uncletopia | Warsaw | 3 | All Maps","protocol":17,"map":"koth_lakeside_final","folder":"tf","game":"Team Fortress","app_id":440,"player_count":0,"max_players":24,"Bots":0,"server_type":"Dedicated","server_os":"Linux","password":true,"vac":true,"version":"7961495","steam_id":85568392925397852,"keywords":["cp","nocrits","nodmgspread","uncletopia"],"game_id":440,"stv_port":27036,"stv_name":"Uncletopia | Warsaw | 3 | All Maps | STV","players":null},{"server_id":52,"name":"Uncletopia | Warsaw | 4 | All Maps","name_short":"waw-4","host":"waw-1.pl.uncletopia.com","port":27045,"enabled":true,"region":"eu","cc":"pl","latitude":52.2297,"longitude":21.017532,"reserved":0,"last_update":"0001-01-01T00:00:00Z","name_a2s":"Uncletopia | Warsaw | 4 | All Maps","protocol":17,"map":"cp_dustbowl","folder":"tf","game":"Team Fortress","app_id":440,"player_count":0,"max_players":24,"Bots":0,"server_type":"Dedicated","server_os":"Linux","password":true,"vac":true,"version":"7961495","steam_id":85568392925397853,"keywords":["cp","nocrits","nodmgspread","uncletopia"],"game_id":440,"stv_port":27046,"stv_name":"Uncletopia | Warsaw | 4 | All Maps | STV","players":null},{"server_id":53,"name":"Uncletopia | Warsaw | 5 | Stopwatch Beta","name_short":"waw-5","host":"waw-1.pl.uncletopia.com","port":27055,"enabled":true,"region":"eu","cc":"pl","latitude":52.2297,"longitude":21.017532,"reserved":0,"last_update":"0001-01-01T00:00:00Z","name_a2s":"Uncletopia | Warsaw | 5 | Stopwatch Beta","protocol":17,"map":"pl_snowycoast","folder":"tf","game":"Team Fortress","app_id":440,"player_count":0,"max_players":24,"Bots":0,"server_type":"Dedicated","server_os":"Linux","password":true,"vac":true,"version":"7961495","steam_id":85568392925397854,"keywords":["nocrits","nodmgspread","payload","uncletopia"],"game_id":440,"stv_port":27056,"stv_name":"Uncletopia | Warsaw | 5 | Stopwatch Beta | STV","players":null},{"server_id":54,"name":"Uncletopia | Warsaw | 6 | Community","name_short":"waw-6","host":"waw-1.pl.uncletopia.com","port":27065,"enabled":true,"region":"eu","cc":"pl","latitude":52.2297,"longitude":21.017532,"reserved":0,"last_update":"0001-01-01T00:00:00Z","name_a2s":"Uncletopia | Warsaw | 6 | Community","protocol":17,"map":"pl_borneo","folder":"tf","game":"Team Fortress","app_id":440,"player_count":0,"max_players":24,"Bots":0,"server_type":"Dedicated","server_os":"Linux","password":true,"vac":true,"version":"7961495","steam_id":85568392925397856,"keywords":["nocrits","nodmgspread","payload","uncletopia"],"game_id":440,"stv_port":27066,"stv_name":"Uncletopia | Warsaw | 6 | Community | STV","players":null}]}