{"status":true,"message":"","result":[{"server_id":9,"name":"Uncletopia | Atlanta | 1 | All Maps","name_short":"atl-1","host":"atl-1.us.uncletopia.com","port":27015,"enabled":true,"region":"us-east","cc":"us","latitude":33.753746,"longitude":-84.38633,"reserved":0,"last_update":"0001-01-01T00:00:00Z","name_a2s":"Uncletopia | Atlanta | 1 | All Maps","protocol":17,"map":"pl_pier","folder":"tf","game":"Team Fortress","app_id":440,"player_count":24,"max_players":24,"Bots":0,"server_type":"Dedicated","server_os":"Linux","password":true,"vac":true,"version":"7961495","steam_id":85568392924469982,"keywords":["nocrits","nodmgspread","payload","uncletopia"],"game_id":440,"stv_port":27016,"stv_name":"Uncletopia | Atlanta | 1 | All Maps | STV","players":null},{"server_id":104,"name":"Uncletopia | Atlanta | 2 | All Maps","name_short":"atl-2","host":"atl-1.us.uncletopia.com","port":27025,"enabled":true,"region":"us-east","cc":"us","latitude":33.753746,"longitude":-84.38633,"reserved":0,"last_update":"0001-01-01T00:00:00Z","name_a2s":"Uncletopia | Atlanta | 2 | All Maps","protocol":17,"map":"pl_upward","folder":"tf","game":"Team Fortress","app_id":440,"player_count":24,"max_players":24,"Bots":0,"server_type":"Dedicated","server_os":"Linux","password":true,"vac":true,"version":"7961495","steam_id":85568392924469983,"keywords":["nocrits","nodmgspread","payload","uncletopia"],"game_id":440,"stv_port":27026,"stv_name":"Uncletopia | Atlanta | 2 | All Maps | STV","players":null},{"server_id":400,"name":"Uncletopia | Atlanta | 3 | Stopwatch","name_short":"atl-3","host":"atl-1.us.uncletopia.com","port":27035,"enabled":true,"region":"us-east","cc":"us","latitude":33.753746,"longitude":-84.38633,"reserved":0,"last_update":"0001-01-01T00:00:00Z","name_a2s":"Uncletopia | Atlanta | 3 | Stopwatch","protocol":17,"map":"pl_swiftwater_final1","folder":"tf","game":"Team Fortress","app_id":440,"player_count":21,"max_players":24,"Bots":0,"server_type":"Dedicated","server_os":"Linux","password":true,"vac":true,"version":"7961495","steam_id":85568392924515187,"keywords":["nocrits","nodmgspread","payload","uncletopia"],"game_id":440,"stv_port":27036,"stv_name":"Uncletopia | Atlanta | 3 | Stopwatch | STV","players":null},{"server_id":401,"name":"Uncletopia | Atlanta | 4 | Community","name_short":"atl-4","host":"atl-1.us.uncletopia.com","port":27045,"enabled":true,"region":"us-east","cc":"us","latitude":33.753746,"longitude":-84.38633,"reserved":0,"last_update":"0001-01-01T00:00:00Z","name_a2s":"Uncletopia | Atlanta | 4 | Community","protocol":17,"map":"koth_product_final","folder":"tf","game":"Team Fortress","app_id":440,"player_count":0,"max_players":24,"Bots":0,"server_type":"Dedicated","server_os":"Linux","password":true,"vac":true,"version":"7961495","steam_id":85568392924515188,"keywords":["cp","nocrits","nodmgspread","uncletopia"],"game_id":440,"stv_port":27046,"stv_name":"Uncletopia | Atlanta | 4 | Community | STV","players":null},{"server_id":2,"name":"Uncletopia | Chicago | 1 | All Maps","name_short":"chi-1","host":"chi-1.us.uncletopia.com","port":27015,"enabled":true,"region":"us-central","cc":"us","latitude":41.881832,"longitude":-87.62318,"reserved":0,"last_update":"0001-01-01T00:00:00Z","name_a2s":"Uncletopia | Chicago | 1 | All Maps","protocol":17,"map":"pl_badwater","folder":"tf","game":"Team Fortress","app_id":440,"player_count":24,"max_players":24,"Bots":0,"server_type":"Dedicated","server_os":"Linux","password":true,"vac":true,"version":"7961495","steam_id":85568392924469984,"keywords":["nocrits","nodmgspread","payload","uncletopia"],"game_id":440,"stv_port":27016,"stv_name":"Uncletopia | Chicago | 1 | All Maps | STV","players":[{"user_id":524,"name":"King's Disease","steam_id":76561198076639682,"connected_time":1107000000000,"state":"active","ping":73},{"user_id":512,"name":"Comfy!","steam_id":76561198008818346,"connected_time":1845000000000,"state":"active","ping":67},{"user_id":536,"name":"Raxberry","steam_id":76561198001546706,"connected_time":137000000000,"state":"active","ping":69},{"user_id":515,"name":"JACOB","steam_id":76561198211874895,"connected_time":1632000000000,"state":"active","ping":77},{"user_id":517,"name":"dodecadron","steam_id":76561198027397222,"connected_time":1542000000000,"state":"active","ping":115},{"user_id":478,"name":"vv","steam_id":76561198134813102,"connected_time":3787000000000,"state":"active","ping":53},{"user_id":527,"name":"Tax Filer","steam_id":76561198044480181,"connected_time":623000000000,"state":"active","ping":49},{"user_id":491,"name":"Butters495","steam_id":76561197998689042,"connected_time":2789000000000,"state":"active","ping":79},{"user_id":503,"name":"The Law","steam_id":76561198202209948,"connected_time":2248000000000,"state":"active","ping":46},{"user_id":520,"name":"[NAME-REDACTED]","steam_id":76561198035682975,"connected_time":1353000000000,"state":"active","ping":70},{"user_id":528,"name":"my name jeff","steam_id":76561198179816898,"connected_time":618000000000,"state":"active","ping":83},{"user_id":508,"name":"Nightman","steam_id":76561198089513762,"connected_time":2180000000000,"state":"active","ping":85},{"user_id":518,"name":"tobrehto","steam_id":76561198097544038,"connected_time":1536000000000,"state":"active","ping":92},{"user_id":505,"name":"monke12344","steam_id":76561199274757725,"connected_time":2231000000000,"state":"active","ping":51},{"user_id":509,"name":"superwarm07","steam_id":76561199196313157,"connected_time":2163000000000,"state":"active","ping":130},{"user_id":534,"name":"Microreo","steam_id":76561198006966554,"connected_time":366000000000,"state":"active","ping":75},{"user_id":521,"name":"kimchy101","steam_id":76561198202721584,"connected_time":1283000000000,"state":"active","ping":54},{"user_id":475,"name":"loser","steam_id":76561198259380127,"connected_time":4307000000000,"state":"active","ping":57},{"user_id":523,"name":"Vaudeville Villain","steam_id":76561199212093339,"connected_time":1174000000000,"state":"active","ping":72},{"user_id":502,"name":"Zesty Zucchini Ziti","steam_id":76561198092494136,"connected_time":2269000000000,"state":"active","ping":62},{"user_id":531,"name":"guy","steam_id":76561198079925551,"connected_time":586000000000,"state":"active","ping":62},{"user_id":532,"name":"Architect","steam_id":76561198015242016,"connected_time":576000000000,"state":"active","ping":43},{"user_id":533,"name":"rept","steam_id":76561198022100969,"connected_time":574000000000,"state":"active","ping":45},{"user_id":526,"name":"Bottom Trans Cowgirl","steam_id":76561198304239680,"connected_time":740000000000,"state":"active","ping":90}]},{"server_id":106,"name":"Uncletopia | Chicago | 2 | All Maps","name_short":"chi-2","host":"chi-1.us.uncletopia.com","port":27025,"enabled":true,"region":"us-central","cc":"us","latitude":41.881832,"longitude":-87.62318,"reserved":0,"last_update":"0001-01-01T00:00:00Z","name_a2s":"Uncletopia | Chicago | 2 | All Maps","protocol":17,"map":"koth_harvest_final","folder":"tf","game":"Team Fortress","app_id":440,"player_count":23,"max_players":24,"Bots":0,"server_type":"Dedicated","server_os":"Linux","password":true,"vac":true,"version":"7961495","steam_id":85568392924469985,"keywords":["cp","nocrits","nodmgspread","uncletopia"],"game_id":440,"stv_port":27026,"stv_name":"Uncletopia | Chicago | 2 | All Maps | STV","players":[{"user_id":642,"name":"Wolfking450","steam_id":76561198399975373,"connected_time":35000000000,"state":"spawning","ping":72},{"user_id":603,"name":"Draconic Ballad","steam_id":76561198027191515,"connected_time":2524000000000,"state":"active","ping":50},{"user_id":608,"name":"GreySweaterCat","steam_id":76561198351860293,"connected_time":2302000000000,"state":"active","ping":78},{"user_id":595,"name":":)","steam_id":76561198079892116,"connected_time":3318000000000,"state":"active","ping":49},{"user_id":583,"name":"Migute","steam_id":76561198332012726,"connected_time":4090000000000,"state":"active","ping":85},{"user_id":637,"name":"deucemoosevvm","steam_id":76561198054348764,"connected_time":441000000000,"state":"active","ping":74},{"user_id":639,"name":"josh","steam_id":76561198111565081,"connected_time":206000000000,"state":"active","ping":106},{"user_id":612,"name":"Melk","steam_id":76561199076979946,"connected_time":2021000000000,"state":"active","ping":69},{"user_id":633,"name":"Garrosh Hellscream","steam_id":76561198127534492,"connected_time":562000000000,"state":"active","ping":43},{"user_id":629,"name":"sibling wile üü† „ÉÑ","steam_id":76561198125261443,"connected_time":624000000000,"state":"active","ping":106},{"user_id":611,"name":"o)))))))))))))","steam_id":76561198053967778,"connected_time":2035000000000,"state":"active","ping":61},{"user_id":619,"name":"sibling bane üü† „ÉÑ","steam_id":76561198196769297,"connected_time":1438000000000,"state":"active","ping":60},{"user_id":634,"name":"Saturn's Ring","steam_id":76561198173267015,"connected_time":548000000000,"state":"active","ping":91},{"user_id":635,"name":"uufyfuu","steam_id":76561198142787212,"connected_time":544000000000,"state":"active","ping":76},{"user_id":614,"name":"dak","steam_id":76561199100813393,"connected_time":1946000000000,"state":"active","ping":70},{"user_id":625,"name":"the zoo","steam_id":76561198013732450,"connected_time":1219000000000,"state":"active","ping":55},{"user_id":638,"name":"MrVegasAguitar","steam_id":76561198084466946,"connected_time":433000000000,"state":"active","ping":104},{"user_id":627,"name":"jolo","steam_id":76561198042831480,"connected_time":1087000000000,"state":"active","ping":70},{"user_id":641,"name":"Xx_PercyTheSmallEngineGamer6_xX","steam_id":76561198842297041,"connected_time":74000000000,"state":"active","ping":132},{"user_id":596,"name":"Master Oogway","steam_id":76561198051869638,"connected_time":3200000000000,"state":"active","ping":62},{"user_id":630,"name":"Vermont cheddar","steam_id":76561198125947844,"connected_time":623000000000,"state":"active","ping":91},{"user_id":593,"name":"Something or other","steam_id":76561198153511890,"connected_time":3345000000000,"state":"active","ping":75},{"user_id":624,"name":"Rollo","steam_id":76561198064812108,"connected_time":1276000000000,"state":"active","ping":100}]},{"server_id":402,"name":"Uncletopia | Chicago | 3 | All Maps","name_short":"chi-3","host":"chi-1.us.uncletopia.com","port":27035,"enabled":true,"region":"us-central","cc":"us","latitude":41.881832,"longitude":-87.62318,"reserved":0,"last_update":"0001-01-01T00:00:00Z","name_a2s":"Uncletopia | Chicago | 3 | All Maps","protocol":17,"map":"pl_snowycoast","folder":"tf","game":"Team Fortress","app_id":440,"player_count":24,"max_players":24,"Bots":0,"server_type":"Dedicated","server_os":"Linux","password":true,"vac":true,"version":"7961495","steam_id":85568392924515191,"keywords":["nocrits","nodmgspread","payload","uncletopia"],"game_id":440,"stv_port":27036,"stv_name":"Uncletopia | Chicago | 3 | All Maps | STV","players":[{"user_id":162,"name":"Û†Å≥ ‚ÅßArgo","steam_id":76561198353725622,"connected_time":7726000000000,"state":"active","ping":78},{"user_id":245,"name":"AYAYA!!!","steam_id":76561198992102180,"connected_time":423000000000,"state":"active","ping":46},{"user_id":212,"name":".JIFF","steam_id":76561198045181760,"connected_time":3699000000000,"state":"active","ping":60},{"user_id":244,"name":"bacon :D","steam_id":76561199121940464,"connected_time":432000000000,"state":"active","ping":88},{"user_id":232,"name":"Nero","steam_id":76561198449565973,"connected_time":2012000000000,"state":"active","ping":81},{"user_id":246,"name":"Floating Peasant","steam_id":76561198000183671,"connected_time":405000000000,"state":"active","ping":85},{"user_id":225,"name":"RusticCarp42989","steam_id":76561198361151865,"connected_time":2582000000000,"state":"active","ping":116},{"user_id":249,"name":"Strange Diplomat","steam_id":76561198428191920,"connected_time":180000000000,"state":"active","ping":62},{"user_id":241,"name":"hart","steam_id":76561198094780633,"connected_time":858000000000,"state":"active","ping":50},{"user_id":223,"name":"Ripheart","steam_id":76561198089661561,"connected_time":2592000000000,"state":"active","ping":42},{"user_id":213,"name":"We Go Crazy","steam_id":76561198209641359,"connected_time":3682000000000,"state":"active","ping":56},{"user_id":247,"name":"Dilly Pickles","steam_id":76561198312068499,"connected_time":396000000000,"state":"active","ping":77},{"user_id":240,"name":"PaperBoyMan","steam_id":76561199236219370,"connected_time":988000000000,"state":"active","ping":86},{"user_id":248,"name":"schnedwob","steam_id":76561197999146588,"connected_time":396000000000,"state":"active","ping":75},{"user_id":227,"name":"‚ô•Bunny‚ô•Slut‚ô•","steam_id":76561198206376851,"connected_time":2420000000000,"state":"active","ping":102},{"user_id":231,"name":" ï‚Ä¢·¥•‚Ä¢ î the bear","steam_id":76561197989591976,"connected_time":2204000000000,"state":"active","ping":80},{"user_id":187,"name":"Thundermonkey (SMOKE)","steam_id":76561198017631728,"connected_time":5440000000000,"state":"active","ping":53},{"user_id":203,"name":"TheKyleB","steam_id":76561198202515104,"connected_time":4300000000000,"state":"active","ping":46},{"user_id":193,"name":"Wulf","steam_id":76561198006072568,"connected_time":5289000000000,"state":"active","ping":101},{"user_id":133,"name":"TheOneZoot","steam_id":76561198121944243,"connected_time":9769000000000,"state":"active","ping":74},{"user_id":234,"name":"mollusk_obliteration","steam_id":76561198085388962,"connected_time":1530000000000,"state":"active","ping":52},{"user_id":237,"name":"Yami","steam_id":76561198116546266,"connected_time":1214000000000,"state":"active","ping":52},{"user_id":216,"name":"SiltyStar85","steam_id":76561198309175923,"connected_time":3206000000000,"state":"active","ping":92},{"user_id":219,"name":"Adam (Cursed Confetti Creature)","steam_id":76561198317690197,"connected_time":3029000000000,"state":"active","ping":48}]},{"server_id":403,"name":"Uncletopia | Chicago | 4 | All Maps","name_short":"chi-4","host":"chi-1.us.uncletopia.com","port":27045,"enabled":true,"region":"us-central","cc":"us","latitude":41.881832,"longitude":-87.62318,"reserved":0,"last_update":"0001-01-01T00:00:00Z","name_a2s":"Uncletopia | Chicago | 4 | All Maps","protocol":17,"map":"pl_borneo","folder":"tf","game":"Team Fortress","app_id":440,"player_count":24,"max_players":24,"Bots":0,"server_type":"Dedicated","server_os":"Linux","password":true,"vac":true,"version":"7961495","steam_id":85568392924515193,"keywords":["nocrits","nodmgspread","payload","uncletopia"],"game_id":440,"stv_port":27046,"stv_name":"Uncletopia | Chicago | 4 | All Maps | STV","players":[{"user_id":611,"name":"L to the OG","steam_id":76561199215811448,"connected_time":1096000000000,"state":"active","ping":74},{"user_id":595,"name":"Space‚≠êTaffy","steam_id":76561198002271720,"connected_time":2105000000000,"state":"active","ping":65},{"user_id":571,"name":"Homvel","steam_id":76561198000848413,"connected_time":3381000000000,"state":"active","ping":50},{"user_id":597,"name":"Bluedot","steam_id":76561198019909639,"connected_time":1693000000000,"state":"active","ping":60},{"user_id":625,"name":"ole_diggy","steam_id":76561198970212746,"connected_time":232000000000,"state":"active","ping":70},{"user_id":583,"name":"The Wave","steam_id":76561198268225109,"connected_time":2593000000000,"state":"active","ping":94},{"user_id":619,"name":"Spark Knight Klee","steam_id":76561198419619684,"connected_time":644000000000,"state":"active","ping":99},{"user_id":606,"name":"Jelqing Table","steam_id":76561198051373750,"connected_time":1335000000000,"state":"active","ping":77},{"user_id":570,"name":"Pandora Nyx","steam_id":76561198093475054,"connected_time":3433000000000,"state":"active","ping":68},{"user_id":607,"name":"pup","steam_id":76561198145921847,"connected_time":1314000000000,"state":"active","ping":60},{"user_id":609,"name":"Boboblin","steam_id":76561199030131717,"connected_time":1197000000000,"state":"active","ping":98},{"user_id":582,"name":"Indian Elephant From Pokemon","steam_id":76561198064249841,"connected_time":2666000000000,"state":"active","ping":68},{"user_id":612,"name":"MonkaS Madlad","steam_id":76561198086575617,"connected_time":1079000000000,"state":"active","ping":57},{"user_id":617,"name":"stick","steam_id":76561198049489094,"connected_time":698000000000,"state":"active","ping":60},{"user_id":620,"name":"hboflexin","steam_id":76561198323411839,"connected_time":606000000000,"state":"active","ping":92},{"user_id":624,"name":"A new Player(F2p)","steam_id":76561199388826335,"connected_time":305000000000,"state":"active","ping":82},{"user_id":618,"name":"=Silver=","steam_id":76561198292307127,"connected_time":668000000000,"state":"active","ping":96},{"user_id":599,"name":"Steven","steam_id":76561198360946437,"connected_time":1656000000000,"state":"active","ping":63},{"user_id":622,"name":"reis","steam_id":76561199232952016,"connected_time":501000000000,"state":"active","ping":190},{"user_id":626,"name":"phantom","steam_id":76561197963860777,"connected_time":44000000000,"state":"active","ping":73},{"user_id":458,"name":"CDBeans","steam_id":76561198046990367,"connected_time":9443000000000,"state":"active","ping":90},{"user_id":585,"name":"Friznog","steam_id":76561198064302940,"connected_time":2562000000000,"state":"active","ping":64},{"user_id":550,"name":"ultralisk52","steam_id":76561198051666604,"connected_time":4897000000000,"state":"active","ping":62},{"user_id":587,"name":"Rowmaster","steam_id":76561198271659574,"connected_time":2504000000000,"state":"active","ping":105}]},{"server_id":36,"name":"Uncletopia | Chicago | 5 | All Maps","name_short":"chi-5","host":"chi-2.us.uncletopia.com","port":27015,"enabled":true,"region":"us-central","cc":"us","latitude":41.881832,"longitude":-87.62318,"reserved":0,"last_update":"0001-01-01T00:00:00Z","name_a2s":"Uncletopia | Chicago | 5 | All Maps","protocol":17,"map":"koth_highpass","folder":"tf","game":"Team Fortress","app_id":440,"player_count":23,"max_players":24,"Bots":0,"server_type":"Dedicated","server_os":"Linux","password":true,"vac":true,"version":"7961495","steam_id":85568392924866362,"keywords":["cp","nocrits","nodmgspread","uncletopia"],"game_id":440,"stv_port":27016,"stv_name":"Uncletopia | Chicago | 5 | All Maps | STV","players":[{"user_id":76,"name":"Zhong Xina","steam_id":76561198048157121,"connected_time":1170000000000,"state":"active","ping":84},{"user_id":80,"name":"The local hobo","steam_id":76561198289650060,"connected_time":1122000000000,"state":"active","ping":77},{"user_id":81,"name":"Slip","steam_id":76561199057232579,"connected_time":1095000000000,"state":"active","ping":49},{"user_id":90,"name":"hypergamer3500","steam_id":76561199038393500,"connected_time":766000000000,"state":"active","ping":69},{"user_id":93,"name":"DanoiBoy","steam_id":76561198449079893,"connected_time":370000000000,"state":"active","ping":51},{"user_id":66,"name":"Aku+","steam_id":76561198813782795,"connected_time":2238000000000,"state":"active","ping":158},{"user_id":92,"name":"MelonFelonies","steam_id":76561198804631199,"connected_time":512000000000,"state":"active","ping":66},{"user_id":77,"name":"Stauxie","steam_id":76561198255030077,"connected_time":1159000000000,"state":"active","ping":89},{"user_id":94,"name":"mario.hernandez.2006","steam_id":76561198811827433,"connected_time":142000000000,"state":"active","ping":49},{"user_id":58,"name":"?pengin","steam_id":76561198254236408,"connected_time":2658000000000,"state":"active","ping":79},{"user_id":45,"name":"—Ç–∏–º–∞—Ç–∏","steam_id":76561198327921475,"connected_time":3345000000000,"state":"active","ping":175},{"user_id":52,"name":"Phos","steam_id":76561198122339506,"connected_time":3126000000000,"state":"active","ping":77},{"user_id":75,"name":"Grilled Jizo","steam_id":76561199250875340,"connected_time":1367000000000,"state":"active","ping":75},{"user_id":63,"name":"Shitsack the Indomitable","steam_id":76561198408159536,"connected_time":2514000000000,"state":"active","ping":48},{"user_id":82,"name":"Lv3 Kobold Shadow Sorcerer","steam_id":76561198042068995,"connected_time":1066000000000,"state":"active","ping":74},{"user_id":37,"name":"TriggerPullPone","steam_id":76561198071789810,"connected_time":3451000000000,"state":"active","ping":93},{"user_id":88,"name":"CherriKat","steam_id":76561198821297512,"connected_time":855000000000,"state":"active","ping":100},{"user_id":39,"name":"Gamzee Makara","steam_id":76561198046661611,"connected_time":3393000000000,"state":"active","ping":87},{"user_id":59,"name":"augh","steam_id":76561198131532406,"connected_time":2651000000000,"state":"active","ping":71},{"user_id":84,"name":"OneMisguidedSlyGuy","steam_id":76561198372243261,"connected_time":1046000000000,"state":"active","ping":102},{"user_id":85,"name":"Killbasa","steam_id":76561198064868400,"connected_time":920000000000,"state":"active","ping":77},{"user_id":49,"name":"snowfedya","steam_id":76561198383967505,"connected_time":3221000000000,"state":"active","ping":159},{"user_id":89,"name":"jimmz","steam_id":76561199076776118,"connected_time":846000000000,"state":"active","ping":68}]},{"server_id":37,"name":"Uncletopia | Chicago | 6 | All Maps","name_short":"chi-6","host":"chi-2.us.uncletopia.com","port":27025,"enabled":true,"region":"us-central","cc":"us","latitude":41.881832,"longitude":-87.62318,"reserved":0,"last_update":"0001-01-01T00:00:00Z","name_a2s":"Uncletopia | Chicago | 6 | All Maps","protocol":17,"map":"koth_harvest_final","folder":"tf","game":"Team Fortress","app_id":440,"player_count":24,"max_players":24,"Bots":0,"server_type":"Dedicated","server_os":"Linux","password":true,"vac":true,"version":"7961495","steam_id":85568392924866363,"keywords":["cp","nocrits","nodmgspread","uncletopia"],"game_id":440,"stv_port":27026,"stv_name":"Uncletopia | Chicago | 6 | All Maps | STV","players":[{"user_id":360,"name":"frid","steam_id":76561198005806915,"connected_time":486000000000,"state":"active","ping":73},{"user_id":353,"name":"BenUpde","steam_id":76561198003554034,"connected_time":600000000000,"state":"active","ping":74},{"user_id":351,"name":"IncognitoLens","steam_id":76561198059647601,"connected_time":614000000000,"state":"active","ping":87},{"user_id":365,"name":"swifthicky12op","steam_id":76561198262210064,"connected_time":241000000000,"state":"active","ping":59},{"user_id":362,"name":"apple","steam_id":76561198384320638,"connected_time":336000000000,"state":"active","ping":87},{"user_id":308,"name":"Medic Bag","steam_id":76561198403209900,"connected_time":4219000000000,"state":"active","ping":60},{"user_id":363,"name":"SomeRndomPotato","steam_id":76561199109508847,"connected_time":299000000000,"state":"active","ping":70},{"user_id":348,"name":"Thella Making","steam_id":76561198125828837,"connected_time":928000000000,"state":"active","ping":67},{"user_id":366,"name":"nivekuil","steam_id":76561198043892129,"connected_time":127000000000,"state":"active","ping":87},{"user_id":321,"name":"Fatal Top Deficiency","steam_id":76561198141738612,"connected_time":3015000000000,"state":"active","ping":69},{"user_id":336,"name":"Surfing Garchomp","steam_id":76561199107236884,"connected_time":2372000000000,"state":"active","ping":102},{"user_id":354,"name":"epix","steam_id":76561198354108114,"connected_time":591000000000,"state":"active","ping":81},{"user_id":355,"name":"shadowtheif920","steam_id":76561198060790584,"connected_time":586000000000,"state":"active","ping":74},{"user_id":364,"name":"Ringo Barrs","steam_id":76561198043906449,"connected_time":296000000000,"state":"active","ping":58},{"user_id":367,"name":"Chin, Bruce Lee's Relative","steam_id":76561198240105522,"connected_time":65000000000,"state":"active","ping":75},{"user_id":323,"name":"N U T T","steam_id":76561198139661511,"connected_time":3009000000000,"state":"active","ping":74},{"user_id":314,"name":"Horse","steam_id":76561198004583631,"connected_time":3064000000000,"state":"active","ping":81},{"user_id":357,"name":"jimmyfnaf172198yay","steam_id":76561198311446636,"connected_time":575000000000,"state":"active","ping":61},{"user_id":349,"name":"rudy","steam_id":76561198088712799,"connected_time":721000000000,"state":"active","ping":84},{"user_id":359,"name":"Carpet enthusiast","steam_id":76561198024040142,"connected_time":543000000000,"state":"active","ping":100},{"user_id":327,"name":"Mega_Man23","steam_id":76561198138341391,"connected_time":2972000000000,"state":"active","ping":63},{"user_id":347,"name":"womthedom","steam_id":76561198088768287,"connected_time":1169000000000,"state":"active","ping":51},{"user_id":342,"name":"nonagon infinity","steam_id":76561198397662124,"connected_time":2004000000000,"state":"active","ping":89},{"user_id":329,"name":"YoMomsSpaghetti","steam_id":76561198278451717,"connected_time":2844000000000,"state":"active","ping":61}]},{"server_id":38,"name":"Uncletopia | Chicago | 7 | Stopwatch","name_short":"chi-7","host":"chi-2.us.uncletopia.com","port":27035,"enabled":true,"region":"us-central","cc":"us","latitude":41.881832,"longitude":-87.62318,"reserved":0,"last_update":"0001-01-01T00:00:00Z","name_a2s":"Uncletopia | Chicago | 7 | Stopwatch","protocol":17,"map":"workshop/koth_product_final.ugc454272353","folder":"tf","game":"Team Fortress","app_id":440,"player_count":0,"max_players":24,"Bots":0,"server_type":"Dedicated","server_os":"Linux","password":true,"vac":true,"version":"7961495","steam_id":85568392924866364,"keywords":["cp","nocrits","nodmgspread","uncletopia"],"game_id":440,"stv_port":27036,"stv_name":"Uncletopia | Chicago | 7 | Stopwatch | STV","players":null},{"server_id":39,"name":"Uncletopia | Chicago | 8 | Community","name_short":"chi-8","host":"chi-2.us.uncletopia.com","port":27045,"enabled":true,"region":"us-central","cc":"us","latitude":41.881832,"longitude":-87.62318,"reserved":0,"last_update":"0001-01-01T00:00:00Z","name_a2s":"Uncletopia | Chicago | 8 | Community","protocol":17,"map":"workshop/koth_kemptown_rc1.ugc767410655","folder":"tf","game":"Team Fortress","app_id":440,"player_count":0,"max_players":24,"Bots":0,"server_type":"Dedicated","server_os":"Linux","password":true,"vac":true,"version":"7961495","steam_id":85568392924866365,"keywords":["cp","nocrits","nodmgspread","uncletopia"],"game_id":440,"stv_port":27046,"stv_name":"Uncletopia | Chicago | 8 | Community | STV","players":null},{"server_id":8,"name":"Uncletopia | Dallas | 1 | All Maps","name_short":"dal-1","host":"dal-1.us.uncletopia.com","port":27015,"enabled":true,"region":"us-central","cc":"us","latitude":32.779167,"longitude":-96.80889,"reserved":0,"last_update":"0001-01-01T00:00:00Z","name_a2s":"Uncletopia | Dallas | 1 | All Maps","protocol":17,"map":"cp_dustbowl","folder":"tf","game":"Team Fortress","app_id":440,"player_count":24,"max_players":24,"Bots":0,"server_type":"Dedicated","server_os":"Linux","password":true,"vac":true,"version":"7961495","steam_id":85568392924469986,"keywords":["cp","nocrits","nodmgspread","uncletopia"],"game_id":440,"stv_port":27016,"stv_name":"Uncletopia | Dallas | 1 | All Maps | STV","players":[{"user_id":452,"name":"Minin","steam_id":76561198018819047,"connected_time":2661000000000,"state":"active","ping":72},{"user_id":474,"name":"jamalbob33","steam_id":76561198410281331,"connected_time":156000000000,"state":"active","ping":106},{"user_id":416,"name":"Big Sauce","steam_id":76561198046654750,"connected_time":5261000000000,"state":"active","ping":98},{"user_id":464,"name":"funTM","steam_id":76561198864777267,"connected_time":1513000000000,"state":"active","ping":72},{"user_id":468,"name":"Dr.Joker95","steam_id":76561198355039654,"connected_time":1223000000000,"state":"active","ping":90},{"user_id":429,"name":"FanaticSalt","steam_id":76561199380123059,"connected_time":4318000000000,"state":"active","ping":63},{"user_id":381,"name":"Vorpas Jabwak","steam_id":76561198112186064,"connected_time":7572000000000,"state":"active","ping":70},{"user_id":439,"name":"Jennifer Aniston's Nipples","steam_id":76561198086107548,"connected_time":3866000000000,"state":"active","ping":42},{"user_id":457,"name":"Drake from State Farm","steam_id":76561199069029812,"connected_time":1761000000000,"state":"active","ping":98},{"user_id":402,"name":"OwningTundra2","steam_id":76561198936893224,"connected_time":6390000000000,"state":"active","ping":54},{"user_id":471,"name":"Tendesius","steam_id":76561198057349433,"connected_time":603000000000,"state":"active","ping":90},{"user_id":469,"name":"Satan-2","steam_id":76561199231742764,"connected_time":1194000000000,"state":"active","ping":98},{"user_id":465,"name":"SuperChief","steam_id":76561198046519824,"connected_time":1497000000000,"state":"active","ping":62},{"user_id":293,"name":"Glaceon","steam_id":76561198177715869,"connected_time":13794000000000,"state":"active","ping":69},{"user_id":453,"name":"2.5 Oz of Paprika","steam_id":76561198174647666,"connected_time":2660000000000,"state":"active","ping":107},{"user_id":434,"name":"TheGrassMan (He/Him)","steam_id":76561198118984048,"connected_time":4062000000000,"state":"active","ping":88},{"user_id":473,"name":"Sage","steam_id":76561198143101697,"connected_time":208000000000,"state":"active","ping":115},{"user_id":404,"name":"flippercurve","steam_id":76561199238295034,"connected_time":6163000000000,"state":"active","ping":72},{"user_id":450,"name":"maddoxmomo","steam_id":76561198816228532,"connected_time":2941000000000,"state":"active","ping":58},{"user_id":462,"name":"canadian birds","steam_id":76561198059466588,"connected_time":1577000000000,"state":"active","ping":89},{"user_id":449,"name":"brewkey","steam_id":76561198057896324,"connected_time":2971000000000,"state":"active","ping":54},{"user_id":467,"name":"Hbadger","steam_id":76561198010204346,"connected_time":1286000000000,"state":"active","ping":80},{"user_id":456,"name":"s1mon","steam_id":76561198198137847,"connected_time":1776000000000,"state":"active","ping":81},{"user_id":430,"name":"Greg Boberton 2012","steam_id":76561198983566026,"connected_time":4317000000000,"state":"active","ping":86}]},{"server_id":108,"name":"Uncletopia | Dallas | 2 | All Maps","name_short":"dal-2","host":"dal-1.us.uncletopia.com","port":27025,"enabled":true,"region":"us-central","cc":"us","latitude":32.779167,"longitude":-96.80889,"reserved":0,"last_update":"0001-01-01T00:00:00Z","name_a2s":"Uncletopia | Dallas | 2 | All Maps","protocol":17,"map":"pl_goldrush","folder":"tf","game":"Team Fortress","app_id":440,"player_count":23,"max_players":24,"Bots":0,"server_type":"Dedicated","server_os":"Linux","password":true,"vac":true,"version":"7961495","steam_id":85568392924469988,"keywords":["nocrits","nodmgspread","payload","uncletopia"],"game_id":440,"stv_port":27026,"stv_name":"Uncletopia | Dallas | 2 | All Maps | STV","players":[{"user_id":357,"name":"sheep man shaun","steam_id":76561198994349483,"connected_time":940000000000,"state":"active","ping":89},{"user_id":358,"name":"Mikael_01","steam_id":76561199080253129,"connected_time":827000000000,"state":"active","ping":210},{"user_id":361,"name":"Pie","steam_id":76561198054721133,"connected_time":816000000000,"state":"active","ping":69},{"user_id":366,"name":"pablo.rodriguez2006","steam_id":76561198059740184,"connected_time":574000000000,"state":"active","ping":75},{"user_id":372,"name":"dyyd7706","steam_id":76561199230461523,"connected_time":209000000000,"state":"active","ping":95},{"user_id":296,"name":"Rhutebeer","steam_id":76561198018302761,"connected_time":6136000000000,"state":"active","ping":69},{"user_id":342,"name":"Just Luck","steam_id":76561198294350105,"connected_time":1506000000000,"state":"active","ping":65},{"user_id":355,"name":"spirit","steam_id":76561198102040731,"connected_time":1113000000000,"state":"active","ping":78},{"user_id":271,"name":"SharpStabbyThing","steam_id":76561199059465912,"connected_time":7658000000000,"state":"active","ping":93},{"user_id":370,"name":"Nammu","steam_id":76561198067778161,"connected_time":389000000000,"state":"active","ping":86},{"user_id":346,"name":"Ayano2_","steam_id":76561198996413078,"connected_time":1391000000000,"state":"active","ping":93},{"user_id":360,"name":"OmniMoto","steam_id":76561198091298557,"connected_time":826000000000,"state":"active","ping":75},{"user_id":348,"name":"Bimbonito","steam_id":76561198069676563,"connected_time":1343000000000,"state":"active","ping":78},{"user_id":350,"name":"Dopefish","steam_id":76561197964755058,"connected_time":1307000000000,"state":"active","ping":58},{"user_id":286,"name":"Liebestr√§ume","steam_id":76561198038862034,"connected_time":6740000000000,"state":"active","ping":74},{"user_id":373,"name":"whorgampus","steam_id":76561198043610132,"connected_time":143000000000,"state":"active","ping":75},{"user_id":369,"name":"BaconTazer","steam_id":76561199171184553,"connected_time":489000000000,"state":"active","ping":80},{"user_id":335,"name":"Mail Delivery","steam_id":76561198290046318,"connected_time":1909000000000,"state":"active","ping":73},{"user_id":371,"name":"gooch_masta","steam_id":76561198151578423,"connected_time":316000000000,"state":"active","ping":93},{"user_id":374,"name":"Lucas","steam_id":76561198399704604,"connected_time":110000000000,"state":"active","ping":100},{"user_id":332,"name":"monkaHeal","steam_id":76561198127039453,"connected_time":2129000000000,"state":"active","ping":75},{"user_id":368,"name":"HappilyDisturbed","steam_id":76561198156158743,"connected_time":524000000000,"state":"active","ping":122},{"user_id":354,"name":"the keebler","steam_id":76561199486326945,"connected_time":1277000000000,"state":"active","ping":85}]},{"server_id":404,"name":"Uncletopia | Dallas | 3 | All Maps","name_short":"dal-3","host":"dal-1.us.uncletopia.com","port":27035,"enabled":true,"region":"us-central","cc":"us","latitude":32.779167,"longitude":-96.80889,"reserved":0,"last_update":"0001-01-01T00:00:00Z","name_a2s":"Uncletopia | Dallas | 3 | All Maps","protocol":17,"map":"pl_barnblitz","folder":"tf","game":"Team Fortress","app_id":440,"player_count":22,"max_players":24,"Bots":0,"server_type":"Dedicated","server_os":"Linux","password":true,"vac":true,"version":"7961495","steam_id":85568392924515219,"keywords":["nocrits","nodmgspread","payload","uncletopia"],"game_id":440,"stv_port":27036,"stv_name":"Uncletopia | Dallas | 3 | All Maps | STV","players":[{"user_id":130,"name":"TechnoBear2099","steam_id":76561198238863596,"connected_time":49000000000,"state":"active","ping":52},{"user_id":117,"name":"webaline  =Ôºæ‚óè ‚ãè ‚óèÔºæ=","steam_id":76561199052450127,"connected_time":1264000000000,"state":"active","ping":75},{"user_id":64,"name":"Goblin","steam_id":76561199384665653,"connected_time":3603000000000,"state":"active","ping":73},{"user_id":105,"name":"Orange bench","steam_id":76561198191269339,"connected_time":1772000000000,"state":"active","ping":94},{"user_id":119,"name":"„Éì„Éº„Éä„Éº","steam_id":76561199196918355,"connected_time":1229000000000,"state":"active","ping":75},{"user_id":107,"name":"Doc","steam_id":76561198411062940,"connected_time":1719000000000,"state":"active","ping":119},{"user_id":128,"name":"HanakoToast","steam_id":76561198045233131,"connected_time":745000000000,"state":"active","ping":77},{"user_id":68,"name":"Astral","steam_id":76561198037771700,"connected_time":3564000000000,"state":"active","ping":89},{"user_id":120,"name":"Executioner Smough","steam_id":76561198176966911,"connected_time":1227000000000,"state":"active","ping":75},{"user_id":110,"name":"Echo21","steam_id":76561199105713105,"connected_time":1645000000000,"state":"active","ping":72},{"user_id":73,"name":"Holol","steam_id":76561198010179474,"connected_time":3367000000000,"state":"active","ping":106},{"user_id":129,"name":"Coach McFish","steam_id":76561198210456405,"connected_time":603000000000,"state":"active","ping":91},{"user_id":127,"name":"cheesebro","steam_id":76561198002072852,"connected_time":956000000000,"state":"active","ping":78},{"user_id":34,"name":"CeLeb144","steam_id":76561199089907740,"connected_time":5959000000000,"state":"active","ping":69},{"user_id":66,"name":"huge and onionpilled","steam_id":76561198201259645,"connected_time":3597000000000,"state":"active","ping":90},{"user_id":121,"name":"Mint Jelly","steam_id":76561197991286751,"connected_time":1218000000000,"state":"active","ping":65},{"user_id":109,"name":"Raz","steam_id":76561198002426150,"connected_time":1706000000000,"state":"active","ping":46},{"user_id":111,"name":"YunKo„ÉÑ","steam_id":76561199107366261,"connected_time":1632000000000,"state":"active","ping":140},{"user_id":115,"name":"Your grandma","steam_id":76561199001723917,"connected_time":1317000000000,"state":"active","ping":126},{"user_id":113,"name":"blanch","steam_id":76561198850629951,"connected_time":1596000000000,"state":"active","ping":98},{"user_id":91,"name":"leesh","steam_id":76561198079603938,"connected_time":2114000000000,"state":"active","ping":60},{"user_id":123,"name":"jizz gaming","steam_id":76561198984762462,"connected_time":1205000000000,"state":"active","ping":90}]},{"server_id":405,"name":"Uncletopia | Dallas | 4 | Community","name_short":"dal-4","host":"dal-1.us.uncletopia.com","port":27045,"enabled":true,"region":"us-central","cc":"us","latitude":32.779167,"longitude":-96.80889,"reserved":0,"last_update":"0001-01-01T00:00:00Z","name_a2s":"Uncletopia | Dallas | 4 | Community","protocol":17,"map":"workshop/koth_ashville_final.ugc2130459942","folder":"tf","game":"Team Fortress","app_id":440,"player_count":0,"max_players":24,"Bots":0,"server_type":"Dedicated","server_os":"Linux","password":true,"vac":true,"version":"7961495","steam_id":85568392924515220,"keywords":["cp","nocrits","nodmgspread","uncletopia"],"game_id":440,"stv_port":27046,"stv_name":"Uncletopia | Dallas | 4 | Community | STV","players":null},{"server_id":5,"name":"Uncletopia | Frankfurt | 1 | All Maps","name_short":"frk-1","host":"frk-1.de.uncletopia.com","port":27015,"enabled":true,"region":"eu","cc":"de","latitude":50.110924,"longitude":8.682127,"reserved":0,"last_update":"0001-01-01T00:00:00Z","name_a2s":"Uncletopia | Frankfurt | 1 | All Maps","protocol":17,"map":"cp_sunshine","folder":"tf","game":"Team Fortress","app_id":440,"player_count":24,"max_players":24,"Bots":0,"server_type":"Dedicated","server_os":"Linux","password":true,"vac":true,"version":"7961495","steam_id":85568392924469989,"keywords":["cp","nocrits","nodmgspread","uncletopia"],"game_id":440,"stv_port":27016,"stv_name":"Uncletopia | Frankfurt | 1 | All Maps | STV","players":[{"user_id":800,"name":"a chimp with a keyboard","steam_id":76561198060270322,"connected_time":1122000000000,"state":"active","ping":90},{"user_id":817,"name":"ProfKaya","steam_id":76561198324134207,"connected_time":25000000000,"state":"spawning","ping":74},{"user_id":757,"name":"solmonk","steam_id":76561198082770225,"connected_time":3426000000000,"state":"active","ping":78},{"user_id":815,"name":"ChPerette üéÆ","steam_id":76561198060004887,"connected_time":270000000000,"state":"active","ping":46},{"user_id":755,"name":"Portal2Player","steam_id":76561198062870114,"connected_time":3746000000000,"state":"active","ping":147},{"user_id":773,"name":"sticks","steam_id":76561198127099299,"connected_time":2738000000000,"state":"active","ping":49},{"user_id":812,"name":"Dr.Disrespect","steam_id":76561198043820228,"connected_time":444000000000,"state":"active","ping":45},{"user_id":797,"name":"John Wick","steam_id":76561198411787465,"connected_time":1377000000000,"state":"active","ping":57},{"user_id":805,"name":"Lewylow","steam_id":76561198005425686,"connected_time":892000000000,"state":"active","ping":60},{"user_id":798,"name":"sloth","steam_id":76561198373565279,"connected_time":1333000000000,"state":"active","ping":53},{"user_id":762,"name":"fy","steam_id":76561198315371425,"connected_time":3201000000000,"state":"active","ping":55},{"user_id":818,"name":"CashMoney","steam_id":76561198108389190,"connected_time":16000000000,"state":"active","ping":75},{"user_id":808,"name":"Lennox","steam_id":76561198069063554,"connected_time":725000000000,"state":"active","ping":40},{"user_id":756,"name":"AdeAAa","steam_id":76561198974207724,"connected_time":3589000000000,"state":"active","ping":100},{"user_id":814,"name":"S√ºmer Kol√ßak","steam_id":76561198267528331,"connected_time":306000000000,"state":"active","ping":84},{"user_id":799,"name":"dansal","steam_id":76561197997042510,"connected_time":1323000000000,"state":"active","ping":176},{"user_id":811,"name":"CptNeverLucky","steam_id":76561197963052427,"connected_time":495000000000,"state":"active","ping":64},{"user_id":792,"name":"wiggleton.Bockzdale79@yahoo.com","steam_id":76561198826745735,"connected_time":1574000000000,"state":"active","ping":80},{"user_id":789,"name":"Be Water","steam_id":76561198043798355,"connected_time":1737000000000,"state":"active","ping":55},{"user_id":807,"name":"IC 1101","steam_id":76561198127181171,"connected_time":760000000000,"state":"active","ping":89},{"user_id":791,"name":"Edoina","steam_id":76561198204149373,"connected_time":1581000000000,"state":"active","ping":66},{"user_id":809,"name":"Mr-Fluf","steam_id":76561198115101757,"connected_time":715000000000,"state":"active","ping":77},{"user_id":810,"name":"snowycoast","steam_id":76561198346638308,"connected_time":714000000000,"state":"active","ping":60},{"user_id":747,"name":"debil","steam_id":76561198160047415,"connected_time":4575000000000,"state":"active","ping":85}]},{"server_id":110,"name":"Uncletopia | Frankfurt | 2 | All Maps","name_short":"frk-2","host":"frk-1.de.uncletopia.com","port":27025,"enabled":true,"region":"eu","cc":"de","latitude":50.110924,"longitude":8.682127,"reserved":0,"last_update":"0001-01-01T00:00:00Z","name_a2s":"Uncletopia | Frankfurt | 2 | All Maps","protocol":17,"map":"koth_highpass","folder":"tf","game":"Team Fortress","app_id":440,"player_count":0,"max_players":24,"Bots":0,"server_type":"Dedicated","server_os":"Linux","password":true,"vac":true,"version":"7961495","steam_id":85568392924469990,"keywords":["cp","nocrits","nodmgspread","uncletopia"],"game_id":440,"stv_port":27026,"stv_name":"Uncletopia | Frankfurt | 2 | All Maps | STV","players":null},{"server_id":308,"name":"Uncletopia | Frankfurt | 3 | All Maps","name_short":"frk-3","host":"frk-1.de.uncletopia.com","port":27035,"enabled":true,"region":"eu","cc":"de","latitude":50.110924,"longitude":8.682127,"reserved":0,"last_update":"0001-01-01T00:00:00Z","name_a2s":"Uncletopia | Frankfurt | 3 | All Maps","protocol":17,"map":"koth_lakeside_final","folder":"tf","game":"Team Fortress","app_id":440,"player_count":0,"max_players":24,"Bots":0,"server_type":"Dedicated","server_os":"Linux","password":true,"vac":true,"version":"7961495","steam_id":85568392924504274,"keywords":["cp","nocrits","nodmgspread","uncletopia"],"game_id":440,"stv_port":27036,"stv_name":"Uncletopia | Frankfurt | 3 | All Maps | STV","players":null},{"server_id":309,"name":"Uncletopia | Frankfurt | 4 | All Maps","name_short":"frk-4","host":"frk-1.de.uncletopia.com","port":27045,"enabled":true,"region":"eu","cc":"de","latitude":50.110924,"longitude":8.682127,"reserved":0,"last_update":"0001-01-01T00:00:00Z","name_a2s":"Uncletopia | Frankfurt | 4 | All Maps","protocol":17,"map":"koth_cascade","folder":"tf","game":"Team Fortress","app_id":440,"player_count":0,"max_players":24,"Bots":0,"server_type":"Dedicated","server_os":"Linux","password":true,"vac":true,"version":"7961495","steam_id":85568392924504275,"keywords":["cp","nocrits","nodmgspread","uncletopia"],"game_id":440,"stv_port":27046,"stv_name":"Uncletopia | Frankfurt | 4 | All Maps | STV","players":null},{"server_id":310,"name":"Uncletopia | Frankfurt | 5 | All Maps","name_short":"frk-5","host":"frk-1.de.uncletopia.com","port":27055,"enabled":true,"region":"eu","cc":"de","latitude":50.110924,"longitude":8.682127,"reserved":0,"last_update":"0001-01-01T00:00:00Z","name_a2s":"Uncletopia | Frankfurt | 5 | All Maps","protocol":17,"map":"koth_viaduct","folder":"tf","game":"Team Fortress","app_id":440,"player_count":0,"max_players":24,"Bots":0,"server_type":"Dedicated","server_os":"Linux","password":true,"vac":true,"version":"7961495","steam_id":85568392924504277,"keywords":["cp","nocrits","nodmgspread","uncletopia"],"game_id":440,"stv_port":27056,"stv_name":"Uncletopia | Frankfurt | 5 | All Maps | STV","players":null},{"server_id":311,"name":"Uncletopia | Frankfurt | 6 | All Maps","name_short":"frk-6","host":"frk-1.de.uncletopia.com","port":27065,"enabled":true,"region":"eu","cc":"de","latitude":50.110924,"longitude":8.682127,"reserved":0,"last_update":"0001-01-01T00:00:00Z","name_a2s":"Uncletopia | Frankfurt | 6 | All Maps","protocol":17,"map":"koth_viaduct","folder":"tf","game":"Team Fortress","app_id":440,"player_count":0,"max_players":24,"Bots":0,"server_type":"Dedicated","server_os":"Linux","password":true,"vac":true,"version":"7961495","steam_id":85568392924504278,"keywords":["cp","nocrits","nodmgspread","uncletopia"],"game_id":440,"stv_port":27066,"stv_name":"Uncletopia | Frankfurt | 6 | All Maps | STV","players":null},{"server_id":23,"name":"Uncletopia | Frankfurt | 7 | Stopwatch","name_short":"frk-7","host":"frk-1.de.uncletopia.com","port":27075,"enabled":true,"region":"eu","cc":"de","latitude":50.110924,"longitude":8.682127,"reserved":0,"last_update":"0001-01-01T00:00:00Z","name_a2s":"Uncletopia | Frankfurt | 7 | Stopwatch","protocol":17,"map":"workshop/koth_product_final.ugc454272353","folder":"tf","game":"Team Fortress","app_id":440,"player_count":0,"max_players":24,"Bots":0,"server_type":"Dedicated","server_os":"Linux","password":true,"vac":true,"version":"7961495","steam_id":85568392924742827,"keywords":["cp","nocrits","nodmgspread","uncletopia"],"game_id":440,"stv_port":27076,"stv_name":"Uncletopia | Frankfurt | 7 | Stopwatch | STV","players":null},{"server_id":24,"name":"Uncletopia | Frankfurt | 8 | Community","name_short":"frk-8","host":"frk-1.de.uncletopia.com","port":27085,"enabled":true,"region":"eu","cc":"de","latitude":50.110924,"longitude":8.682127,"reserved":0,"last_update":"0001-01-01T00:00:00Z","name_a2s":"Uncletopia | Frankfurt | 8 | Community","protocol":17,"map":"workshop/koth_trenchfoot_b1a.ugc731436616","folder":"tf","game":"Team Fortress","app_id":440,"player_count":0,"max_players":24,"Bots":0,"server_type":"Dedicated","server_os":"Linux","password":true,"vac":true,"version":"7961495","steam_id":85568392924742828,"keywords":["cp","nocrits","nodmgspread","uncletopia"],"game_id":440,"stv_port":27086,"stv_name":"Uncletopia | Frankfurt | 8 | Community | STV","players":null},{"server_id":202,"name":"Uncletopia | Hong Kong | 1 | All Maps","name_short":"hgk-1","host":"hgk-1.hk.uncletopia.com","port":27015,"enabled":true,"region":"asia","cc":"hk","latitude":22.302711,"longitude":114.177216,"reserved":0,"last_update":"0001-01-01T00:00:00Z","name_a2s":"Uncletopia | Hong Kong | 1 | All Maps","protocol":17,"map":"pl_frontier_final","folder":"tf","game":"Team Fortress","app_id":440,"player_count":0,"max_players":24,"Bots":0,"server_type":"Dedicated","server_os":"Linux","password":true,"vac":true,"version":"7961495","steam_id":85568392924494504,"keywords":["nocrits","nodmgspread","payload","uncletopia"],"game_id":440,"stv_port":27016,"stv_name":"Uncletopia | Hong Kong | 1 | All Maps | STV","players":null},{"server_id":1,"name":"Uncletopia | Los Angeles | 1 | All Maps","name_short":"lax-1","host":"lax-1.us.uncletopia.com","port":27015,"enabled":true,"region":"us-west","cc":"us","latitude":33.94279,"longitude":-118.41004,"reserved":0,"last_update":"0001-01-01T00:00:00Z","name_a2s":"Uncletopia | Los Angeles | 1 | All Maps","protocol":17,"map":"pl_borneo","folder":"tf","game":"Team Fortress","app_id":440,"player_count":24,"max_players":24,"Bots":0,"server_type":"Dedicated","server_os":"Linux","password":true,"vac":true,"version":"7961495","steam_id":85568392924469991,"keywords":["nocrits","nodmgspread","payload","uncletopia"],"game_id":440,"stv_port":27016,"stv_name":"Uncletopia | Los Angeles | 1 | All Maps | STV","players":[{"user_id":201,"name":"Seshreb","steam_id":76561198846614634,"connected_time":672000000000,"state":"active","ping":63},{"user_id":212,"name":"Snootzdog","steam_id":76561198835737236,"connected_time":83000000000,"state":"active","ping":121},{"user_id":186,"name":"Scrux","steam_id":76561198129763115,"connected_time":1314000000000,"state":"active","ping":57},{"user_id":197,"name":"albert jones","steam_id":76561198404271005,"connected_time":900000000000,"state":"active","ping":56},{"user_id":154,"name":"card carrying member","steam_id":76561198043558709,"connected_time":3876000000000,"state":"active","ping":74},{"user_id":209,"name":"Skeleop","steam_id":76561198981106464,"connected_time":193000000000,"state":"active","ping":46},{"user_id":184,"name":"Sad Tony","steam_id":76561198053849851,"connected_time":1623000000000,"state":"active","ping":60},{"user_id":207,"name":"King","steam_id":76561199021156805,"connected_time":489000000000,"state":"active","ping":86},{"user_id":204,"name":"dirty30","steam_id":76561198021226566,"connected_time":596000000000,"state":"active","ping":76},{"user_id":200,"name":"@TV.FUN hyaZzZaZa","steam_id":76561199100342013,"connected_time":674000000000,"state":"active","ping":47},{"user_id":166,"name":"Sirphantom","steam_id":76561198125415432,"connected_time":2771000000000,"state":"active","ping":61},{"user_id":208,"name":"McDonald","steam_id":76561199028533497,"connected_time":248000000000,"state":"active","ping":51},{"user_id":210,"name":"ZamblargoAT","steam_id":76561198295713840,"connected_time":132000000000,"state":"active","ping":75},{"user_id":203,"name":"merkury731","steam_id":76561198110565430,"connected_time":602000000000,"state":"active","ping":112},{"user_id":179,"name":"bombs away!","steam_id":76561198140305247,"connected_time":2103000000000,"state":"active","ping":116},{"user_id":169,"name":"'Oddo","steam_id":76561198090866900,"connected_time":2754000000000,"state":"active","ping":91},{"user_id":176,"name":"Schnitz","steam_id":76561198265484253,"connected_time":2423000000000,"state":"active","ping":56},{"user_id":205,"name":"Dude","steam_id":76561199058616824,"connected_time":572000000000,"state":"active","ping":89},{"user_id":193,"name":"sixauto0706","steam_id":76561198126443610,"connected_time":1126000000000,"state":"active","ping":67},{"user_id":206,"name":"FunnyGoomba","steam_id":76561198279865229,"connected_time":568000000000,"state":"active","ping":89},{"user_id":183,"name":"sussycheese","steam_id":76561198384139570,"connected_time":1683000000000,"state":"active","ping":56},{"user_id":195,"name":"bcizzo","steam_id":76561197994399953,"connected_time":1100000000000,"state":"active","ping":67},{"user_id":181,"name":"N7 Kobold","steam_id":76561198308506257,"connected_time":2023000000000,"state":"active","ping":67},{"user_id":211,"name":"Captain Hotdog","steam_id":76561198059812666,"connected_time":131000000000,"state":"active","ping":53}]},{"server_id":112,"name":"Uncletopia | Los Angeles | 2 | All Maps","name_short":"lax-2","host":"lax-1.us.uncletopia.com","port":27025,"enabled":true,"region":"us-west","cc":"us","latitude":33.94279,"longitude":-118.41004,"reserved":0,"last_update":"0001-01-01T00:00:00Z","name_a2s":"Uncletopia | Los Angeles | 2 | All Maps","protocol":17,"map":"koth_cascade","folder":"tf","game":"Team Fortress","app_id":440,"player_count":0,"max_players":24,"Bots":0,"server_type":"Dedicated","server_os":"Linux","password":true,"vac":true,"version":"7961495","steam_id":85568392924469992,"keywords":["cp","nocrits","nodmgspread","uncletopia"],"game_id":440,"stv_port":27026,"stv_name":"Uncletopia | Los Angeles | 2 | All Maps | STV","players":null},{"server_id":324,"name":"Uncletopia | Los Angeles | 3 | All Maps","name_short":"lax-3","host":"lax-1.us.uncletopia.com","port":27035,"enabled":true,"region":"us-west","cc":"us","latitude":33.94279,"longitude":-118.41004,"reserved":0,"last_update":"0001-01-01T00:00:00Z","name_a2s":"Uncletopia | Los Angeles | 3 | All Maps","protocol":17,"map":"pl_pier","folder":"tf","game":"Team Fortress","app_id":440,"player_count":24,"max_players":24,"Bots":0,"server_type":"Dedicated","server_os":"Linux","password":true,"vac":true,"version":"7961495","steam_id":85568392924510198,"keywords":["nocrits","nodmgspread","payload","uncletopia"],"game_id":440,"stv_port":27036,"stv_name":"Uncletopia | Los Angeles | 3 | All Maps | STV","players":[{"user_id":77,"name":"lil EGG","steam_id":76561198361321253,"connected_time":1898000000000,"state":"active","ping":110},{"user_id":92,"name":"songcreator","steam_id":76561198076822464,"connected_time":978000000000,"state":"active","ping":105},{"user_id":81,"name":"Little Shuriken","steam_id":76561199020477560,"connected_time":1544000000000,"state":"active","ping":41},{"user_id":68,"name":"SadChicken Œª","steam_id":76561198082458968,"connected_time":3559000000000,"state":"active","ping":67},{"user_id":93,"name":"Whiskey","steam_id":76561198858154667,"connected_time":870000000000,"state":"active","ping":53},{"user_id":44,"name":"wheresgeorge","steam_id":76561198986281248,"connected_time":5865000000000,"state":"active","ping":119},{"user_id":16,"name":"Grassman (Cc)","steam_id":76561198026488532,"connected_time":7389000000000,"state":"active","ping":55},{"user_id":84,"name":"Biden Blast","steam_id":76561198366729030,"connected_time":1101000000000,"state":"active","ping":45},{"user_id":19,"name":"Mi cara","steam_id":76561198190771759,"connected_time":7248000000000,"state":"active","ping":76},{"user_id":78,"name":"MantisToboggan","steam_id":76561197969447887,"connected_time":1880000000000,"state":"active","ping":128},{"user_id":85,"name":"yowhatupitk","steam_id":76561199224530901,"connected_time":1099000000000,"state":"active","ping":83},{"user_id":22,"name":"Ockulus","steam_id":76561199069638460,"connected_time":7150000000000,"state":"active","ping":59},{"user_id":86,"name":"Wick","steam_id":76561198062996360,"connected_time":1093000000000,"state":"active","ping":64},{"user_id":64,"name":"Spare(8)Ball","steam_id":76561197982432995,"connected_time":3780000000000,"state":"active","ping":64},{"user_id":69,"name":"Maid 'n' China","steam_id":76561198423392976,"connected_time":3490000000000,"state":"active","ping":62},{"user_id":67,"name":"Tatsumaki","steam_id":76561198135137213,"connected_time":3639000000000,"state":"active","ping":78},{"user_id":87,"name":"Ras","steam_id":76561198120420588,"connected_time":1069000000000,"state":"active","ping":105},{"user_id":80,"name":"Mocha Josie","steam_id":76561198066452726,"connected_time":1571000000000,"state":"active","ping":50},{"user_id":95,"name":"‚ù§ Ashley ‚ù§","steam_id":76561198056428303,"connected_time":388000000000,"state":"active","ping":49},{"user_id":97,"name":"Drapph","steam_id":76561199384213314,"connected_time":340000000000,"state":"active","ping":113},{"user_id":94,"name":"Murphy balls","steam_id":76561198394477971,"connected_time":627000000000,"state":"active","ping":101},{"user_id":90,"name":"felicities","steam_id":76561199446921772,"connected_time":1037000000000,"state":"active","ping":45},{"user_id":91,"name":"Pneumo.","steam_id":76561197987911883,"connected_time":1033000000000,"state":"active","ping":118},{"user_id":70,"name":"[DATS‚û°] Sugar Meowth","steam_id":76561197995251793,"connected_time":3016000000000,"state":"active","ping":76}]},{"server_id":25,"name":"Uncletopia | Los Angeles | 4 | Stopwatch","name_short":"lax-4","host":"lax-1.us.uncletopia.com","port":27045,"enabled":true,"region":"us-west","cc":"us","latitude":33.94279,"longitude":-118.41004,"reserved":0,"last_update":"0001-01-01T00:00:00Z","name_a2s":"Uncletopia | Los Angeles | 4 | Stopwatch","protocol":17,"map":"cp_process_final","folder":"tf","game":"Team Fortress","app_id":440,"player_count":0,"max_players":24,"Bots":0,"server_type":"Dedicated","server_os":"Linux","password":true,"vac":true,"version":"7961495","steam_id":85568392924510199,"keywords":["cp","nocrits","nodmgspread","uncletopia"],"game_id":440,"stv_port":27046,"stv_name":"Uncletopia | Los Angeles | 4 | Stopwatch | STV","players":null},{"server_id":11,"name":"Uncletopia | London | 1 | All Maps","name_short":"lon-1","host":"lon-1.uk.uncletopia.com","port":27015,"enabled":true,"region":"eu","cc":"gb","latitude":51.509865,"longitude":-0.118092,"reserved":0,"last_update":"0001-01-01T00:00:00Z","name_a2s":"Uncletopia | London | 1 | All Maps","protocol":17,"map":"pl_barnblitz","folder":"tf","game":"Team Fortress","app_id":440,"player_count":24,"max_players":24,"Bots":0,"server_type":"Dedicated","server_os":"Linux","password":true,"vac":true,"version":"7961495","steam_id":85568392924367362,"keywords":["nocrits","nodmgspread","payload","uncletopia"],"game_id":440,"stv_port":27016,"stv_name":"Uncletopia | London | 1 | All Maps | STV","players":[{"user_id":707,"name":"Ch4bby","steam_id":76561198058792875,"connected_time":2645000000000,"state":"active","ping":58},{"user_id":685,"name":"Emivescent","steam_id":76561198178094250,"connected_time":4133000000000,"state":"active","ping":42},{"user_id":738,"name":"real!","steam_id":76561198337110615,"connected_time":253000000000,"state":"active","ping":87},{"user_id":725,"name":"Jouppi","steam_id":76561198063725468,"connected_time":1303000000000,"state":"active","ping":91},{"user_id":718,"name":"@1opgloryboyz","steam_id":76561198046754534,"connected_time":2071000000000,"state":"active","ping":88},{"user_id":708,"name":"you can go anywhere","steam_id":76561199085984801,"connected_time":2562000000000,"state":"active","ping":55},{"user_id":735,"name":"TosunPasha","steam_id":76561199039584984,"connected_time":264000000000,"state":"active","ping":104},{"user_id":713,"name":"mage","steam_id":76561198049639319,"connected_time":2344000000000,"state":"active","ping":66},{"user_id":736,"name":"DoubleOTJ","steam_id":76561198179812217,"connected_time":258000000000,"state":"active","ping":131},{"user_id":719,"name":"nug","steam_id":76561198055396568,"connected_time":1873000000000,"state":"active","ping":48},{"user_id":716,"name":"khamba","steam_id":76561198054783240,"connected_time":2089000000000,"state":"active","ping":142},{"user_id":683,"name":"James Lebrond","steam_id":76561198062075870,"connected_time":4161000000000,"state":"active","ping":67},{"user_id":731,"name":"SuperBob103","steam_id":76561199175360012,"connected_time":400000000000,"state":"active","ping":60},{"user_id":737,"name":"minn","steam_id":76561198099101232,"connected_time":257000000000,"state":"active","ping":55},{"user_id":722,"name":"Borat","steam_id":76561198122226417,"connected_time":1720000000000,"state":"active","ping":45},{"user_id":739,"name":"beebo","steam_id":76561199120277007,"connected_time":240000000000,"state":"active","ping":44},{"user_id":723,"name":"Marquis de Hoto","steam_id":76561198080687708,"connected_time":1509000000000,"state":"active","ping":74},{"user_id":704,"name":"Prime Minister Rishi Sunak","steam_id":76561198846784757,"connected_time":3130000000000,"state":"active","ping":57},{"user_id":732,"name":"Christmas Ham","steam_id":76561198119601623,"connected_time":279000000000,"state":"active","ping":52},{"user_id":740,"name":"Sicko Mode (Chris Pratt Cover)","steam_id":76561198315786174,"connected_time":176000000000,"state":"active","ping":120},{"user_id":730,"name":"Vap","steam_id":76561197999702200,"connected_time":885000000000,"state":"active","ping":46},{"user_id":728,"name":"leminsc8","steam_id":76561198825084995,"connected_time":1215000000000,"state":"active","ping":45},{"user_id":741,"name":"ErakTheBrave","steam_id":76561198041198994,"connected_time":164000000000,"state":"active","ping":71},{"user_id":734,"name":"w+m1","steam_id":76561198010428082,"connected_time":270000000000,"state":"active","ping":73}]},{"server_id":114,"name":"Uncletopia | London | 2 | All Maps","name_short":"lon-2","host":"lon-1.uk.uncletopia.com","port":27025,"enabled":true,"region":"eu","cc":"gb","latitude":51.509865,"longitude":-0.118092,"reserved":0,"last_update":"0001-01-01T00:00:00Z","name_a2s":"Uncletopia | London | 2 | All Maps","protocol":17,"map":"pl_borneo","folder":"tf","game":"Team Fortress","app_id":440,"player_count":1,"max_players":24,"Bots":0,"server_type":"Dedicated","server_os":"Linux","password":true,"vac":true,"version":"7961495","steam_id":85568392924470941,"keywords":["nocrits","nodmgspread","payload","uncletopia"],"game_id":440,"stv_port":27026,"stv_name":"Uncletopia | London | 2 | All Maps | STV","players":[{"user_id":713,"name":"Personano","steam_id":76561198994355577,"connected_time":66000000000,"state":"active","ping":60}]},{"server_id":320,"name":"Uncletopia | London | 3 | All Maps","name_short":"lon-3","host":"lon-1.uk.uncletopia.com","port":27035,"enabled":true,"region":"eu","cc":"gb","latitude":51.509865,"longitude":-0.118092,"reserved":0,"last_update":"0001-01-01T00:00:00Z","name_a2s":"Uncletopia | London | 3 | All Maps","protocol":17,"map":"koth_cascade","folder":"tf","game":"Team Fortress","app_id":440,"player_count":0,"max_players":24,"Bots":0,"server_type":"Dedicated","server_os":"Linux","password":true,"vac":true,"version":"7961495","steam_id":85568392924510192,"keywords":["cp","nocrits","nodmgspread","uncletopia"],"game_id":440,"stv_port":27036,"stv_name":"Uncletopia | London | 3 | All Maps | STV","players":null},{"server_id":321,"name":"Uncletopia | London | 4 | All Maps","name_short":"lon-4","host":"lon-1.uk.uncletopia.com","port":27045,"enabled":true,"region":"eu","cc":"gb","latitude":51.509865,"longitude":-0.118092,"reserved":0,"last_update":"0001-01-01T00:00:00Z","name_a2s":"Uncletopia | London | 4 | All Maps","protocol":17,"map":"koth_viaduct","folder":"tf","game":"Team Fortress","app_id":440,"player_count":3,"max_players":24,"Bots":0,"server_type":"Dedicated","server_os":"Linux","password":true,"vac":true,"version":"7961495","steam_id":85568392924510193,"keywords":["cp","nocrits","nodmgspread","uncletopia"],"game_id":440,"stv_port":27046,"stv_name":"Uncletopia | London | 4 | All Maps | STV","players":[{"user_id":275,"name":"Monday","steam_id":76561198348366085,"connected_time":5179000000000,"state":"active","ping":67},{"user_id":276,"name":"Kiz","steam_id":76561198811732820,"connected_time":5171000000000,"state":"active","ping":67},{"user_id":279,"name":"A_GingerIdiot","steam_id":76561198313306026,"connected_time":4467000000000,"state":"active","ping":62}]},{"server_id":21,"name":"Uncletopia | London | 5 | All Maps","name_short":"lon-5","host":"lon-1.uk.uncletopia.com","port":27055,"enabled":true,"region":"eu","cc":"gb","latitude":51.509865,"longitude":-0.118092,"reserved":0,"last_update":"0001-01-01T00:00:00Z","name_a2s":"Uncletopia | London | 5 | All Maps","protocol":17,"map":"koth_highpass","folder":"tf","game":"Team Fortress","app_id":440,"player_count":0,"max_players":24,"Bots":0,"server_type":"Dedicated","server_os":"Linux","password":true,"vac":true,"version":"7961495","steam_id":85568392924742829,"keywords":["cp","nocrits","nodmgspread","uncletopia"],"game_id":440,"stv_port":27056,"stv_name":"Uncletopia | London | 5 | All Maps | STV","players":null},{"server_id":22,"name":"Uncletopia | London | 6 | All Maps","name_short":"lon-6","host":"lon-1.uk.uncletopia.com","port":27065,"enabled":true,"region":"eu","cc":"gb","latitude":51.509865,"longitude":-0.118092,"reserved":0,"last_update":"0001-01-01T00:00:00Z","name_a2s":"Uncletopia | London | 6 | All Maps","protocol":17,"map":"pl_barnblitz","folder":"tf","game":"Team Fortress","app_id":440,"player_count":0,"max_players":24,"Bots":0,"server_type":"Dedicated","server_os":"Linux","password":true,"vac":true,"version":"7961495","steam_id":85568392924742830,"keywords":["nocrits","nodmgspread","payload","uncletopia"],"game_id":440,"stv_port":27066,"stv_name":"Uncletopia | London | 6 | All Maps | STV","players":null},{"server_id":40,"name":"Uncletopia | London | 7 | Stopwatch","name_short":"lon-7","host":"lon-1.uk.uncletopia.com","port":27075,"enabled":true,"region":"eu","cc":"gb","latitude":51.509865,"longitude":-0.118092,"reserved":0,"last_update":"0001-01-01T00:00:00Z","name_a2s":"Uncletopia | London | 7 | Stopwatch","protocol":17,"map":"workshop/koth_bagel_rc6.ugc2514036946","folder":"tf","game":"Team Fortress","app_id":440,"player_count":0,"max_players":24,"Bots":0,"server_type":"Dedicated","server_os":"Linux","password":true,"vac":true,"version":"7961495","steam_id":85568392924964314,"keywords":["cp","nocrits","nodmgspread","uncletopia"],"game_id":440,"stv_port":27076,"stv_name":"Uncletopia | London | 7 | Stopwatch | STV","players":null},{"server_id":41,"name":"Uncletopia | London | 8 | Community","name_short":"lon-8","host":"lon-1.uk.uncletopia.com","port":27085,"enabled":true,"region":"eu","cc":"gb","latitude":51.509865,"longitude":-0.118092,"reserved":0,"last_update":"0001-01-01T00:00:00Z","name_a2s":"Uncletopia | London | 8 | Community","protocol":17,"map":"workshop/cp_propaganda_b18.ugc1603743849","folder":"tf","game":"Team Fortress","app_id":440,"player_count":0,"max_players":24,"Bots":0,"server_type":"Dedicated","server_os":"Linux","password":true,"vac":true,"version":"7961495","steam_id":85568392924964315,"keywords":["cp","nocrits","nodmgspread","uncletopia"],"game_id":440,"stv_port":27086,"stv_name":"Uncletopia | London | 8 | Community | STV","players":null},{"server_id":300,"name":"Uncletopia | Montr√©al | 1 | One Thousand Uncles","name_short":"mtl-1","host":"mtl-1.ca.uncletopia.com","port":27015,"enabled":true,"region":"us-east","cc":"ca","latitude":45.50889,"longitude":-73.56167,"reserved":0,"last_update":"0001-01-01T00:00:00Z","name_a2s":"","protocol":0,"map":"","folder":"","game":"","app_id":0,"player_count":16,"max_players":0,"Bots":0,"server_type":"","server_os":"","password":false,"vac":false,"version":"","steam_id":0,"keywords":null,"game_id":0,"stv_port":0,"stv_name":"","players":[{"user_id":19,"name":"groot","steam_id":76561198057999536,"connected_time":1239000000000,"state":"active","ping":118},{"user_id":36,"name":"Dr. Maybe","steam_id":76561198268304564,"connected_time":1106000000000,"state":"active","ping":70},{"user_id":39,"name":"‡∏∏","steam_id":76561198084134025,"connected_time":777000000000,"state":"active","ping":88},{"user_id":57,"name":"h20verdrive","steam_id":76561198115957085,"connected_time":96000000000,"state":"active","ping":117},{"user_id":40,"name":"Jbomb","steam_id":76561199197866625,"connected_time":477000000000,"state":"active","ping":88},{"user_id":41,"name":"Û†Å≥ ‚Åßfortnite56k","steam_id":76561198404564240,"connected_time":462000000000,"state":"active","ping":57},{"user_id":42,"name":"Kiwe","steam_id":76561199062703669,"connected_time":459000000000,"state":"active","ping":62},{"user_id":58,"name":"pm_h","steam_id":76561198245025912,"connected_time":82000000000,"state":"active","ping":57},{"user_id":44,"name":"lana_del_Rei.com","steam_id":76561198172447621,"connected_time":416000000000,"state":"active","ping":114},{"user_id":45,"name":"Ping","steam_id":76561199206514106,"connected_time":407000000000,"state":"active","ping":74},{"user_id":54,"name":"jimbo","steam_id":76561198067867292,"connected_time":186000000000,"state":"active","ping":112},{"user_id":48,"name":"Tom Dude","steam_id":76561198093913484,"connected_time":357000000000,"state":"active","ping":124},{"user_id":49,"name":"avant","steam_id":76561198104921055,"connected_time":350000000000,"state":"active","ping":64},{"user_id":56,"name":"Pohnut","steam_id":76561198087831690,"connected_time":130000000000,"state":"active","ping":124},{"user_id":51,"name":"Goofy Goober","steam_id":76561198941700660,"connected_time":303000000000,"state":"active","ping":767},{"user_id":52,"name":"BloodHoundYT (F2P)","steam_id":76561199180340440,"connected_time":288000000000,"state":"active","ping":163}]},{"server_id":301,"name":"Uncletopia | Montr√©al | 2 | One Thousand Uncles","name_short":"mtl-2","host":"mtl-1.ca.uncletopia.com","port":27025,"enabled":true,"region":"us-east","cc":"ca","latitude":45.50889,"longitude":-73.56167,"reserved":0,"last_update":"0001-01-01T00:00:00Z","name_a2s":"","protocol":0,"map":"","folder":"","game":"","app_id":0,"player_count":13,"max_players":0,"Bots":0,"server_type":"","server_os":"","password":false,"vac":false,"version":"","steam_id":0,"keywords":null,"game_id":0,"stv_port":0,"stv_name":"","players":[{"user_id":2,"name":"larguu","steam_id":76561197994336210,"connected_time":2503000000000,"state":"active","ping":49},{"user_id":19,"name":"‡∏∏Reshy","steam_id":76561198004436202,"connected_time":2481000000000,"state":"active","ping":112},{"user_id":52,"name":"Hitlinemoss","steam_id":76561198155435669,"connected_time":244000000000,"state":"active","ping":56},{"user_id":27,"name":"1-800-GHOST-DANCE","steam_id":76561198835430429,"connected_time":2437000000000,"state":"active","ping":82},{"user_id":24,"name":"nhbiker","steam_id":76561198081277675,"connected_time":2471000000000,"state":"active","ping":75},{"user_id":53,"name":"Veil","steam_id":76561198041286321,"connected_time":173000000000,"state":"active","ping":112},{"user_id":29,"name":"Jade Greenleaf","steam_id":76561198304845413,"connected_time":2255000000000,"state":"active","ping":60},{"user_id":30,"name":"aqua","steam_id":76561199407709552,"connected_time":2067000000000,"state":"active","ping":62},{"user_id":34,"name":"A Terrible Shot","steam_id":76561198045523833,"connected_time":1109000000000,"state":"active","ping":74},{"user_id":54,"name":"Trevor_Hoppin","steam_id":76561199080420666,"connected_time":72000000000,"state":"active","ping":65},{"user_id":55,"name":"Rare High Moments","steam_id":76561198053465042,"connected_time":42000000000,"state":"active","ping":73},{"user_id":56,"name":"wife (wife)","steam_id":76561198975527343,"connected_time":30000000000,"state":"active","ping":68},{"user_id":57,"name":"TimeWarper","steam_id":76561198307258839,"connected_time":3000000000,"state":"spawning","ping":51}]},{"server_id":302,"name":"Uncletopia | Montr√©al | 3 | One Thousand Uncles","name_short":"mtl-3","host":"mtl-1.ca.uncletopia.com","port":27035,"enabled":true,"region":"us-east","cc":"ca","latitude":45.50889,"longitude":-73.56167,"reserved":0,"last_update":"0001-01-01T00:00:00Z","name_a2s":"","protocol":0,"map":"","folder":"","game":"","app_id":0,"player_count":1,"max_players":0,"Bots":0,"server_type":"","server_os":"","password":false,"vac":false,"version":"","steam_id":0,"keywords":null,"game_id":0,"stv_port":0,"stv_name":"","players":[{"user_id":19,"name":"Daubee","steam_id":76561198004385130,"connected_time":269000000000,"state":"active","ping":78}]},{"server_id":13,"name":"Uncletopia | New York City | 1 | All Maps","name_short":"nyc-1","host":"nyc-1.us.uncletopia.com","port":27015,"enabled":true,"region":"us-east","cc":"us","latitude":40.73061,"longitude":-73.93524,"reserved":0,"last_update":"0001-01-01T00:00:00Z","name_a2s":"Uncletopia | New York City | 1 | All Maps","protocol":17,"map":"pl_thundermountain","folder":"tf","game":"Team Fortress","app_id":440,"player_count":24,"max_players":24,"Bots":0,"server_type":"Dedicated","server_os":"Linux","password":true,"vac":true,"version":"7961495","steam_id":85568392924469993,"keywords":["nocrits","nodmgspread","payload","uncletopia"],"game_id":440,"stv_port":27016,"stv_name":"Uncletopia | New York City | 1 | All Maps | STV","players":[{"user_id":268,"name":"Connection","steam_id":76561199230740231,"connected_time":1488000000000,"state":"active","ping":62},{"user_id":261,"name":"A Puppy","steam_id":76561198828184456,"connected_time":2679000000000,"state":"active","ping":45},{"user_id":229,"name":"Bob The Insult Comic Skeleton","steam_id":76561198049945735,"connected_time":5245000000000,"state":"active","ping":58},{"user_id":260,"name":"Soap_","steam_id":76561198153289795,"connected_time":2820000000000,"state":"active","ping":45},{"user_id":236,"name":"cdn :3","steam_id":76561198862735659,"connected_time":5103000000000,"state":"active","ping":82},{"user_id":269,"name":"smocc","steam_id":76561197993726746,"connected_time":1378000000000,"state":"active","ping":49},{"user_id":215,"name":"SpaceSanctum","steam_id":76561198805242305,"connected_time":5688000000000,"state":"active","ping":45},{"user_id":216,"name":"googa","steam_id":76561198133130452,"connected_time":5685000000000,"state":"active","ping":44},{"user_id":212,"name":"Reza The Cool","steam_id":76561198372285506,"connected_time":5765000000000,"state":"active","ping":71},{"user_id":263,"name":"Suck Her Dick Sunday","steam_id":76561198029274581,"connected_time":2091000000000,"state":"active","ping":72},{"user_id":274,"name":"reymundo","steam_id":76561197989412830,"connected_time":938000000000,"state":"active","ping":124},{"user_id":276,"name":"-œÄ- BakaD","steam_id":76561197960559169,"connected_time":662000000000,"state":"active","ping":48},{"user_id":264,"name":"EpicManCoolKid","steam_id":76561198253462393,"connected_time":2082000000000,"state":"active","ping":77},{"user_id":251,"name":"girlbosspriella","steam_id":76561199025846154,"connected_time":3243000000000,"state":"active","ping":55},{"user_id":248,"name":"bigcornkob","steam_id":76561198871288128,"connected_time":3557000000000,"state":"active","ping":98},{"user_id":277,"name":"twix","steam_id":76561198040912048,"connected_time":643000000000,"state":"active","ping":63},{"user_id":222,"name":"Vomahow","steam_id":76561198396860873,"connected_time":5595000000000,"state":"active","ping":74},{"user_id":265,"name":"Asura","steam_id":76561198197227615,"connected_time":2064000000000,"state":"active","ping":82},{"user_id":278,"name":"calenbine","steam_id":76561199236626140,"connected_time":443000000000,"state":"active","ping":45},{"user_id":247,"name":"hers ‚ô•","steam_id":76561199013803246,"connected_time":3758000000000,"state":"active","ping":55},{"user_id":273,"name":"CRAZY engineer","steam_id":76561198887937902,"connected_time":1057000000000,"state":"active","ping":51},{"user_id":249,"name":"kul√≥t","steam_id":76561198181904809,"connected_time":3302000000000,"state":"active","ping":72},{"user_id":253,"name":"kofji(but better)","steam_id":76561198021224745,"connected_time":3209000000000,"state":"active","ping":39},{"user_id":235,"name":"rodafy","steam_id":76561198071093393,"connected_time":5134000000000,"state":"active","ping":132}]},{"server_id":14,"name":"Uncletopia | New York City | 2 | All Maps","name_short":"nyc-2","host":"nyc-1.us.uncletopia.com","port":27025,"enabled":true,"region":"us-east","cc":"us","latitude":40.73061,"longitude":-73.93524,"reserved":0,"last_update":"0001-01-01T00:00:00Z","name_a2s":"Uncletopia | New York City | 2 | All Maps","protocol":17,"map":"pl_swiftwater_final1","folder":"tf","game":"Team Fortress","app_id":440,"player_count":19,"max_players":24,"Bots":0,"server_type":"Dedicated","server_os":"Linux","password":true,"vac":true,"version":"7961495","steam_id":85568392924469994,"keywords":["nocrits","nodmgspread","payload","uncletopia"],"game_id":440,"stv_port":27026,"stv_name":"Uncletopia | New York City | 2 | All Maps | STV","players":[{"user_id":597,"name":"He Who Dared Say \"SuS\"","steam_id":76561198123441203,"connected_time":1686000000000,"state":"active","ping":80},{"user_id":599,"name":"Fat Kid In a Dragonball T-Shirt","steam_id":76561198182589975,"connected_time":1624000000000,"state":"active","ping":61},{"user_id":618,"name":"Coop","steam_id":76561198042839356,"connected_time":458000000000,"state":"active","ping":63},{"user_id":580,"name":"John Fortnite","steam_id":76561198076608253,"connected_time":3450000000000,"state":"active","ping":56},{"user_id":619,"name":"dcqwerty","steam_id":76561198964101426,"connected_time":410000000000,"state":"active","ping":66},{"user_id":633,"name":"owzone1004","steam_id":76561199159507376,"connected_time":2000000000,"state":"spawning","ping":59},{"user_id":632,"name":"The Most Polite Man","steam_id":76561199144302768,"connected_time":28000000000,"state":"active","ping":49},{"user_id":622,"name":"kjc105","steam_id":76561198880364422,"connected_time":309000000000,"state":"active","ping":84},{"user_id":616,"name":"HoneyOTU","steam_id":76561198200366607,"connected_time":498000000000,"state":"active","ping":73},{"user_id":623,"name":"Chicken Joe","steam_id":76561198077799885,"connected_time":298000000000,"state":"active","ping":53},{"user_id":621,"name":"Necron","steam_id":76561197970864818,"connected_time":372000000000,"state":"active","ping":73},{"user_id":603,"name":"Blade Racer","steam_id":76561198155896703,"connected_time":1538000000000,"state":"active","ping":50},{"user_id":626,"name":"Bad Medic Buddy","steam_id":76561198093222632,"connected_time":259000000000,"state":"active","ping":77},{"user_id":627,"name":"The Hose on Upward","steam_id":76561197965092192,"connected_time":259000000000,"state":"active","ping":66},{"user_id":630,"name":"Terror-Billy #SaveTF2","steam_id":76561198328141870,"connected_time":61000000000,"state":"active","ping":248},{"user_id":617,"name":"Severeburrito16","steam_id":76561198353155991,"connected_time":480000000000,"state":"active","ping":65},{"user_id":566,"name":"High School Nudical","steam_id":76561198172120615,"connected_time":4121000000000,"state":"spawning","ping":45},{"user_id":628,"name":"ballin","steam_id":76561199020675262,"connected_time":246000000000,"state":"spawning","ping":79}]},{"server_id":15,"name":"Uncletopia | New York City | 3 | Stopwatch","name_short":"nyc-3","host":"nyc-1.us.uncletopia.com","port":27035,"enabled":true,"region":"us-east","cc":"us","latitude":40.73061,"longitude":-73.93524,"reserved":0,"last_update":"0001-01-01T00:00:00Z","name_a2s":"Uncletopia | New York City | 3 | Stopwatch","protocol":17,"map":"pl_upward","folder":"tf","game":"Team Fortress","app_id":440,"player_count":22,"max_players":24,"Bots":0,"server_type":"Dedicated","server_os":"Linux","password":true,"vac":true,"version":"7961495","steam_id":85568392924742820,"keywords":["nocrits","nodmgspread","payload","uncletopia"],"game_id":440,"stv_port":27036,"stv_name":"Uncletopia | New York City | 3 | Stopwatch | STV","players":[{"user_id":204,"name":"regularJim","steam_id":76561197960442152,"connected_time":436000000000,"state":"active","ping":60},{"user_id":205,"name":"7thelden","steam_id":76561198297428761,"connected_time":426000000000,"state":"active","ping":76},{"user_id":206,"name":"Sickmind33","steam_id":76561198036248611,"connected_time":236000000000,"state":"active","ping":64},{"user_id":179,"name":"8bean","steam_id":76561198239138132,"connected_time":2466000000000,"state":"active","ping":74},{"user_id":193,"name":"BOO HAWND","steam_id":76561198141617142,"connected_time":1787000000000,"state":"active","ping":83},{"user_id":207,"name":"Kingjake360","steam_id":76561199014040790,"connected_time":205000000000,"state":"active","ping":109},{"user_id":208,"name":"asakujakuuu","steam_id":76561198875745616,"connected_time":197000000000,"state":"active","ping":114},{"user_id":130,"name":"Operation_SeaLion","steam_id":76561198048726691,"connected_time":5216000000000,"state":"active","ping":41},{"user_id":209,"name":"YaBoiChipsAhoy","steam_id":76561199056199415,"connected_time":148000000000,"state":"active","ping":90},{"user_id":210,"name":"skankhunt42","steam_id":76561198930535161,"connected_time":141000000000,"state":"active","ping":88},{"user_id":211,"name":"solveig","steam_id":76561198271713106,"connected_time":98000000000,"state":"active","ping":58},{"user_id":212,"name":"Hemiphix","steam_id":76561198329316429,"connected_time":97000000000,"state":"active","ping":48},{"user_id":203,"name":"Willy","steam_id":76561198046508940,"connected_time":896000000000,"state":"active","ping":46},{"user_id":213,"name":"Norkkom","steam_id":76561198027073521,"connected_time":64000000000,"state":"active","ping":51},{"user_id":184,"name":"BlipBloop","steam_id":76561198205320223,"connected_time":2195000000000,"state":"active","ping":69},{"user_id":214,"name":"Bobby Dazzler È≠îÈêò","steam_id":76561198007405067,"connected_time":51000000000,"state":"active","ping":75},{"user_id":151,"name":"Bat Georgi","steam_id":76561198361144342,"connected_time":3277000000000,"state":"active","ping":159},{"user_id":215,"name":"cold","steam_id":76561199017901552,"connected_time":39000000000,"state":"active","ping":92},{"user_id":216,"name":"Johnny Lawrence #JohnnyMaxxing","steam_id":76561199367141671,"connected_time":19000000000,"state":"active","ping":53},{"user_id":195,"name":"MeKaso TropStar","steam_id":76561199109895840,"connected_time":1778000000000,"state":"active","ping":52},{"user_id":172,"name":"LordOfTheNoobs","steam_id":76561197962697523,"connected_time":2869000000000,"state":"active","ping":72},{"user_id":185,"name":"GreatTimBones","steam_id":76561198409145748,"connected_time":2145000000000,"state":"active","ping":71}]},{"server_id":16,"name":"Uncletopia | New York City | 4 | Community","name_short":"nyc-4","host":"nyc-1.us.uncletopia.com","port":27045,"enabled":true,"region":"us-east","cc":"us","latitude":40.73061,"longitude":-73.93524,"reserved":0,"last_update":"0001-01-01T00:00:00Z","name_a2s":"Uncletopia | New York City | 4 | Community","protocol":17,"map":"workshop/cp_overgrown_rc8.ugc503939302","folder":"tf","game":"Team Fortress","app_id":440,"player_count":24,"max_players":24,"Bots":0,"server_type":"Dedicated","server_os":"Linux","password":true,"vac":true,"version":"7961495","steam_id":85568392924742821,"keywords":["cp","nocrits","nodmgspread","uncletopia"],"game_id":440,"stv_port":27046,"stv_name":"Uncletopia | New York City | 4 | Community | STV","players":[{"user_id":96,"name":"MondoDong","steam_id":76561197991400109,"connected_time":742000000000,"state":"active","ping":54},{"user_id":95,"name":"TheDigitalWeeb","steam_id":76561198298619614,"connected_time":765000000000,"state":"active","ping":66},{"user_id":73,"name":"NrS","steam_id":76561198078234849,"connected_time":1297000000000,"state":"active","ping":62},{"user_id":101,"name":"leo.combs11","steam_id":76561199440984213,"connected_time":523000000000,"state":"active","ping":95},{"user_id":115,"name":"Wan Shi Tong","steam_id":76561198076441225,"connected_time":26000000000,"state":"active","ping":46},{"user_id":99,"name":"Snayaya","steam_id":76561199234534158,"connected_time":545000000000,"state":"active","ping":118},{"user_id":111,"name":"Captain Chicken","steam_id":76561198047767530,"connected_time":211000000000,"state":"active","ping":109},{"user_id":74,"name":"Keymaster","steam_id":76561198881514228,"connected_time":1263000000000,"state":"active","ping":61},{"user_id":110,"name":"DoggyDogWhirl","steam_id":76561198042841344,"connected_time":212000000000,"state":"active","ping":61},{"user_id":94,"name":"Blue Sea","steam_id":76561198156077339,"connected_time":768000000000,"state":"active","ping":116},{"user_id":76,"name":"TheSmolPopato","steam_id":76561199076606348,"connected_time":1183000000000,"state":"active","ping":82},{"user_id":106,"name":"Tockbird","steam_id":76561199437964594,"connected_time":316000000000,"state":"active","ping":135},{"user_id":113,"name":"BandeetoeTooker","steam_id":76561198381500431,"connected_time":83000000000,"state":"spawning","ping":289},{"user_id":79,"name":"SmokeyOwl","steam_id":76561198141149908,"connected_time":1143000000000,"state":"active","ping":60},{"user_id":82,"name":"ahmad jamal","steam_id":76561198807658771,"connected_time":998000000000,"state":"active","ping":68},{"user_id":83,"name":"charles mingus","steam_id":76561198267470325,"connected_time":955000000000,"state":"active","ping":58},{"user_id":85,"name":"redarcher42","steam_id":76561199027887687,"connected_time":920000000000,"state":"active","ping":140},{"user_id":86,"name":"frim le yousse","steam_id":76561198107765260,"connected_time":866000000000,"state":"active","ping":73},{"user_id":87,"name":"Flyp","steam_id":76561198066104509,"connected_time":856000000000,"state":"active","ping":54},{"user_id":100,"name":"kevzd","steam_id":76561199138910719,"connected_time":538000000000,"state":"active","ping":122},{"user_id":102,"name":"neet","steam_id":76561197968115168,"connected_time":495000000000,"state":"active","ping":45},{"user_id":112,"name":"shinji","steam_id":76561198091411989,"connected_time":180000000000,"state":"active","ping":84},{"user_id":114,"name":"Bradly Town","steam_id":76561198373673498,"connected_time":83000000000,"state":"spawning","ping":462},{"user_id":98,"name":"too deep for most to understand","steam_id":76561198022636144,"connected_time":720000000000,"state":"active","ping":55}]},{"server_id":142,"name":"Uncletopia | S√£o Paulo | 1 | All Maps","name_short":"sao-1","host":"sao-1.br.uncletopia.com","port":27015,"enabled":true,"region":"sa","cc":"br","latitude":-23.533773,"longitude":-46.62529,"reserved":0,"last_update":"0001-01-01T00:00:00Z","name_a2s":"Uncletopia | S√£o Paulo | 1 | All Maps","protocol":17,"map":"koth_harvest_final","folder":"tf","game":"Team Fortress","app_id":440,"player_count":2,"max_players":24,"Bots":0,"server_type":"Dedicated","server_os":"Linux","password":true,"vac":true,"version":"7961495","steam_id":85568392924469996,"keywords":["cp","nocrits","nodmgspread","uncletopia"],"game_id":440,"stv_port":27016,"stv_name":"Uncletopia | S√£o Paulo | 1 | All Maps | STV","players":[{"user_id":18,"name":"cachorro gamer","steam_id":76561199124663682,"connected_time":2791000000000,"state":"active","ping":50},{"user_id":19,"name":"BiudGamer11","steam_id":76561199094572555,"connected_time":2790000000000,"state":"active","ping":63}]},{"server_id":143,"name":"Uncletopia | S√£o Paulo | 2 | Community","name_short":"sao-2","host":"sao-2.br.uncletopia.com","port":27015,"enabled":true,"region":"sa","cc":"br","latitude":-23.533773,"longitude":-46.62529,"reserved":0,"last_update":"0001-01-01T00:00:00Z","name_a2s":"Uncletopia | S√£o Paulo | 2 | Community","protocol":17,"map":"workshop/pl_cactuscanyon_redux_final2.ugc2579644293","folder":"tf","game":"Team Fortress","app_id":440,"player_count":0,"max_players":24,"Bots":0,"server_type":"Dedicated","server_os":"Linux","password":true,"vac":true,"version":"7961495","steam_id":85568392924485349,"keywords":["nocrits","nodmgspread","payload","uncletopia"],"game_id":440,"stv_port":27016,"stv_name":"Uncletopia | S√£o Paulo | 2 | Community | STV","players":null},{"server_id":7,"name":"Uncletopia | Seattle | 1 | All Maps","name_short":"sea-1","host":"sea-1.us.uncletopia.com","port":27015,"enabled":true,"region":"us-west","cc":"us","latitude":47.608013,"longitude":-122.33517,"reserved":0,"last_update":"0001-01-01T00:00:00Z","name_a2s":"Uncletopia | Seattle | 1 | All Maps","protocol":17,"map":"pl_rumford_event","folder":"tf","game":"Team Fortress","app_id":440,"player_count":24,"max_players":24,"Bots":0,"server_type":"Dedicated","server_os":"Linux","password":true,"vac":true,"version":"7961495","steam_id":85568392924469997,"keywords":["nocrits","nodmgspread","payload","uncletopia"],"game_id":440,"stv_port":27016,"stv_name":"Uncletopia | Seattle | 1 | All Maps | STV","players":[{"user_id":437,"name":"rat gets the cheese","steam_id":76561198031234032,"connected_time":714000000000,"state":"active","ping":96},{"user_id":422,"name":"fwoov","steam_id":76561198129166260,"connected_time":2607000000000,"state":"active","ping":75},{"user_id":438,"name":"dillpickle","steam_id":76561198156957191,"connected_time":710000000000,"state":"active","ping":71},{"user_id":443,"name":"Evanb","steam_id":76561198042057792,"connected_time":690000000000,"state":"active","ping":44},{"user_id":455,"name":"remanedur","steam_id":76561198059459507,"connected_time":194000000000,"state":"active","ping":121},{"user_id":453,"name":"tr","steam_id":76561198046944222,"connected_time":345000000000,"state":"active","ping":43},{"user_id":445,"name":"Karg","steam_id":76561198091387866,"connected_time":656000000000,"state":"active","ping":65},{"user_id":452,"name":"scallop pigeon","steam_id":76561199488457138,"connected_time":444000000000,"state":"active","ping":58},{"user_id":450,"name":"ilun","steam_id":76561198042913843,"connected_time":525000000000,"state":"active","ping":61},{"user_id":418,"name":"Skoad","steam_id":76561198104650528,"connected_time":2649000000000,"state":"active","ping":80},{"user_id":442,"name":"Boxcars","steam_id":76561198120978767,"connected_time":698000000000,"state":"active","ping":72},{"user_id":457,"name":"poogestisi","steam_id":76561198262572343,"connected_time":95000000000,"state":"active","ping":75},{"user_id":428,"name":"Azary56","steam_id":76561198321404617,"connected_time":1986000000000,"state":"active","ping":60},{"user_id":440,"name":"Atticus Barnebus","steam_id":76561198141819053,"connected_time":710000000000,"state":"active","ping":59},{"user_id":427,"name":"Zee‚úû","steam_id":76561198274550638,"connected_time":2169000000000,"state":"active","ping":118},{"user_id":408,"name":"ms. anthrope","steam_id":76561198063533082,"connected_time":3397000000000,"state":"active","ping":44},{"user_id":403,"name":"Tsunami","steam_id":76561198097188001,"connected_time":3821000000000,"state":"active","ping":45},{"user_id":434,"name":"Sudsen","steam_id":76561198370603787,"connected_time":723000000000,"state":"active","ping":71},{"user_id":449,"name":"bbbbb","steam_id":76561198095480838,"connected_time":591000000000,"state":"active","ping":51},{"user_id":414,"name":"Nightshade","steam_id":76561199011017814,"connected_time":2755000000000,"state":"active","ping":69},{"user_id":435,"name":"Arg0","steam_id":76561198074858755,"connected_time":723000000000,"state":"active","ping":67},{"user_id":394,"name":"Jshoe","steam_id":76561198128252048,"connected_time":4314000000000,"state":"active","ping":75},{"user_id":441,"name":"CLB","steam_id":76561198057971005,"connected_time":710000000000,"state":"active","ping":38},{"user_id":436,"name":"Seriously Bruh","steam_id":76561198070408485,"connected_time":723000000000,"state":"active","ping":58}]},{"server_id":119,"name":"Uncletopia | Seattle | 2 | All Maps","name_short":"sea-2","host":"sea-1.us.uncletopia.com","port":27025,"enabled":true,"region":"us-west","cc":"us","latitude":47.608013,"longitude":-122.33517,"reserved":0,"last_update":"0001-01-01T00:00:00Z","name_a2s":"Uncletopia | Seattle | 2 | All Maps","protocol":17,"map":"koth_cascade","folder":"tf","game":"Team Fortress","app_id":440,"player_count":1,"max_players":24,"Bots":0,"server_type":"Dedicated","server_os":"Linux","password":true,"vac":true,"version":"7961495","steam_id":85568392924469998,"keywords":["cp","nocrits","nodmgspread","uncletopia"],"game_id":440,"stv_port":27026,"stv_name":"Uncletopia | Seattle | 2 | All Maps | STV","players":[{"user_id":14,"name":"Nyx","steam_id":76561199010550945,"connected_time":16000000000,"state":"spawning","ping":44}]},{"server_id":406,"name":"Uncletopia | Seattle | 3 | Stopwatch","name_short":"sea-3","host":"sea-1.us.uncletopia.com","port":27035,"enabled":true,"region":"us-west","cc":"us","latitude":47.608013,"longitude":-122.33517,"reserved":0,"last_update":"0001-01-01T00:00:00Z","name_a2s":"Uncletopia | Seattle | 3 | Stopwatch","protocol":17,"map":"workshop/pl_badwater_pro_v12.ugc2142942074","folder":"tf","game":"Team Fortress","app_id":440,"player_count":0,"max_players":24,"Bots":0,"server_type":"Dedicated","server_os":"Linux","password":true,"vac":true,"version":"7961495","steam_id":85568392924515217,"keywords":["nocrits","nodmgspread","payload","uncletopia"],"game_id":440,"stv_port":27036,"stv_name":"Uncletopia | Seattle | 3 | Stopwatch | STV","players":null},{"server_id":17,"name":"Uncletopia | San Francisco | 1 | All Maps","name_short":"sfo-1","host":"sfo-1.us.uncletopia.com","port":27015,"enabled":true,"region":"us-west","cc":"us","latitude":37.77397,"longitude":-122.4313,"reserved":0,"last_update":"0001-01-01T00:00:00Z","name_a2s":"Uncletopia | San Francisco | 1 | All Maps","protocol":17,"map":"koth_cascade","folder":"tf","game":"Team Fortress","app_id":440,"player_count":0,"max_players":24,"Bots":0,"server_type":"Dedicated","server_os":"Linux","password":true,"vac":true,"version":"7961495","steam_id":85568392924469999,"keywords":["cp","nocrits","nodmgspread","uncletopia"],"game_id":440,"stv_port":27016,"stv_name":"Uncletopia | San Francisco | 1 | All Maps | STV","players":null},{"server_id":18,"name":"Uncletopia | San Francisco | 2 | All Maps","name_short":"sfo-2","host":"sfo-1.us.uncletopia.com","port":27025,"enabled":true,"region":"us-west","cc":"us","latitude":37.77397,"longitude":-122.4313,"reserved":0,"last_update":"0001-01-01T00:00:00Z","name_a2s":"Uncletopia | San Francisco | 2 | All Maps","protocol":17,"map":"koth_cascade","folder":"tf","game":"Team Fortress","app_id":440,"player_count":7,"max_players":24,"Bots":0,"server_type":"Dedicated","server_os":"Linux","password":true,"vac":true,"version":"7961495","steam_id":85568392924470000,"keywords":["cp","nocrits","nodmgspread","uncletopia"],"game_id":440,"stv_port":27026,"stv_name":"Uncletopia | San Francisco | 2 | All Maps | STV","players":[{"user_id":10,"name":"Yackaboi","steam_id":76561199444911765,"connected_time":1412000000000,"state":"active","ping":86},{"user_id":12,"name":"Noxus","steam_id":76561199009820852,"connected_time":425000000000,"state":"active","ping":75},{"user_id":13,"name":"Nibotshooter","steam_id":76561199284825579,"connected_time":365000000000,"state":"active","ping":73},{"user_id":14,"name":"omnislime","steam_id":76561199382475668,"connected_time":333000000000,"state":"active","ping":88},{"user_id":15,"name":"Stan","steam_id":76561198209150708,"connected_time":46000000000,"state":"active","ping":111},{"user_id":18,"name":"Syringe Gun (fake)","steam_id":76561198418097727,"connected_time":41000000000,"state":"active","ping":68},{"user_id":19,"name":"Renz","steam_id":76561198118995036,"connected_time":38000000000,"state":"spawning","ping":52}]},{"server_id":19,"name":"Uncletopia | San Francisco | 3 | Stopwatch","name_short":"sfo-3","host":"sfo-1.us.uncletopia.com","port":27035,"enabled":true,"region":"us-west","cc":"us","latitude":37.77397,"longitude":-122.4313,"reserved":0,"last_update":"0001-01-01T00:00:00Z","name_a2s":"Uncletopia | San Francisco | 3 | Stopwatch","protocol":17,"map":"pl_pier","folder":"tf","game":"Team Fortress","app_id":440,"player_count":0,"max_players":24,"Bots":0,"server_type":"Dedicated","server_os":"Linux","password":true,"vac":true,"version":"7961495","steam_id":85568392924742824,"keywords":["nocrits","nodmgspread","payload","uncletopia"],"game_id":440,"stv_port":27036,"stv_name":"Uncletopia | San Francisco | 3 | Stopwatch | STV","players":null},{"server_id":20,"name":"Uncletopia | San Francisco | 4 | Community","name_short":"sfo-4","host":"sfo-1.us.uncletopia.com","port":27045,"enabled":true,"region":"us-west","cc":"us","latitude":37.77397,"longitude":-122.4313,"reserved":0,"last_update":"0001-01-01T00:00:00Z","name_a2s":"Uncletopia | San Francisco | 4 | Community","protocol":17,"map":"workshop/pl_boundary_final1.ugc456799153","folder":"tf","game":"Team Fortress","app_id":440,"player_count":0,"max_players":24,"Bots":0,"server_type":"Dedicated","server_os":"Linux","password":true,"vac":true,"version":"7961495","steam_id":85568392924742826,"keywords":["nocrits","nodmgspread","payload","uncletopia"],"game_id":440,"stv_port":27046,"stv_name":"Uncletopia | San Francisco | 4 | Community | STV","players":null},{"server_id":141,"name":"Uncletopia | Sydney | 1 | All Maps","name_short":"syd-1","host":"syd-1.au.uncletopia.com","port":27015,"enabled":true,"region":"au","cc":"au","latitude":-33.865143,"longitude":151.2099,"reserved":0,"last_update":"0001-01-01T00:00:00Z","name_a2s":"Uncletopia | Sydney | 1 | All Maps","protocol":17,"map":"pl_badwater","folder":"tf","game":"Team Fortress","app_id":440,"player_count":8,"max_players":24,"Bots":0,"server_type":"Dedicated","server_os":"Linux","password":true,"vac":true,"version":"7961495","steam_id":85568392924470001,"keywords":["nocrits","nodmgspread","payload","uncletopia"],"game_id":440,"stv_port":27016,"stv_name":"Uncletopia | Sydney | 1 | All Maps | STV","players":[{"user_id":6,"name":"Sapphie4K","steam_id":76561198442369367,"connected_time":4016000000000,"state":"active","ping":67},{"user_id":7,"name":"LavaLampWater","steam_id":76561199103204188,"connected_time":3889000000000,"state":"active","ping":93},{"user_id":11,"name":"Dende","steam_id":76561198997966214,"connected_time":3103000000000,"state":"active","ping":62},{"user_id":30,"name":"corbt","steam_id":76561198138367852,"connected_time":445000000000,"state":"active","ping":66},{"user_id":28,"name":"ChocoMilk","steam_id":76561198167049794,"connected_time":708000000000,"state":"active","ping":68},{"user_id":21,"name":"rill","steam_id":76561198057133119,"connected_time":1396000000000,"state":"active","ping":53},{"user_id":23,"name":"Denszeal","steam_id":76561198313718095,"connected_time":1061000000000,"state":"active","ping":71},{"user_id":33,"name":"AC-130 demoman","steam_id":76561199405735306,"connected_time":280000000000,"state":"active","ping":54}]},{"server_id":123,"name":"Uncletopia | Sydney | 2 | All Maps","name_short":"syd-2","host":"syd-1.au.uncletopia.com","port":27025,"enabled":true,"region":"au","cc":"au","latitude":-33.865143,"longitude":151.2099,"reserved":0,"last_update":"0001-01-01T00:00:00Z","name_a2s":"Uncletopia | Sydney | 2 | All Maps","protocol":17,"map":"koth_lakeside_final","folder":"tf","game":"Team Fortress","app_id":440,"player_count":0,"max_players":24,"Bots":0,"server_type":"Dedicated","server_os":"Linux","password":true,"vac":true,"version":"7961495","steam_id":85568392924470002,"keywords":["cp","nocrits","nodmgspread","uncletopia"],"game_id":440,"stv_port":27026,"stv_name":"Uncletopia | Sydney | 2 | All Maps | STV","players":null},{"server_id":395,"name":"Uncletopia | Sydney | 3 | All Maps","name_short":"syd-3","host":"syd-1.au.uncletopia.com","port":27035,"enabled":true,"region":"au","cc":"au","latitude":-33.865143,"longitude":151.2099,"reserved":0,"last_update":"0001-01-01T00:00:00Z","name_a2s":"Uncletopia | Sydney | 3 | All Maps","protocol":17,"map":"pl_frontier_final","folder":"tf","game":"Team Fortress","app_id":440,"player_count":0,"max_players":24,"Bots":0,"server_type":"Dedicated","server_os":"Linux","password":true,"vac":true,"version":"7961495","steam_id":85568392925194467,"keywords":["nocrits","nodmgspread","payload","uncletopia"],"game_id":440,"stv_port":27036,"stv_name":"Uncletopia | Sydney | 3 | All Maps | STV","players":null},{"server_id":396,"name":"Uncletopia | Sydney | 4 | All Maps","name_short":"syd-4","host":"syd-1.au.uncletopia.com","port":27045,"enabled":true,"region":"au","cc":"au","latitude":-33.865143,"longitude":151.2099,"reserved":0,"last_update":"0001-01-01T00:00:00Z","name_a2s":"Uncletopia | Sydney | 4 | All Maps","protocol":17,"map":"pl_upward","folder":"tf","game":"Team Fortress","app_id":440,"player_count":0,"max_players":24,"Bots":0,"server_type":"Dedicated","server_os":"Linux","password":true,"vac":true,"version":"7961495","steam_id":85568392925397958,"keywords":["nocrits","nodmgspread","payload","uncletopia"],"game_id":440,"stv_port":27046,"stv_name":"Uncletopia | Sydney | 4 | All Maps | STV","players":null},{"server_id":58,"name":"Uncletopia | Sydney | 5 | Stopwatch","name_short":"syd-5","host":"syd-1.au.uncletopia.com","port":27055,"enabled":true,"region":"au","cc":"au","latitude":-33.865143,"longitude":151.2099,"reserved":0,"last_update":"0001-01-01T00:00:00Z","name_a2s":"Uncletopia | Sydney | 5 | Stopwatch","protocol":17,"map":"pl_frontier_final","folder":"tf","game":"Team Fortress","app_id":440,"player_count":0,"max_players":24,"Bots":0,"server_type":"Dedicated","server_os":"Linux","password":true,"vac":true,"version":"7961495","steam_id":85568392925397959,"keywords":["nocrits","nodmgspread","payload","uncletopia"],"game_id":440,"stv_port":27056,"stv_name":"Uncletopia | Sydney | 5 | Stopwatch | STV","players":null},{"server_id":59,"name":"Uncletopia | Sydney | 6 | Community","name_short":"syd-6","host":"syd-1.au.uncletopia.com","port":27065,"enabled":true,"region":"au","cc":"au","latitude":-33.865143,"longitude":151.2099,"reserved":0,"last_update":"0001-01-01T00:00:00Z","name_a2s":"Uncletopia | Sydney | 6 | Community","protocol":17,"map":"cp_sunshine","folder":"tf","game":"Team Fortress","app_id":440,"player_count":0,"max_players":24,"Bots":0,"server_type":"Dedicated","server_os":"Linux","password":true,"vac":true,"version":"7961495","steam_id":85568392925397960,"keywords":["cp","nocrits","nodmgspread","uncletopia"],"game_id":440,"stv_port":27066,"stv_name":"Uncletopia | Sydney | 6 | Community | STV","players":null},{"server_id":49,"name":"Uncletopia | Warsaw | 1 | One Thousand Uncles","name_short":"waw-1","host":"waw-1.pl.uncletopia.com","port":27015,"enabled":true,"region":"eu","cc":"pl","latitude":52.2297,"longitude":21.017532,"reserved":0,"last_update":"0001-01-01T00:00:00Z","name_a2s":"Uncletopia | Warsaw | 1 | One Thousand Uncles","protocol":17,"map":"pl_badwater","folder":"tf","game":"Team Fortress","app_id":440,"player_count":0,"max_players":32,"Bots":0,"server_type":"Dedicated","server_os":"Linux","password":true,"vac":true,"version":"7961495","steam_id":85568392925397850,"keywords":["alltalk","danepve","increased_maxplayers","nocrits","norespawntime","payload","uncletopia"],"game_id":440,"stv_port":0,"stv_name":"","players":null},{"server_id":50,"name":"Uncletopia | Warsaw | 2 | One Thousand Uncles","name_short":"waw-2","host":"waw-1.pl.uncletopia.com","port":27025,"enabled":true,"region":"eu","cc":"pl","latitude":52.2297,"longitude":21.017532,"reserved":0,"last_update":"0001-01-01T00:00:00Z","name_a2s":"Uncletopia | Warsaw | 2 | One Thousand Uncles","protocol":17,"map":"cp_dustbowl","folder":"tf","game":"Team Fortress","app_id":440,"player_count":0,"max_players":32,"Bots":0,"server_type":"Dedicated","server_os":"Linux","password":true,"vac":true,"version":"7961495","steam_id":85568392925397851,"keywords":["alltalk","cp","danepve","increased_maxplayers","nocrits","norespawntime","uncletopia"],"game_id":440,"stv_port":0,"stv_name":"","players":null},{"server_id":51,"name":"Uncletopia | Warsaw | 3 | All Maps","name_short":"waw-3","host":"waw-1.pl.uncletopia.com","port":27035,"enabled":true,"region":"eu","cc":"pl","latitude":52.2297,"longitude":21.017532,"reserved":0,"last_update":"0001-01-01T00:00:00Z","name_a2s":"Uncletopia | Warsaw | 3 | All Maps","protocol":17,"map":"cp_gorge","folder":"tf","game":"Team Fortress","app_id":440,"player_count":0,"max_players":24,"Bots":0,"server_type":"Dedicated","server_os":"Linux","password":true,"vac":true,"version":"7961495","steam_id":85568392925397852,"keywords":["cp","nocrits","nodmgspread","uncletopia"],"game_id":440,"stv_port":27036,"stv_name":"Uncletopia | Warsaw | 3 | All Maps | STV","players":null},{"server_id":52,"name":"Uncletopia | Warsaw | 4 | All Maps","name_short":"waw-4","host":"waw-1.pl.uncletopia.com","port":27045,"enabled":true,"region":"eu","cc":"pl","latitude":52.2297,"longitude":21.017532,"reserved":0,"last_update":"0001-01-01T00:00:00Z","name_a2s":"Uncletopia | Warsaw | 4 | All Maps","protocol":17,"map":"koth_sawmill","folder":"tf","game":"Team Fortress","app_id":440,"player_count":0,"max_players":24,"Bots":0,"server_type":"Dedicated","server_os":"Linux","password":true,"vac":true,"version":"7961495","steam_id":85568392925397853,"keywords":["cp","nocrits","nodmgspread","uncletopia"],"game_id":440,"stv_port":27046,"stv_name":"Uncletopia | Warsaw | 4 | All Maps | STV","players":null},{"server_id":53,"name":"Uncletopia | Warsaw | 5 | Stopwatch","name_short":"waw-5","host":"waw-1.pl.uncletopia.com","port":27055,"enabled":true,"region":"eu","cc":"pl","latitude":52.2297,"longitude":21.017532,"reserved":0,"last_update":"0001-01-01T00:00:00Z","name_a2s":"Uncletopia | Warsaw | 5 | Stopwatch","protocol":17,"map":"cp_metalworks","folder":"tf","game":"Team Fortress","app_id":440,"player_count":0,"max_players":24,"Bots":0,"server_type":"Dedicated","server_os":"Linux","password":true,"vac":true,"version":"7961495","steam_id":85568392925397854,"keywords":["cp","nocrits","nodmgspread","uncletopia"],"game_id":440,"stv_port":27056,"stv_name":"Uncletopia | Warsaw | 5 | Stopwatch | STV","players":null},{"server_id":54,"name":"Uncletopia | Warsaw | 6 | Community","name_short":"waw-6","host":"waw-1.pl.uncletopia.com","port":27065,"enabled":true,"region":"eu","cc":"pl","latitude":52.2297,"longitude":21.017532,"reserved":0,"last_update":"0001-01-01T00:00:00Z","name_a2s":"Uncletopia | Warsaw | 6 | Community","protocol":17,"map":"workshop/pl_corrode_rc2.ugc546577989","folder":"tf","game":"Team Fortress","app_id":440,"player_count":0,"max_players":24,"Bots":0,"server_type":"Dedicated","server_os":"Linux","password":true,"vac":true,"version":"7961495","steam_id":85568392925397856,"keywords":["nocrits","nodmgspread","payload","uncletopia"],"game_id":440,"stv_port":27066,"stv_name":"Uncletopia | Warsaw | 6 | Community | STV","players":null}]}