{"status":true,"message":"","result":[{"server_id":9,"name":"Uncletopia | Atlanta | 1 | All Maps","name_short":"atl-1","host":"atl-1.us.uncletopia.com","port":27015,"enabled":true,"region":"us-east","cc":"us","latitude":33.753746,"longitude":-84.38633,"reserved":0,"last_update":"0001-01-01T00:00:00Z","name_a2s":"Uncletopia | Atlanta | 1 | All Maps","protocol":17,"map":"pl_badwater","folder":"tf","game":"Team Fortress","app_id":440,"player_count":25,"max_players":24,"Bots":0,"server_type":"Dedicated","server_os":"Linux","password":true,"vac":true,"version":"7757534","steam_id":85568392924469982,"keywords":["nocrits","nodmgspread","payload","uncletopia"],"game_id":440,"stv_port":27016,"stv_name":"Uncletopia | Atlanta | 1 | All Maps | STV","players":[{"user_id":786,"name":"tim-","steam_id":76561199119101315,"connected_time":890000000000,"state":"active","ping":67},{"user_id":796,"name":"Nox(She/They)","steam_id":76561198141950842,"connected_time":109000000000,"state":"active","ping":51},{"user_id":799,"name":"bad bitch high on life","steam_id":76561199113715081,"connected_time":0,"state":"spawning","ping":19},{"user_id":772,"name":"ARegularJohnDoe","steam_id":76561198015020139,"connected_time":2021000000000,"state":"active","ping":60},{"user_id":787,"name":"Female Gamer","steam_id":76561199366482682,"connected_time":884000000000,"state":"active","ping":147},{"user_id":788,"name":"Mobius","steam_id":76561199121973450,"connected_time":860000000000,"state":"active","ping":55},{"user_id":789,"name":"spc1","steam_id":76561198050136796,"connected_time":780000000000,"state":"active","ping":90},{"user_id":774,"name":"Ace Attorney","steam_id":76561198133011705,"connected_time":1737000000000,"state":"active","ping":61},{"user_id":784,"name":"TheRealMud","steam_id":76561198138312993,"connected_time":1046000000000,"state":"active","ping":82},{"user_id":798,"name":"Dezorbo","steam_id":76561197971883897,"connected_time":45000000000,"state":"spawning","ping":253},{"user_id":783,"name":"im lonely so i read romcoms","steam_id":76561199013337543,"connected_time":1135000000000,"state":"active","ping":53},{"user_id":791,"name":"(TPT) Ghost","steam_id":76561198123262873,"connected_time":630000000000,"state":"active","ping":122},{"user_id":762,"name":"shaun0201","steam_id":76561198277115258,"connected_time":3054000000000,"state":"active","ping":92},{"user_id":763,"name":"fish","steam_id":76561198054070811,"connected_time":3053000000000,"state":"active","ping":97},{"user_id":797,"name":"Moonglass Kaiju","steam_id":76561198043431819,"connected_time":108000000000,"state":"active","ping":65},{"user_id":793,"name":"RaixaR","steam_id":76561198025289430,"connected_time":597000000000,"state":"active","ping":72},{"user_id":782,"name":"Mengle","steam_id":76561198001953684,"connected_time":1288000000000,"state":"active","ping":80},{"user_id":711,"name":"C papi","steam_id":76561198027779564,"connected_time":7287000000000,"state":"active","ping":46},{"user_id":770,"name":"cass","steam_id":76561198074502046,"connected_time":2266000000000,"state":"active","ping":55},{"user_id":740,"name":"chexo4","steam_id":76561198150532531,"connected_time":4465000000000,"state":"active","ping":48},{"user_id":749,"name":"Mage","steam_id":76561198285026879,"connected_time":3729000000000,"state":"active","ping":80},{"user_id":794,"name":"Inadequate","steam_id":76561198108263810,"connected_time":596000000000,"state":"active","ping":118},{"user_id":750,"name":"Gichael","steam_id":76561198040602075,"connected_time":3722000000000,"state":"active","ping":87},{"user_id":540,"name":"Bag","steam_id":76561198012395490,"connected_time":20304000000000,"state":"active","ping":60},{"user_id":800,"name":"Epifiny","steam_id":76561198027958086,"connected_time":0,"state":"spawning","ping":0}]},{"server_id":104,"name":"Uncletopia | Atlanta | 2 | All Maps","name_short":"atl-2","host":"atl-1.us.uncletopia.com","port":27025,"enabled":true,"region":"us-east","cc":"us","latitude":33.753746,"longitude":-84.38633,"reserved":0,"last_update":"0001-01-01T00:00:00Z","name_a2s":"Uncletopia | Atlanta | 2 | All Maps","protocol":17,"map":"pl_frontier_final","folder":"tf","game":"Team Fortress","app_id":440,"player_count":24,"max_players":24,"Bots":0,"server_type":"Dedicated","server_os":"Linux","password":true,"vac":true,"version":"7757534","steam_id":85568392924469983,"keywords":["nocrits","nodmgspread","payload","uncletopia"],"game_id":440,"stv_port":27026,"stv_name":"Uncletopia | Atlanta | 2 | All Maps | STV","players":[{"user_id":735,"name":"aika","steam_id":76561198046787147,"connected_time":2782000000000,"state":"active","ping":113},{"user_id":769,"name":"TI-83 Plus","steam_id":76561198316134443,"connected_time":828000000000,"state":"active","ping":57},{"user_id":736,"name":"Cherry Bomb!","steam_id":76561198017947020,"connected_time":2777000000000,"state":"active","ping":53},{"user_id":768,"name":"SynthBox3","steam_id":76561199094075745,"connected_time":947000000000,"state":"active","ping":181},{"user_id":719,"name":"None of that $9.99 bullshit","steam_id":76561198116169903,"connected_time":4242000000000,"state":"active","ping":81},{"user_id":738,"name":"Sentry Gun (Arsewheel)","steam_id":76561198133155125,"connected_time":2767000000000,"state":"active","ping":177},{"user_id":755,"name":"loser","steam_id":76561198197047443,"connected_time":1959000000000,"state":"active","ping":81},{"user_id":723,"name":"Frodo T Baggins","steam_id":76561198048090297,"connected_time":3575000000000,"state":"active","ping":78},{"user_id":756,"name":"aversa","steam_id":76561198840460101,"connected_time":1952000000000,"state":"active","ping":75},{"user_id":739,"name":"Kasodani Kyouko","steam_id":76561198023178589,"connected_time":2766000000000,"state":"active","ping":100},{"user_id":725,"name":"sex (real)","steam_id":76561198396414319,"connected_time":3550000000000,"state":"active","ping":110},{"user_id":761,"name":"CEO of non-economic inflation","steam_id":76561198258126130,"connected_time":1800000000000,"state":"active","ping":63},{"user_id":759,"name":"boy from the rafters","steam_id":76561198042926224,"connected_time":1929000000000,"state":"active","ping":62},{"user_id":776,"name":"Opossum","steam_id":76561199187337967,"connected_time":433000000000,"state":"active","ping":83},{"user_id":699,"name":"dog","steam_id":76561198263873491,"connected_time":5471000000000,"state":"active","ping":59},{"user_id":741,"name":"Omi Alliance Gaming","steam_id":76561198058133813,"connected_time":2755000000000,"state":"active","ping":91},{"user_id":742,"name":"LornestFluke","steam_id":76561198132091507,"connected_time":2714000000000,"state":"active","ping":67},{"user_id":721,"name":"JiggyJ","steam_id":76561197966874809,"connected_time":4085000000000,"state":"active","ping":45},{"user_id":765,"name":"Scoundrel","steam_id":76561198056672372,"connected_time":1664000000000,"state":"active","ping":78},{"user_id":767,"name":"saber","steam_id":76561197980089457,"connected_time":1140000000000,"state":"active","ping":78},{"user_id":766,"name":"illegal","steam_id":76561198871530383,"connected_time":1348000000000,"state":"active","ping":73},{"user_id":764,"name":"ViciousCookie","steam_id":76561198054442806,"connected_time":1701000000000,"state":"active","ping":72},{"user_id":773,"name":"SuperNovaFox","steam_id":76561198052172564,"connected_time":501000000000,"state":"active","ping":76},{"user_id":775,"name":"grif","steam_id":76561198272333800,"connected_time":472000000000,"state":"active","ping":71}]},{"server_id":400,"name":"Uncletopia | Atlanta | 3 | Community","name_short":"atl-3","host":"atl-1.us.uncletopia.com","port":27035,"enabled":true,"region":"us-east","cc":"us","latitude":33.753746,"longitude":-84.38633,"reserved":0,"last_update":"0001-01-01T00:00:00Z","name_a2s":"Uncletopia | Atlanta | 3 | Community","protocol":17,"map":"workshop/cp_kalinka_rc6a.ugc1272700588","folder":"tf","game":"Team Fortress","app_id":440,"player_count":0,"max_players":24,"Bots":0,"server_type":"Dedicated","server_os":"Linux","password":true,"vac":true,"version":"7757534","steam_id":85568392924515187,"keywords":["cp","nocrits","nodmgspread","uncletopia"],"game_id":440,"stv_port":27036,"stv_name":"Uncletopia | Atlanta | 3 | Community | STV","players":null},{"server_id":401,"name":"Uncletopia | Atlanta | 4 | No Payload","name_short":"atl-4","host":"atl-1.us.uncletopia.com","port":27045,"enabled":true,"region":"us-east","cc":"us","latitude":33.753746,"longitude":-84.38633,"reserved":0,"last_update":"0001-01-01T00:00:00Z","name_a2s":"","protocol":0,"map":"","folder":"","game":"","app_id":0,"player_count":0,"max_players":0,"Bots":0,"server_type":"","server_os":"","password":false,"vac":false,"version":"","steam_id":0,"keywords":null,"game_id":0,"stv_port":0,"stv_name":"","players":null},{"server_id":2,"name":"Uncletopia | Chicago | 1 | All Maps","name_short":"chi-1","host":"chi-1.us.uncletopia.com","port":27015,"enabled":true,"region":"us-central","cc":"us","latitude":41.881832,"longitude":-87.62318,"reserved":0,"last_update":"0001-01-01T00:00:00Z","name_a2s":"Uncletopia | Chicago | 1 | All Maps","protocol":17,"map":"cp_powerhouse","folder":"tf","game":"Team Fortress","app_id":440,"player_count":24,"max_players":24,"Bots":0,"server_type":"Dedicated","server_os":"Linux","password":true,"vac":true,"version":"7757534","steam_id":85568392924469984,"keywords":["cp","nocrits","nodmgspread","uncletopia"],"game_id":440,"stv_port":27016,"stv_name":"Uncletopia | Chicago | 1 | All Maps | STV","players":[{"user_id":647,"name":"Pig","steam_id":76561198066564910,"connected_time":6621000000000,"state":"active","ping":98},{"user_id":707,"name":"_Ati","steam_id":76561198339777801,"connected_time":1040000000000,"state":"active","ping":99},{"user_id":708,"name":"g8rade","steam_id":76561198070593964,"connected_time":1030000000000,"state":"active","ping":76},{"user_id":718,"name":"T _ T","steam_id":76561198041907345,"connected_time":162000000000,"state":"active","ping":105},{"user_id":710,"name":"waga baga boo boo","steam_id":76561198057903129,"connected_time":855000000000,"state":"active","ping":54},{"user_id":711,"name":"Koffy","steam_id":76561198184386039,"connected_time":846000000000,"state":"active","ping":108},{"user_id":658,"name":"LEGALIZE NUCLEAR BOMBS","steam_id":76561198031675881,"connected_time":5497000000000,"state":"active","ping":63},{"user_id":659,"name":"MankTKO","steam_id":76561198189421005,"connected_time":5462000000000,"state":"active","ping":49},{"user_id":688,"name":"Chin","steam_id":76561198247426906,"connected_time":2974000000000,"state":"active","ping":75},{"user_id":706,"name":"boof","steam_id":76561198053901968,"connected_time":1437000000000,"state":"active","ping":79},{"user_id":713,"name":"be","steam_id":76561198000824533,"connected_time":604000000000,"state":"active","ping":94},{"user_id":717,"name":"BBL Sponsor","steam_id":76561199093733603,"connected_time":506000000000,"state":"active","ping":106},{"user_id":686,"name":"Thatoneguybunchanumbers","steam_id":76561198028039160,"connected_time":3061000000000,"state":"active","ping":82},{"user_id":704,"name":"Ket","steam_id":76561198241951244,"connected_time":2118000000000,"state":"active","ping":69},{"user_id":705,"name":"Bugc97","steam_id":76561198007662645,"connected_time":1760000000000,"state":"active","ping":84},{"user_id":715,"name":"Smittywerbenjager-manjenson","steam_id":76561198067060742,"connected_time":570000000000,"state":"active","ping":67},{"user_id":628,"name":"Ziath","steam_id":76561198094009164,"connected_time":8494000000000,"state":"active","ping":66},{"user_id":716,"name":"Stalin","steam_id":76561198170088665,"connected_time":539000000000,"state":"active","ping":68},{"user_id":678,"name":"lolships","steam_id":76561198027355850,"connected_time":4142000000000,"state":"active","ping":83},{"user_id":703,"name":"Sheriff Monkey","steam_id":76561198053556583,"connected_time":2138000000000,"state":"active","ping":87},{"user_id":682,"name":"bingabooga","steam_id":76561198101057741,"connected_time":3666000000000,"state":"active","ping":74},{"user_id":699,"name":"mohamy_19","steam_id":76561198075833698,"connected_time":2222000000000,"state":"active","ping":74},{"user_id":694,"name":"Crazed Gunman","steam_id":76561198806972543,"connected_time":2895000000000,"state":"active","ping":96},{"user_id":697,"name":"JONONON","steam_id":76561198129027378,"connected_time":2294000000000,"state":"active","ping":59}]},{"server_id":106,"name":"Uncletopia | Chicago | 2 | All Maps","name_short":"chi-2","host":"chi-1.us.uncletopia.com","port":27025,"enabled":true,"region":"us-central","cc":"us","latitude":41.881832,"longitude":-87.62318,"reserved":0,"last_update":"0001-01-01T00:00:00Z","name_a2s":"Uncletopia | Chicago | 2 | All Maps","protocol":17,"map":"cp_sunshine","folder":"tf","game":"Team Fortress","app_id":440,"player_count":0,"max_players":24,"Bots":0,"server_type":"Dedicated","server_os":"Linux","password":true,"vac":true,"version":"7757534","steam_id":85568392924469985,"keywords":["cp","nocrits","nodmgspread","uncletopia"],"game_id":440,"stv_port":27026,"stv_name":"Uncletopia | Chicago | 2 | All Maps | STV","players":null},{"server_id":402,"name":"Uncletopia | Chicago | 3 | All Maps","name_short":"chi-3","host":"chi-1.us.uncletopia.com","port":27035,"enabled":true,"region":"us-central","cc":"us","latitude":41.881832,"longitude":-87.62318,"reserved":0,"last_update":"0001-01-01T00:00:00Z","name_a2s":"Uncletopia | Chicago | 3 | All Maps","protocol":17,"map":"pl_snowycoast","folder":"tf","game":"Team Fortress","app_id":440,"player_count":24,"max_players":24,"Bots":0,"server_type":"Dedicated","server_os":"Linux","password":true,"vac":true,"version":"7757534","steam_id":85568392924515191,"keywords":["nocrits","nodmgspread","payload","uncletopia"],"game_id":440,"stv_port":27036,"stv_name":"Uncletopia | Chicago | 3 | All Maps | STV","players":[{"user_id":631,"name":"Elite_Friendly","steam_id":76561198819972127,"connected_time":635000000000,"state":"active","ping":101},{"user_id":632,"name":"Arcade","steam_id":76561199013837264,"connected_time":617000000000,"state":"active","ping":77},{"user_id":639,"name":"Communist Zobomafoo","steam_id":76561198068173978,"connected_time":413000000000,"state":"active","ping":76},{"user_id":624,"name":"Chicanery","steam_id":76561198977589038,"connected_time":1399000000000,"state":"active","ping":93},{"user_id":646,"name":"Goofball","steam_id":76561198061211537,"connected_time":91000000000,"state":"active","ping":62},{"user_id":642,"name":"Bow_","steam_id":76561198109608134,"connected_time":138000000000,"state":"active","ping":88},{"user_id":634,"name":"My dad owns Club Penguin.","steam_id":76561198032864436,"connected_time":586000000000,"state":"active","ping":78},{"user_id":635,"name":"Jellyfish Jam","steam_id":76561198058064829,"connected_time":571000000000,"state":"active","ping":98},{"user_id":592,"name":"Mitsubishi Materials","steam_id":76561198151871198,"connected_time":3688000000000,"state":"active","ping":58},{"user_id":643,"name":"Smokey","steam_id":76561198071523590,"connected_time":127000000000,"state":"active","ping":77},{"user_id":644,"name":"Paint Huffing","steam_id":76561198206229467,"connected_time":119000000000,"state":"active","ping":69},{"user_id":629,"name":"brisky","steam_id":76561198827846832,"connected_time":821000000000,"state":"active","ping":104},{"user_id":636,"name":"Soundproof","steam_id":76561198133392504,"connected_time":544000000000,"state":"active","ping":59},{"user_id":645,"name":"Eternal Neckbeard","steam_id":76561198201862415,"connected_time":112000000000,"state":"active","ping":50},{"user_id":600,"name":"darps","steam_id":76561198105227318,"connected_time":3187000000000,"state":"active","ping":56},{"user_id":637,"name":"Catticus","steam_id":76561198345819349,"connected_time":538000000000,"state":"active","ping":105},{"user_id":576,"name":"Hindmost","steam_id":76561199081837220,"connected_time":4780000000000,"state":"active","ping":91},{"user_id":640,"name":"Red on Red","steam_id":76561198802356746,"connected_time":303000000000,"state":"active","ping":92},{"user_id":647,"name":"Person","steam_id":76561198093244204,"connected_time":90000000000,"state":"active","ping":78},{"user_id":626,"name":"funny little vtuber","steam_id":76561198000522179,"connected_time":1343000000000,"state":"active","ping":72},{"user_id":617,"name":"TheMountainMan2002","steam_id":76561198251394304,"connected_time":2087000000000,"state":"active","ping":81},{"user_id":605,"name":"Cuntslinger","steam_id":76561198303948269,"connected_time":3077000000000,"state":"active","ping":67},{"user_id":638,"name":"Drake from State Farm","steam_id":76561199069029812,"connected_time":531000000000,"state":"active","ping":102},{"user_id":648,"name":"Subxo","steam_id":76561198341198154,"connected_time":84000000000,"state":"active","ping":76}]},{"server_id":403,"name":"Uncletopia | Chicago | 4 | All Maps","name_short":"chi-4","host":"chi-1.us.uncletopia.com","port":27045,"enabled":true,"region":"us-central","cc":"us","latitude":41.881832,"longitude":-87.62318,"reserved":0,"last_update":"0001-01-01T00:00:00Z","name_a2s":"Uncletopia | Chicago | 4 | All Maps","protocol":17,"map":"pl_snowycoast","folder":"tf","game":"Team Fortress","app_id":440,"player_count":24,"max_players":24,"Bots":0,"server_type":"Dedicated","server_os":"Linux","password":true,"vac":true,"version":"7757534","steam_id":85568392924515193,"keywords":["nocrits","nodmgspread","payload","uncletopia"],"game_id":440,"stv_port":27046,"stv_name":"Uncletopia | Chicago | 4 | All Maps | STV","players":[{"user_id":586,"name":"Joe Swanson","steam_id":76561199089907740,"connected_time":9557000000000,"state":"active","ping":105},{"user_id":575,"name":"looloopaa","steam_id":76561198048179242,"connected_time":10780000000000,"state":"active","ping":54},{"user_id":618,"name":"WatchWill","steam_id":76561198157237945,"connected_time":7481000000000,"state":"active","ping":69},{"user_id":686,"name":"NotHughesy","steam_id":76561198113064655,"connected_time":507000000000,"state":"active","ping":49},{"user_id":661,"name":"Nash","steam_id":76561198044192734,"connected_time":2991000000000,"state":"active","ping":59},{"user_id":678,"name":"Big Dick Swinging","steam_id":76561198053819929,"connected_time":1149000000000,"state":"active","ping":80},{"user_id":681,"name":"stupid ape","steam_id":76561198350027075,"connected_time":990000000000,"state":"active","ping":53},{"user_id":667,"name":"Akulio","steam_id":76561198271891906,"connected_time":2719000000000,"state":"active","ping":91},{"user_id":682,"name":"Karma's Camera","steam_id":76561198059385185,"connected_time":869000000000,"state":"active","ping":61},{"user_id":659,"name":"Marshmallow Supreme","steam_id":76561198057291909,"connected_time":3250000000000,"state":"active","ping":56},{"user_id":510,"name":"Battery Acid Addict","steam_id":76561198439793697,"connected_time":14233000000000,"state":"active","ping":76},{"user_id":683,"name":"put fentanyl back in pepsi","steam_id":76561198238592900,"connected_time":798000000000,"state":"active","ping":82},{"user_id":679,"name":"cataconik","steam_id":76561198145530829,"connected_time":1123000000000,"state":"active","ping":98},{"user_id":626,"name":"Coke","steam_id":76561199350870177,"connected_time":6223000000000,"state":"active","ping":60},{"user_id":684,"name":"Unregistered Hypercam 2","steam_id":76561198046895822,"connected_time":767000000000,"state":"active","ping":76},{"user_id":690,"name":"milo","steam_id":76561199061380038,"connected_time":319000000000,"state":"active","ping":74},{"user_id":672,"name":"regular_consuelo","steam_id":76561198327831852,"connected_time":1548000000000,"state":"active","ping":73},{"user_id":685,"name":"synthfunk","steam_id":76561199054162469,"connected_time":740000000000,"state":"active","ping":83},{"user_id":689,"name":"xFactr","steam_id":76561198129007422,"connected_time":367000000000,"state":"active","ping":57},{"user_id":673,"name":"Tots","steam_id":76561198027485007,"connected_time":1545000000000,"state":"active","ping":67},{"user_id":675,"name":"Veles","steam_id":76561198255964493,"connected_time":1515000000000,"state":"active","ping":62},{"user_id":688,"name":"lytewerk","steam_id":76561198002819791,"connected_time":414000000000,"state":"active","ping":75},{"user_id":648,"name":"Codo Sapien","steam_id":76561198014206810,"connected_time":3985000000000,"state":"active","ping":36},{"user_id":657,"name":"Lawnmower","steam_id":76561198186680197,"connected_time":3576000000000,"state":"active","ping":116}]},{"server_id":36,"name":"Uncletopia | Chicago | 5 | All Maps","name_short":"chi-5","host":"chi-2.us.uncletopia.com","port":27015,"enabled":true,"region":"us-central","cc":"us","latitude":41.881832,"longitude":-87.62318,"reserved":0,"last_update":"0001-01-01T00:00:00Z","name_a2s":"Uncletopia | Chicago | 5 | All Maps","protocol":17,"map":"cp_dustbowl","folder":"tf","game":"Team Fortress","app_id":440,"player_count":24,"max_players":24,"Bots":0,"server_type":"Dedicated","server_os":"Linux","password":true,"vac":true,"version":"7757534","steam_id":85568392924866362,"keywords":["cp","nocrits","nodmgspread","uncletopia"],"game_id":440,"stv_port":27016,"stv_name":"Uncletopia | Chicago | 5 | All Maps | STV","players":[{"user_id":643,"name":"Iron","steam_id":76561198247918478,"connected_time":1553000000000,"state":"active","ping":64},{"user_id":634,"name":"DiscoTraveler","steam_id":76561199240168088,"connected_time":1880000000000,"state":"active","ping":60},{"user_id":635,"name":"squids a Grandmaster","steam_id":76561199200296010,"connected_time":1875000000000,"state":"active","ping":80},{"user_id":632,"name":"schmopp","steam_id":76561198076490954,"connected_time":1921000000000,"state":"active","ping":45},{"user_id":636,"name":"Clump","steam_id":76561198049690860,"connected_time":1869000000000,"state":"active","ping":101},{"user_id":651,"name":"BrushBristle","steam_id":76561198101484818,"connected_time":913000000000,"state":"active","ping":58},{"user_id":605,"name":"uhooter","steam_id":76561198007829078,"connected_time":4244000000000,"state":"active","ping":47},{"user_id":650,"name":"Sly_Soviet","steam_id":76561199138465888,"connected_time":1104000000000,"state":"active","ping":92},{"user_id":637,"name":"SUMMONFISH","steam_id":76561198427908545,"connected_time":1836000000000,"state":"active","ping":97},{"user_id":638,"name":"Dirt Mammal","steam_id":76561198040781653,"connected_time":1832000000000,"state":"active","ping":102},{"user_id":591,"name":"Ark","steam_id":76561198053000340,"connected_time":4545000000000,"state":"active","ping":59},{"user_id":639,"name":"Also Known As Assteeth","steam_id":76561198049837377,"connected_time":1732000000000,"state":"active","ping":50},{"user_id":655,"name":"Soul","steam_id":76561198020012173,"connected_time":514000000000,"state":"active","ping":72},{"user_id":652,"name":"The Announcer's Feet","steam_id":76561199443456893,"connected_time":874000000000,"state":"active","ping":69},{"user_id":656,"name":"T̵̲̒H̶̪̐E̴͉͂̊M̶̾͆\ufffd","steam_id":76561198091875604,"connected_time":402000000000,"state":"active","ping":75},{"user_id":644,"name":"Aristotle Voulton","steam_id":76561198100174923,"connected_time":1449000000000,"state":"active","ping":90},{"user_id":645,"name":"Qrowniniee","steam_id":76561198273028245,"connected_time":1349000000000,"state":"active","ping":121},{"user_id":659,"name":"kiseek","steam_id":76561198075474088,"connected_time":157000000000,"state":"active","ping":82},{"user_id":607,"name":"Shystie","steam_id":76561198025371440,"connected_time":4137000000000,"state":"active","ping":75},{"user_id":646,"name":"golly gee willikers","steam_id":76561198069407799,"connected_time":1345000000000,"state":"active","ping":75},{"user_id":602,"name":"INoob5430","steam_id":76561198251896612,"connected_time":4456000000000,"state":"active","ping":42},{"user_id":648,"name":"RURU","steam_id":76561198039758987,"connected_time":1257000000000,"state":"active","ping":100},{"user_id":657,"name":"allie","steam_id":76561198105658448,"connected_time":249000000000,"state":"active","ping":60},{"user_id":658,"name":"'93","steam_id":76561198069979962,"connected_time":246000000000,"state":"active","ping":520}]},{"server_id":37,"name":"Uncletopia | Chicago | 6 | All Maps","name_short":"chi-6","host":"chi-2.us.uncletopia.com","port":27025,"enabled":true,"region":"us-central","cc":"us","latitude":41.881832,"longitude":-87.62318,"reserved":0,"last_update":"0001-01-01T00:00:00Z","name_a2s":"Uncletopia | Chicago | 6 | All Maps","protocol":17,"map":"koth_viaduct","folder":"tf","game":"Team Fortress","app_id":440,"player_count":23,"max_players":24,"Bots":0,"server_type":"Dedicated","server_os":"Linux","password":true,"vac":true,"version":"7757534","steam_id":85568392924866363,"keywords":["cp","nocrits","nodmgspread","uncletopia"],"game_id":440,"stv_port":27026,"stv_name":"Uncletopia | Chicago | 6 | All Maps | STV","players":[{"user_id":563,"name":"Slurbson","steam_id":76561198060943367,"connected_time":17000000000,"state":"active","ping":70},{"user_id":550,"name":"Lunar Lepidoptera","steam_id":76561198014593467,"connected_time":675000000000,"state":"active","ping":56},{"user_id":551,"name":"i fell in luv w dah bandz","steam_id":76561198042600523,"connected_time":666000000000,"state":"active","ping":55},{"user_id":509,"name":"Srattinee","steam_id":76561198199840395,"connected_time":3838000000000,"state":"active","ping":54},{"user_id":547,"name":"Bizkit","steam_id":76561198246227290,"connected_time":1080000000000,"state":"spawning","ping":35},{"user_id":531,"name":"Shaw Han","steam_id":76561198204259015,"connected_time":2726000000000,"state":"active","ping":53},{"user_id":534,"name":"Holiday Fartcruise","steam_id":76561198043851584,"connected_time":2252000000000,"state":"active","ping":149},{"user_id":513,"name":"Czar","steam_id":76561198165585182,"connected_time":3802000000000,"state":"active","ping":56},{"user_id":560,"name":"Notes","steam_id":76561198096599278,"connected_time":100000000000,"state":"active","ping":295},{"user_id":542,"name":"dirty30","steam_id":76561198021226566,"connected_time":2170000000000,"state":"active","ping":86},{"user_id":438,"name":"Zigadox","steam_id":76561198079813479,"connected_time":9021000000000,"state":"active","ping":87},{"user_id":562,"name":"Homura Simp","steam_id":76561198246080762,"connected_time":27000000000,"state":"active","ping":41},{"user_id":549,"name":"DerpFamous","steam_id":76561198046167888,"connected_time":732000000000,"state":"active","ping":57},{"user_id":559,"name":"Raggedy","steam_id":76561198073271513,"connected_time":281000000000,"state":"active","ping":160},{"user_id":564,"name":"Dragocj","steam_id":76561198107155012,"connected_time":12000000000,"state":"active","ping":68},{"user_id":536,"name":"Sveniven","steam_id":76561198118864411,"connected_time":2239000000000,"state":"active","ping":62},{"user_id":552,"name":"Blackbird","steam_id":76561198127818333,"connected_time":596000000000,"state":"active","ping":52},{"user_id":553,"name":"MantisToboggan","steam_id":76561197969447887,"connected_time":582000000000,"state":"active","ping":144},{"user_id":561,"name":"Downie Dan","steam_id":76561198098400520,"connected_time":97000000000,"state":"active","ping":76},{"user_id":555,"name":"PANDER","steam_id":76561198021732844,"connected_time":525000000000,"state":"active","ping":62},{"user_id":539,"name":"BlixyDragon","steam_id":76561198295422834,"connected_time":2197000000000,"state":"spawning","ping":250},{"user_id":540,"name":"vareh","steam_id":76561197993190926,"connected_time":2194000000000,"state":"active","ping":101},{"user_id":541,"name":"Gay Cake","steam_id":76561198004388831,"connected_time":2189000000000,"state":"active","ping":57}]},{"server_id":38,"name":"Uncletopia | Chicago | 7 | Stopwatch Beta","name_short":"chi-7","host":"chi-2.us.uncletopia.com","port":27035,"enabled":true,"region":"us-central","cc":"us","latitude":41.881832,"longitude":-87.62318,"reserved":0,"last_update":"0001-01-01T00:00:00Z","name_a2s":"Uncletopia | Chicago | 7 | Stopwatch Beta","protocol":17,"map":"workshop/pl_vigil_rc9.ugc1266210012","folder":"tf","game":"Team Fortress","app_id":440,"player_count":0,"max_players":24,"Bots":0,"server_type":"Dedicated","server_os":"Linux","password":true,"vac":true,"version":"7757534","steam_id":85568392924866364,"keywords":["nocrits","nodmgspread","payload","uncletopia"],"game_id":440,"stv_port":27036,"stv_name":"Uncletopia | Chicago | 7 | Stopwatch Beta | STV","players":null},{"server_id":39,"name":"Uncletopia | Chicago | 8 | Community","name_short":"chi-8","host":"chi-2.us.uncletopia.com","port":27045,"enabled":true,"region":"us-central","cc":"us","latitude":41.881832,"longitude":-87.62318,"reserved":0,"last_update":"0001-01-01T00:00:00Z","name_a2s":"Uncletopia | Chicago | 8 | Community","protocol":17,"map":"workshop/cp_glassworks_rc6a.ugc454118349","folder":"tf","game":"Team Fortress","app_id":440,"player_count":0,"max_players":24,"Bots":0,"server_type":"Dedicated","server_os":"Linux","password":true,"vac":true,"version":"7757534","steam_id":85568392924866365,"keywords":["cp","nocrits","nodmgspread","uncletopia"],"game_id":440,"stv_port":27046,"stv_name":"Uncletopia | Chicago | 8 | Community | STV","players":null},{"server_id":8,"name":"Uncletopia | Dallas | 1 | All Maps","name_short":"dal-1","host":"dal-1.us.uncletopia.com","port":27015,"enabled":true,"region":"us-central","cc":"us","latitude":32.779167,"longitude":-96.80889,"reserved":0,"last_update":"0001-01-01T00:00:00Z","name_a2s":"Uncletopia | Dallas | 1 | All Maps","protocol":17,"map":"koth_king","folder":"tf","game":"Team Fortress","app_id":440,"player_count":24,"max_players":24,"Bots":0,"server_type":"Dedicated","server_os":"Linux","password":true,"vac":true,"version":"7757534","steam_id":85568392924469986,"keywords":["cp","nocrits","nodmgspread","uncletopia"],"game_id":440,"stv_port":27016,"stv_name":"Uncletopia | Dallas | 1 | All Maps | STV","players":[{"user_id":826,"name":"patam :)","steam_id":76561199139871691,"connected_time":811000000000,"state":"active","ping":85},{"user_id":827,"name":"rain","steam_id":76561198848929793,"connected_time":674000000000,"state":"active","ping":46},{"user_id":812,"name":"Dairy Queen","steam_id":76561198285298576,"connected_time":2325000000000,"state":"active","ping":82},{"user_id":814,"name":"Luna","steam_id":76561198131342156,"connected_time":2148000000000,"state":"active","ping":50},{"user_id":833,"name":"cicada","steam_id":76561198069190432,"connected_time":219000000000,"state":"active","ping":77},{"user_id":828,"name":"Mr Dinosaur","steam_id":76561198101635973,"connected_time":659000000000,"state":"active","ping":82},{"user_id":819,"name":"Hank5","steam_id":76561198799475323,"connected_time":1188000000000,"state":"active","ping":115},{"user_id":832,"name":"Shamrock Shake Oct.10.2020 @8pm","steam_id":76561198833313201,"connected_time":294000000000,"state":"active","ping":89},{"user_id":829,"name":"HighJingo","steam_id":76561198846814390,"connected_time":567000000000,"state":"active","ping":49},{"user_id":830,"name":"Average Caber Fan","steam_id":76561199451299044,"connected_time":561000000000,"state":"active","ping":74},{"user_id":799,"name":"Dynamo","steam_id":76561198057875639,"connected_time":2757000000000,"state":"active","ping":71},{"user_id":756,"name":"Miss Pauling Gaming","steam_id":76561198078479083,"connected_time":6498000000000,"state":"active","ping":64},{"user_id":753,"name":"Pleiades, the Sorceror","steam_id":76561198079590693,"connected_time":6727000000000,"state":"active","ping":67},{"user_id":824,"name":"joelygoat","steam_id":76561198949565555,"connected_time":977000000000,"state":"active","ping":116},{"user_id":801,"name":"01000101","steam_id":76561198027981956,"connected_time":2682000000000,"state":"active","ping":64},{"user_id":823,"name":"Wallas","steam_id":76561198438043121,"connected_time":1049000000000,"state":"active","ping":90},{"user_id":484,"name":"brock","steam_id":76561199015537819,"connected_time":28765000000000,"state":"active","ping":57},{"user_id":807,"name":"connie kins","steam_id":76561198074701151,"connected_time":2572000000000,"state":"active","ping":76},{"user_id":785,"name":"Tommy Provolone","steam_id":76561198170062377,"connected_time":4106000000000,"state":"active","ping":64},{"user_id":825,"name":"Level1Meme","steam_id":76561198804132530,"connected_time":910000000000,"state":"active","ping":103},{"user_id":831,"name":"Angelripper","steam_id":76561198858392741,"connected_time":546000000000,"state":"active","ping":69},{"user_id":816,"name":"Kyle H. McCloud","steam_id":76561198025050432,"connected_time":1902000000000,"state":"active","ping":86},{"user_id":775,"name":"Edder","steam_id":76561198011088393,"connected_time":5069000000000,"state":"active","ping":94},{"user_id":815,"name":"Tree52","steam_id":76561198046763622,"connected_time":2015000000000,"state":"active","ping":78}]},{"server_id":108,"name":"Uncletopia | Dallas | 2 | All Maps","name_short":"dal-2","host":"dal-1.us.uncletopia.com","port":27025,"enabled":true,"region":"us-central","cc":"us","latitude":32.779167,"longitude":-96.80889,"reserved":0,"last_update":"0001-01-01T00:00:00Z","name_a2s":"Uncletopia | Dallas | 2 | All Maps","protocol":17,"map":"cp_dustbowl","folder":"tf","game":"Team Fortress","app_id":440,"player_count":19,"max_players":24,"Bots":0,"server_type":"Dedicated","server_os":"Linux","password":true,"vac":true,"version":"7757534","steam_id":85568392924469988,"keywords":["cp","nocrits","nodmgspread","uncletopia"],"game_id":440,"stv_port":27026,"stv_name":"Uncletopia | Dallas | 2 | All Maps | STV","players":[{"user_id":588,"name":"Ellis","steam_id":76561198993634489,"connected_time":1400000000000,"state":"active","ping":83},{"user_id":601,"name":"Dattallguy","steam_id":76561198873155093,"connected_time":369000000000,"state":"active","ping":68},{"user_id":602,"name":"VixianUwU","steam_id":76561198948815060,"connected_time":218000000000,"state":"active","ping":74},{"user_id":607,"name":"gt","steam_id":76561198033033884,"connected_time":68000000000,"state":"active","ping":87},{"user_id":604,"name":"microninjeez","steam_id":76561198074936422,"connected_time":129000000000,"state":"active","ping":77},{"user_id":573,"name":"tyg","steam_id":76561198056246867,"connected_time":3285000000000,"state":"active","ping":82},{"user_id":589,"name":"ButterPoptart","steam_id":76561198132999590,"connected_time":1395000000000,"state":"active","ping":95},{"user_id":536,"name":"bo scrungulus","steam_id":76561198038036122,"connected_time":5562000000000,"state":"active","ping":61},{"user_id":575,"name":"Taser! Taser!","steam_id":76561198068113347,"connected_time":3237000000000,"state":"active","ping":75},{"user_id":590,"name":"Dr.Nooo!!!!!!!!","steam_id":76561198064738479,"connected_time":1376000000000,"state":"active","ping":89},{"user_id":591,"name":"Bunny of Epicness","steam_id":76561198003897012,"connected_time":1364000000000,"state":"active","ping":46},{"user_id":564,"name":"Lspan","steam_id":76561199002806208,"connected_time":4109000000000,"state":"active","ping":132},{"user_id":605,"name":"bangy","steam_id":76561198043889301,"connected_time":127000000000,"state":"active","ping":49},{"user_id":606,"name":"SIGMA [BS]","steam_id":76561197962604879,"connected_time":116000000000,"state":"active","ping":91},{"user_id":584,"name":"charm","steam_id":76561198126751384,"connected_time":1965000000000,"state":"active","ping":69},{"user_id":434,"name":"plink","steam_id":76561198057829889,"connected_time":12429000000000,"state":"active","ping":80},{"user_id":600,"name":"NeverAcedIt (Pinnacle -\u003e Pit)","steam_id":76561198406671743,"connected_time":675000000000,"state":"active","ping":94},{"user_id":595,"name":"Mythical Lag","steam_id":76561198347031281,"connected_time":1247000000000,"state":"active","ping":47},{"user_id":599,"name":"silver","steam_id":76561198046252513,"connected_time":776000000000,"state":"active","ping":65}]},{"server_id":5,"name":"Uncletopia | Frankfurt | 1 | All Maps","name_short":"frk-1","host":"frk-1.de.uncletopia.com","port":27015,"enabled":true,"region":"eu","cc":"de","latitude":50.110924,"longitude":8.682127,"reserved":0,"last_update":"0001-01-01T00:00:00Z","name_a2s":"Uncletopia | Frankfurt | 1 | All Maps","protocol":17,"map":"pl_snowycoast","folder":"tf","game":"Team Fortress","app_id":440,"player_count":0,"max_players":24,"Bots":0,"server_type":"Dedicated","server_os":"Linux","password":true,"vac":true,"version":"7757534","steam_id":85568392924469989,"keywords":["nocrits","nodmgspread","payload","uncletopia"],"game_id":440,"stv_port":27016,"stv_name":"Uncletopia | Frankfurt | 1 | All Maps | STV","players":null},{"server_id":110,"name":"Uncletopia | Frankfurt | 2 | All Maps","name_short":"frk-2","host":"frk-1.de.uncletopia.com","port":27025,"enabled":true,"region":"eu","cc":"de","latitude":50.110924,"longitude":8.682127,"reserved":0,"last_update":"0001-01-01T00:00:00Z","name_a2s":"Uncletopia | Frankfurt | 2 | All Maps","protocol":17,"map":"cp_snakewater_final1","folder":"tf","game":"Team Fortress","app_id":440,"player_count":0,"max_players":24,"Bots":0,"server_type":"Dedicated","server_os":"Linux","password":true,"vac":true,"version":"7757534","steam_id":85568392924469990,"keywords":["cp","nocrits","nodmgspread","uncletopia"],"game_id":440,"stv_port":27026,"stv_name":"Uncletopia | Frankfurt | 2 | All Maps | STV","players":null},{"server_id":308,"name":"Uncletopia | Frankfurt | 3 | All Maps","name_short":"frk-3","host":"frk-1.de.uncletopia.com","port":27035,"enabled":true,"region":"eu","cc":"de","latitude":50.110924,"longitude":8.682127,"reserved":0,"last_update":"0001-01-01T00:00:00Z","name_a2s":"Uncletopia | Frankfurt | 3 | All Maps","protocol":17,"map":"pl_swiftwater_final1","folder":"tf","game":"Team Fortress","app_id":440,"player_count":0,"max_players":24,"Bots":0,"server_type":"Dedicated","server_os":"Linux","password":true,"vac":true,"version":"7757534","steam_id":85568392924504274,"keywords":["nocrits","nodmgspread","payload","uncletopia"],"game_id":440,"stv_port":27036,"stv_name":"Uncletopia | Frankfurt | 3 | All Maps | STV","players":null},{"server_id":309,"name":"Uncletopia | Frankfurt | 4 | All Maps","name_short":"frk-4","host":"frk-1.de.uncletopia.com","port":27045,"enabled":true,"region":"eu","cc":"de","latitude":50.110924,"longitude":8.682127,"reserved":0,"last_update":"0001-01-01T00:00:00Z","name_a2s":"Uncletopia | Frankfurt | 4 | All Maps","protocol":17,"map":"koth_viaduct","folder":"tf","game":"Team Fortress","app_id":440,"player_count":0,"max_players":24,"Bots":0,"server_type":"Dedicated","server_os":"Linux","password":true,"vac":true,"version":"7757534","steam_id":85568392924504275,"keywords":["cp","nocrits","nodmgspread","uncletopia"],"game_id":440,"stv_port":27046,"stv_name":"Uncletopia | Frankfurt | 4 | All Maps | STV","players":null},{"server_id":310,"name":"Uncletopia | Frankfurt | 5 | All Maps","name_short":"frk-5","host":"frk-1.de.uncletopia.com","port":27055,"enabled":true,"region":"eu","cc":"de","latitude":50.110924,"longitude":8.682127,"reserved":0,"last_update":"0001-01-01T00:00:00Z","name_a2s":"Uncletopia | Frankfurt | 5 | All Maps","protocol":17,"map":"koth_lakeside_final","folder":"tf","game":"Team Fortress","app_id":440,"player_count":0,"max_players":24,"Bots":0,"server_type":"Dedicated","server_os":"Linux","password":true,"vac":true,"version":"7757534","steam_id":85568392924504277,"keywords":["cp","nocrits","nodmgspread","uncletopia"],"game_id":440,"stv_port":27056,"stv_name":"Uncletopia | Frankfurt | 5 | All Maps | STV","players":null},{"server_id":311,"name":"Uncletopia | Frankfurt | 6 | All Maps","name_short":"frk-6","host":"frk-1.de.uncletopia.com","port":27065,"enabled":true,"region":"eu","cc":"de","latitude":50.110924,"longitude":8.682127,"reserved":0,"last_update":"0001-01-01T00:00:00Z","name_a2s":"Uncletopia | Frankfurt | 6 | All Maps","protocol":17,"map":"pl_upward","folder":"tf","game":"Team Fortress","app_id":440,"player_count":0,"max_players":24,"Bots":0,"server_type":"Dedicated","server_os":"Linux","password":true,"vac":true,"version":"7757534","steam_id":85568392924504278,"keywords":["nocrits","nodmgspread","payload","uncletopia"],"game_id":440,"stv_port":27066,"stv_name":"Uncletopia | Frankfurt | 6 | All Maps | STV","players":null},{"server_id":23,"name":"Uncletopia | Frankfurt | 7 | Stopwatch Beta","name_short":"frk-7","host":"frk-1.de.uncletopia.com","port":27075,"enabled":true,"region":"eu","cc":"de","latitude":50.110924,"longitude":8.682127,"reserved":0,"last_update":"0001-01-01T00:00:00Z","name_a2s":"Uncletopia | Frankfurt | 7 | Stopwatch Beta","protocol":17,"map":"cp_sunshine","folder":"tf","game":"Team Fortress","app_id":440,"player_count":0,"max_players":24,"Bots":0,"server_type":"Dedicated","server_os":"Linux","password":true,"vac":true,"version":"7757534","steam_id":85568392924742827,"keywords":["cp","nocrits","nodmgspread","uncletopia"],"game_id":440,"stv_port":27076,"stv_name":"Uncletopia | Frankfurt | 7 | Stopwatch Beta | STV","players":null},{"server_id":24,"name":"Uncletopia | Frankfurt | 8 | Community","name_short":"frk-8","host":"frk-1.de.uncletopia.com","port":27085,"enabled":true,"region":"eu","cc":"de","latitude":50.110924,"longitude":8.682127,"reserved":0,"last_update":"0001-01-01T00:00:00Z","name_a2s":"Uncletopia | Frankfurt | 8 | Community","protocol":17,"map":"koth_lakeside_final","folder":"tf","game":"Team Fortress","app_id":440,"player_count":0,"max_players":24,"Bots":0,"server_type":"Dedicated","server_os":"Linux","password":true,"vac":true,"version":"7757534","steam_id":85568392924742828,"keywords":["cp","nocrits","nodmgspread","uncletopia"],"game_id":440,"stv_port":27086,"stv_name":"Uncletopia | Frankfurt | 8 | Community | STV","players":null},{"server_id":202,"name":"Uncletopia | Hong Kong | 1 | All Maps","name_short":"hgk-1","host":"hgk-1.hk.uncletopia.com","port":27015,"enabled":true,"region":"asia","cc":"hk","latitude":22.302711,"longitude":114.177216,"reserved":0,"last_update":"0001-01-01T00:00:00Z","name_a2s":"Uncletopia | Hong Kong | 1 | All Maps","protocol":17,"map":"koth_cascade","folder":"tf","game":"Team Fortress","app_id":440,"player_count":1,"max_players":24,"Bots":0,"server_type":"Dedicated","server_os":"Linux","password":true,"vac":true,"version":"7757534","steam_id":85568392924494504,"keywords":["cp","nocrits","nodmgspread","uncletopia"],"game_id":440,"stv_port":27016,"stv_name":"Uncletopia | Hong Kong | 1 | All Maps | STV","players":[{"user_id":7,"name":"Skyler White yo","steam_id":76561198895193247,"connected_time":36000000000,"state":"active","ping":72}]},{"server_id":1,"name":"Uncletopia | Los Angeles | 1 | All Maps","name_short":"lax-1","host":"lax-1.us.uncletopia.com","port":27015,"enabled":true,"region":"us-west","cc":"us","latitude":33.94279,"longitude":-118.41004,"reserved":0,"last_update":"0001-01-01T00:00:00Z","name_a2s":"Uncletopia | Los Angeles | 1 | All Maps","protocol":17,"map":"cp_powerhouse","folder":"tf","game":"Team Fortress","app_id":440,"player_count":24,"max_players":24,"Bots":0,"server_type":"Dedicated","server_os":"Linux","password":true,"vac":true,"version":"7757534","steam_id":85568392924469991,"keywords":["cp","nocrits","nodmgspread","uncletopia"],"game_id":440,"stv_port":27016,"stv_name":"Uncletopia | Los Angeles | 1 | All Maps | STV","players":[{"user_id":394,"name":"HeartAttack","steam_id":76561198135833968,"connected_time":39000000000,"state":"active","ping":62},{"user_id":339,"name":"gretchling","steam_id":76561198046111695,"connected_time":7428000000000,"state":"active","ping":70},{"user_id":391,"name":"Perfect Cell","steam_id":76561198271939793,"connected_time":892000000000,"state":"active","ping":76},{"user_id":374,"name":"Doctor™","steam_id":76561198134309750,"connected_time":3507000000000,"state":"active","ping":127},{"user_id":389,"name":"Ekuseebia","steam_id":76561198037504112,"connected_time":1639000000000,"state":"active","ping":74},{"user_id":384,"name":"a pair of jeans","steam_id":76561198043558709,"connected_time":2442000000000,"state":"active","ping":75},{"user_id":390,"name":"diversity hire","steam_id":76561198022967929,"connected_time":1606000000000,"state":"active","ping":46},{"user_id":383,"name":"Attrition","steam_id":76561197969881916,"connected_time":2560000000000,"state":"active","ping":75},{"user_id":392,"name":"Its Dr.Stoned","steam_id":76561198079622791,"connected_time":459000000000,"state":"active","ping":104},{"user_id":388,"name":"dewey","steam_id":76561198132791511,"connected_time":1751000000000,"state":"active","ping":55},{"user_id":352,"name":"thunderous prophet","steam_id":76561198131166135,"connected_time":5746000000000,"state":"active","ping":60},{"user_id":362,"name":"free the comish","steam_id":76561198169755734,"connected_time":5194000000000,"state":"active","ping":61},{"user_id":359,"name":"The Dumptruck of Notre-Dame","steam_id":76561198004815026,"connected_time":5656000000000,"state":"active","ping":53},{"user_id":353,"name":"||:♩♩♩♪:|| Opplydead","steam_id":76561198028630334,"connected_time":5745000000000,"state":"active","ping":45},{"user_id":385,"name":"NFL.com","steam_id":76561198113405376,"connected_time":2267000000000,"state":"active","ping":48},{"user_id":368,"name":"brae","steam_id":76561198047126327,"connected_time":4422000000000,"state":"active","ping":82},{"user_id":355,"name":"NEBULA","steam_id":76561198086878595,"connected_time":5742000000000,"state":"active","ping":66},{"user_id":356,"name":"the hunchback of gay paris","steam_id":76561197987056308,"connected_time":5739000000000,"state":"active","ping":57},{"user_id":380,"name":"Peter, what are you doing?","steam_id":76561198066452726,"connected_time":3237000000000,"state":"active","ping":50},{"user_id":363,"name":"Teh Pug","steam_id":76561198085810161,"connected_time":5136000000000,"state":"active","ping":44},{"user_id":364,"name":"Florist","steam_id":76561198009121060,"connected_time":4927000000000,"state":"active","ping":88},{"user_id":381,"name":"GLXy","steam_id":76561198207551544,"connected_time":3164000000000,"state":"active","ping":81},{"user_id":387,"name":"smeasly","steam_id":76561198028718812,"connected_time":1804000000000,"state":"active","ping":71},{"user_id":365,"name":"jjorpts","steam_id":76561199041179985,"connected_time":4790000000000,"state":"active","ping":82}]},{"server_id":112,"name":"Uncletopia | Los Angeles | 2 | All Maps","name_short":"lax-2","host":"lax-1.us.uncletopia.com","port":27025,"enabled":true,"region":"us-west","cc":"us","latitude":33.94279,"longitude":-118.41004,"reserved":0,"last_update":"0001-01-01T00:00:00Z","name_a2s":"Uncletopia | Los Angeles | 2 | All Maps","protocol":17,"map":"pl_badwater","folder":"tf","game":"Team Fortress","app_id":440,"player_count":22,"max_players":24,"Bots":0,"server_type":"Dedicated","server_os":"Linux","password":true,"vac":true,"version":"7757534","steam_id":85568392924469992,"keywords":["nocrits","nodmgspread","payload","uncletopia"],"game_id":440,"stv_port":27026,"stv_name":"Uncletopia | Los Angeles | 2 | All Maps | STV","players":[{"user_id":602,"name":"pathulhu","steam_id":76561198323941614,"connected_time":1469000000000,"state":"active","ping":71},{"user_id":550,"name":"TeriyakiDynamite","steam_id":76561198050049346,"connected_time":6343000000000,"state":"active","ping":62},{"user_id":594,"name":"SCP-17XX","steam_id":76561198219209367,"connected_time":2803000000000,"state":"active","ping":80},{"user_id":596,"name":"Andy Samson 1 year ago","steam_id":76561199059261361,"connected_time":1886000000000,"state":"active","ping":48},{"user_id":612,"name":"cliftoce","steam_id":76561197998912007,"connected_time":905000000000,"state":"active","ping":62},{"user_id":601,"name":"AussieAlex","steam_id":76561198001611833,"connected_time":1472000000000,"state":"active","ping":71},{"user_id":613,"name":"kommando1911","steam_id":76561198121455141,"connected_time":709000000000,"state":"active","ping":54},{"user_id":593,"name":"LovingKindne2z","steam_id":76561199064932372,"connected_time":3144000000000,"state":"active","ping":45},{"user_id":610,"name":"TeCon","steam_id":76561198049127236,"connected_time":1295000000000,"state":"active","ping":59},{"user_id":589,"name":"monsterkill4567","steam_id":76561198272986367,"connected_time":3577000000000,"state":"active","ping":55},{"user_id":574,"name":"roach","steam_id":76561198354811369,"connected_time":4347000000000,"state":"active","ping":49},{"user_id":616,"name":"︻デ 一","steam_id":76561198149140645,"connected_time":323000000000,"state":"active","ping":107},{"user_id":607,"name":"Major_Pippy","steam_id":76561198004482878,"connected_time":1420000000000,"state":"active","ping":79},{"user_id":608,"name":"noblehallett","steam_id":76561197990994280,"connected_time":1418000000000,"state":"active","ping":91},{"user_id":609,"name":"The Edumacator","steam_id":76561198347157125,"connected_time":1409000000000,"state":"active","ping":101},{"user_id":598,"name":"Erica","steam_id":76561198716139545,"connected_time":1699000000000,"state":"active","ping":91},{"user_id":611,"name":"Slim Charles","steam_id":76561197981687895,"connected_time":1034000000000,"state":"active","ping":61},{"user_id":599,"name":"Fleshy Scout Meat","steam_id":76561198106465170,"connected_time":1490000000000,"state":"active","ping":67},{"user_id":584,"name":"WhenImMadYOU!","steam_id":76561198072432944,"connected_time":4060000000000,"state":"active","ping":120},{"user_id":617,"name":"PMT_Red","steam_id":76561198958863929,"connected_time":313000000000,"state":"active","ping":58},{"user_id":542,"name":"Jack Horner in a F-16","steam_id":76561198062438923,"connected_time":7330000000000,"state":"active","ping":87},{"user_id":588,"name":"FROYO b4nny","steam_id":76561197970669109,"connected_time":3627000000000,"state":"active","ping":46}]},{"server_id":324,"name":"Uncletopia | Los Angeles | 3 | All Maps","name_short":"lax-3","host":"lax-1.us.uncletopia.com","port":27035,"enabled":true,"region":"us-west","cc":"us","latitude":33.94279,"longitude":-118.41004,"reserved":0,"last_update":"0001-01-01T00:00:00Z","name_a2s":"Uncletopia | Los Angeles | 3 | All Maps","protocol":17,"map":"cp_dustbowl","folder":"tf","game":"Team Fortress","app_id":440,"player_count":23,"max_players":24,"Bots":0,"server_type":"Dedicated","server_os":"Linux","password":true,"vac":true,"version":"7757534","steam_id":85568392924510198,"keywords":["cp","nocrits","nodmgspread","uncletopia"],"game_id":440,"stv_port":27036,"stv_name":"Uncletopia | Los Angeles | 3 | All Maps | STV","players":[{"user_id":555,"name":"StatingKnot","steam_id":76561199190634968,"connected_time":2071000000000,"state":"active","ping":106},{"user_id":575,"name":"xLedZeppelinx","steam_id":76561198005427668,"connected_time":707000000000,"state":"active","ping":45},{"user_id":544,"name":"Jolly","steam_id":76561198116357972,"connected_time":2642000000000,"state":"active","ping":47},{"user_id":582,"name":"Squidlye","steam_id":76561199015857743,"connected_time":133000000000,"state":"active","ping":91},{"user_id":567,"name":"Mr. Yoshida","steam_id":76561198263829831,"connected_time":1106000000000,"state":"active","ping":73},{"user_id":578,"name":"Vlad","steam_id":76561198072334604,"connected_time":563000000000,"state":"active","ping":83},{"user_id":509,"name":"Frank (#ripJimmyCarter)","steam_id":76561198126681511,"connected_time":4611000000000,"state":"active","ping":62},{"user_id":583,"name":"TheRealChizz","steam_id":76561198016055769,"connected_time":71000000000,"state":"active","ping":63},{"user_id":521,"name":"SN0W","steam_id":76561198153665468,"connected_time":4456000000000,"state":"active","ping":87},{"user_id":572,"name":"XxX420UwUMaster666XxX","steam_id":76561199351137762,"connected_time":882000000000,"state":"active","ping":85},{"user_id":584,"name":"Lord Ballsack of Cum Castle","steam_id":76561198285996788,"connected_time":41000000000,"state":"active","ping":58},{"user_id":580,"name":"Deadly Heavy","steam_id":76561198346827222,"connected_time":297000000000,"state":"active","ping":65},{"user_id":511,"name":"the stallion","steam_id":76561198212242403,"connected_time":4605000000000,"state":"active","ping":48},{"user_id":524,"name":"airbudenjoyer2012","steam_id":76561198150428763,"connected_time":4305000000000,"state":"active","ping":56},{"user_id":537,"name":"Conquistador","steam_id":76561198035727932,"connected_time":3030000000000,"state":"active","ping":65},{"user_id":585,"name":"Sloj","steam_id":76561198090946567,"connected_time":1000000000,"state":"spawning","ping":167},{"user_id":563,"name":"for the king","steam_id":76561197973488858,"connected_time":1857000000000,"state":"active","ping":105},{"user_id":564,"name":"weed","steam_id":76561199128192017,"connected_time":1829000000000,"state":"active","ping":85},{"user_id":576,"name":"St. Bimmius","steam_id":76561198013595716,"connected_time":705000000000,"state":"active","ping":102},{"user_id":579,"name":"Tristan Tate","steam_id":76561198112376653,"connected_time":545000000000,"state":"active","ping":92},{"user_id":516,"name":"bengy","steam_id":76561198264288798,"connected_time":4562000000000,"state":"active","ping":54},{"user_id":577,"name":"Szajcore","steam_id":76561198105046154,"connected_time":673000000000,"state":"active","ping":107},{"user_id":581,"name":"Lumer","steam_id":76561198992487609,"connected_time":200000000000,"state":"active","ping":64}]},{"server_id":25,"name":"Uncletopia | Los Angeles | 4 | Stopwatch Beta","name_short":"lax-4","host":"lax-1.us.uncletopia.com","port":27045,"enabled":true,"region":"us-west","cc":"us","latitude":33.94279,"longitude":-118.41004,"reserved":0,"last_update":"0001-01-01T00:00:00Z","name_a2s":"Uncletopia | Los Angeles | 4 | Stopwatch Beta","protocol":17,"map":"cp_snakewater_final1","folder":"tf","game":"Team Fortress","app_id":440,"player_count":0,"max_players":24,"Bots":0,"server_type":"Dedicated","server_os":"Linux","password":true,"vac":true,"version":"7757534","steam_id":85568392924510199,"keywords":["cp","nocrits","nodmgspread","uncletopia"],"game_id":440,"stv_port":27046,"stv_name":"Uncletopia | Los Angeles | 4 | Stopwatch Beta | STV","players":null},{"server_id":11,"name":"Uncletopia | London | 1 | All Maps","name_short":"lon-1","host":"lon-1.uk.uncletopia.com","port":27015,"enabled":true,"region":"eu","cc":"gb","latitude":51.509865,"longitude":-0.118092,"reserved":0,"last_update":"0001-01-01T00:00:00Z","name_a2s":"Uncletopia | London | 1 | All Maps","protocol":17,"map":"koth_highpass","folder":"tf","game":"Team Fortress","app_id":440,"player_count":0,"max_players":24,"Bots":0,"server_type":"Dedicated","server_os":"Linux","password":true,"vac":true,"version":"7757534","steam_id":85568392924367362,"keywords":["cp","nocrits","nodmgspread","uncletopia"],"game_id":440,"stv_port":27016,"stv_name":"Uncletopia | London | 1 | All Maps | STV","players":null},{"server_id":114,"name":"Uncletopia | London | 2 | All Maps","name_short":"lon-2","host":"lon-1.uk.uncletopia.com","port":27025,"enabled":true,"region":"eu","cc":"gb","latitude":51.509865,"longitude":-0.118092,"reserved":0,"last_update":"0001-01-01T00:00:00Z","name_a2s":"Uncletopia | London | 2 | All Maps","protocol":17,"map":"koth_viaduct","folder":"tf","game":"Team Fortress","app_id":440,"player_count":0,"max_players":24,"Bots":0,"server_type":"Dedicated","server_os":"Linux","password":true,"vac":true,"version":"7757534","steam_id":85568392924470941,"keywords":["cp","nocrits","nodmgspread","uncletopia"],"game_id":440,"stv_port":27026,"stv_name":"Uncletopia | London | 2 | All Maps | STV","players":null},{"server_id":320,"name":"Uncletopia | London | 3 | All Maps","name_short":"lon-3","host":"lon-1.uk.uncletopia.com","port":27035,"enabled":true,"region":"eu","cc":"gb","latitude":51.509865,"longitude":-0.118092,"reserved":0,"last_update":"0001-01-01T00:00:00Z","name_a2s":"Uncletopia | London | 3 | All Maps","protocol":17,"map":"plr_hightower","folder":"tf","game":"Team Fortress","app_id":440,"player_count":8,"max_players":24,"Bots":0,"server_type":"Dedicated","server_os":"Linux","password":true,"vac":true,"version":"7757534","steam_id":85568392924510192,"keywords":["nocrits","nodmgspread","payload","uncletopia"],"game_id":440,"stv_port":27036,"stv_name":"Uncletopia | London | 3 | All Maps | STV","players":[{"user_id":15,"name":"Razorback from Team Fortress 2","steam_id":76561199214163032,"connected_time":286000000000,"state":"active","ping":93},{"user_id":13,"name":"barack obama tf2","steam_id":76561199375975842,"connected_time":500000000000,"state":"active","ping":47},{"user_id":5,"name":"My name is indeed Jeff","steam_id":76561199115838614,"connected_time":1073000000000,"state":"active","ping":169},{"user_id":9,"name":"Phlurmph","steam_id":76561198170017429,"connected_time":940000000000,"state":"active","ping":155},{"user_id":14,"name":"Fus in Boots","steam_id":76561198053897722,"connected_time":427000000000,"state":"active","ping":48},{"user_id":16,"name":"MtnDew","steam_id":76561199100059743,"connected_time":194000000000,"state":"active","ping":178},{"user_id":17,"name":"The Traffic Controlling Pyro","steam_id":76561198836329365,"connected_time":132000000000,"state":"active","ping":90},{"user_id":18,"name":"cooler bones","steam_id":76561199480942903,"connected_time":118000000000,"state":"active","ping":75}]},{"server_id":321,"name":"Uncletopia | London | 4 | All Maps","name_short":"lon-4","host":"lon-1.uk.uncletopia.com","port":27045,"enabled":true,"region":"eu","cc":"gb","latitude":51.509865,"longitude":-0.118092,"reserved":0,"last_update":"0001-01-01T00:00:00Z","name_a2s":"Uncletopia | London | 4 | All Maps","protocol":17,"map":"cp_dustbowl","folder":"tf","game":"Team Fortress","app_id":440,"player_count":0,"max_players":24,"Bots":0,"server_type":"Dedicated","server_os":"Linux","password":true,"vac":true,"version":"7757534","steam_id":85568392924510193,"keywords":["cp","nocrits","nodmgspread","uncletopia"],"game_id":440,"stv_port":27046,"stv_name":"Uncletopia | London | 4 | All Maps | STV","players":null},{"server_id":21,"name":"Uncletopia | London | 5 | All Maps","name_short":"lon-5","host":"lon-1.uk.uncletopia.com","port":27055,"enabled":true,"region":"eu","cc":"gb","latitude":51.509865,"longitude":-0.118092,"reserved":0,"last_update":"0001-01-01T00:00:00Z","name_a2s":"Uncletopia | London | 5 | All Maps","protocol":17,"map":"cp_altitude","folder":"tf","game":"Team Fortress","app_id":440,"player_count":0,"max_players":24,"Bots":0,"server_type":"Dedicated","server_os":"Linux","password":true,"vac":true,"version":"7757534","steam_id":85568392924742829,"keywords":["cp","nocrits","nodmgspread","uncletopia"],"game_id":440,"stv_port":27056,"stv_name":"Uncletopia | London | 5 | All Maps | STV","players":null},{"server_id":22,"name":"Uncletopia | London | 6 | All Maps","name_short":"lon-6","host":"lon-1.uk.uncletopia.com","port":27065,"enabled":true,"region":"eu","cc":"gb","latitude":51.509865,"longitude":-0.118092,"reserved":0,"last_update":"0001-01-01T00:00:00Z","name_a2s":"Uncletopia | London | 6 | All Maps","protocol":17,"map":"cp_mountainlab","folder":"tf","game":"Team Fortress","app_id":440,"player_count":0,"max_players":24,"Bots":0,"server_type":"Dedicated","server_os":"Linux","password":true,"vac":true,"version":"7757534","steam_id":85568392924742830,"keywords":["cp","nocrits","nodmgspread","uncletopia"],"game_id":440,"stv_port":27066,"stv_name":"Uncletopia | London | 6 | All Maps | STV","players":null},{"server_id":40,"name":"Uncletopia | London | 7 | No Payload","name_short":"lon-7","host":"lon-1.uk.uncletopia.com","port":27075,"enabled":true,"region":"eu","cc":"gb","latitude":51.509865,"longitude":-0.118092,"reserved":0,"last_update":"0001-01-01T00:00:00Z","name_a2s":"Uncletopia | London | 7 | No Payload","protocol":17,"map":"pl_badwater","folder":"tf","game":"Team Fortress","app_id":440,"player_count":0,"max_players":24,"Bots":0,"server_type":"Dedicated","server_os":"Linux","password":true,"vac":true,"version":"7757534","steam_id":85568392924964314,"keywords":["nocrits","nodmgspread","payload","uncletopia"],"game_id":440,"stv_port":27076,"stv_name":"Uncletopia | London | 7 | No Payload | STV","players":null},{"server_id":41,"name":"Uncletopia | London | 8 | Community","name_short":"lon-8","host":"lon-1.uk.uncletopia.com","port":27085,"enabled":true,"region":"eu","cc":"gb","latitude":51.509865,"longitude":-0.118092,"reserved":0,"last_update":"0001-01-01T00:00:00Z","name_a2s":"Uncletopia | London | 8 | Community","protocol":17,"map":"pl_barnblitz","folder":"tf","game":"Team Fortress","app_id":440,"player_count":0,"max_players":24,"Bots":0,"server_type":"Dedicated","server_os":"Linux","password":true,"vac":true,"version":"7757534","steam_id":85568392924964315,"keywords":["nocrits","nodmgspread","payload","uncletopia"],"game_id":440,"stv_port":27086,"stv_name":"Uncletopia | London | 8 | Community | STV","players":null},{"server_id":300,"name":"Uncletopia | Montréal | 1 | All Maps","name_short":"mtl-1","host":"mtl-1.ca.uncletopia.com","port":27015,"enabled":true,"region":"us-east","cc":"ca","latitude":45.50889,"longitude":-73.56167,"reserved":0,"last_update":"0001-01-01T00:00:00Z","name_a2s":"Uncletopia | Montréal | 1 | All Maps","protocol":17,"map":"pl_borneo","folder":"tf","game":"Team Fortress","app_id":440,"player_count":3,"max_players":24,"Bots":0,"server_type":"Dedicated","server_os":"Linux","password":true,"vac":true,"version":"7757534","steam_id":85568392924500087,"keywords":["nocrits","nodmgspread","payload","uncletopia"],"game_id":440,"stv_port":27016,"stv_name":"Uncletopia | Montréal | 1 | All Maps | STV","players":[{"user_id":221,"name":"averagesoldiermain","steam_id":76561198158447466,"connected_time":4516000000000,"state":"active","ping":77},{"user_id":228,"name":"Bip","steam_id":76561199022962204,"connected_time":523000000000,"state":"active","ping":80},{"user_id":225,"name":"CivilWarMike","steam_id":76561198141188839,"connected_time":4162000000000,"state":"active","ping":80}]},{"server_id":301,"name":"Uncletopia | Montréal | 2 | All Maps","name_short":"mtl-2","host":"mtl-1.ca.uncletopia.com","port":27025,"enabled":true,"region":"us-east","cc":"ca","latitude":45.50889,"longitude":-73.56167,"reserved":0,"last_update":"0001-01-01T00:00:00Z","name_a2s":"Uncletopia | Montréal | 2 | All Maps","protocol":17,"map":"koth_cascade","folder":"tf","game":"Team Fortress","app_id":440,"player_count":0,"max_players":24,"Bots":0,"server_type":"Dedicated","server_os":"Linux","password":true,"vac":true,"version":"7757534","steam_id":85568392924500088,"keywords":["cp","nocrits","nodmgspread","uncletopia"],"game_id":440,"stv_port":27026,"stv_name":"Uncletopia | Montréal | 2 | All Maps | STV","players":null},{"server_id":302,"name":"Uncletopia | Montréal | 3 | All Maps","name_short":"mtl-3","host":"mtl-1.ca.uncletopia.com","port":27035,"enabled":true,"region":"us-east","cc":"ca","latitude":45.50889,"longitude":-73.56167,"reserved":0,"last_update":"0001-01-01T00:00:00Z","name_a2s":"Uncletopia | Montréal | 3 | All Maps","protocol":17,"map":"koth_cascade","folder":"tf","game":"Team Fortress","app_id":440,"player_count":0,"max_players":24,"Bots":0,"server_type":"Dedicated","server_os":"Linux","password":true,"vac":true,"version":"7757534","steam_id":85568392924500089,"keywords":["cp","nocrits","nodmgspread","uncletopia"],"game_id":440,"stv_port":27036,"stv_name":"Uncletopia | Montréal | 3 | All Maps | STV","players":null},{"server_id":303,"name":"Uncletopia | Montréal | 4 | No Payload","name_short":"mtl-4","host":"mtl-1.ca.uncletopia.com","port":27045,"enabled":true,"region":"us-east","cc":"ca","latitude":45.50889,"longitude":-73.56167,"reserved":0,"last_update":"0001-01-01T00:00:00Z","name_a2s":"Uncletopia | Montréal | 4 | No Payload","protocol":17,"map":"cp_mountainlab","folder":"tf","game":"Team Fortress","app_id":440,"player_count":0,"max_players":24,"Bots":0,"server_type":"Dedicated","server_os":"Linux","password":true,"vac":true,"version":"7757534","steam_id":85568392924500090,"keywords":["cp","nocrits","nodmgspread","uncletopia"],"game_id":440,"stv_port":27046,"stv_name":"Uncletopia | Montréal | 4 | No Payload | STV","players":null},{"server_id":13,"name":"Uncletopia | New York City | 1 | All Maps","name_short":"nyc-1","host":"nyc-1.us.uncletopia.com","port":27015,"enabled":true,"region":"us-east","cc":"us","latitude":40.73061,"longitude":-73.93524,"reserved":0,"last_update":"0001-01-01T00:00:00Z","name_a2s":"Uncletopia | New York City | 1 | All Maps","protocol":17,"map":"cp_mountainlab","folder":"tf","game":"Team Fortress","app_id":440,"player_count":8,"max_players":24,"Bots":0,"server_type":"Dedicated","server_os":"Linux","password":true,"vac":true,"version":"7757534","steam_id":85568392924469993,"keywords":["cp","nocrits","nodmgspread","uncletopia"],"game_id":440,"stv_port":27016,"stv_name":"Uncletopia | New York City | 1 | All Maps | STV","players":[{"user_id":794,"name":"The Ghost of Jay Leno","steam_id":76561198058938897,"connected_time":109000000000,"state":"active","ping":60},{"user_id":796,"name":"BiggSlorp","steam_id":76561199130776156,"connected_time":55000000000,"state":"active","ping":48},{"user_id":795,"name":"Dask","steam_id":76561198043385839,"connected_time":96000000000,"state":"active","ping":65},{"user_id":783,"name":"MagicalKimmie","steam_id":76561198041364775,"connected_time":798000000000,"state":"active","ping":117},{"user_id":717,"name":"XXSOMEDONKUSXX","steam_id":76561198377012733,"connected_time":7654000000000,"state":"active","ping":53},{"user_id":791,"name":"Uzi bin Laden","steam_id":76561198218811453,"connected_time":404000000000,"state":"active","ping":54},{"user_id":713,"name":"picnic blanket","steam_id":76561198308186037,"connected_time":7812000000000,"state":"active","ping":63},{"user_id":714,"name":"RelativeTitan1 λC","steam_id":76561198073717608,"connected_time":7808000000000,"state":"active","ping":79}]},{"server_id":14,"name":"Uncletopia | New York City | 2 | All Maps","name_short":"nyc-2","host":"nyc-1.us.uncletopia.com","port":27025,"enabled":true,"region":"us-east","cc":"us","latitude":40.73061,"longitude":-73.93524,"reserved":0,"last_update":"0001-01-01T00:00:00Z","name_a2s":"Uncletopia | New York City | 2 | All Maps","protocol":17,"map":"cp_mountainlab","folder":"tf","game":"Team Fortress","app_id":440,"player_count":10,"max_players":24,"Bots":0,"server_type":"Dedicated","server_os":"Linux","password":true,"vac":true,"version":"7757534","steam_id":85568392924469994,"keywords":["cp","nocrits","nodmgspread","uncletopia"],"game_id":440,"stv_port":27026,"stv_name":"Uncletopia | New York City | 2 | All Maps | STV","players":[{"user_id":761,"name":"Donnie","steam_id":76561198880525140,"connected_time":40000000000,"state":"active","ping":66},{"user_id":756,"name":"Alcapwned","steam_id":76561198232958968,"connected_time":510000000000,"state":"active","ping":52},{"user_id":722,"name":"worlds biggest train fan","steam_id":76561198008332777,"connected_time":3596000000000,"state":"active","ping":53},{"user_id":760,"name":"JoJo","steam_id":76561198394080554,"connected_time":212000000000,"state":"active","ping":121},{"user_id":683,"name":"Aurro (achievement hunting)","steam_id":76561198315692300,"connected_time":7173000000000,"state":"active","ping":45},{"user_id":755,"name":"CupOJo","steam_id":76561198067153390,"connected_time":800000000000,"state":"active","ping":60},{"user_id":716,"name":"Rage Pyro","steam_id":76561197998285726,"connected_time":4435000000000,"state":"active","ping":95},{"user_id":757,"name":"kbsfnk","steam_id":76561198036884600,"connected_time":497000000000,"state":"active","ping":58},{"user_id":718,"name":"Ludcmorais","steam_id":76561198359217809,"connected_time":4397000000000,"state":"active","ping":175},{"user_id":739,"name":"domantas sabonesaw","steam_id":76561198089691679,"connected_time":2079000000000,"state":"active","ping":52}]},{"server_id":15,"name":"Uncletopia | New York City | 3 | Stopwatch Beta","name_short":"nyc-3","host":"nyc-1.us.uncletopia.com","port":27035,"enabled":true,"region":"us-east","cc":"us","latitude":40.73061,"longitude":-73.93524,"reserved":0,"last_update":"0001-01-01T00:00:00Z","name_a2s":"Uncletopia | New York City | 3 | Stopwatch Beta","protocol":17,"map":"cp_sunshine","folder":"tf","game":"Team Fortress","app_id":440,"player_count":0,"max_players":24,"Bots":0,"server_type":"Dedicated","server_os":"Linux","password":true,"vac":true,"version":"7757534","steam_id":85568392924742820,"keywords":["cp","nocrits","nodmgspread","uncletopia"],"game_id":440,"stv_port":27036,"stv_name":"Uncletopia | New York City | 3 | Stopwatch Beta | STV","players":null},{"server_id":16,"name":"Uncletopia | New York City | 4 | Community","name_short":"nyc-4","host":"nyc-1.us.uncletopia.com","port":27045,"enabled":true,"region":"us-east","cc":"us","latitude":40.73061,"longitude":-73.93524,"reserved":0,"last_update":"0001-01-01T00:00:00Z","name_a2s":"Uncletopia | New York City | 4 | Community","protocol":17,"map":"workshop/pl_cactuscanyon_redux_final2.ugc2579644293","folder":"tf","game":"Team Fortress","app_id":440,"player_count":0,"max_players":24,"Bots":0,"server_type":"Dedicated","server_os":"Linux","password":true,"vac":true,"version":"7757534","steam_id":85568392924742821,"keywords":["nocrits","nodmgspread","payload","uncletopia"],"game_id":440,"stv_port":27046,"stv_name":"Uncletopia | New York City | 4 | Community | STV","players":null},{"server_id":142,"name":"Uncletopia | São Paulo | 1 | All Maps","name_short":"sao-1","host":"sao-1.br.uncletopia.com","port":27015,"enabled":true,"region":"sa","cc":"br","latitude":-23.533773,"longitude":-46.62529,"reserved":0,"last_update":"0001-01-01T00:00:00Z","name_a2s":"Uncletopia | São Paulo | 1 | All Maps","protocol":17,"map":"pl_upward","folder":"tf","game":"Team Fortress","app_id":440,"player_count":0,"max_players":24,"Bots":0,"server_type":"Dedicated","server_os":"Linux","password":true,"vac":true,"version":"7757534","steam_id":85568392924469996,"keywords":["nocrits","nodmgspread","payload","uncletopia"],"game_id":440,"stv_port":27016,"stv_name":"Uncletopia | São Paulo | 1 | All Maps | STV","players":null},{"server_id":143,"name":"Uncletopia | São Paulo | 2 | All Maps","name_short":"sao-2","host":"sao-2.br.uncletopia.com","port":27015,"enabled":true,"region":"sa","cc":"br","latitude":-23.533773,"longitude":-46.62529,"reserved":0,"last_update":"0001-01-01T00:00:00Z","name_a2s":"Uncletopia | São Paulo | 2 | All Maps","protocol":17,"map":"pl_frontier_final","folder":"tf","game":"Team Fortress","app_id":440,"player_count":0,"max_players":24,"Bots":0,"server_type":"Dedicated","server_os":"Linux","password":true,"vac":true,"version":"7757534","steam_id":85568392924485349,"keywords":["nocrits","nodmgspread","payload","uncletopia"],"game_id":440,"stv_port":27016,"stv_name":"Uncletopia | São Paulo | 2 | All Maps | STV","players":null},{"server_id":7,"name":"Uncletopia | Seattle | 1 | All Maps","name_short":"sea-1","host":"sea-1.us.uncletopia.com","port":27015,"enabled":true,"region":"us-west","cc":"us","latitude":47.608013,"longitude":-122.33517,"reserved":0,"last_update":"0001-01-01T00:00:00Z","name_a2s":"Uncletopia | Seattle | 1 | All Maps","protocol":17,"map":"pl_upward","folder":"tf","game":"Team Fortress","app_id":440,"player_count":24,"max_players":24,"Bots":0,"server_type":"Dedicated","server_os":"Linux","password":true,"vac":true,"version":"7757534","steam_id":85568392924469997,"keywords":["nocrits","nodmgspread","payload","uncletopia"],"game_id":440,"stv_port":27016,"stv_name":"Uncletopia | Seattle | 1 | All Maps | STV","players":[{"user_id":627,"name":"TheCowledWiz","steam_id":76561198016735868,"connected_time":2425000000000,"state":"active","ping":53},{"user_id":555,"name":"General Fisticuffs","steam_id":76561198255721392,"connected_time":10086000000000,"state":"active","ping":114},{"user_id":646,"name":"OutgoingBlur","steam_id":76561199087497070,"connected_time":180000000000,"state":"active","ping":46},{"user_id":620,"name":"mumbles","steam_id":76561197994528974,"connected_time":2802000000000,"state":"active","ping":85},{"user_id":624,"name":"kab789","steam_id":76561198069842202,"connected_time":2495000000000,"state":"active","ping":104},{"user_id":647,"name":"makcmik2","steam_id":76561198242544518,"connected_time":170000000000,"state":"active","ping":65},{"user_id":595,"name":"Sailor","steam_id":76561199081983517,"connected_time":5742000000000,"state":"active","ping":99},{"user_id":613,"name":"Truffles","steam_id":76561198095868800,"connected_time":3379000000000,"state":"active","ping":116},{"user_id":569,"name":"rat gets the cheese","steam_id":76561198031234032,"connected_time":9563000000000,"state":"active","ping":100},{"user_id":607,"name":"V∆lume The 1rd","steam_id":76561198133260990,"connected_time":4141000000000,"state":"active","ping":60},{"user_id":645,"name":"Arsonist Goose","steam_id":76561198147441830,"connected_time":201000000000,"state":"active","ping":67},{"user_id":648,"name":"Not Slavoj Žižek","steam_id":76561198004619616,"connected_time":141000000000,"state":"active","ping":90},{"user_id":649,"name":"Chronic Bad At Game Disease","steam_id":76561198179387139,"connected_time":123000000000,"state":"active","ping":59},{"user_id":650,"name":"Hat in Time","steam_id":76561198045964573,"connected_time":108000000000,"state":"active","ping":76},{"user_id":630,"name":"Ohz Noez!!!!","steam_id":76561197980084686,"connected_time":1860000000000,"state":"active","ping":58},{"user_id":593,"name":"toes","steam_id":76561198221151676,"connected_time":6344000000000,"state":"active","ping":59},{"user_id":632,"name":"Peppy","steam_id":76561198866629645,"connected_time":1576000000000,"state":"active","ping":94},{"user_id":586,"name":"Lord Hater","steam_id":76561199158148782,"connected_time":6721000000000,"state":"active","ping":54},{"user_id":651,"name":"alzheimer","steam_id":76561198043908106,"connected_time":87000000000,"state":"active","ping":66},{"user_id":639,"name":"Kanga Roo","steam_id":76561198073358867,"connected_time":943000000000,"state":"active","ping":48},{"user_id":652,"name":"Neophyte","steam_id":76561198027183394,"connected_time":85000000000,"state":"active","ping":96},{"user_id":631,"name":"The King of Piss World","steam_id":76561198082806956,"connected_time":1835000000000,"state":"active","ping":136},{"user_id":653,"name":"Royal_Wanderer","steam_id":76561199214092306,"connected_time":46000000000,"state":"active","ping":68},{"user_id":601,"name":"mega","steam_id":76561198089520959,"connected_time":5318000000000,"state":"active","ping":127}]},{"server_id":119,"name":"Uncletopia | Seattle | 2 | All Maps","name_short":"sea-2","host":"sea-1.us.uncletopia.com","port":27025,"enabled":true,"region":"us-west","cc":"us","latitude":47.608013,"longitude":-122.33517,"reserved":0,"last_update":"0001-01-01T00:00:00Z","name_a2s":"Uncletopia | Seattle | 2 | All Maps","protocol":17,"map":"pl_barnblitz","folder":"tf","game":"Team Fortress","app_id":440,"player_count":18,"max_players":24,"Bots":0,"server_type":"Dedicated","server_os":"Linux","password":true,"vac":true,"version":"7757534","steam_id":85568392924469998,"keywords":["nocrits","nodmgspread","payload","uncletopia"],"game_id":440,"stv_port":27026,"stv_name":"Uncletopia | Seattle | 2 | All Maps | STV","players":[{"user_id":526,"name":"Bonkers","steam_id":76561198161835788,"connected_time":3105000000000,"state":"active","ping":100},{"user_id":556,"name":"The Super Mario Bros. Movie","steam_id":76561198871692156,"connected_time":805000000000,"state":"active","ping":47},{"user_id":535,"name":"mmmBoyo","steam_id":76561198821360261,"connected_time":2657000000000,"state":"active","ping":46},{"user_id":554,"name":"Ping","steam_id":76561199206514106,"connected_time":1014000000000,"state":"active","ping":105},{"user_id":519,"name":"Flyingcat9000","steam_id":76561198179561797,"connected_time":3334000000000,"state":"active","ping":48},{"user_id":553,"name":"XxSquidwardxX","steam_id":76561198294455367,"connected_time":1209000000000,"state":"active","ping":89},{"user_id":562,"name":"The Gnome","steam_id":76561199442139670,"connected_time":63000000000,"state":"active","ping":147},{"user_id":546,"name":"ttv/whiteboyst0ner1997","steam_id":76561198064558316,"connected_time":1714000000000,"state":"active","ping":75},{"user_id":557,"name":"♥haunti","steam_id":76561199235580556,"connected_time":723000000000,"state":"active","ping":48},{"user_id":552,"name":"I heart random crockpots","steam_id":76561198283213819,"connected_time":1540000000000,"state":"active","ping":92},{"user_id":541,"name":"Morse","steam_id":76561198039944542,"connected_time":1836000000000,"state":"active","ping":60},{"user_id":440,"name":"vertical orientation correction","steam_id":76561198007464245,"connected_time":7937000000000,"state":"active","ping":122},{"user_id":561,"name":"im the beef","steam_id":76561198069506128,"connected_time":147000000000,"state":"active","ping":98},{"user_id":534,"name":"toenail_chewer_1982","steam_id":76561198078238722,"connected_time":2728000000000,"state":"active","ping":38},{"user_id":539,"name":"Day Man","steam_id":76561198067154807,"connected_time":2101000000000,"state":"active","ping":45},{"user_id":545,"name":"Josharpe","steam_id":76561198250914734,"connected_time":1736000000000,"state":"active","ping":135},{"user_id":551,"name":"MEDICINAL CRACK ENJOYER","steam_id":76561198113427343,"connected_time":1645000000000,"state":"active","ping":87},{"user_id":550,"name":"Lilith","steam_id":76561198120362654,"connected_time":1665000000000,"state":"active","ping":45}]},{"server_id":406,"name":"Uncletopia | Seattle | 3 | Stopwatch Beta","name_short":"sea-3","host":"sea-1.us.uncletopia.com","port":27035,"enabled":true,"region":"us-west","cc":"us","latitude":47.608013,"longitude":-122.33517,"reserved":0,"last_update":"0001-01-01T00:00:00Z","name_a2s":"Uncletopia | Seattle | 3 | Stopwatch Beta","protocol":17,"map":"workshop/pl_vigil_rc9.ugc1266210012","folder":"tf","game":"Team Fortress","app_id":440,"player_count":0,"max_players":24,"Bots":0,"server_type":"Dedicated","server_os":"Linux","password":true,"vac":true,"version":"7757534","steam_id":85568392924515217,"keywords":["nocrits","nodmgspread","payload","uncletopia"],"game_id":440,"stv_port":27036,"stv_name":"Uncletopia | Seattle | 3 | Stopwatch Beta | STV","players":null},{"server_id":17,"name":"Uncletopia | San Francisco | 1 | All Maps","name_short":"sfo-1","host":"sfo-1.us.uncletopia.com","port":27015,"enabled":true,"region":"us-west","cc":"us","latitude":37.77397,"longitude":-122.4313,"reserved":0,"last_update":"0001-01-01T00:00:00Z","name_a2s":"Uncletopia | San Francisco | 1 | All Maps","protocol":17,"map":"koth_harvest_final","folder":"tf","game":"Team Fortress","app_id":440,"player_count":23,"max_players":24,"Bots":0,"server_type":"Dedicated","server_os":"Linux","password":true,"vac":true,"version":"7757534","steam_id":85568392924469999,"keywords":["cp","nocrits","nodmgspread","uncletopia"],"game_id":440,"stv_port":27016,"stv_name":"Uncletopia | San Francisco | 1 | All Maps | STV","players":[{"user_id":444,"name":"EpsilonEagle","steam_id":76561197999126769,"connected_time":1746000000000,"state":"active","ping":153},{"user_id":452,"name":"Gonotic gnelf","steam_id":76561199135847219,"connected_time":1515000000000,"state":"active","ping":58},{"user_id":422,"name":"FezBoy_","steam_id":76561198325627961,"connected_time":2800000000000,"state":"active","ping":60},{"user_id":463,"name":"elephant thumb","steam_id":76561198118859752,"connected_time":399000000000,"state":"active","ping":51},{"user_id":451,"name":"wizo","steam_id":76561198167702261,"connected_time":1518000000000,"state":"active","ping":57},{"user_id":458,"name":"Misfit","steam_id":76561198044561021,"connected_time":1393000000000,"state":"active","ping":96},{"user_id":430,"name":"darktheif54","steam_id":76561198043650119,"connected_time":2614000000000,"state":"active","ping":67},{"user_id":449,"name":"citron, fruit of genesis","steam_id":76561198093353303,"connected_time":1535000000000,"state":"active","ping":42},{"user_id":464,"name":"mela ♡","steam_id":76561198301598124,"connected_time":164000000000,"state":"active","ping":114},{"user_id":429,"name":"sora","steam_id":76561198094256973,"connected_time":2644000000000,"state":"active","ping":46},{"user_id":441,"name":"Xyk","steam_id":76561198023268899,"connected_time":1888000000000,"state":"active","ping":114},{"user_id":455,"name":"Goofball","steam_id":76561198074189084,"connected_time":1464000000000,"state":"active","ping":101},{"user_id":398,"name":"El Gato Paranoico","steam_id":76561198116567116,"connected_time":4601000000000,"state":"active","ping":103},{"user_id":465,"name":"I have a boner","steam_id":76561198128156322,"connected_time":140000000000,"state":"active","ping":109},{"user_id":461,"name":"pel","steam_id":76561198021224745,"connected_time":711000000000,"state":"active","ping":99},{"user_id":459,"name":"ferby","steam_id":76561198028229594,"connected_time":1050000000000,"state":"active","ping":48},{"user_id":437,"name":"Drakon","steam_id":76561198078210822,"connected_time":2246000000000,"state":"active","ping":73},{"user_id":410,"name":"Satori Komeiji","steam_id":76561198158211423,"connected_time":3684000000000,"state":"active","ping":51},{"user_id":445,"name":"[S]Mr. X [No Monitor]","steam_id":76561197963746035,"connected_time":1745000000000,"state":"active","ping":93},{"user_id":457,"name":"2inch gang","steam_id":76561198162688146,"connected_time":1425000000000,"state":"active","ping":56},{"user_id":462,"name":"Medic","steam_id":76561198152570304,"connected_time":599000000000,"state":"active","ping":59},{"user_id":418,"name":"Gm_Trash","steam_id":76561199445091548,"connected_time":3246000000000,"state":"active","ping":77},{"user_id":440,"name":"A Can of Arizona Green Tea","steam_id":76561198062481133,"connected_time":1945000000000,"state":"active","ping":88}]},{"server_id":18,"name":"Uncletopia | San Francisco | 2 | All Maps","name_short":"sfo-2","host":"sfo-1.us.uncletopia.com","port":27025,"enabled":true,"region":"us-west","cc":"us","latitude":37.77397,"longitude":-122.4313,"reserved":0,"last_update":"0001-01-01T00:00:00Z","name_a2s":"Uncletopia | San Francisco | 2 | All Maps","protocol":17,"map":"pl_borneo","folder":"tf","game":"Team Fortress","app_id":440,"player_count":24,"max_players":24,"Bots":0,"server_type":"Dedicated","server_os":"Linux","password":true,"vac":true,"version":"7757534","steam_id":85568392924470000,"keywords":["nocrits","nodmgspread","payload","uncletopia"],"game_id":440,"stv_port":27026,"stv_name":"Uncletopia | San Francisco | 2 | All Maps | STV","players":[{"user_id":313,"name":"Quesusdilla","steam_id":76561198125712564,"connected_time":889000000000,"state":"active","ping":97},{"user_id":312,"name":"Zizen","steam_id":76561199011832069,"connected_time":923000000000,"state":"active","ping":60},{"user_id":317,"name":"sophie","steam_id":76561198374224659,"connected_time":792000000000,"state":"active","ping":68},{"user_id":316,"name":"Thrackerzod","steam_id":76561198130870200,"connected_time":863000000000,"state":"active","ping":112},{"user_id":325,"name":"John Wick's puppy","steam_id":76561198064662875,"connected_time":120000000000,"state":"active","ping":48},{"user_id":328,"name":"LizardGames","steam_id":76561199147525483,"connected_time":61000000000,"state":"active","ping":53},{"user_id":302,"name":"great1photo","steam_id":76561198085481933,"connected_time":2351000000000,"state":"active","ping":129},{"user_id":323,"name":"Servants of Satan get the Brick","steam_id":76561198050196971,"connected_time":273000000000,"state":"active","ping":122},{"user_id":324,"name":"Andyroo","steam_id":76561198295431058,"connected_time":260000000000,"state":"active","ping":125},{"user_id":320,"name":"FI LO","steam_id":76561198976530881,"connected_time":656000000000,"state":"active","ping":45},{"user_id":255,"name":"Blucifer","steam_id":76561198138773981,"connected_time":4932000000000,"state":"active","ping":70},{"user_id":251,"name":"Sax","steam_id":76561198055425123,"connected_time":5814000000000,"state":"active","ping":74},{"user_id":253,"name":"Ediot","steam_id":76561199349494096,"connected_time":5637000000000,"state":"active","ping":133},{"user_id":257,"name":"b3afy","steam_id":76561198084208649,"connected_time":4883000000000,"state":"active","ping":60},{"user_id":305,"name":"Otterman Empire","steam_id":76561198047758442,"connected_time":2068000000000,"state":"active","ping":85},{"user_id":284,"name":"Denim","steam_id":76561198035786964,"connected_time":3874000000000,"state":"active","ping":96},{"user_id":327,"name":"KillerHatDude","steam_id":76561198088322912,"connected_time":78000000000,"state":"active","ping":89},{"user_id":294,"name":"Hawf","steam_id":76561197998364880,"connected_time":2882000000000,"state":"active","ping":139},{"user_id":319,"name":"AceSea","steam_id":76561198851176490,"connected_time":680000000000,"state":"active","ping":39},{"user_id":304,"name":"Mike Bean Burritos","steam_id":76561198173430607,"connected_time":2141000000000,"state":"active","ping":64},{"user_id":286,"name":"GUS","steam_id":76561198231626592,"connected_time":3867000000000,"state":"active","ping":70},{"user_id":322,"name":"Bananabandit","steam_id":76561198857159724,"connected_time":596000000000,"state":"active","ping":79},{"user_id":293,"name":"Fudgie Wudgie","steam_id":76561198032622237,"connected_time":3294000000000,"state":"active","ping":87},{"user_id":287,"name":"R E G I S","steam_id":76561198031539217,"connected_time":3850000000000,"state":"active","ping":88}]},{"server_id":19,"name":"Uncletopia | San Francisco | 3 | Stopwatch Beta","name_short":"sfo-3","host":"sfo-1.us.uncletopia.com","port":27035,"enabled":true,"region":"us-west","cc":"us","latitude":37.77397,"longitude":-122.4313,"reserved":0,"last_update":"0001-01-01T00:00:00Z","name_a2s":"Uncletopia | San Francisco | 3 | Stopwatch Beta","protocol":17,"map":"workshop/koth_clearcut_b15.ugc2107050255","folder":"tf","game":"Team Fortress","app_id":440,"player_count":0,"max_players":24,"Bots":0,"server_type":"Dedicated","server_os":"Linux","password":true,"vac":true,"version":"7757534","steam_id":85568392924742824,"keywords":["cp","nocrits","nodmgspread","uncletopia"],"game_id":440,"stv_port":27036,"stv_name":"Uncletopia | San Francisco | 3 | Stopwatch Beta | STV","players":null},{"server_id":20,"name":"Uncletopia | San Francisco | 4 | Community","name_short":"sfo-4","host":"sfo-1.us.uncletopia.com","port":27045,"enabled":true,"region":"us-west","cc":"us","latitude":37.77397,"longitude":-122.4313,"reserved":0,"last_update":"0001-01-01T00:00:00Z","name_a2s":"Uncletopia | San Francisco | 4 | Community","protocol":17,"map":"cp_altitude","folder":"tf","game":"Team Fortress","app_id":440,"player_count":0,"max_players":24,"Bots":0,"server_type":"Dedicated","server_os":"Linux","password":true,"vac":true,"version":"7757534","steam_id":85568392924742826,"keywords":["cp","nocrits","nodmgspread","uncletopia"],"game_id":440,"stv_port":27046,"stv_name":"Uncletopia | San Francisco | 4 | Community | STV","players":null},{"server_id":141,"name":"Uncletopia | Sydney | 1 | All Maps","name_short":"syd-1","host":"syd-1.au.uncletopia.com","port":27015,"enabled":true,"region":"au","cc":"au","latitude":-33.865143,"longitude":151.2099,"reserved":0,"last_update":"0001-01-01T00:00:00Z","name_a2s":"Uncletopia | Sydney | 1 | All Maps","protocol":17,"map":"cp_snakewater_final1","folder":"tf","game":"Team Fortress","app_id":440,"player_count":0,"max_players":24,"Bots":0,"server_type":"Dedicated","server_os":"Linux","password":true,"vac":true,"version":"7757534","steam_id":85568392924470001,"keywords":["cp","nocrits","nodmgspread","uncletopia"],"game_id":440,"stv_port":27016,"stv_name":"Uncletopia | Sydney | 1 | All Maps | STV","players":null},{"server_id":123,"name":"Uncletopia | Sydney | 2 | All Maps","name_short":"syd-2","host":"syd-1.au.uncletopia.com","port":27025,"enabled":true,"region":"au","cc":"au","latitude":-33.865143,"longitude":151.2099,"reserved":0,"last_update":"0001-01-01T00:00:00Z","name_a2s":"Uncletopia | Sydney | 2 | All Maps","protocol":17,"map":"pl_pier","folder":"tf","game":"Team Fortress","app_id":440,"player_count":24,"max_players":24,"Bots":0,"server_type":"Dedicated","server_os":"Linux","password":true,"vac":true,"version":"7757534","steam_id":85568392924470002,"keywords":["nocrits","nodmgspread","payload","uncletopia"],"game_id":440,"stv_port":27026,"stv_name":"Uncletopia | Sydney | 2 | All Maps | STV","players":[{"user_id":17,"name":"Jodelkönig Franzl Lang","steam_id":76561198007667830,"connected_time":4638000000000,"state":"active","ping":55},{"user_id":18,"name":"Shadow Puppeteer","steam_id":76561198151121997,"connected_time":4278000000000,"state":"active","ping":81},{"user_id":58,"name":"plink","steam_id":76561198048064049,"connected_time":1355000000000,"state":"active","ping":78},{"user_id":21,"name":"Dimond_bird","steam_id":76561199129051643,"connected_time":3623000000000,"state":"active","ping":51},{"user_id":40,"name":"BruceWillis235","steam_id":76561198884324029,"connected_time":2297000000000,"state":"active","ping":84},{"user_id":23,"name":"Enchanted Cat","steam_id":76561198866538028,"connected_time":3550000000000,"state":"active","ping":82},{"user_id":70,"name":"Krispy Kreme","steam_id":76561197997362731,"connected_time":930000000000,"state":"active","ping":44},{"user_id":51,"name":"goob","steam_id":76561199480479443,"connected_time":1776000000000,"state":"active","ping":91},{"user_id":55,"name":"you have been deemed, Gilbert","steam_id":76561198301282416,"connected_time":1469000000000,"state":"active","ping":52},{"user_id":31,"name":"WogBat","steam_id":76561198151221055,"connected_time":2866000000000,"state":"active","ping":56},{"user_id":32,"name":"monkeyman536","steam_id":76561197997717737,"connected_time":2773000000000,"state":"active","ping":175},{"user_id":60,"name":"KiwiJiwi","steam_id":76561198262081410,"connected_time":1334000000000,"state":"active","ping":79},{"user_id":43,"name":"MrSnoly","steam_id":76561199474418098,"connected_time":2222000000000,"state":"active","ping":68},{"user_id":44,"name":"soupy","steam_id":76561198073734936,"connected_time":2195000000000,"state":"active","ping":86},{"user_id":74,"name":"Tomboslinger","steam_id":76561199216201591,"connected_time":286000000000,"state":"active","ping":56},{"user_id":68,"name":"Wisey","steam_id":76561198120829189,"connected_time":984000000000,"state":"active","ping":54},{"user_id":76,"name":"Livid","steam_id":76561198060024585,"connected_time":153000000000,"state":"active","ping":39},{"user_id":62,"name":"bread","steam_id":76561199405764106,"connected_time":1322000000000,"state":"active","ping":44},{"user_id":57,"name":"Nugget","steam_id":76561198155517702,"connected_time":1430000000000,"state":"active","ping":80},{"user_id":63,"name":"the frail","steam_id":76561198025099660,"connected_time":1267000000000,"state":"active","ping":31},{"user_id":69,"name":"Up and Coming Crackhead","steam_id":76561199174449723,"connected_time":979000000000,"state":"active","ping":142},{"user_id":65,"name":"WEREWOLF HUNTER","steam_id":76561198809986166,"connected_time":1169000000000,"state":"active","ping":54},{"user_id":66,"name":"Zieria","steam_id":76561199261811388,"connected_time":1144000000000,"state":"active","ping":39},{"user_id":71,"name":"CFMEU Terry","steam_id":76561198031293430,"connected_time":425000000000,"state":"active","ping":84}]},{"server_id":395,"name":"Uncletopia | Sydney | 3 | All Maps","name_short":"syd-3","host":"syd-1.au.uncletopia.com","port":27035,"enabled":true,"region":"au","cc":"au","latitude":-33.865143,"longitude":151.2099,"reserved":0,"last_update":"0001-01-01T00:00:00Z","name_a2s":"Uncletopia | Sydney | 3 | All Maps","protocol":17,"map":"koth_cascade","folder":"tf","game":"Team Fortress","app_id":440,"player_count":0,"max_players":24,"Bots":0,"server_type":"Dedicated","server_os":"Linux","password":true,"vac":true,"version":"7757534","steam_id":85568392925194467,"keywords":["cp","nocrits","nodmgspread","uncletopia"],"game_id":440,"stv_port":27036,"stv_name":"Uncletopia | Sydney | 3 | All Maps | STV","players":null},{"server_id":396,"name":"Uncletopia | Sydney | 4 | All Maps","name_short":"syd-4","host":"syd-1.au.uncletopia.com","port":27045,"enabled":true,"region":"au","cc":"au","latitude":-33.865143,"longitude":151.2099,"reserved":0,"last_update":"0001-01-01T00:00:00Z","name_a2s":"Uncletopia | Sydney | 4 | All Maps","protocol":17,"map":"koth_highpass","folder":"tf","game":"Team Fortress","app_id":440,"player_count":0,"max_players":24,"Bots":0,"server_type":"Dedicated","server_os":"Linux","password":true,"vac":true,"version":"7757534","steam_id":85568392925397958,"keywords":["cp","nocrits","nodmgspread","uncletopia"],"game_id":440,"stv_port":27046,"stv_name":"Uncletopia | Sydney | 4 | All Maps | STV","players":null},{"server_id":58,"name":"Uncletopia | Sydney | 5 | Stopwatch Beta","name_short":"syd-5","host":"syd-1.au.uncletopia.com","port":27055,"enabled":true,"region":"au","cc":"au","latitude":-33.865143,"longitude":151.2099,"reserved":0,"last_update":"0001-01-01T00:00:00Z","name_a2s":"Uncletopia | Sydney | 5 | Stopwatch Beta","protocol":17,"map":"koth_cascade","folder":"tf","game":"Team Fortress","app_id":440,"player_count":0,"max_players":24,"Bots":0,"server_type":"Dedicated","server_os":"Linux","password":true,"vac":true,"version":"7757534","steam_id":85568392925397959,"keywords":["cp","nocrits","nodmgspread","uncletopia"],"game_id":440,"stv_port":27056,"stv_name":"Uncletopia | Sydney | 5 | Stopwatch Beta | STV","players":null},{"server_id":59,"name":"Uncletopia | Sydney | 6 | Community","name_short":"syd-6","host":"syd-1.au.uncletopia.com","port":27065,"enabled":true,"region":"au","cc":"au","latitude":-33.865143,"longitude":151.2099,"reserved":0,"last_update":"0001-01-01T00:00:00Z","name_a2s":"Uncletopia | Sydney | 6 | Community","protocol":17,"map":"workshop/pl_eruption_b9a.ugc2807898013","folder":"tf","game":"Team Fortress","app_id":440,"player_count":0,"max_players":24,"Bots":0,"server_type":"Dedicated","server_os":"Linux","password":true,"vac":true,"version":"7757534","steam_id":85568392925397960,"keywords":["nocrits","nodmgspread","payload","uncletopia"],"game_id":440,"stv_port":27066,"stv_name":"Uncletopia | Sydney | 6 | Community | STV","players":null},{"server_id":49,"name":"Uncletopia | Warsaw | 1 | All Maps","name_short":"waw-1","host":"waw-1.pl.uncletopia.com","port":27015,"enabled":true,"region":"eu","cc":"pl","latitude":52.2297,"longitude":21.017532,"reserved":0,"last_update":"0001-01-01T00:00:00Z","name_a2s":"","protocol":0,"map":"","folder":"","game":"","app_id":0,"player_count":0,"max_players":0,"Bots":0,"server_type":"","server_os":"","password":false,"vac":false,"version":"","steam_id":0,"keywords":null,"game_id":0,"stv_port":0,"stv_name":"","players":null},{"server_id":50,"name":"Uncletopia | Warsaw | 2 | All Maps","name_short":"waw-2","host":"waw-1.pl.uncletopia.com","port":27025,"enabled":true,"region":"eu","cc":"pl","latitude":52.2297,"longitude":21.017532,"reserved":0,"last_update":"0001-01-01T00:00:00Z","name_a2s":"Uncletopia | Warsaw | 2 | All Maps","protocol":17,"map":"koth_viaduct","folder":"tf","game":"Team Fortress","app_id":440,"player_count":0,"max_players":24,"Bots":0,"server_type":"Dedicated","server_os":"Linux","password":true,"vac":true,"version":"7757534","steam_id":85568392925397851,"keywords":["cp","nocrits","nodmgspread","uncletopia"],"game_id":440,"stv_port":27026,"stv_name":"Uncletopia | Warsaw | 2 | All Maps | STV","players":null},{"server_id":51,"name":"Uncletopia | Warsaw | 3 | All Maps","name_short":"waw-3","host":"waw-1.pl.uncletopia.com","port":27035,"enabled":true,"region":"eu","cc":"pl","latitude":52.2297,"longitude":21.017532,"reserved":0,"last_update":"0001-01-01T00:00:00Z","name_a2s":"Uncletopia | Warsaw | 3 | All Maps","protocol":17,"map":"pl_badwater","folder":"tf","game":"Team Fortress","app_id":440,"player_count":0,"max_players":24,"Bots":0,"server_type":"Dedicated","server_os":"Linux","password":true,"vac":true,"version":"7757534","steam_id":85568392925397852,"keywords":["nocrits","nodmgspread","payload","uncletopia"],"game_id":440,"stv_port":27036,"stv_name":"Uncletopia | Warsaw | 3 | All Maps | STV","players":null},{"server_id":52,"name":"Uncletopia | Warsaw | 4 | All Maps","name_short":"waw-4","host":"waw-1.pl.uncletopia.com","port":27045,"enabled":true,"region":"eu","cc":"pl","latitude":52.2297,"longitude":21.017532,"reserved":0,"last_update":"0001-01-01T00:00:00Z","name_a2s":"Uncletopia | Warsaw | 4 | All Maps","protocol":17,"map":"koth_lakeside_final","folder":"tf","game":"Team Fortress","app_id":440,"player_count":0,"max_players":24,"Bots":0,"server_type":"Dedicated","server_os":"Linux","password":true,"vac":true,"version":"7757534","steam_id":85568392925397853,"keywords":["cp","nocrits","nodmgspread","uncletopia"],"game_id":440,"stv_port":27046,"stv_name":"Uncletopia | Warsaw | 4 | All Maps | STV","players":null},{"server_id":53,"name":"Uncletopia | Warsaw | 5 | Stopwatch Beta","name_short":"waw-5","host":"waw-1.pl.uncletopia.com","port":27055,"enabled":true,"region":"eu","cc":"pl","latitude":52.2297,"longitude":21.017532,"reserved":0,"last_update":"0001-01-01T00:00:00Z","name_a2s":"Uncletopia | Warsaw | 5 | Stopwatch Beta","protocol":17,"map":"pl_borneo","folder":"tf","game":"Team Fortress","app_id":440,"player_count":0,"max_players":24,"Bots":0,"server_type":"Dedicated","server_os":"Linux","password":true,"vac":true,"version":"7757534","steam_id":85568392925397854,"keywords":["nocrits","nodmgspread","payload","uncletopia"],"game_id":440,"stv_port":27056,"stv_name":"Uncletopia | Warsaw | 5 | Stopwatch Beta | STV","players":null},{"server_id":54,"name":"Uncletopia | Warsaw | 6 | Community","name_short":"waw-6","host":"waw-1.pl.uncletopia.com","port":27065,"enabled":true,"region":"eu","cc":"pl","latitude":52.2297,"longitude":21.017532,"reserved":0,"last_update":"0001-01-01T00:00:00Z","name_a2s":"Uncletopia | Warsaw | 6 | Community","protocol":17,"map":"koth_lakeside_final","folder":"tf","game":"Team Fortress","app_id":440,"player_count":0,"max_players":24,"Bots":0,"server_type":"Dedicated","server_os":"Linux","password":true,"vac":true,"version":"7757534","steam_id":85568392925397856,"keywords":["cp","nocrits","nodmgspread","uncletopia"],"game_id":440,"stv_port":27066,"stv_name":"Uncletopia | Warsaw | 6 | Community | STV","players":null}]}