{"status":true,"message":"","result":[{"server_id":9,"name":"Uncletopia | Atlanta | 1 | All Maps","name_short":"atl-1","host":"atl-1.us.uncletopia.com","port":27015,"enabled":true,"region":"us-east","cc":"us","latitude":33.753746,"longitude":-84.38633,"reserved":0,"last_update":"0001-01-01T00:00:00Z","name_a2s":"Uncletopia | Atlanta | 1 | All Maps","protocol":17,"map":"pl_pier","folder":"tf","game":"Team Fortress","app_id":440,"player_count":13,"max_players":24,"Bots":0,"server_type":"Dedicated","server_os":"Linux","password":true,"vac":true,"version":"7742253","steam_id":85568392924469982,"keywords":["nocrits","nodmgspread","payload","uncletopia"],"game_id":440,"stv_port":27016,"stv_name":"Uncletopia | Atlanta | 1 | All Maps | STV","players":[{"user_id":680,"name":"pseudo-sentient subhuman","steam_id":76561198328210524,"connected_time":8615000000000,"state":"active","ping":99},{"user_id":745,"name":"Scarfy_da_Kobold","steam_id":76561198377974384,"connected_time":11000000000,"state":"spawning","ping":239},{"user_id":743,"name":"victordead121","steam_id":76561199180843121,"connected_time":211000000000,"state":"active","ping":102},{"user_id":741,"name":"Wambo","steam_id":76561198112144392,"connected_time":437000000000,"state":"active","ping":144},{"user_id":742,"name":"ast_ra","steam_id":76561198041032459,"connected_time":245000000000,"state":"active","ping":45},{"user_id":697,"name":"Tuna","steam_id":76561198129907971,"connected_time":5651000000000,"state":"active","ping":111},{"user_id":740,"name":"Fletcher","steam_id":76561198317846538,"connected_time":515000000000,"state":"active","ping":60},{"user_id":720,"name":"Xbox_Pro_2016","steam_id":76561198176126519,"connected_time":2642000000000,"state":"active","ping":65},{"user_id":734,"name":"SumTingWong","steam_id":76561198119286222,"connected_time":1217000000000,"state":"active","ping":65},{"user_id":738,"name":"malkshake, flattener","steam_id":76561198031977478,"connected_time":858000000000,"state":"active","ping":74},{"user_id":724,"name":"NovaSc6ut","steam_id":76561198277163301,"connected_time":2028000000000,"state":"active","ping":78},{"user_id":739,"name":"im using tilt controls!","steam_id":76561198295690725,"connected_time":560000000000,"state":"active","ping":52},{"user_id":725,"name":"exploitativity","steam_id":76561198041990177,"connected_time":1975000000000,"state":"active","ping":103}]},{"server_id":400,"name":"Uncletopia | Atlanta | 3 | Stopwatch Beta","name_short":"atl-3","host":"atl-1.us.uncletopia.com","port":27035,"enabled":true,"region":"us-east","cc":"us","latitude":33.753746,"longitude":-84.38633,"reserved":0,"last_update":"0001-01-01T00:00:00Z","name_a2s":"Uncletopia | Atlanta | 3 | Stopwatch Beta","protocol":17,"map":"pl_upward","folder":"tf","game":"Team Fortress","app_id":440,"player_count":0,"max_players":24,"Bots":0,"server_type":"Dedicated","server_os":"Linux","password":true,"vac":true,"version":"7742253","steam_id":85568392924515187,"keywords":["nocrits","nodmgspread","payload","uncletopia"],"game_id":440,"stv_port":27036,"stv_name":"Uncletopia | Atlanta | 3 | Stopwatch Beta | STV","players":null},{"server_id":401,"name":"Uncletopia | Atlanta | 4 | No Payload","name_short":"atl-4","host":"atl-1.us.uncletopia.com","port":27045,"enabled":true,"region":"us-east","cc":"us","latitude":33.753746,"longitude":-84.38633,"reserved":0,"last_update":"0001-01-01T00:00:00Z","name_a2s":"Uncletopia | Atlanta | 4 | No Payload","protocol":17,"map":"pl_pier","folder":"tf","game":"Team Fortress","app_id":440,"player_count":0,"max_players":24,"Bots":0,"server_type":"Dedicated","server_os":"Linux","password":true,"vac":true,"version":"7723704","steam_id":85568392924515188,"keywords":["nocrits","nodmgspread","payload","uncletopia"],"game_id":440,"stv_port":27046,"stv_name":"Uncletopia | Atlanta | 4 | No Payload | STV","players":null},{"server_id":2,"name":"Uncletopia | Chicago | 1 | All Maps","name_short":"chi-1","host":"chi-1.us.uncletopia.com","port":27015,"enabled":true,"region":"us-central","cc":"us","latitude":41.881832,"longitude":-87.62318,"reserved":0,"last_update":"0001-01-01T00:00:00Z","name_a2s":"Uncletopia | Chicago | 1 | All Maps","protocol":17,"map":"pl_snowycoast","folder":"tf","game":"Team Fortress","app_id":440,"player_count":24,"max_players":24,"Bots":0,"server_type":"Dedicated","server_os":"Linux","password":true,"vac":true,"version":"7742253","steam_id":85568392924469984,"keywords":["nocrits","nodmgspread","payload","uncletopia"],"game_id":440,"stv_port":27016,"stv_name":"Uncletopia | Chicago | 1 | All Maps | STV","players":[{"user_id":674,"name":"yomommasabitch","steam_id":76561198323217150,"connected_time":1271000000000,"state":"active","ping":60},{"user_id":676,"name":"MistakesWereMade","steam_id":76561199059220481,"connected_time":1097000000000,"state":"active","ping":104},{"user_id":677,"name":"Gremlin Bird","steam_id":76561198039624549,"connected_time":1076000000000,"state":"active","ping":78},{"user_id":678,"name":"Kritzburgh","steam_id":76561198149466938,"connected_time":1062000000000,"state":"active","ping":62},{"user_id":679,"name":"Shun Rosen","steam_id":76561198012823909,"connected_time":1055000000000,"state":"active","ping":66},{"user_id":669,"name":"trash beast","steam_id":76561198015792736,"connected_time":1679000000000,"state":"active","ping":72},{"user_id":583,"name":"Clemont007","steam_id":76561198030935625,"connected_time":10079000000000,"state":"active","ping":143},{"user_id":641,"name":"Psych03","steam_id":76561198061753667,"connected_time":4087000000000,"state":"active","ping":130},{"user_id":654,"name":"❤Dumpster Cat❤","steam_id":76561199200969139,"connected_time":2870000000000,"state":"active","ping":113},{"user_id":675,"name":"Ralsei","steam_id":76561198023352750,"connected_time":1124000000000,"state":"active","ping":88},{"user_id":667,"name":"king of bogers","steam_id":76561198045731295,"connected_time":1990000000000,"state":"active","ping":67},{"user_id":688,"name":"¡ayudame!","steam_id":76561198071421094,"connected_time":111000000000,"state":"active","ping":105},{"user_id":671,"name":"Punished Shitster","steam_id":76561198150452857,"connected_time":1554000000000,"state":"active","ping":71},{"user_id":665,"name":"GuyGoom","steam_id":76561198254522178,"connected_time":2080000000000,"state":"active","ping":58},{"user_id":685,"name":"SlimGrady","steam_id":76561198451231329,"connected_time":574000000000,"state":"active","ping":62},{"user_id":670,"name":"That70sDog","steam_id":76561198119396142,"connected_time":1672000000000,"state":"active","ping":70},{"user_id":620,"name":"Zorlovo","steam_id":76561198006443283,"connected_time":6400000000000,"state":"active","ping":89},{"user_id":668,"name":"winky","steam_id":76561199128617780,"connected_time":1700000000000,"state":"active","ping":116},{"user_id":662,"name":"elyk37","steam_id":76561198124135253,"connected_time":2291000000000,"state":"active","ping":105},{"user_id":687,"name":"red","steam_id":76561198325486281,"connected_time":248000000000,"state":"active","ping":100},{"user_id":630,"name":"BACKYARDIGANS MKULTRA","steam_id":76561199062024437,"connected_time":5481000000000,"state":"active","ping":57},{"user_id":681,"name":"Haula","steam_id":76561198076586592,"connected_time":1005000000000,"state":"active","ping":86},{"user_id":684,"name":"watermelon","steam_id":76561198041770884,"connected_time":582000000000,"state":"active","ping":101}]},{"server_id":106,"name":"Uncletopia | Chicago | 2 | All Maps","name_short":"chi-2","host":"chi-1.us.uncletopia.com","port":27025,"enabled":true,"region":"us-central","cc":"us","latitude":41.881832,"longitude":-87.62318,"reserved":0,"last_update":"0001-01-01T00:00:00Z","name_a2s":"Uncletopia | Chicago | 2 | All Maps","protocol":17,"map":"cp_altitude","folder":"tf","game":"Team Fortress","app_id":440,"player_count":0,"max_players":24,"Bots":0,"server_type":"Dedicated","server_os":"Linux","password":true,"vac":true,"version":"7742253","steam_id":85568392924469985,"keywords":["cp","nocrits","nodmgspread","uncletopia"],"game_id":440,"stv_port":27026,"stv_name":"Uncletopia | Chicago | 2 | All Maps | STV","players":null},{"server_id":402,"name":"Uncletopia | Chicago | 3 | All Maps","name_short":"chi-3","host":"chi-1.us.uncletopia.com","port":27035,"enabled":true,"region":"us-central","cc":"us","latitude":41.881832,"longitude":-87.62318,"reserved":0,"last_update":"0001-01-01T00:00:00Z","name_a2s":"Uncletopia | Chicago | 3 | All Maps","protocol":17,"map":"pl_snowycoast","folder":"tf","game":"Team Fortress","app_id":440,"player_count":9,"max_players":24,"Bots":0,"server_type":"Dedicated","server_os":"Linux","password":true,"vac":true,"version":"7742253","steam_id":85568392924515191,"keywords":["nocrits","nodmgspread","payload","uncletopia"],"game_id":440,"stv_port":27036,"stv_name":"Uncletopia | Chicago | 3 | All Maps | STV","players":[{"user_id":850,"name":"OddSlaush","steam_id":76561198043898488,"connected_time":4764000000000,"state":"active","ping":93},{"user_id":883,"name":"Juri Han","steam_id":76561198041678517,"connected_time":464000000000,"state":"active","ping":103},{"user_id":884,"name":"trasho","steam_id":76561198066867150,"connected_time":270000000000,"state":"active","ping":60},{"user_id":880,"name":"Drooling Simpleton","steam_id":76561198311587575,"connected_time":1051000000000,"state":"active","ping":151},{"user_id":874,"name":"fashion habits","steam_id":76561198030625151,"connected_time":1692000000000,"state":"active","ping":90},{"user_id":875,"name":"trans liberation now","steam_id":76561198006573806,"connected_time":1690000000000,"state":"active","ping":77},{"user_id":879,"name":"Crusty Toast","steam_id":76561199040353112,"connected_time":1268000000000,"state":"active","ping":65},{"user_id":841,"name":"rizzard of oz","steam_id":76561198040907214,"connected_time":6024000000000,"state":"active","ping":60},{"user_id":866,"name":"obliviated Gamer ||-iwnl-||","steam_id":76561198044006334,"connected_time":2193000000000,"state":"active","ping":90}]},{"server_id":403,"name":"Uncletopia | Chicago | 4 | All Maps","name_short":"chi-4","host":"chi-1.us.uncletopia.com","port":27045,"enabled":true,"region":"us-central","cc":"us","latitude":41.881832,"longitude":-87.62318,"reserved":0,"last_update":"0001-01-01T00:00:00Z","name_a2s":"Uncletopia | Chicago | 4 | All Maps","protocol":17,"map":"pl_snowycoast","folder":"tf","game":"Team Fortress","app_id":440,"player_count":0,"max_players":24,"Bots":0,"server_type":"Dedicated","server_os":"Linux","password":true,"vac":true,"version":"7742253","steam_id":85568392924515193,"keywords":["nocrits","nodmgspread","payload","uncletopia"],"game_id":440,"stv_port":27046,"stv_name":"Uncletopia | Chicago | 4 | All Maps | STV","players":null},{"server_id":36,"name":"Uncletopia | Chicago | 5 | All Maps","name_short":"chi-5","host":"chi-2.us.uncletopia.com","port":27015,"enabled":true,"region":"us-central","cc":"us","latitude":41.881832,"longitude":-87.62318,"reserved":0,"last_update":"0001-01-01T00:00:00Z","name_a2s":"Uncletopia | Chicago | 5 | All Maps","protocol":17,"map":"cp_dustbowl","folder":"tf","game":"Team Fortress","app_id":440,"player_count":0,"max_players":24,"Bots":0,"server_type":"Dedicated","server_os":"Linux","password":true,"vac":true,"version":"7742253","steam_id":85568392924866362,"keywords":["cp","nocrits","nodmgspread","uncletopia"],"game_id":440,"stv_port":27016,"stv_name":"Uncletopia | Chicago | 5 | All Maps | STV","players":null},{"server_id":37,"name":"Uncletopia | Chicago | 6 | All Maps","name_short":"chi-6","host":"chi-2.us.uncletopia.com","port":27025,"enabled":true,"region":"us-central","cc":"us","latitude":41.881832,"longitude":-87.62318,"reserved":0,"last_update":"0001-01-01T00:00:00Z","name_a2s":"Uncletopia | Chicago | 6 | All Maps","protocol":17,"map":"koth_lakeside_final","folder":"tf","game":"Team Fortress","app_id":440,"player_count":0,"max_players":24,"Bots":0,"server_type":"Dedicated","server_os":"Linux","password":true,"vac":true,"version":"7742253","steam_id":85568392924866363,"keywords":["cp","nocrits","nodmgspread","uncletopia"],"game_id":440,"stv_port":27026,"stv_name":"Uncletopia | Chicago | 6 | All Maps | STV","players":null},{"server_id":38,"name":"Uncletopia | Chicago | 7 | Stopwatch Beta","name_short":"chi-7","host":"chi-2.us.uncletopia.com","port":27035,"enabled":true,"region":"us-central","cc":"us","latitude":41.881832,"longitude":-87.62318,"reserved":0,"last_update":"0001-01-01T00:00:00Z","name_a2s":"Uncletopia | Chicago | 7 | Stopwatch Beta","protocol":17,"map":"pl_upward","folder":"tf","game":"Team Fortress","app_id":440,"player_count":0,"max_players":24,"Bots":0,"server_type":"Dedicated","server_os":"Linux","password":true,"vac":true,"version":"7742253","steam_id":85568392924866364,"keywords":["nocrits","nodmgspread","payload","uncletopia"],"game_id":440,"stv_port":27036,"stv_name":"Uncletopia | Chicago | 7 | Stopwatch Beta | STV","players":null},{"server_id":39,"name":"Uncletopia | Chicago | 8 | Community","name_short":"chi-8","host":"chi-2.us.uncletopia.com","port":27045,"enabled":true,"region":"us-central","cc":"us","latitude":41.881832,"longitude":-87.62318,"reserved":0,"last_update":"0001-01-01T00:00:00Z","name_a2s":"Uncletopia | Chicago | 8 | Community","protocol":17,"map":"koth_lakeside_final","folder":"tf","game":"Team Fortress","app_id":440,"player_count":0,"max_players":24,"Bots":0,"server_type":"Dedicated","server_os":"Linux","password":true,"vac":true,"version":"7742253","steam_id":85568392924866365,"keywords":["cp","nocrits","nodmgspread","uncletopia"],"game_id":440,"stv_port":27046,"stv_name":"Uncletopia | Chicago | 8 | Community | STV","players":null},{"server_id":8,"name":"Uncletopia | Dallas | 1 | All Maps","name_short":"dal-1","host":"dal-1.us.uncletopia.com","port":27015,"enabled":true,"region":"us-central","cc":"us","latitude":32.779167,"longitude":-96.80889,"reserved":0,"last_update":"0001-01-01T00:00:00Z","name_a2s":"Uncletopia | Dallas | 1 | All Maps","protocol":17,"map":"cp_altitude","folder":"tf","game":"Team Fortress","app_id":440,"player_count":0,"max_players":24,"Bots":0,"server_type":"Dedicated","server_os":"Linux","password":true,"vac":true,"version":"7742253","steam_id":85568392924469986,"keywords":["cp","nocrits","nodmgspread","uncletopia"],"game_id":440,"stv_port":27016,"stv_name":"Uncletopia | Dallas | 1 | All Maps | STV","players":null},{"server_id":108,"name":"Uncletopia | Dallas | 2 | All Maps","name_short":"dal-2","host":"dal-1.us.uncletopia.com","port":27025,"enabled":true,"region":"us-central","cc":"us","latitude":32.779167,"longitude":-96.80889,"reserved":0,"last_update":"0001-01-01T00:00:00Z","name_a2s":"Uncletopia | Dallas | 2 | All Maps","protocol":17,"map":"koth_viaduct","folder":"tf","game":"Team Fortress","app_id":440,"player_count":0,"max_players":24,"Bots":0,"server_type":"Dedicated","server_os":"Linux","password":true,"vac":true,"version":"7742253","steam_id":85568392924469988,"keywords":["cp","nocrits","nodmgspread","uncletopia"],"game_id":440,"stv_port":27026,"stv_name":"Uncletopia | Dallas | 2 | All Maps | STV","players":null},{"server_id":5,"name":"Uncletopia | Frankfurt | 1 | All Maps","name_short":"frk-1","host":"frk-1.de.uncletopia.com","port":27015,"enabled":true,"region":"eu","cc":"de","latitude":50.110924,"longitude":8.682127,"reserved":0,"last_update":"0001-01-01T00:00:00Z","name_a2s":"Uncletopia | Frankfurt | 1 | All Maps","protocol":17,"map":"cp_dustbowl","folder":"tf","game":"Team Fortress","app_id":440,"player_count":18,"max_players":24,"Bots":0,"server_type":"Dedicated","server_os":"Linux","password":true,"vac":true,"version":"7742253","steam_id":85568392924469989,"keywords":["cp","nocrits","nodmgspread","uncletopia"],"game_id":440,"stv_port":27016,"stv_name":"Uncletopia | Frankfurt | 1 | All Maps | STV","players":[{"user_id":88,"name":"fried","steam_id":76561198307522022,"connected_time":364000000000,"state":"spawning","ping":86},{"user_id":96,"name":"space_ducky","steam_id":76561199085599091,"connected_time":4000000000,"state":"spawning","ping":165},{"user_id":82,"name":"The Detective","steam_id":76561198362995682,"connected_time":1156000000000,"state":"spawning","ping":146},{"user_id":84,"name":"invis","steam_id":76561198120668070,"connected_time":1145000000000,"state":"spawning","ping":91},{"user_id":63,"name":"Hunk","steam_id":76561199067436781,"connected_time":2480000000000,"state":"spawning","ping":74},{"user_id":33,"name":"Grey","steam_id":76561198073954578,"connected_time":3991000000000,"state":"spawning","ping":139},{"user_id":93,"name":"Mr.Dies a lot","steam_id":76561199061602946,"connected_time":122000000000,"state":"spawning","ping":135},{"user_id":73,"name":"subcarpathian hood nightmare","steam_id":76561198126524735,"connected_time":1836000000000,"state":"spawning","ping":116},{"user_id":90,"name":"Carry Krypl","steam_id":76561198136938121,"connected_time":197000000000,"state":"spawning","ping":78},{"user_id":15,"name":"night.s","steam_id":76561198326287823,"connected_time":5442000000000,"state":"spawning","ping":291},{"user_id":61,"name":"disturbing polish father","steam_id":76561198126398022,"connected_time":2598000000000,"state":"spawning","ping":124},{"user_id":85,"name":"sanjosebig","steam_id":76561198998684199,"connected_time":929000000000,"state":"spawning","ping":183},{"user_id":77,"name":"Himmelsstürmer","steam_id":76561198012699793,"connected_time":1603000000000,"state":"spawning","ping":127},{"user_id":92,"name":"Pink Pummeler","steam_id":76561198239805702,"connected_time":175000000000,"state":"spawning","ping":66},{"user_id":60,"name":"olga","steam_id":76561198062107879,"connected_time":2619000000000,"state":"spawning","ping":123},{"user_id":78,"name":"Izzermann","steam_id":76561199100131945,"connected_time":1584000000000,"state":"spawning","ping":105},{"user_id":89,"name":"Radical priest","steam_id":76561198110470565,"connected_time":337000000000,"state":"spawning","ping":139},{"user_id":95,"name":"puddy","steam_id":76561198042047036,"connected_time":68000000000,"state":"spawning","ping":97}]},{"server_id":110,"name":"Uncletopia | Frankfurt | 2 | All Maps","name_short":"frk-2","host":"frk-1.de.uncletopia.com","port":27025,"enabled":true,"region":"eu","cc":"de","latitude":50.110924,"longitude":8.682127,"reserved":0,"last_update":"0001-01-01T00:00:00Z","name_a2s":"Uncletopia | Frankfurt | 2 | All Maps","protocol":17,"map":"koth_highpass","folder":"tf","game":"Team Fortress","app_id":440,"player_count":0,"max_players":24,"Bots":0,"server_type":"Dedicated","server_os":"Linux","password":true,"vac":true,"version":"7742253","steam_id":85568392924469990,"keywords":["cp","nocrits","nodmgspread","uncletopia"],"game_id":440,"stv_port":27026,"stv_name":"Uncletopia | Frankfurt | 2 | All Maps | STV","players":null},{"server_id":308,"name":"Uncletopia | Frankfurt | 3 | All Maps","name_short":"frk-3","host":"frk-1.de.uncletopia.com","port":27035,"enabled":true,"region":"eu","cc":"de","latitude":50.110924,"longitude":8.682127,"reserved":0,"last_update":"0001-01-01T00:00:00Z","name_a2s":"Uncletopia | Frankfurt | 3 | All Maps","protocol":17,"map":"pl_pier","folder":"tf","game":"Team Fortress","app_id":440,"player_count":0,"max_players":24,"Bots":0,"server_type":"Dedicated","server_os":"Linux","password":true,"vac":true,"version":"7742253","steam_id":85568392924504274,"keywords":["nocrits","nodmgspread","payload","uncletopia"],"game_id":440,"stv_port":27036,"stv_name":"Uncletopia | Frankfurt | 3 | All Maps | STV","players":null},{"server_id":309,"name":"Uncletopia | Frankfurt | 4 | All Maps","name_short":"frk-4","host":"frk-1.de.uncletopia.com","port":27045,"enabled":true,"region":"eu","cc":"de","latitude":50.110924,"longitude":8.682127,"reserved":0,"last_update":"0001-01-01T00:00:00Z","name_a2s":"Uncletopia | Frankfurt | 4 | All Maps","protocol":17,"map":"cp_sunshine","folder":"tf","game":"Team Fortress","app_id":440,"player_count":0,"max_players":24,"Bots":0,"server_type":"Dedicated","server_os":"Linux","password":true,"vac":true,"version":"7742253","steam_id":85568392924504275,"keywords":["cp","nocrits","nodmgspread","uncletopia"],"game_id":440,"stv_port":27046,"stv_name":"Uncletopia | Frankfurt | 4 | All Maps | STV","players":null},{"server_id":310,"name":"Uncletopia | Frankfurt | 5 | All Maps","name_short":"frk-5","host":"frk-1.de.uncletopia.com","port":27055,"enabled":true,"region":"eu","cc":"de","latitude":50.110924,"longitude":8.682127,"reserved":0,"last_update":"0001-01-01T00:00:00Z","name_a2s":"Uncletopia | Frankfurt | 5 | All Maps","protocol":17,"map":"cp_snakewater_final1","folder":"tf","game":"Team Fortress","app_id":440,"player_count":0,"max_players":24,"Bots":0,"server_type":"Dedicated","server_os":"Linux","password":true,"vac":true,"version":"7742253","steam_id":85568392924504277,"keywords":["cp","nocrits","nodmgspread","uncletopia"],"game_id":440,"stv_port":27056,"stv_name":"Uncletopia | Frankfurt | 5 | All Maps | STV","players":null},{"server_id":311,"name":"Uncletopia | Frankfurt | 6 | All Maps","name_short":"frk-6","host":"frk-1.de.uncletopia.com","port":27065,"enabled":true,"region":"eu","cc":"de","latitude":50.110924,"longitude":8.682127,"reserved":0,"last_update":"0001-01-01T00:00:00Z","name_a2s":"Uncletopia | Frankfurt | 6 | All Maps","protocol":17,"map":"koth_lakeside_final","folder":"tf","game":"Team Fortress","app_id":440,"player_count":0,"max_players":24,"Bots":0,"server_type":"Dedicated","server_os":"Linux","password":true,"vac":true,"version":"7742253","steam_id":85568392924504278,"keywords":["cp","nocrits","nodmgspread","uncletopia"],"game_id":440,"stv_port":27066,"stv_name":"Uncletopia | Frankfurt | 6 | All Maps | STV","players":null},{"server_id":23,"name":"Uncletopia | Frankfurt | 7 | Stopwatch Beta","name_short":"frk-7","host":"frk-1.de.uncletopia.com","port":27075,"enabled":true,"region":"eu","cc":"de","latitude":50.110924,"longitude":8.682127,"reserved":0,"last_update":"0001-01-01T00:00:00Z","name_a2s":"Uncletopia | Frankfurt | 7 | Stopwatch Beta","protocol":17,"map":"pl_badwater","folder":"tf","game":"Team Fortress","app_id":440,"player_count":0,"max_players":24,"Bots":0,"server_type":"Dedicated","server_os":"Linux","password":true,"vac":true,"version":"7742253","steam_id":85568392924742827,"keywords":["nocrits","nodmgspread","payload","uncletopia"],"game_id":440,"stv_port":27076,"stv_name":"Uncletopia | Frankfurt | 7 | Stopwatch Beta | STV","players":null},{"server_id":24,"name":"Uncletopia | Frankfurt | 8 | Community","name_short":"frk-8","host":"frk-1.de.uncletopia.com","port":27085,"enabled":true,"region":"eu","cc":"de","latitude":50.110924,"longitude":8.682127,"reserved":0,"last_update":"0001-01-01T00:00:00Z","name_a2s":"Uncletopia | Frankfurt | 8 | Community","protocol":17,"map":"koth_cascade","folder":"tf","game":"Team Fortress","app_id":440,"player_count":0,"max_players":24,"Bots":0,"server_type":"Dedicated","server_os":"Linux","password":true,"vac":true,"version":"7742253","steam_id":85568392924742828,"keywords":["cp","nocrits","nodmgspread","uncletopia"],"game_id":440,"stv_port":27086,"stv_name":"Uncletopia | Frankfurt | 8 | Community | STV","players":null},{"server_id":202,"name":"Uncletopia | Hong Kong | 1 | All Maps","name_short":"hgk-1","host":"hgk-1.hk.uncletopia.com","port":27015,"enabled":true,"region":"asia","cc":"hk","latitude":22.302711,"longitude":114.177216,"reserved":0,"last_update":"0001-01-01T00:00:00Z","name_a2s":"Uncletopia | Hong Kong | 1 | All Maps","protocol":17,"map":"pl_swiftwater_final1","folder":"tf","game":"Team Fortress","app_id":440,"player_count":24,"max_players":24,"Bots":0,"server_type":"Dedicated","server_os":"Linux","password":true,"vac":true,"version":"7742253","steam_id":85568392924494504,"keywords":["nocrits","nodmgspread","payload","uncletopia"],"game_id":440,"stv_port":27016,"stv_name":"Uncletopia | Hong Kong | 1 | All Maps | STV","players":[{"user_id":256,"name":"gonebeef","steam_id":76561199083203270,"connected_time":372000000000,"state":"active","ping":90},{"user_id":78,"name":"Urotsuki","steam_id":76561198074339034,"connected_time":19268000000000,"state":"active","ping":74},{"user_id":246,"name":"Faclo","steam_id":76561198217101861,"connected_time":1229000000000,"state":"active","ping":40},{"user_id":255,"name":"good goth girl","steam_id":76561198118989010,"connected_time":422000000000,"state":"active","ping":64},{"user_id":251,"name":"ocha お茶 전통차","steam_id":76561199224096189,"connected_time":697000000000,"state":"active","ping":88},{"user_id":235,"name":"water tastes good","steam_id":76561199375947670,"connected_time":2430000000000,"state":"active","ping":70},{"user_id":111,"name":"Bertengkar","steam_id":76561198213031155,"connected_time":15256000000000,"state":"active","ping":104},{"user_id":249,"name":"itrash","steam_id":76561199068229379,"connected_time":934000000000,"state":"active","ping":57},{"user_id":231,"name":"Wx","steam_id":76561199217780897,"connected_time":3164000000000,"state":"active","ping":115},{"user_id":232,"name":"\"SKS\"","steam_id":76561198187995386,"connected_time":2721000000000,"state":"active","ping":77},{"user_id":258,"name":"Puddin","steam_id":76561198140052918,"connected_time":272000000000,"state":"active","ping":91},{"user_id":247,"name":"anim malgo","steam_id":76561198117247378,"connected_time":966000000000,"state":"active","ping":76},{"user_id":233,"name":"Cheesey","steam_id":76561198975684137,"connected_time":2521000000000,"state":"active","ping":92},{"user_id":226,"name":"ducksaremean","steam_id":76561199093126935,"connected_time":3614000000000,"state":"active","ping":140},{"user_id":211,"name":"whippyman","steam_id":76561198137069257,"connected_time":6423000000000,"state":"active","ping":106},{"user_id":254,"name":"CheMian_ #savetf2","steam_id":76561199233124735,"connected_time":426000000000,"state":"active","ping":118},{"user_id":196,"name":"Violezine","steam_id":76561199000502615,"connected_time":7760000000000,"state":"active","ping":81},{"user_id":185,"name":"Zacy","steam_id":76561198114841670,"connected_time":8395000000000,"state":"active","ping":68},{"user_id":241,"name":"o2","steam_id":76561199262570913,"connected_time":2339000000000,"state":"active","ping":126},{"user_id":250,"name":"uptriste","steam_id":76561198158666692,"connected_time":865000000000,"state":"active","ping":47},{"user_id":253,"name":"Mehcro","steam_id":76561198856864170,"connected_time":450000000000,"state":"active","ping":136},{"user_id":87,"name":"lillalune","steam_id":76561198230213828,"connected_time":18900000000000,"state":"active","ping":72},{"user_id":219,"name":"Ween","steam_id":76561198405393811,"connected_time":5231000000000,"state":"active","ping":123},{"user_id":228,"name":"Owmyn","steam_id":76561199239651098,"connected_time":3300000000000,"state":"active","ping":96}]},{"server_id":1,"name":"Uncletopia | Los Angeles | 1 | All Maps","name_short":"lax-1","host":"lax-1.us.uncletopia.com","port":27015,"enabled":true,"region":"us-west","cc":"us","latitude":33.94279,"longitude":-118.41004,"reserved":0,"last_update":"0001-01-01T00:00:00Z","name_a2s":"Uncletopia | Los Angeles | 1 | All Maps","protocol":17,"map":"cp_process_final","folder":"tf","game":"Team Fortress","app_id":440,"player_count":0,"max_players":24,"Bots":0,"server_type":"Dedicated","server_os":"Linux","password":true,"vac":true,"version":"7742253","steam_id":85568392924469991,"keywords":["cp","nocrits","nodmgspread","uncletopia"],"game_id":440,"stv_port":27016,"stv_name":"Uncletopia | Los Angeles | 1 | All Maps | STV","players":null},{"server_id":112,"name":"Uncletopia | Los Angeles | 2 | All Maps","name_short":"lax-2","host":"lax-1.us.uncletopia.com","port":27025,"enabled":true,"region":"us-west","cc":"us","latitude":33.94279,"longitude":-118.41004,"reserved":0,"last_update":"0001-01-01T00:00:00Z","name_a2s":"Uncletopia | Los Angeles | 2 | All Maps","protocol":17,"map":"pl_borneo","folder":"tf","game":"Team Fortress","app_id":440,"player_count":7,"max_players":24,"Bots":0,"server_type":"Dedicated","server_os":"Linux","password":true,"vac":true,"version":"7742253","steam_id":85568392924469992,"keywords":["nocrits","nodmgspread","payload","uncletopia"],"game_id":440,"stv_port":27026,"stv_name":"Uncletopia | Los Angeles | 2 | All Maps | STV","players":[{"user_id":688,"name":"StephenJames","steam_id":76561199181659125,"connected_time":504000000000,"state":"active","ping":81},{"user_id":689,"name":"Ratgirl (Real)","steam_id":76561198432172559,"connected_time":455000000000,"state":"active","ping":74},{"user_id":593,"name":"riri ᗜᴗᗜ","steam_id":76561198055462404,"connected_time":10399000000000,"state":"active","ping":42},{"user_id":690,"name":"PointBlank","steam_id":76561198386862147,"connected_time":407000000000,"state":"active","ping":122},{"user_id":683,"name":"theProfessor [no PhD]","steam_id":76561198142243867,"connected_time":905000000000,"state":"active","ping":70},{"user_id":671,"name":"goldhed","steam_id":76561198051751133,"connected_time":2165000000000,"state":"active","ping":84},{"user_id":686,"name":"scruffer","steam_id":76561198044095460,"connected_time":809000000000,"state":"active","ping":77}]},{"server_id":324,"name":"Uncletopia | Los Angeles | 3 | All Maps","name_short":"lax-3","host":"lax-1.us.uncletopia.com","port":27035,"enabled":true,"region":"us-west","cc":"us","latitude":33.94279,"longitude":-118.41004,"reserved":0,"last_update":"0001-01-01T00:00:00Z","name_a2s":"Uncletopia | Los Angeles | 3 | All Maps","protocol":17,"map":"cp_mountainlab","folder":"tf","game":"Team Fortress","app_id":440,"player_count":0,"max_players":24,"Bots":0,"server_type":"Dedicated","server_os":"Linux","password":true,"vac":true,"version":"7742253","steam_id":85568392924510198,"keywords":["cp","nocrits","nodmgspread","uncletopia"],"game_id":440,"stv_port":27036,"stv_name":"Uncletopia | Los Angeles | 3 | All Maps | STV","players":null},{"server_id":25,"name":"Uncletopia | Los Angeles | 4 | Stopwatch Beta","name_short":"lax-4","host":"lax-1.us.uncletopia.com","port":27045,"enabled":true,"region":"us-west","cc":"us","latitude":33.94279,"longitude":-118.41004,"reserved":0,"last_update":"0001-01-01T00:00:00Z","name_a2s":"Uncletopia | Los Angeles | 4 | Stopwatch Beta","protocol":17,"map":"workshop/koth_bagel_rc5.ugc2514036946","folder":"tf","game":"Team Fortress","app_id":440,"player_count":0,"max_players":24,"Bots":0,"server_type":"Dedicated","server_os":"Linux","password":true,"vac":true,"version":"7742253","steam_id":85568392924510199,"keywords":["cp","nocrits","nodmgspread","uncletopia"],"game_id":440,"stv_port":27046,"stv_name":"Uncletopia | Los Angeles | 4 | Stopwatch Beta | STV","players":null},{"server_id":11,"name":"Uncletopia | London | 1 | All Maps","name_short":"lon-1","host":"lon-1.uk.uncletopia.com","port":27015,"enabled":true,"region":"eu","cc":"gb","latitude":51.509865,"longitude":-0.118092,"reserved":0,"last_update":"0001-01-01T00:00:00Z","name_a2s":"Uncletopia | London | 1 | All Maps","protocol":17,"map":"cp_altitude","folder":"tf","game":"Team Fortress","app_id":440,"player_count":0,"max_players":24,"Bots":0,"server_type":"Dedicated","server_os":"Linux","password":true,"vac":true,"version":"7742253","steam_id":85568392924367362,"keywords":["cp","nocrits","nodmgspread","uncletopia"],"game_id":440,"stv_port":27016,"stv_name":"Uncletopia | London | 1 | All Maps | STV","players":null},{"server_id":114,"name":"Uncletopia | London | 2 | All Maps","name_short":"lon-2","host":"lon-1.uk.uncletopia.com","port":27025,"enabled":true,"region":"eu","cc":"gb","latitude":51.509865,"longitude":-0.118092,"reserved":0,"last_update":"0001-01-01T00:00:00Z","name_a2s":"Uncletopia | London | 2 | All Maps","protocol":17,"map":"pl_snowycoast","folder":"tf","game":"Team Fortress","app_id":440,"player_count":24,"max_players":24,"Bots":0,"server_type":"Dedicated","server_os":"Linux","password":true,"vac":true,"version":"7742253","steam_id":85568392924470941,"keywords":["nocrits","nodmgspread","payload","uncletopia"],"game_id":440,"stv_port":27026,"stv_name":"Uncletopia | London | 2 | All Maps | STV","players":[{"user_id":140,"name":"galad.game","steam_id":76561198336324159,"connected_time":1420000000000,"state":"active","ping":56},{"user_id":141,"name":"Somei","steam_id":76561198040938864,"connected_time":1281000000000,"state":"active","ping":32},{"user_id":157,"name":"monikka","steam_id":76561198297003397,"connected_time":130000000000,"state":"active","ping":72},{"user_id":135,"name":"Dominus.","steam_id":76561199065917088,"connected_time":1989000000000,"state":"active","ping":67},{"user_id":143,"name":"Joff-tchoff-tchoffo-tchoffo-tch","steam_id":76561198044167743,"connected_time":1113000000000,"state":"active","ping":89},{"user_id":76,"name":"Joe","steam_id":76561198061717026,"connected_time":6392000000000,"state":"active","ping":41},{"user_id":152,"name":"tictak211","steam_id":76561198128091924,"connected_time":499000000000,"state":"active","ping":84},{"user_id":85,"name":"mommy x_x","steam_id":76561199204257697,"connected_time":5341000000000,"state":"active","ping":53},{"user_id":149,"name":"Ablativus","steam_id":76561198025698470,"connected_time":954000000000,"state":"active","ping":73},{"user_id":144,"name":"Cobb Salads","steam_id":76561197971140507,"connected_time":1110000000000,"state":"active","ping":88},{"user_id":108,"name":"axalotly-gaming","steam_id":76561199131971501,"connected_time":3182000000000,"state":"active","ping":79},{"user_id":128,"name":"thekoolest88","steam_id":76561199022415672,"connected_time":2502000000000,"state":"active","ping":145},{"user_id":154,"name":"Penguinmark","steam_id":76561199057089501,"connected_time":394000000000,"state":"active","ping":137},{"user_id":148,"name":"nogavec","steam_id":76561199095329565,"connected_time":975000000000,"state":"active","ping":66},{"user_id":21,"name":"Linakas","steam_id":76561198299757435,"connected_time":12658000000000,"state":"active","ping":76},{"user_id":156,"name":"Jonathan Smokathan","steam_id":76561198061717986,"connected_time":331000000000,"state":"active","ping":51},{"user_id":80,"name":"PyroHam","steam_id":76561198206285837,"connected_time":5625000000000,"state":"active","ping":75},{"user_id":155,"name":"Dzieciol","steam_id":76561198160237556,"connected_time":374000000000,"state":"active","ping":74},{"user_id":129,"name":"Combat Wombat","steam_id":76561197994720068,"connected_time":2500000000000,"state":"active","ping":61},{"user_id":92,"name":"The Funny Cat-Heaby","steam_id":76561198439978112,"connected_time":4892000000000,"state":"active","ping":79},{"user_id":150,"name":"jery","steam_id":76561199246023003,"connected_time":913000000000,"state":"active","ping":84},{"user_id":133,"name":"The Funny Little Gremlin","steam_id":76561198821348177,"connected_time":2290000000000,"state":"active","ping":66},{"user_id":151,"name":"PlebCord","steam_id":76561198120685803,"connected_time":863000000000,"state":"active","ping":74},{"user_id":131,"name":"violently nutritious pummelo","steam_id":76561198014326643,"connected_time":2477000000000,"state":"active","ping":119}]},{"server_id":320,"name":"Uncletopia | London | 3 | All Maps","name_short":"lon-3","host":"lon-1.uk.uncletopia.com","port":27035,"enabled":true,"region":"eu","cc":"gb","latitude":51.509865,"longitude":-0.118092,"reserved":0,"last_update":"0001-01-01T00:00:00Z","name_a2s":"Uncletopia | London | 3 | All Maps","protocol":17,"map":"pl_upward","folder":"tf","game":"Team Fortress","app_id":440,"player_count":8,"max_players":24,"Bots":0,"server_type":"Dedicated","server_os":"Linux","password":true,"vac":true,"version":"7742253","steam_id":85568392924510192,"keywords":["nocrits","nodmgspread","payload","uncletopia"],"game_id":440,"stv_port":27036,"stv_name":"Uncletopia | London | 3 | All Maps | STV","players":[{"user_id":4,"name":"Andreus","steam_id":76561199403926001,"connected_time":2138000000000,"state":"active","ping":76},{"user_id":9,"name":"fikoby0","steam_id":76561198240871940,"connected_time":475000000000,"state":"active","ping":132},{"user_id":6,"name":"tori_spring #savetf2","steam_id":76561199375975842,"connected_time":1563000000000,"state":"active","ping":43},{"user_id":7,"name":"VioBeeyo ♥","steam_id":76561198066258544,"connected_time":1516000000000,"state":"active","ping":60},{"user_id":8,"name":"FINbear","steam_id":76561198274652231,"connected_time":845000000000,"state":"active","ping":82},{"user_id":10,"name":"Booyah","steam_id":76561198032698137,"connected_time":184000000000,"state":"active","ping":60},{"user_id":11,"name":"KORDHELL","steam_id":76561198854254248,"connected_time":160000000000,"state":"active","ping":71},{"user_id":12,"name":"Darker Lord","steam_id":76561198966667657,"connected_time":117000000000,"state":"active","ping":48}]},{"server_id":321,"name":"Uncletopia | London | 4 | All Maps","name_short":"lon-4","host":"lon-1.uk.uncletopia.com","port":27045,"enabled":true,"region":"eu","cc":"gb","latitude":51.509865,"longitude":-0.118092,"reserved":0,"last_update":"0001-01-01T00:00:00Z","name_a2s":"Uncletopia | London | 4 | All Maps","protocol":17,"map":"koth_highpass","folder":"tf","game":"Team Fortress","app_id":440,"player_count":0,"max_players":24,"Bots":0,"server_type":"Dedicated","server_os":"Linux","password":true,"vac":true,"version":"7742253","steam_id":85568392924510193,"keywords":["cp","nocrits","nodmgspread","uncletopia"],"game_id":440,"stv_port":27046,"stv_name":"Uncletopia | London | 4 | All Maps | STV","players":null},{"server_id":21,"name":"Uncletopia | London | 5 | All Maps","name_short":"lon-5","host":"lon-1.uk.uncletopia.com","port":27055,"enabled":true,"region":"eu","cc":"gb","latitude":51.509865,"longitude":-0.118092,"reserved":0,"last_update":"0001-01-01T00:00:00Z","name_a2s":"Uncletopia | London | 5 | All Maps","protocol":17,"map":"pl_frontier_final","folder":"tf","game":"Team Fortress","app_id":440,"player_count":0,"max_players":24,"Bots":0,"server_type":"Dedicated","server_os":"Linux","password":true,"vac":true,"version":"7742253","steam_id":85568392924742829,"keywords":["nocrits","nodmgspread","payload","uncletopia"],"game_id":440,"stv_port":27056,"stv_name":"Uncletopia | London | 5 | All Maps | STV","players":null},{"server_id":22,"name":"Uncletopia | London | 6 | All Maps","name_short":"lon-6","host":"lon-1.uk.uncletopia.com","port":27065,"enabled":true,"region":"eu","cc":"gb","latitude":51.509865,"longitude":-0.118092,"reserved":0,"last_update":"0001-01-01T00:00:00Z","name_a2s":"Uncletopia | London | 6 | All Maps","protocol":17,"map":"pl_borneo","folder":"tf","game":"Team Fortress","app_id":440,"player_count":0,"max_players":24,"Bots":0,"server_type":"Dedicated","server_os":"Linux","password":true,"vac":true,"version":"7742253","steam_id":85568392924742830,"keywords":["nocrits","nodmgspread","payload","uncletopia"],"game_id":440,"stv_port":27066,"stv_name":"Uncletopia | London | 6 | All Maps | STV","players":null},{"server_id":40,"name":"Uncletopia | London | 7 | No Payload","name_short":"lon-7","host":"lon-1.uk.uncletopia.com","port":27075,"enabled":true,"region":"eu","cc":"gb","latitude":51.509865,"longitude":-0.118092,"reserved":0,"last_update":"0001-01-01T00:00:00Z","name_a2s":"Uncletopia | London | 7 | No Payload","protocol":17,"map":"koth_viaduct","folder":"tf","game":"Team Fortress","app_id":440,"player_count":0,"max_players":24,"Bots":0,"server_type":"Dedicated","server_os":"Linux","password":true,"vac":true,"version":"7742253","steam_id":85568392924964314,"keywords":["cp","nocrits","nodmgspread","uncletopia"],"game_id":440,"stv_port":27076,"stv_name":"Uncletopia | London | 7 | No Payload | STV","players":null},{"server_id":41,"name":"Uncletopia | London | 8 | Community","name_short":"lon-8","host":"lon-1.uk.uncletopia.com","port":27085,"enabled":true,"region":"eu","cc":"gb","latitude":51.509865,"longitude":-0.118092,"reserved":0,"last_update":"0001-01-01T00:00:00Z","name_a2s":"Uncletopia | London | 8 | Community","protocol":17,"map":"cp_altitude","folder":"tf","game":"Team Fortress","app_id":440,"player_count":0,"max_players":24,"Bots":0,"server_type":"Dedicated","server_os":"Linux","password":true,"vac":true,"version":"7742253","steam_id":85568392924964315,"keywords":["cp","nocrits","nodmgspread","uncletopia"],"game_id":440,"stv_port":27086,"stv_name":"Uncletopia | London | 8 | Community | STV","players":null},{"server_id":300,"name":"Uncletopia | Montréal | 1 | All Maps","name_short":"mtl-1","host":"mtl-1.ca.uncletopia.com","port":27015,"enabled":true,"region":"us-east","cc":"ca","latitude":45.50889,"longitude":-73.56167,"reserved":0,"last_update":"0001-01-01T00:00:00Z","name_a2s":"Uncletopia | Montréal | 1 | All Maps","protocol":17,"map":"koth_lakeside_final","folder":"tf","game":"Team Fortress","app_id":440,"player_count":0,"max_players":24,"Bots":0,"server_type":"Dedicated","server_os":"Linux","password":true,"vac":true,"version":"7742253","steam_id":85568392924500087,"keywords":["cp","nocrits","nodmgspread","uncletopia"],"game_id":440,"stv_port":27016,"stv_name":"Uncletopia | Montréal | 1 | All Maps | STV","players":null},{"server_id":301,"name":"Uncletopia | Montréal | 2 | All Maps","name_short":"mtl-2","host":"mtl-1.ca.uncletopia.com","port":27025,"enabled":true,"region":"us-east","cc":"ca","latitude":45.50889,"longitude":-73.56167,"reserved":0,"last_update":"0001-01-01T00:00:00Z","name_a2s":"Uncletopia | Montréal | 2 | All Maps","protocol":17,"map":"koth_highpass","folder":"tf","game":"Team Fortress","app_id":440,"player_count":0,"max_players":24,"Bots":0,"server_type":"Dedicated","server_os":"Linux","password":true,"vac":true,"version":"7742253","steam_id":85568392924500088,"keywords":["cp","nocrits","nodmgspread","uncletopia"],"game_id":440,"stv_port":27026,"stv_name":"Uncletopia | Montréal | 2 | All Maps | STV","players":null},{"server_id":302,"name":"Uncletopia | Montréal | 3 | All Maps","name_short":"mtl-3","host":"mtl-1.ca.uncletopia.com","port":27035,"enabled":true,"region":"us-east","cc":"ca","latitude":45.50889,"longitude":-73.56167,"reserved":0,"last_update":"0001-01-01T00:00:00Z","name_a2s":"Uncletopia | Montréal | 3 | All Maps","protocol":17,"map":"koth_highpass","folder":"tf","game":"Team Fortress","app_id":440,"player_count":0,"max_players":24,"Bots":0,"server_type":"Dedicated","server_os":"Linux","password":true,"vac":true,"version":"7742253","steam_id":85568392924500089,"keywords":["cp","nocrits","nodmgspread","uncletopia"],"game_id":440,"stv_port":27036,"stv_name":"Uncletopia | Montréal | 3 | All Maps | STV","players":null},{"server_id":303,"name":"Uncletopia | Montréal | 4 | No Payload","name_short":"mtl-4","host":"mtl-1.ca.uncletopia.com","port":27045,"enabled":true,"region":"us-east","cc":"ca","latitude":45.50889,"longitude":-73.56167,"reserved":0,"last_update":"0001-01-01T00:00:00Z","name_a2s":"Uncletopia | Montréal | 4 | No Payload","protocol":17,"map":"cp_snakewater_final1","folder":"tf","game":"Team Fortress","app_id":440,"player_count":0,"max_players":24,"Bots":0,"server_type":"Dedicated","server_os":"Linux","password":true,"vac":true,"version":"7742253","steam_id":85568392924500090,"keywords":["cp","nocrits","nodmgspread","uncletopia"],"game_id":440,"stv_port":27046,"stv_name":"Uncletopia | Montréal | 4 | No Payload | STV","players":null},{"server_id":13,"name":"Uncletopia | New York City | 1 | All Maps","name_short":"nyc-1","host":"nyc-1.us.uncletopia.com","port":27015,"enabled":true,"region":"us-east","cc":"us","latitude":40.73061,"longitude":-73.93524,"reserved":0,"last_update":"0001-01-01T00:00:00Z","name_a2s":"Uncletopia | New York City | 1 | All Maps","protocol":17,"map":"cp_dustbowl","folder":"tf","game":"Team Fortress","app_id":440,"player_count":0,"max_players":24,"Bots":0,"server_type":"Dedicated","server_os":"Linux","password":true,"vac":true,"version":"7742253","steam_id":85568392924469993,"keywords":["cp","nocrits","nodmgspread","uncletopia"],"game_id":440,"stv_port":27016,"stv_name":"Uncletopia | New York City | 1 | All Maps | STV","players":null},{"server_id":14,"name":"Uncletopia | New York City | 2 | All Maps","name_short":"nyc-2","host":"nyc-1.us.uncletopia.com","port":27025,"enabled":true,"region":"us-east","cc":"us","latitude":40.73061,"longitude":-73.93524,"reserved":0,"last_update":"0001-01-01T00:00:00Z","name_a2s":"Uncletopia | New York City | 2 | All Maps","protocol":17,"map":"pl_badwater","folder":"tf","game":"Team Fortress","app_id":440,"player_count":0,"max_players":24,"Bots":0,"server_type":"Dedicated","server_os":"Linux","password":true,"vac":true,"version":"7742253","steam_id":85568392924469994,"keywords":["nocrits","nodmgspread","payload","uncletopia"],"game_id":440,"stv_port":27026,"stv_name":"Uncletopia | New York City | 2 | All Maps | STV","players":null},{"server_id":15,"name":"Uncletopia | New York City | 3 | Stopwatch Beta","name_short":"nyc-3","host":"nyc-1.us.uncletopia.com","port":27035,"enabled":true,"region":"us-east","cc":"us","latitude":40.73061,"longitude":-73.93524,"reserved":0,"last_update":"0001-01-01T00:00:00Z","name_a2s":"Uncletopia | New York City | 3 | Stopwatch Beta","protocol":17,"map":"workshop/koth_product_final.ugc454272353","folder":"tf","game":"Team Fortress","app_id":440,"player_count":0,"max_players":24,"Bots":0,"server_type":"Dedicated","server_os":"Linux","password":true,"vac":true,"version":"7742253","steam_id":85568392924742820,"keywords":["cp","nocrits","nodmgspread","uncletopia"],"game_id":440,"stv_port":27036,"stv_name":"Uncletopia | New York City | 3 | Stopwatch Beta | STV","players":null},{"server_id":16,"name":"Uncletopia | New York City | 4 | Community","name_short":"nyc-4","host":"nyc-1.us.uncletopia.com","port":27045,"enabled":true,"region":"us-east","cc":"us","latitude":40.73061,"longitude":-73.93524,"reserved":0,"last_update":"0001-01-01T00:00:00Z","name_a2s":"Uncletopia | New York City | 4 | Community","protocol":17,"map":"workshop/koth_bagel_rc5.ugc2514036946","folder":"tf","game":"Team Fortress","app_id":440,"player_count":0,"max_players":24,"Bots":0,"server_type":"Dedicated","server_os":"Linux","password":true,"vac":true,"version":"7742253","steam_id":85568392924742821,"keywords":["cp","nocrits","nodmgspread","uncletopia"],"game_id":440,"stv_port":27046,"stv_name":"Uncletopia | New York City | 4 | Community | STV","players":null},{"server_id":142,"name":"Uncletopia | São Paulo | 1 | All Maps","name_short":"sao-1","host":"sao-1.br.uncletopia.com","port":27015,"enabled":true,"region":"sa","cc":"br","latitude":-23.533773,"longitude":-46.62529,"reserved":0,"last_update":"0001-01-01T00:00:00Z","name_a2s":"Uncletopia | São Paulo | 1 | All Maps","protocol":17,"map":"koth_viaduct","folder":"tf","game":"Team Fortress","app_id":440,"player_count":0,"max_players":24,"Bots":0,"server_type":"Dedicated","server_os":"Linux","password":true,"vac":true,"version":"7742253","steam_id":85568392924469996,"keywords":["cp","nocrits","nodmgspread","uncletopia"],"game_id":440,"stv_port":27016,"stv_name":"Uncletopia | São Paulo | 1 | All Maps | STV","players":null},{"server_id":143,"name":"Uncletopia | São Paulo | 2 | All Maps","name_short":"sao-2","host":"sao-2.br.uncletopia.com","port":27015,"enabled":true,"region":"sa","cc":"br","latitude":-23.533773,"longitude":-46.62529,"reserved":0,"last_update":"0001-01-01T00:00:00Z","name_a2s":"Uncletopia | São Paulo | 2 | All Maps","protocol":17,"map":"koth_viaduct","folder":"tf","game":"Team Fortress","app_id":440,"player_count":0,"max_players":24,"Bots":0,"server_type":"Dedicated","server_os":"Linux","password":true,"vac":true,"version":"7742253","steam_id":85568392924485349,"keywords":["cp","nocrits","nodmgspread","uncletopia"],"game_id":440,"stv_port":27016,"stv_name":"Uncletopia | São Paulo | 2 | All Maps | STV","players":null},{"server_id":7,"name":"Uncletopia | Seattle | 1 | All Maps","name_short":"sea-1","host":"sea-1.us.uncletopia.com","port":27015,"enabled":true,"region":"us-west","cc":"us","latitude":47.608013,"longitude":-122.33517,"reserved":0,"last_update":"0001-01-01T00:00:00Z","name_a2s":"Uncletopia | Seattle | 1 | All Maps","protocol":17,"map":"pl_upward","folder":"tf","game":"Team Fortress","app_id":440,"player_count":23,"max_players":24,"Bots":0,"server_type":"Dedicated","server_os":"Linux","password":true,"vac":true,"version":"7742253","steam_id":85568392924469997,"keywords":["nocrits","nodmgspread","payload","uncletopia"],"game_id":440,"stv_port":27016,"stv_name":"Uncletopia | Seattle | 1 | All Maps | STV","players":[{"user_id":418,"name":"p9 thunderous prophet","steam_id":76561198131166135,"connected_time":6298000000000,"state":"active","ping":42},{"user_id":459,"name":"Samantha UwUwU \u003c333","steam_id":76561198176786799,"connected_time":571000000000,"state":"active","ping":103},{"user_id":406,"name":"gorlab","steam_id":76561198025089694,"connected_time":7224000000000,"state":"active","ping":62},{"user_id":429,"name":"resh","steam_id":76561198239598834,"connected_time":5227000000000,"state":"active","ping":127},{"user_id":363,"name":"butt3r_","steam_id":76561198156374792,"connected_time":11084000000000,"state":"active","ping":49},{"user_id":424,"name":"Arsonist Goose","steam_id":76561198147441830,"connected_time":6258000000000,"state":"active","ping":76},{"user_id":427,"name":"Be kind to me please","steam_id":76561198998446307,"connected_time":5289000000000,"state":"active","ping":68},{"user_id":434,"name":"Raian","steam_id":76561199138048671,"connected_time":4532000000000,"state":"active","ping":76},{"user_id":440,"name":"Tom H.A.N.X","steam_id":76561198061064737,"connected_time":3765000000000,"state":"active","ping":60},{"user_id":446,"name":"Hero Smasher","steam_id":76561198150681669,"connected_time":3347000000000,"state":"active","ping":73},{"user_id":431,"name":"saltymelons","steam_id":76561198169755734,"connected_time":4550000000000,"state":"active","ping":73},{"user_id":384,"name":"fwoov","steam_id":76561198129166260,"connected_time":8555000000000,"state":"active","ping":78},{"user_id":450,"name":"Level 99 Mudcrab","steam_id":76561198077452771,"connected_time":2550000000000,"state":"active","ping":61},{"user_id":460,"name":"Dorte Voloxi","steam_id":76561198118620969,"connected_time":551000000000,"state":"active","ping":63},{"user_id":458,"name":"Frongus","steam_id":76561197979056451,"connected_time":1433000000000,"state":"active","ping":46},{"user_id":436,"name":"ed","steam_id":76561198080475712,"connected_time":4528000000000,"state":"active","ping":71},{"user_id":449,"name":"ThatEmoEmu","steam_id":76561198272304706,"connected_time":3312000000000,"state":"active","ping":49},{"user_id":456,"name":"Grognak","steam_id":76561198044710527,"connected_time":1962000000000,"state":"active","ping":51},{"user_id":439,"name":"trackpad gaming | f2p","steam_id":76561198840414371,"connected_time":4054000000000,"state":"active","ping":63},{"user_id":377,"name":"smeasly","steam_id":76561198028718812,"connected_time":9689000000000,"state":"active","ping":44},{"user_id":355,"name":"p9 Doctor™","steam_id":76561198134309750,"connected_time":11579000000000,"state":"active","ping":111},{"user_id":314,"name":"pcplace","steam_id":76561198097987387,"connected_time":16237000000000,"state":"active","ping":51},{"user_id":462,"name":"p9 rorywashere","steam_id":76561198065825165,"connected_time":293000000000,"state":"active","ping":127}]},{"server_id":119,"name":"Uncletopia | Seattle | 2 | All Maps","name_short":"sea-2","host":"sea-1.us.uncletopia.com","port":27025,"enabled":true,"region":"us-west","cc":"us","latitude":47.608013,"longitude":-122.33517,"reserved":0,"last_update":"0001-01-01T00:00:00Z","name_a2s":"Uncletopia | Seattle | 2 | All Maps","protocol":17,"map":"pl_swiftwater_final1","folder":"tf","game":"Team Fortress","app_id":440,"player_count":24,"max_players":24,"Bots":0,"server_type":"Dedicated","server_os":"Linux","password":true,"vac":true,"version":"7742253","steam_id":85568392924469998,"keywords":["nocrits","nodmgspread","payload","uncletopia"],"game_id":440,"stv_port":27026,"stv_name":"Uncletopia | Seattle | 2 | All Maps | STV","players":[{"user_id":710,"name":"LostVoid","steam_id":76561198259983156,"connected_time":15000000000,"state":"spawning","ping":81},{"user_id":687,"name":"Steve Harvey","steam_id":76561198129988457,"connected_time":1546000000000,"state":"spawning","ping":61},{"user_id":632,"name":"cracky","steam_id":76561197971365444,"connected_time":6015000000000,"state":"active","ping":43},{"user_id":700,"name":"Kosmo","steam_id":76561198079015843,"connected_time":998000000000,"state":"spawning","ping":125},{"user_id":692,"name":"Bagaboned","steam_id":76561198043761335,"connected_time":1425000000000,"state":"active","ping":84},{"user_id":707,"name":"doozy","steam_id":76561198033106776,"connected_time":42000000000,"state":"spawning","ping":92},{"user_id":708,"name":"SuaveFrenchman","steam_id":76561198043762683,"connected_time":29000000000,"state":"active","ping":58},{"user_id":688,"name":"funkdonut","steam_id":76561199062326425,"connected_time":1543000000000,"state":"active","ping":121},{"user_id":684,"name":"Google","steam_id":76561198857237473,"connected_time":1686000000000,"state":"active","ping":76},{"user_id":703,"name":"CurryNinja","steam_id":76561198057172126,"connected_time":574000000000,"state":"active","ping":59},{"user_id":699,"name":"KingToaster","steam_id":76561198007903802,"connected_time":1068000000000,"state":"active","ping":40},{"user_id":661,"name":"BIG HOG","steam_id":76561198079923652,"connected_time":4278000000000,"state":"active","ping":114},{"user_id":683,"name":"served","steam_id":76561199438267625,"connected_time":1724000000000,"state":"spawning","ping":99},{"user_id":709,"name":"Dentarthurdent","steam_id":76561198044692066,"connected_time":22000000000,"state":"spawning","ping":114},{"user_id":696,"name":"happyman","steam_id":76561199430019599,"connected_time":1218000000000,"state":"active","ping":129},{"user_id":706,"name":"Mr Majesticals","steam_id":76561198015242706,"connected_time":140000000000,"state":"spawning","ping":79},{"user_id":610,"name":"strong and healthy gamer","steam_id":76561198049489349,"connected_time":7260000000000,"state":"active","ping":97},{"user_id":682,"name":"Gary, 40, soul sucking 9-5","steam_id":76561198073812888,"connected_time":2187000000000,"state":"active","ping":71},{"user_id":662,"name":"little hog","steam_id":76561199230929836,"connected_time":4130000000000,"state":"spawning","ping":103},{"user_id":668,"name":"Rise for the National Spamton","steam_id":76561198138468982,"connected_time":3214000000000,"state":"active","ping":59},{"user_id":695,"name":"Dad Rock Deluxe","steam_id":76561198051224819,"connected_time":1315000000000,"state":"active","ping":122},{"user_id":690,"name":"Unoverrated","steam_id":76561198013426879,"connected_time":1521000000000,"state":"active","ping":188},{"user_id":705,"name":"hotdog every meal","steam_id":76561198392514273,"connected_time":258000000000,"state":"active","ping":53},{"user_id":658,"name":"PopcornNinja101","steam_id":76561198330680181,"connected_time":4520000000000,"state":"active","ping":58}]},{"server_id":406,"name":"Uncletopia | Seattle | 3 | Stopwatch Beta","name_short":"sea-3","host":"sea-1.us.uncletopia.com","port":27035,"enabled":true,"region":"us-west","cc":"us","latitude":47.608013,"longitude":-122.33517,"reserved":0,"last_update":"0001-01-01T00:00:00Z","name_a2s":"Uncletopia | Seattle | 3 | Stopwatch Beta","protocol":17,"map":"workshop/pl_vigil_rc9.ugc1266210012","folder":"tf","game":"Team Fortress","app_id":440,"player_count":0,"max_players":24,"Bots":0,"server_type":"Dedicated","server_os":"Linux","password":true,"vac":true,"version":"7742253","steam_id":85568392924515217,"keywords":["nocrits","nodmgspread","payload","uncletopia"],"game_id":440,"stv_port":27036,"stv_name":"Uncletopia | Seattle | 3 | Stopwatch Beta | STV","players":null},{"server_id":17,"name":"Uncletopia | San Francisco | 1 | All Maps","name_short":"sfo-1","host":"sfo-1.us.uncletopia.com","port":27015,"enabled":true,"region":"us-west","cc":"us","latitude":37.77397,"longitude":-122.4313,"reserved":0,"last_update":"0001-01-01T00:00:00Z","name_a2s":"Uncletopia | San Francisco | 1 | All Maps","protocol":17,"map":"koth_nucleus","folder":"tf","game":"Team Fortress","app_id":440,"player_count":0,"max_players":24,"Bots":0,"server_type":"Dedicated","server_os":"Linux","password":true,"vac":true,"version":"7742253","steam_id":85568392924469999,"keywords":["cp","nocrits","nodmgspread","uncletopia"],"game_id":440,"stv_port":27016,"stv_name":"Uncletopia | San Francisco | 1 | All Maps | STV","players":null},{"server_id":18,"name":"Uncletopia | San Francisco | 2 | All Maps","name_short":"sfo-2","host":"sfo-1.us.uncletopia.com","port":27025,"enabled":true,"region":"us-west","cc":"us","latitude":37.77397,"longitude":-122.4313,"reserved":0,"last_update":"0001-01-01T00:00:00Z","name_a2s":"Uncletopia | San Francisco | 2 | All Maps","protocol":17,"map":"pl_pier","folder":"tf","game":"Team Fortress","app_id":440,"player_count":0,"max_players":24,"Bots":0,"server_type":"Dedicated","server_os":"Linux","password":true,"vac":true,"version":"7742253","steam_id":85568392924470000,"keywords":["nocrits","nodmgspread","payload","uncletopia"],"game_id":440,"stv_port":27026,"stv_name":"Uncletopia | San Francisco | 2 | All Maps | STV","players":null},{"server_id":19,"name":"Uncletopia | San Francisco | 3 | Stopwatch Beta","name_short":"sfo-3","host":"sfo-1.us.uncletopia.com","port":27035,"enabled":true,"region":"us-west","cc":"us","latitude":37.77397,"longitude":-122.4313,"reserved":0,"last_update":"0001-01-01T00:00:00Z","name_a2s":"Uncletopia | San Francisco | 3 | Stopwatch Beta","protocol":17,"map":"workshop/koth_ramjam_rc1.ugc459778887","folder":"tf","game":"Team Fortress","app_id":440,"player_count":0,"max_players":24,"Bots":0,"server_type":"Dedicated","server_os":"Linux","password":true,"vac":true,"version":"7742253","steam_id":85568392924742824,"keywords":["cp","nocrits","nodmgspread","uncletopia"],"game_id":440,"stv_port":27036,"stv_name":"Uncletopia | San Francisco | 3 | Stopwatch Beta | STV","players":null},{"server_id":20,"name":"Uncletopia | San Francisco | 4 | Community","name_short":"sfo-4","host":"sfo-1.us.uncletopia.com","port":27045,"enabled":true,"region":"us-west","cc":"us","latitude":37.77397,"longitude":-122.4313,"reserved":0,"last_update":"0001-01-01T00:00:00Z","name_a2s":"Uncletopia | San Francisco | 4 | Community","protocol":17,"map":"workshop/koth_bagel_rc5.ugc2514036946","folder":"tf","game":"Team Fortress","app_id":440,"player_count":0,"max_players":24,"Bots":0,"server_type":"Dedicated","server_os":"Linux","password":true,"vac":true,"version":"7742253","steam_id":85568392924742826,"keywords":["cp","nocrits","nodmgspread","uncletopia"],"game_id":440,"stv_port":27046,"stv_name":"Uncletopia | San Francisco | 4 | Community | STV","players":null},{"server_id":141,"name":"Uncletopia | Sydney | 1 | All Maps","name_short":"syd-1","host":"syd-1.au.uncletopia.com","port":27015,"enabled":true,"region":"au","cc":"au","latitude":-33.865143,"longitude":151.2099,"reserved":0,"last_update":"0001-01-01T00:00:00Z","name_a2s":"Uncletopia | Sydney | 1 | All Maps","protocol":17,"map":"pl_snowycoast","folder":"tf","game":"Team Fortress","app_id":440,"player_count":24,"max_players":24,"Bots":0,"server_type":"Dedicated","server_os":"Linux","password":true,"vac":true,"version":"7742253","steam_id":85568392924470001,"keywords":["nocrits","nodmgspread","payload","uncletopia"],"game_id":440,"stv_port":27016,"stv_name":"Uncletopia | Sydney | 1 | All Maps | STV","players":[{"user_id":367,"name":"Corrupt","steam_id":76561198008567328,"connected_time":991000000000,"state":"active","ping":101},{"user_id":363,"name":"hawk","steam_id":76561198135164277,"connected_time":1179000000000,"state":"active","ping":57},{"user_id":376,"name":"Working Hero","steam_id":76561198338857002,"connected_time":964000000000,"state":"active","ping":35},{"user_id":347,"name":"Zort","steam_id":76561198056414289,"connected_time":1953000000000,"state":"active","ping":61},{"user_id":307,"name":"A threat unbeknownst","steam_id":76561198293776102,"connected_time":4764000000000,"state":"active","ping":42},{"user_id":364,"name":"LightningBlock","steam_id":76561198289997742,"connected_time":1147000000000,"state":"active","ping":41},{"user_id":385,"name":"xtra","steam_id":76561197998962418,"connected_time":581000000000,"state":"active","ping":79},{"user_id":387,"name":"WuckenForried","steam_id":76561198041016340,"connected_time":393000000000,"state":"active","ping":56},{"user_id":288,"name":"squrrel","steam_id":76561198083429611,"connected_time":5915000000000,"state":"active","ping":73},{"user_id":352,"name":"Legion","steam_id":76561198054096076,"connected_time":1630000000000,"state":"active","ping":49},{"user_id":368,"name":"A KNIFE!","steam_id":76561198160390701,"connected_time":986000000000,"state":"active","ping":100},{"user_id":373,"name":"dispanzer","steam_id":76561198145743438,"connected_time":967000000000,"state":"active","ping":48},{"user_id":388,"name":"Fresh Mulk","steam_id":76561198078058482,"connected_time":109000000000,"state":"active","ping":56},{"user_id":377,"name":"battle med","steam_id":76561199219366711,"connected_time":953000000000,"state":"active","ping":107},{"user_id":343,"name":"lofty","steam_id":76561198380588357,"connected_time":2249000000000,"state":"active","ping":67},{"user_id":330,"name":"old chunk of coal","steam_id":76561197990537324,"connected_time":2862000000000,"state":"active","ping":105},{"user_id":361,"name":"Apteryx","steam_id":76561197976460834,"connected_time":1237000000000,"state":"active","ping":61},{"user_id":384,"name":"the coolest karlos","steam_id":76561198956180767,"connected_time":596000000000,"state":"active","ping":43},{"user_id":381,"name":"FrOStY","steam_id":76561198088155805,"connected_time":703000000000,"state":"active","ping":109},{"user_id":380,"name":"Topsy14","steam_id":76561198881136748,"connected_time":838000000000,"state":"active","ping":48},{"user_id":389,"name":"michael","steam_id":76561198052848358,"connected_time":87000000000,"state":"active","ping":55},{"user_id":341,"name":"CatWithAMatch","steam_id":76561199378844984,"connected_time":2664000000000,"state":"active","ping":50},{"user_id":386,"name":"gaming time","steam_id":76561198127848228,"connected_time":539000000000,"state":"active","ping":62},{"user_id":342,"name":"KnowZero","steam_id":76561198095752015,"connected_time":2660000000000,"state":"active","ping":57}]},{"server_id":123,"name":"Uncletopia | Sydney | 2 | All Maps","name_short":"syd-2","host":"syd-1.au.uncletopia.com","port":27025,"enabled":true,"region":"au","cc":"au","latitude":-33.865143,"longitude":151.2099,"reserved":0,"last_update":"0001-01-01T00:00:00Z","name_a2s":"Uncletopia | Sydney | 2 | All Maps","protocol":17,"map":"cp_process_final","folder":"tf","game":"Team Fortress","app_id":440,"player_count":0,"max_players":24,"Bots":0,"server_type":"Dedicated","server_os":"Linux","password":true,"vac":true,"version":"7742253","steam_id":85568392924470002,"keywords":["cp","nocrits","nodmgspread","uncletopia"],"game_id":440,"stv_port":27026,"stv_name":"Uncletopia | Sydney | 2 | All Maps | STV","players":null},{"server_id":395,"name":"Uncletopia | Sydney | 3 | All Maps","name_short":"syd-3","host":"syd-1.au.uncletopia.com","port":27035,"enabled":true,"region":"au","cc":"au","latitude":-33.865143,"longitude":151.2099,"reserved":0,"last_update":"0001-01-01T00:00:00Z","name_a2s":"Uncletopia | Sydney | 3 | All Maps","protocol":17,"map":"koth_viaduct","folder":"tf","game":"Team Fortress","app_id":440,"player_count":0,"max_players":24,"Bots":0,"server_type":"Dedicated","server_os":"Linux","password":true,"vac":true,"version":"7742253","steam_id":85568392925194467,"keywords":["cp","nocrits","nodmgspread","uncletopia"],"game_id":440,"stv_port":27036,"stv_name":"Uncletopia | Sydney | 3 | All Maps | STV","players":null},{"server_id":396,"name":"Uncletopia | Sydney | 4 | All Maps","name_short":"syd-4","host":"syd-1.au.uncletopia.com","port":27045,"enabled":true,"region":"au","cc":"au","latitude":-33.865143,"longitude":151.2099,"reserved":0,"last_update":"0001-01-01T00:00:00Z","name_a2s":"Uncletopia | Sydney | 4 | All Maps","protocol":17,"map":"koth_highpass","folder":"tf","game":"Team Fortress","app_id":440,"player_count":0,"max_players":24,"Bots":0,"server_type":"Dedicated","server_os":"Linux","password":true,"vac":true,"version":"7742253","steam_id":85568392925397958,"keywords":["cp","nocrits","nodmgspread","uncletopia"],"game_id":440,"stv_port":27046,"stv_name":"Uncletopia | Sydney | 4 | All Maps | STV","players":null},{"server_id":58,"name":"Uncletopia | Sydney | 5 | Stopwatch Beta","name_short":"syd-5","host":"syd-1.au.uncletopia.com","port":27055,"enabled":true,"region":"au","cc":"au","latitude":-33.865143,"longitude":151.2099,"reserved":0,"last_update":"0001-01-01T00:00:00Z","name_a2s":"Uncletopia | Sydney | 5 | Stopwatch Beta","protocol":17,"map":"koth_lakeside_final","folder":"tf","game":"Team Fortress","app_id":440,"player_count":0,"max_players":24,"Bots":0,"server_type":"Dedicated","server_os":"Linux","password":true,"vac":true,"version":"7742253","steam_id":85568392925397959,"keywords":["cp","nocrits","nodmgspread","uncletopia"],"game_id":440,"stv_port":27056,"stv_name":"Uncletopia | Sydney | 5 | Stopwatch Beta | STV","players":null},{"server_id":59,"name":"Uncletopia | Sydney | 6 | Community","name_short":"syd-6","host":"syd-1.au.uncletopia.com","port":27065,"enabled":true,"region":"au","cc":"au","latitude":-33.865143,"longitude":151.2099,"reserved":0,"last_update":"0001-01-01T00:00:00Z","name_a2s":"Uncletopia | Sydney | 6 | Community","protocol":17,"map":"workshop/koth_ashville_final.ugc2130459942","folder":"tf","game":"Team Fortress","app_id":440,"player_count":0,"max_players":24,"Bots":0,"server_type":"Dedicated","server_os":"Linux","password":true,"vac":true,"version":"7742253","steam_id":85568392925397960,"keywords":["cp","nocrits","nodmgspread","uncletopia"],"game_id":440,"stv_port":27066,"stv_name":"Uncletopia | Sydney | 6 | Community | STV","players":null},{"server_id":49,"name":"Uncletopia | Warsaw | 1 | All Maps","name_short":"waw-1","host":"waw-1.pl.uncletopia.com","port":27015,"enabled":true,"region":"eu","cc":"pl","latitude":52.2297,"longitude":21.017532,"reserved":0,"last_update":"0001-01-01T00:00:00Z","name_a2s":"","protocol":0,"map":"","folder":"","game":"","app_id":0,"player_count":0,"max_players":0,"Bots":0,"server_type":"","server_os":"","password":false,"vac":false,"version":"","steam_id":0,"keywords":null,"game_id":0,"stv_port":0,"stv_name":"","players":null},{"server_id":50,"name":"Uncletopia | Warsaw | 2 | All Maps","name_short":"waw-2","host":"waw-1.pl.uncletopia.com","port":27025,"enabled":true,"region":"eu","cc":"pl","latitude":52.2297,"longitude":21.017532,"reserved":0,"last_update":"0001-01-01T00:00:00Z","name_a2s":"Uncletopia | Warsaw | 2 | All Maps","protocol":17,"map":"pl_upward","folder":"tf","game":"Team Fortress","app_id":440,"player_count":0,"max_players":24,"Bots":0,"server_type":"Dedicated","server_os":"Linux","password":true,"vac":true,"version":"7742253","steam_id":85568392925397851,"keywords":["nocrits","nodmgspread","payload","uncletopia"],"game_id":440,"stv_port":27026,"stv_name":"Uncletopia | Warsaw | 2 | All Maps | STV","players":null},{"server_id":51,"name":"Uncletopia | Warsaw | 3 | All Maps","name_short":"waw-3","host":"waw-1.pl.uncletopia.com","port":27035,"enabled":true,"region":"eu","cc":"pl","latitude":52.2297,"longitude":21.017532,"reserved":0,"last_update":"0001-01-01T00:00:00Z","name_a2s":"Uncletopia | Warsaw | 3 | All Maps","protocol":17,"map":"koth_lakeside_final","folder":"tf","game":"Team Fortress","app_id":440,"player_count":0,"max_players":24,"Bots":0,"server_type":"Dedicated","server_os":"Linux","password":true,"vac":true,"version":"7742253","steam_id":85568392925397852,"keywords":["cp","nocrits","nodmgspread","uncletopia"],"game_id":440,"stv_port":27036,"stv_name":"Uncletopia | Warsaw | 3 | All Maps | STV","players":null},{"server_id":52,"name":"Uncletopia | Warsaw | 4 | All Maps","name_short":"waw-4","host":"waw-1.pl.uncletopia.com","port":27045,"enabled":true,"region":"eu","cc":"pl","latitude":52.2297,"longitude":21.017532,"reserved":0,"last_update":"0001-01-01T00:00:00Z","name_a2s":"Uncletopia | Warsaw | 4 | All Maps","protocol":17,"map":"pl_upward","folder":"tf","game":"Team Fortress","app_id":440,"player_count":0,"max_players":24,"Bots":0,"server_type":"Dedicated","server_os":"Linux","password":true,"vac":true,"version":"7742253","steam_id":85568392925397853,"keywords":["nocrits","nodmgspread","payload","uncletopia"],"game_id":440,"stv_port":27046,"stv_name":"Uncletopia | Warsaw | 4 | All Maps | STV","players":null},{"server_id":53,"name":"Uncletopia | Warsaw | 5 | Stopwatch Beta","name_short":"waw-5","host":"waw-1.pl.uncletopia.com","port":27055,"enabled":true,"region":"eu","cc":"pl","latitude":52.2297,"longitude":21.017532,"reserved":0,"last_update":"0001-01-01T00:00:00Z","name_a2s":"Uncletopia | Warsaw | 5 | Stopwatch Beta","protocol":17,"map":"pl_swiftwater_final1","folder":"tf","game":"Team Fortress","app_id":440,"player_count":0,"max_players":24,"Bots":0,"server_type":"Dedicated","server_os":"Linux","password":true,"vac":true,"version":"7742253","steam_id":85568392925397854,"keywords":["nocrits","nodmgspread","payload","uncletopia"],"game_id":440,"stv_port":27056,"stv_name":"Uncletopia | Warsaw | 5 | Stopwatch Beta | STV","players":null},{"server_id":54,"name":"Uncletopia | Warsaw | 6 | Community","name_short":"waw-6","host":"waw-1.pl.uncletopia.com","port":27065,"enabled":true,"region":"eu","cc":"pl","latitude":52.2297,"longitude":21.017532,"reserved":0,"last_update":"0001-01-01T00:00:00Z","name_a2s":"Uncletopia | Warsaw | 6 | Community","protocol":17,"map":"koth_highpass","folder":"tf","game":"Team Fortress","app_id":440,"player_count":0,"max_players":24,"Bots":0,"server_type":"Dedicated","server_os":"Linux","password":true,"vac":true,"version":"7742253","steam_id":85568392925397856,"keywords":["cp","nocrits","nodmgspread","uncletopia"],"game_id":440,"stv_port":27066,"stv_name":"Uncletopia | Warsaw | 6 | Community | STV","players":null}]}