{"status":true,"message":"","result":[{"server_id":9,"name":"Uncletopia | Atlanta | 1 | All Maps","name_short":"atl-1","host":"atl-1.us.uncletopia.com","port":27015,"enabled":true,"region":"us-east","cc":"us","latitude":33.753746,"longitude":-84.38633,"reserved":0,"last_update":"0001-01-01T00:00:00Z","name_a2s":"Uncletopia | Atlanta | 1 | All Maps","protocol":17,"map":"pl_snowycoast","folder":"tf","game":"Team Fortress","app_id":440,"player_count":0,"max_players":24,"Bots":0,"server_type":"Dedicated","server_os":"Linux","password":true,"vac":true,"version":"7882260","steam_id":85568392924469982,"keywords":["nocrits","nodmgspread","payload","uncletopia"],"game_id":440,"stv_port":27016,"stv_name":"Uncletopia | Atlanta | 1 | All Maps | STV","players":null},{"server_id":104,"name":"Uncletopia | Atlanta | 2 | All Maps","name_short":"atl-2","host":"atl-1.us.uncletopia.com","port":27025,"enabled":true,"region":"us-east","cc":"us","latitude":33.753746,"longitude":-84.38633,"reserved":0,"last_update":"0001-01-01T00:00:00Z","name_a2s":"Uncletopia | Atlanta | 2 | All Maps","protocol":17,"map":"cp_altitude","folder":"tf","game":"Team Fortress","app_id":440,"player_count":0,"max_players":24,"Bots":0,"server_type":"Dedicated","server_os":"Linux","password":true,"vac":true,"version":"7882260","steam_id":85568392924469983,"keywords":["cp","nocrits","nodmgspread","uncletopia"],"game_id":440,"stv_port":27026,"stv_name":"Uncletopia | Atlanta | 2 | All Maps | STV","players":null},{"server_id":400,"name":"Uncletopia | Atlanta | 3 | Community","name_short":"atl-3","host":"atl-1.us.uncletopia.com","port":27035,"enabled":true,"region":"us-east","cc":"us","latitude":33.753746,"longitude":-84.38633,"reserved":0,"last_update":"0001-01-01T00:00:00Z","name_a2s":"Uncletopia | Atlanta | 3 | Community","protocol":17,"map":"pl_borneo","folder":"tf","game":"Team Fortress","app_id":440,"player_count":0,"max_players":24,"Bots":0,"server_type":"Dedicated","server_os":"Linux","password":true,"vac":true,"version":"7882260","steam_id":85568392924515187,"keywords":["nocrits","nodmgspread","payload","uncletopia"],"game_id":440,"stv_port":27036,"stv_name":"Uncletopia | Atlanta | 3 | Community | STV","players":null},{"server_id":401,"name":"Uncletopia | Atlanta | 4 | No Payload","name_short":"atl-4","host":"atl-1.us.uncletopia.com","port":27045,"enabled":true,"region":"us-east","cc":"us","latitude":33.753746,"longitude":-84.38633,"reserved":0,"last_update":"0001-01-01T00:00:00Z","name_a2s":"","protocol":0,"map":"","folder":"","game":"","app_id":0,"player_count":0,"max_players":0,"Bots":0,"server_type":"","server_os":"","password":false,"vac":false,"version":"","steam_id":0,"keywords":null,"game_id":0,"stv_port":0,"stv_name":"","players":null},{"server_id":2,"name":"Uncletopia | Chicago | 1 | All Maps","name_short":"chi-1","host":"chi-1.us.uncletopia.com","port":27015,"enabled":true,"region":"us-central","cc":"us","latitude":41.881832,"longitude":-87.62318,"reserved":0,"last_update":"0001-01-01T00:00:00Z","name_a2s":"Uncletopia | Chicago | 1 | All Maps","protocol":17,"map":"cp_process_final","folder":"tf","game":"Team Fortress","app_id":440,"player_count":0,"max_players":24,"Bots":0,"server_type":"Dedicated","server_os":"Linux","password":true,"vac":true,"version":"7882260","steam_id":85568392924469984,"keywords":["cp","nocrits","nodmgspread","uncletopia"],"game_id":440,"stv_port":27016,"stv_name":"Uncletopia | Chicago | 1 | All Maps | STV","players":null},{"server_id":106,"name":"Uncletopia | Chicago | 2 | All Maps","name_short":"chi-2","host":"chi-1.us.uncletopia.com","port":27025,"enabled":true,"region":"us-central","cc":"us","latitude":41.881832,"longitude":-87.62318,"reserved":0,"last_update":"0001-01-01T00:00:00Z","name_a2s":"Uncletopia | Chicago | 2 | All Maps","protocol":17,"map":"koth_lakeside_final","folder":"tf","game":"Team Fortress","app_id":440,"player_count":0,"max_players":24,"Bots":0,"server_type":"Dedicated","server_os":"Linux","password":true,"vac":true,"version":"7882260","steam_id":85568392924469985,"keywords":["cp","nocrits","nodmgspread","uncletopia"],"game_id":440,"stv_port":27026,"stv_name":"Uncletopia | Chicago | 2 | All Maps | STV","players":null},{"server_id":402,"name":"Uncletopia | Chicago | 3 | All Maps","name_short":"chi-3","host":"chi-1.us.uncletopia.com","port":27035,"enabled":true,"region":"us-central","cc":"us","latitude":41.881832,"longitude":-87.62318,"reserved":0,"last_update":"0001-01-01T00:00:00Z","name_a2s":"Uncletopia | Chicago | 3 | All Maps","protocol":17,"map":"pl_borneo","folder":"tf","game":"Team Fortress","app_id":440,"player_count":0,"max_players":24,"Bots":0,"server_type":"Dedicated","server_os":"Linux","password":true,"vac":true,"version":"7882260","steam_id":85568392924515191,"keywords":["nocrits","nodmgspread","payload","uncletopia"],"game_id":440,"stv_port":27036,"stv_name":"Uncletopia | Chicago | 3 | All Maps | STV","players":null},{"server_id":403,"name":"Uncletopia | Chicago | 4 | All Maps","name_short":"chi-4","host":"chi-1.us.uncletopia.com","port":27045,"enabled":true,"region":"us-central","cc":"us","latitude":41.881832,"longitude":-87.62318,"reserved":0,"last_update":"0001-01-01T00:00:00Z","name_a2s":"Uncletopia | Chicago | 4 | All Maps","protocol":17,"map":"koth_lakeside_final","folder":"tf","game":"Team Fortress","app_id":440,"player_count":0,"max_players":24,"Bots":0,"server_type":"Dedicated","server_os":"Linux","password":true,"vac":true,"version":"7882260","steam_id":85568392924515193,"keywords":["cp","nocrits","nodmgspread","uncletopia"],"game_id":440,"stv_port":27046,"stv_name":"Uncletopia | Chicago | 4 | All Maps | STV","players":null},{"server_id":36,"name":"Uncletopia | Chicago | 5 | All Maps","name_short":"chi-5","host":"chi-2.us.uncletopia.com","port":27015,"enabled":true,"region":"us-central","cc":"us","latitude":41.881832,"longitude":-87.62318,"reserved":0,"last_update":"0001-01-01T00:00:00Z","name_a2s":"Uncletopia | Chicago | 5 | All Maps","protocol":17,"map":"cp_dustbowl","folder":"tf","game":"Team Fortress","app_id":440,"player_count":0,"max_players":24,"Bots":0,"server_type":"Dedicated","server_os":"Linux","password":true,"vac":true,"version":"7882260","steam_id":85568392924866362,"keywords":["cp","nocrits","nodmgspread","uncletopia"],"game_id":440,"stv_port":27016,"stv_name":"Uncletopia | Chicago | 5 | All Maps | STV","players":null},{"server_id":37,"name":"Uncletopia | Chicago | 6 | All Maps","name_short":"chi-6","host":"chi-2.us.uncletopia.com","port":27025,"enabled":true,"region":"us-central","cc":"us","latitude":41.881832,"longitude":-87.62318,"reserved":0,"last_update":"0001-01-01T00:00:00Z","name_a2s":"Uncletopia | Chicago | 6 | All Maps","protocol":17,"map":"cp_altitude","folder":"tf","game":"Team Fortress","app_id":440,"player_count":0,"max_players":24,"Bots":0,"server_type":"Dedicated","server_os":"Linux","password":true,"vac":true,"version":"7882260","steam_id":85568392924866363,"keywords":["cp","nocrits","nodmgspread","uncletopia"],"game_id":440,"stv_port":27026,"stv_name":"Uncletopia | Chicago | 6 | All Maps | STV","players":null},{"server_id":38,"name":"Uncletopia | Chicago | 7 | Stopwatch Beta","name_short":"chi-7","host":"chi-2.us.uncletopia.com","port":27035,"enabled":true,"region":"us-central","cc":"us","latitude":41.881832,"longitude":-87.62318,"reserved":0,"last_update":"0001-01-01T00:00:00Z","name_a2s":"Uncletopia | Chicago | 7 | Stopwatch Beta","protocol":17,"map":"pl_upward","folder":"tf","game":"Team Fortress","app_id":440,"player_count":0,"max_players":24,"Bots":0,"server_type":"Dedicated","server_os":"Linux","password":true,"vac":true,"version":"7882260","steam_id":85568392924866364,"keywords":["nocrits","nodmgspread","payload","uncletopia"],"game_id":440,"stv_port":27036,"stv_name":"Uncletopia | Chicago | 7 | Stopwatch Beta | STV","players":null},{"server_id":39,"name":"Uncletopia | Chicago | 8 | Community","name_short":"chi-8","host":"chi-2.us.uncletopia.com","port":27045,"enabled":true,"region":"us-central","cc":"us","latitude":41.881832,"longitude":-87.62318,"reserved":0,"last_update":"0001-01-01T00:00:00Z","name_a2s":"Uncletopia | Chicago | 8 | Community","protocol":17,"map":"pl_badwater","folder":"tf","game":"Team Fortress","app_id":440,"player_count":0,"max_players":24,"Bots":0,"server_type":"Dedicated","server_os":"Linux","password":true,"vac":true,"version":"7882260","steam_id":85568392924866365,"keywords":["nocrits","nodmgspread","payload","uncletopia"],"game_id":440,"stv_port":27046,"stv_name":"Uncletopia | Chicago | 8 | Community | STV","players":null},{"server_id":8,"name":"Uncletopia | Dallas | 1 | All Maps","name_short":"dal-1","host":"dal-1.us.uncletopia.com","port":27015,"enabled":true,"region":"us-central","cc":"us","latitude":32.779167,"longitude":-96.80889,"reserved":0,"last_update":"0001-01-01T00:00:00Z","name_a2s":"Uncletopia | Dallas | 1 | All Maps","protocol":17,"map":"koth_viaduct","folder":"tf","game":"Team Fortress","app_id":440,"player_count":0,"max_players":24,"Bots":0,"server_type":"Dedicated","server_os":"Linux","password":true,"vac":true,"version":"7882260","steam_id":85568392924469986,"keywords":["cp","nocrits","nodmgspread","uncletopia"],"game_id":440,"stv_port":27016,"stv_name":"Uncletopia | Dallas | 1 | All Maps | STV","players":null},{"server_id":108,"name":"Uncletopia | Dallas | 2 | All Maps","name_short":"dal-2","host":"dal-1.us.uncletopia.com","port":27025,"enabled":true,"region":"us-central","cc":"us","latitude":32.779167,"longitude":-96.80889,"reserved":0,"last_update":"0001-01-01T00:00:00Z","name_a2s":"Uncletopia | Dallas | 2 | All Maps","protocol":17,"map":"koth_highpass","folder":"tf","game":"Team Fortress","app_id":440,"player_count":0,"max_players":24,"Bots":0,"server_type":"Dedicated","server_os":"Linux","password":true,"vac":true,"version":"7882260","steam_id":85568392924469988,"keywords":["cp","nocrits","nodmgspread","uncletopia"],"game_id":440,"stv_port":27026,"stv_name":"Uncletopia | Dallas | 2 | All Maps | STV","players":null},{"server_id":5,"name":"Uncletopia | Frankfurt | 1 | All Maps","name_short":"frk-1","host":"frk-1.de.uncletopia.com","port":27015,"enabled":true,"region":"eu","cc":"de","latitude":50.110924,"longitude":8.682127,"reserved":0,"last_update":"0001-01-01T00:00:00Z","name_a2s":"Uncletopia | Frankfurt | 1 | All Maps","protocol":17,"map":"pl_pier","folder":"tf","game":"Team Fortress","app_id":440,"player_count":24,"max_players":24,"Bots":0,"server_type":"Dedicated","server_os":"Linux","password":true,"vac":true,"version":"7882260","steam_id":85568392924469989,"keywords":["nocrits","nodmgspread","payload","uncletopia"],"game_id":440,"stv_port":27016,"stv_name":"Uncletopia | Frankfurt | 1 | All Maps | STV","players":[{"user_id":47,"name":"Unseen","steam_id":76561198154670360,"connected_time":1127000000000,"state":"active","ping":96},{"user_id":6,"name":"Trapezoid","steam_id":76561198059369295,"connected_time":3410000000000,"state":"active","ping":81},{"user_id":60,"name":"Wonkglorg","steam_id":76561198302060474,"connected_time":396000000000,"state":"active","ping":61},{"user_id":32,"name":"Frylock","steam_id":76561198050292560,"connected_time":2277000000000,"state":"active","ping":46},{"user_id":59,"name":"MegaKEKER","steam_id":76561199485792353,"connected_time":419000000000,"state":"active","ping":81},{"user_id":53,"name":"Tea guy","steam_id":76561198797847641,"connected_time":845000000000,"state":"active","ping":77},{"user_id":61,"name":"Marcos","steam_id":76561198798925721,"connected_time":379000000000,"state":"active","ping":70},{"user_id":14,"name":"Hussain_144","steam_id":76561198346029208,"connected_time":2590000000000,"state":"active","ping":173},{"user_id":15,"name":"Kes","steam_id":76561198095288832,"connected_time":2567000000000,"state":"active","ping":63},{"user_id":48,"name":"eepy man","steam_id":76561199001657140,"connected_time":1116000000000,"state":"active","ping":86},{"user_id":62,"name":"Jiipeeze","steam_id":76561198316154333,"connected_time":372000000000,"state":"active","ping":81},{"user_id":54,"name":"jfg","steam_id":76561199062437546,"connected_time":794000000000,"state":"active","ping":49},{"user_id":33,"name":"Fat Pigeon","steam_id":76561198817940142,"connected_time":2176000000000,"state":"active","ping":56},{"user_id":38,"name":"kaT","steam_id":76561198879664338,"connected_time":1964000000000,"state":"active","ping":65},{"user_id":34,"name":"Radegast the Brown","steam_id":76561198075489505,"connected_time":2140000000000,"state":"active","ping":59},{"user_id":51,"name":"PlebCord","steam_id":76561198120685803,"connected_time":855000000000,"state":"active","ping":76},{"user_id":66,"name":"frozenwasanokmovie","steam_id":76561198157407952,"connected_time":40000000000,"state":"active","ping":208},{"user_id":24,"name":"Plow cheese","steam_id":76561198142478067,"connected_time":2413000000000,"state":"active","ping":100},{"user_id":25,"name":"Alpha","steam_id":76561198133229149,"connected_time":2402000000000,"state":"active","ping":87},{"user_id":65,"name":"James","steam_id":76561198138558005,"connected_time":55000000000,"state":"active","ping":72},{"user_id":64,"name":"Der Der","steam_id":76561197989587534,"connected_time":90000000000,"state":"active","ping":68},{"user_id":55,"name":"Drix","steam_id":76561198056810212,"connected_time":792000000000,"state":"active","ping":69},{"user_id":40,"name":"SCRAMMMBLED","steam_id":76561197998307746,"connected_time":1798000000000,"state":"active","ping":60},{"user_id":31,"name":"Chromega","steam_id":76561199075307750,"connected_time":2332000000000,"state":"active","ping":54}]},{"server_id":110,"name":"Uncletopia | Frankfurt | 2 | All Maps","name_short":"frk-2","host":"frk-1.de.uncletopia.com","port":27025,"enabled":true,"region":"eu","cc":"de","latitude":50.110924,"longitude":8.682127,"reserved":0,"last_update":"0001-01-01T00:00:00Z","name_a2s":"Uncletopia | Frankfurt | 2 | All Maps","protocol":17,"map":"koth_harvest_final","folder":"tf","game":"Team Fortress","app_id":440,"player_count":24,"max_players":24,"Bots":0,"server_type":"Dedicated","server_os":"Linux","password":true,"vac":true,"version":"7882260","steam_id":85568392924469990,"keywords":["cp","nocrits","nodmgspread","uncletopia"],"game_id":440,"stv_port":27026,"stv_name":"Uncletopia | Frankfurt | 2 | All Maps | STV","players":[{"user_id":25,"name":"I'm Trying Lad","steam_id":76561198093791418,"connected_time":1741000000000,"state":"active","ping":146},{"user_id":26,"name":"Ash","steam_id":76561198148738525,"connected_time":1672000000000,"state":"active","ping":114},{"user_id":46,"name":"GooseNeck","steam_id":76561198825795144,"connected_time":747000000000,"state":"active","ping":58},{"user_id":53,"name":"Mac Bean","steam_id":76561198133782205,"connected_time":80000000000,"state":"active","ping":113},{"user_id":52,"name":"Qwertuss","steam_id":76561198026305366,"connected_time":211000000000,"state":"active","ping":62},{"user_id":13,"name":"Rez","steam_id":76561198410598772,"connected_time":2585000000000,"state":"active","ping":54},{"user_id":28,"name":"deloreg","steam_id":76561199487318962,"connected_time":1618000000000,"state":"active","ping":73},{"user_id":16,"name":"martin","steam_id":76561198448232451,"connected_time":2230000000000,"state":"active","ping":66},{"user_id":17,"name":"laza's boy","steam_id":76561199074095198,"connected_time":2215000000000,"state":"active","ping":117},{"user_id":47,"name":"Mr.killer","steam_id":76561198290584189,"connected_time":671000000000,"state":"active","ping":100},{"user_id":48,"name":"Varma-kakkonen","steam_id":76561198271871145,"connected_time":598000000000,"state":"active","ping":105},{"user_id":20,"name":"semplisimohome","steam_id":76561198019977257,"connected_time":1993000000000,"state":"active","ping":79},{"user_id":21,"name":"unnamed","steam_id":76561198276654092,"connected_time":1974000000000,"state":"active","ping":97},{"user_id":50,"name":"Dude Time","steam_id":76561198092991160,"connected_time":439000000000,"state":"active","ping":152},{"user_id":29,"name":"Grease Huffer","steam_id":76561198982674420,"connected_time":1616000000000,"state":"active","ping":57},{"user_id":32,"name":"Jeerven","steam_id":76561198259189841,"connected_time":1534000000000,"state":"active","ping":60},{"user_id":33,"name":"Ricky","steam_id":76561198950770019,"connected_time":1529000000000,"state":"active","ping":94},{"user_id":43,"name":"We are in a world of magic","steam_id":76561198104745492,"connected_time":1015000000000,"state":"active","ping":72},{"user_id":36,"name":"Itai","steam_id":76561198804555329,"connected_time":1437000000000,"state":"active","ping":110},{"user_id":39,"name":"The Funny Cat-Heaby","steam_id":76561198439978112,"connected_time":1352000000000,"state":"active","ping":109},{"user_id":38,"name":"Dreyfus","steam_id":76561198366687805,"connected_time":1381000000000,"state":"active","ping":70},{"user_id":51,"name":"Darfsterman #rustclash","steam_id":76561199004139305,"connected_time":417000000000,"state":"active","ping":58},{"user_id":44,"name":"Watermelon","steam_id":76561198078349914,"connected_time":1001000000000,"state":"active","ping":61},{"user_id":45,"name":"ARROGANT","steam_id":76561198113089831,"connected_time":1000000000000,"state":"active","ping":104}]},{"server_id":308,"name":"Uncletopia | Frankfurt | 3 | All Maps","name_short":"frk-3","host":"frk-1.de.uncletopia.com","port":27035,"enabled":true,"region":"eu","cc":"de","latitude":50.110924,"longitude":8.682127,"reserved":0,"last_update":"0001-01-01T00:00:00Z","name_a2s":"Uncletopia | Frankfurt | 3 | All Maps","protocol":17,"map":"pl_badwater","folder":"tf","game":"Team Fortress","app_id":440,"player_count":23,"max_players":24,"Bots":0,"server_type":"Dedicated","server_os":"Linux","password":true,"vac":true,"version":"7882260","steam_id":85568392924504274,"keywords":["nocrits","nodmgspread","payload","uncletopia"],"game_id":440,"stv_port":27036,"stv_name":"Uncletopia | Frankfurt | 3 | All Maps | STV","players":[{"user_id":146,"name":"Phloggers","steam_id":76561199241354828,"connected_time":3329000000000,"state":"active","ping":121},{"user_id":112,"name":"on1on (thinly sliced)","steam_id":76561197995304137,"connected_time":5630000000000,"state":"active","ping":61},{"user_id":120,"name":"Mr_Pulse_","steam_id":76561198095001602,"connected_time":5009000000000,"state":"active","ping":93},{"user_id":175,"name":"glyph","steam_id":76561197980736364,"connected_time":133000000000,"state":"active","ping":73},{"user_id":159,"name":"ANGELFISH","steam_id":76561198027536466,"connected_time":1756000000000,"state":"active","ping":97},{"user_id":149,"name":"Makłowicz","steam_id":76561198281831506,"connected_time":3079000000000,"state":"active","ping":80},{"user_id":169,"name":"No | S | uS","steam_id":76561199195727551,"connected_time":779000000000,"state":"active","ping":65},{"user_id":163,"name":"FilipeLuk","steam_id":76561198150675438,"connected_time":1527000000000,"state":"active","ping":74},{"user_id":123,"name":"Barry Bee Benson","steam_id":76561198115199225,"connected_time":4596000000000,"state":"active","ping":59},{"user_id":164,"name":"Master Of Noob","steam_id":76561198217926783,"connected_time":1307000000000,"state":"active","ping":72},{"user_id":166,"name":"✪ aR","steam_id":76561197983676293,"connected_time":1197000000000,"state":"active","ping":61},{"user_id":167,"name":"stuffs","steam_id":76561198212903513,"connected_time":1105000000000,"state":"active","ping":109},{"user_id":174,"name":"gnomiques GLÖBORTTON","steam_id":76561198089330547,"connected_time":161000000000,"state":"active","ping":47},{"user_id":176,"name":"Giuseppe","steam_id":76561198834414431,"connected_time":87000000000,"state":"active","ping":78},{"user_id":117,"name":"üüük","steam_id":76561198350442800,"connected_time":5386000000000,"state":"active","ping":64},{"user_id":177,"name":"your_local_penguin","steam_id":76561199224954346,"connected_time":77000000000,"state":"spawning","ping":80},{"user_id":171,"name":"Szeregowy LowiRyb","steam_id":76561198855967762,"connected_time":483000000000,"state":"active","ping":105},{"user_id":155,"name":"Deacon Dracul","steam_id":76561198046880663,"connected_time":2556000000000,"state":"active","ping":93},{"user_id":148,"name":"Der Herr Doktor","steam_id":76561198119476089,"connected_time":3257000000000,"state":"active","ping":56},{"user_id":178,"name":"Stephen99","steam_id":76561199108690961,"connected_time":51000000000,"state":"active","ping":103},{"user_id":179,"name":"Saint","steam_id":76561198003296382,"connected_time":48000000000,"state":"active","ping":66},{"user_id":143,"name":"Mayor Wank from Wanker Town","steam_id":76561197998253588,"connected_time":3400000000000,"state":"active","ping":50},{"user_id":162,"name":"Matteo Il Biondo","steam_id":76561198315389475,"connected_time":1636000000000,"state":"active","ping":73}]},{"server_id":309,"name":"Uncletopia | Frankfurt | 4 | All Maps","name_short":"frk-4","host":"frk-1.de.uncletopia.com","port":27045,"enabled":true,"region":"eu","cc":"de","latitude":50.110924,"longitude":8.682127,"reserved":0,"last_update":"0001-01-01T00:00:00Z","name_a2s":"Uncletopia | Frankfurt | 4 | All Maps","protocol":17,"map":"koth_highpass","folder":"tf","game":"Team Fortress","app_id":440,"player_count":2,"max_players":24,"Bots":0,"server_type":"Dedicated","server_os":"Linux","password":true,"vac":true,"version":"7882260","steam_id":85568392924504275,"keywords":["cp","nocrits","nodmgspread","uncletopia"],"game_id":440,"stv_port":27046,"stv_name":"Uncletopia | Frankfurt | 4 | All Maps | STV","players":[{"user_id":9,"name":"FanFish","steam_id":76561199389558024,"connected_time":982000000000,"state":"active","ping":66},{"user_id":10,"name":"n1bble","steam_id":76561198828047736,"connected_time":282000000000,"state":"active","ping":111}]},{"server_id":310,"name":"Uncletopia | Frankfurt | 5 | All Maps","name_short":"frk-5","host":"frk-1.de.uncletopia.com","port":27055,"enabled":true,"region":"eu","cc":"de","latitude":50.110924,"longitude":8.682127,"reserved":0,"last_update":"0001-01-01T00:00:00Z","name_a2s":"Uncletopia | Frankfurt | 5 | All Maps","protocol":17,"map":"pl_badwater","folder":"tf","game":"Team Fortress","app_id":440,"player_count":24,"max_players":24,"Bots":0,"server_type":"Dedicated","server_os":"Linux","password":true,"vac":true,"version":"7882260","steam_id":85568392924504277,"keywords":["nocrits","nodmgspread","payload","uncletopia"],"game_id":440,"stv_port":27056,"stv_name":"Uncletopia | Frankfurt | 5 | All Maps | STV","players":[{"user_id":64,"name":"froglids","steam_id":76561198045466919,"connected_time":561000000000,"state":"active","ping":60},{"user_id":58,"name":"Puro ♥","steam_id":76561198039016765,"connected_time":1417000000000,"state":"active","ping":82},{"user_id":65,"name":"Ｍａｃｉｎｔｏｓｈ","steam_id":76561198074294565,"connected_time":120000000000,"state":"active","ping":78},{"user_id":56,"name":"zaleek69","steam_id":76561198058877595,"connected_time":1853000000000,"state":"active","ping":65},{"user_id":8,"name":"lol3546123","steam_id":76561198836747201,"connected_time":5030000000000,"state":"active","ping":85},{"user_id":59,"name":"Testicular torsion","steam_id":76561198119547399,"connected_time":1330000000000,"state":"active","ping":58},{"user_id":63,"name":"CarBombEnthusiast","steam_id":76561199448185434,"connected_time":783000000000,"state":"active","ping":56},{"user_id":66,"name":"jmp","steam_id":76561198168283286,"connected_time":41000000000,"state":"active","ping":75},{"user_id":14,"name":"The.Real.Genesis","steam_id":76561198999652040,"connected_time":4879000000000,"state":"active","ping":32},{"user_id":15,"name":"Syd","steam_id":76561198020515027,"connected_time":4876000000000,"state":"active","ping":77},{"user_id":16,"name":"Teathling","steam_id":76561198061580505,"connected_time":4835000000000,"state":"active","ping":59},{"user_id":31,"name":"Bonca","steam_id":76561198137503531,"connected_time":4451000000000,"state":"active","ping":75},{"user_id":18,"name":"waluigi","steam_id":76561198215809251,"connected_time":4826000000000,"state":"active","ping":58},{"user_id":44,"name":"Kokos","steam_id":76561198085501501,"connected_time":3369000000000,"state":"active","ping":76},{"user_id":51,"name":"JDM-Gaming","steam_id":76561198019383880,"connected_time":2558000000000,"state":"active","ping":67},{"user_id":21,"name":"Yuval","steam_id":76561198241802390,"connected_time":4720000000000,"state":"active","ping":102},{"user_id":43,"name":"☭King☭","steam_id":76561199214677088,"connected_time":3441000000000,"state":"active","ping":79},{"user_id":55,"name":"rG $1LENT K1LLER","steam_id":76561198072916231,"connected_time":1998000000000,"state":"active","ping":76},{"user_id":62,"name":"Nublu","steam_id":76561198360013313,"connected_time":839000000000,"state":"active","ping":92},{"user_id":53,"name":"Dayton","steam_id":76561198432183658,"connected_time":2380000000000,"state":"active","ping":75},{"user_id":38,"name":"John0309","steam_id":76561198447428162,"connected_time":3900000000000,"state":"active","ping":60},{"user_id":27,"name":"󠀡󠀡","steam_id":76561198042830349,"connected_time":4661000000000,"state":"active","ping":81},{"user_id":29,"name":"Musicano","steam_id":76561198114541088,"connected_time":4620000000000,"state":"active","ping":98},{"user_id":30,"name":"† 死HELLiEX死 †","steam_id":76561198307866984,"connected_time":4571000000000,"state":"active","ping":59}]},{"server_id":311,"name":"Uncletopia | Frankfurt | 6 | All Maps","name_short":"frk-6","host":"frk-1.de.uncletopia.com","port":27065,"enabled":true,"region":"eu","cc":"de","latitude":50.110924,"longitude":8.682127,"reserved":0,"last_update":"0001-01-01T00:00:00Z","name_a2s":"Uncletopia | Frankfurt | 6 | All Maps","protocol":17,"map":"pl_badwater","folder":"tf","game":"Team Fortress","app_id":440,"player_count":21,"max_players":24,"Bots":0,"server_type":"Dedicated","server_os":"Linux","password":true,"vac":true,"version":"7882260","steam_id":85568392924504278,"keywords":["nocrits","nodmgspread","payload","uncletopia"],"game_id":440,"stv_port":27066,"stv_name":"Uncletopia | Frankfurt | 6 | All Maps | STV","players":[{"user_id":220,"name":"greg's mom","steam_id":76561198050525471,"connected_time":12000000000,"state":"spawning","ping":99},{"user_id":171,"name":"Akkras","steam_id":76561198046004148,"connected_time":3811000000000,"state":"active","ping":82},{"user_id":198,"name":"grandpa's post-mortem photo","steam_id":76561198130116078,"connected_time":1979000000000,"state":"active","ping":89},{"user_id":190,"name":"Purplenoogie","steam_id":76561198081872160,"connected_time":2227000000000,"state":"active","ping":59},{"user_id":217,"name":"le unfunny dog","steam_id":76561198415020571,"connected_time":270000000000,"state":"active","ping":69},{"user_id":207,"name":"dafydd","steam_id":76561198052200325,"connected_time":1300000000000,"state":"active","ping":75},{"user_id":192,"name":"AwterSix","steam_id":76561198042561678,"connected_time":2172000000000,"state":"active","ping":57},{"user_id":200,"name":"Vidrox #savetf2","steam_id":76561199217854983,"connected_time":1858000000000,"state":"active","ping":87},{"user_id":189,"name":"xavier","steam_id":76561198076494034,"connected_time":2289000000000,"state":"active","ping":55},{"user_id":216,"name":"Hat Lover","steam_id":76561198312283433,"connected_time":317000000000,"state":"active","ping":84},{"user_id":212,"name":"HUGO","steam_id":76561198317134996,"connected_time":559000000000,"state":"active","ping":88},{"user_id":135,"name":"eva.","steam_id":76561198054474684,"connected_time":6547000000000,"state":"active","ping":74},{"user_id":213,"name":"KNARRER","steam_id":76561199130777953,"connected_time":528000000000,"state":"active","ping":55},{"user_id":219,"name":"\u003e:3","steam_id":76561198368312026,"connected_time":111000000000,"state":"active","ping":81},{"user_id":218,"name":"femboy sniper main","steam_id":76561198119210003,"connected_time":192000000000,"state":"active","ping":92},{"user_id":85,"name":"Rin-Nakaret","steam_id":76561197971051188,"connected_time":11601000000000,"state":"active","ping":72},{"user_id":180,"name":"Egg Hunter","steam_id":76561199372365790,"connected_time":3581000000000,"state":"active","ping":105},{"user_id":214,"name":"Volmari","steam_id":76561198054253542,"connected_time":518000000000,"state":"active","ping":71},{"user_id":215,"name":"mark of the outsider","steam_id":76561198309246388,"connected_time":395000000000,"state":"active","ping":45},{"user_id":131,"name":"The2PLAYZ","steam_id":76561198352720404,"connected_time":7476000000000,"state":"active","ping":82},{"user_id":202,"name":"Mi Manchi","steam_id":76561198171573129,"connected_time":1690000000000,"state":"active","ping":60}]},{"server_id":23,"name":"Uncletopia | Frankfurt | 7 | Stopwatch Beta","name_short":"frk-7","host":"frk-1.de.uncletopia.com","port":27075,"enabled":true,"region":"eu","cc":"de","latitude":50.110924,"longitude":8.682127,"reserved":0,"last_update":"0001-01-01T00:00:00Z","name_a2s":"Uncletopia | Frankfurt | 7 | Stopwatch Beta","protocol":17,"map":"pl_swiftwater_final1","folder":"tf","game":"Team Fortress","app_id":440,"player_count":0,"max_players":24,"Bots":0,"server_type":"Dedicated","server_os":"Linux","password":true,"vac":true,"version":"7882260","steam_id":85568392924742827,"keywords":["nocrits","nodmgspread","payload","uncletopia"],"game_id":440,"stv_port":27076,"stv_name":"Uncletopia | Frankfurt | 7 | Stopwatch Beta | STV","players":null},{"server_id":24,"name":"Uncletopia | Frankfurt | 8 | Community","name_short":"frk-8","host":"frk-1.de.uncletopia.com","port":27085,"enabled":true,"region":"eu","cc":"de","latitude":50.110924,"longitude":8.682127,"reserved":0,"last_update":"0001-01-01T00:00:00Z","name_a2s":"Uncletopia | Frankfurt | 8 | Community","protocol":17,"map":"cp_mountainlab","folder":"tf","game":"Team Fortress","app_id":440,"player_count":0,"max_players":24,"Bots":0,"server_type":"Dedicated","server_os":"Linux","password":true,"vac":true,"version":"7882260","steam_id":85568392924742828,"keywords":["cp","nocrits","nodmgspread","uncletopia"],"game_id":440,"stv_port":27086,"stv_name":"Uncletopia | Frankfurt | 8 | Community | STV","players":null},{"server_id":202,"name":"Uncletopia | Hong Kong | 1 | All Maps","name_short":"hgk-1","host":"hgk-1.hk.uncletopia.com","port":27015,"enabled":true,"region":"asia","cc":"hk","latitude":22.302711,"longitude":114.177216,"reserved":0,"last_update":"0001-01-01T00:00:00Z","name_a2s":"Uncletopia | Hong Kong | 1 | All Maps","protocol":17,"map":"pl_goldrush","folder":"tf","game":"Team Fortress","app_id":440,"player_count":23,"max_players":24,"Bots":0,"server_type":"Dedicated","server_os":"Linux","password":true,"vac":true,"version":"7882260","steam_id":85568392924494504,"keywords":["nocrits","nodmgspread","payload","uncletopia"],"game_id":440,"stv_port":27016,"stv_name":"Uncletopia | Hong Kong | 1 | All Maps | STV","players":[{"user_id":349,"name":"SICSIN","steam_id":76561198083923462,"connected_time":885000000000,"state":"active","ping":76},{"user_id":357,"name":"Islandboi","steam_id":76561198976041674,"connected_time":297000000000,"state":"active","ping":100},{"user_id":358,"name":"3wfFbdrjEze5d2G","steam_id":76561198435900451,"connected_time":187000000000,"state":"active","ping":119},{"user_id":335,"name":"NeutralM4sk","steam_id":76561199034346807,"connected_time":1457000000000,"state":"active","ping":80},{"user_id":324,"name":"3rwynM","steam_id":76561198288311270,"connected_time":2574000000000,"state":"active","ping":120},{"user_id":319,"name":"MeetTeMedic99","steam_id":76561199208706868,"connected_time":2995000000000,"state":"active","ping":79},{"user_id":350,"name":"Smudge","steam_id":76561198167863840,"connected_time":821000000000,"state":"active","ping":71},{"user_id":341,"name":"xPhid","steam_id":76561199080808930,"connected_time":1192000000000,"state":"active","ping":80},{"user_id":342,"name":"huoh (cant chat)","steam_id":76561199480939609,"connected_time":1173000000000,"state":"active","ping":106},{"user_id":359,"name":"Kumaz","steam_id":76561199062190085,"connected_time":130000000000,"state":"active","ping":75},{"user_id":351,"name":"BJ","steam_id":76561198004307563,"connected_time":802000000000,"state":"active","ping":103},{"user_id":338,"name":"Noyour","steam_id":76561198323259830,"connected_time":1352000000000,"state":"active","ping":106},{"user_id":360,"name":"\\(´･_･`)Q","steam_id":76561198141778800,"connected_time":99000000000,"state":"active","ping":53},{"user_id":332,"name":"scott the woz","steam_id":76561199014675406,"connected_time":1899000000000,"state":"active","ping":128},{"user_id":355,"name":"Fxros","steam_id":76561198100335095,"connected_time":533000000000,"state":"active","ping":115},{"user_id":321,"name":"Milk❤","steam_id":76561198163911560,"connected_time":2595000000000,"state":"active","ping":139},{"user_id":344,"name":"GreggieBoi","steam_id":76561199085200364,"connected_time":1094000000000,"state":"active","ping":68},{"user_id":323,"name":"condiment king","steam_id":76561199039560921,"connected_time":2582000000000,"state":"active","ping":100},{"user_id":354,"name":"cass","steam_id":76561198042050215,"connected_time":598000000000,"state":"active","ping":76},{"user_id":310,"name":"timmy.1366","steam_id":76561199065433547,"connected_time":4446000000000,"state":"active","ping":80},{"user_id":333,"name":"TheChainsaw","steam_id":76561198312001455,"connected_time":1767000000000,"state":"active","ping":121},{"user_id":361,"name":"Diavolo Diablo","steam_id":76561198166295333,"connected_time":85000000000,"state":"active","ping":78},{"user_id":347,"name":"Streety","steam_id":76561199098969003,"connected_time":1083000000000,"state":"active","ping":78}]},{"server_id":1,"name":"Uncletopia | Los Angeles | 1 | All Maps","name_short":"lax-1","host":"lax-1.us.uncletopia.com","port":27015,"enabled":true,"region":"us-west","cc":"us","latitude":33.94279,"longitude":-118.41004,"reserved":0,"last_update":"0001-01-01T00:00:00Z","name_a2s":"Uncletopia | Los Angeles | 1 | All Maps","protocol":17,"map":"pl_badwater","folder":"tf","game":"Team Fortress","app_id":440,"player_count":24,"max_players":24,"Bots":0,"server_type":"Dedicated","server_os":"Linux","password":true,"vac":true,"version":"7882260","steam_id":85568392924469991,"keywords":["nocrits","nodmgspread","payload","uncletopia"],"game_id":440,"stv_port":27016,"stv_name":"Uncletopia | Los Angeles | 1 | All Maps | STV","players":[{"user_id":572,"name":"Donny Q","steam_id":76561198020901703,"connected_time":3403000000000,"state":"active","ping":82},{"user_id":512,"name":"Moomin","steam_id":76561198072726213,"connected_time":8758000000000,"state":"active","ping":45},{"user_id":589,"name":"Ginger Jesus","steam_id":76561198052386458,"connected_time":1770000000000,"state":"active","ping":104},{"user_id":620,"name":"Headmouth","steam_id":76561198019789855,"connected_time":354000000000,"state":"active","ping":195},{"user_id":614,"name":"jdazed","steam_id":76561198128334738,"connected_time":537000000000,"state":"active","ping":62},{"user_id":603,"name":"TrustworthyStranger","steam_id":76561198154105678,"connected_time":1093000000000,"state":"active","ping":91},{"user_id":592,"name":"Rori","steam_id":76561198052582902,"connected_time":1542000000000,"state":"active","ping":96},{"user_id":622,"name":"Neo Kojiro","steam_id":76561198000967076,"connected_time":213000000000,"state":"active","ping":120},{"user_id":613,"name":"Dax","steam_id":76561197987653308,"connected_time":548000000000,"state":"active","ping":74},{"user_id":596,"name":"Medic Boyfriend","steam_id":76561198104086771,"connected_time":1373000000000,"state":"active","ping":45},{"user_id":623,"name":"randomnerd64","steam_id":76561198129821457,"connected_time":182000000000,"state":"active","ping":160},{"user_id":619,"name":"Call Me Ishmael","steam_id":76561198030696516,"connected_time":393000000000,"state":"active","ping":60},{"user_id":575,"name":"mitya.t","steam_id":76561197975079473,"connected_time":3284000000000,"state":"active","ping":68},{"user_id":606,"name":"Mr Sir Logan","steam_id":76561198088803891,"connected_time":857000000000,"state":"active","ping":59},{"user_id":580,"name":"Gm_Trash","steam_id":76561199445091548,"connected_time":2980000000000,"state":"active","ping":70},{"user_id":607,"name":"(◎﹏◎)","steam_id":76561198007464245,"connected_time":815000000000,"state":"active","ping":105},{"user_id":611,"name":"0akmask","steam_id":76561198239584280,"connected_time":634000000000,"state":"active","ping":76},{"user_id":608,"name":"FusionChimp","steam_id":76561197988965716,"connected_time":815000000000,"state":"active","ping":102},{"user_id":609,"name":"carrot cake","steam_id":76561198055174915,"connected_time":808000000000,"state":"active","ping":119},{"user_id":585,"name":"CheeseCake488","steam_id":76561199407617942,"connected_time":2688000000000,"state":"active","ping":82},{"user_id":624,"name":"Quillz","steam_id":76561197996567754,"connected_time":125000000000,"state":"active","ping":93},{"user_id":612,"name":"..flop","steam_id":76561197989058876,"connected_time":611000000000,"state":"active","ping":73},{"user_id":587,"name":"JuliaDragon","steam_id":76561198175727790,"connected_time":2464000000000,"state":"active","ping":45},{"user_id":504,"name":"[ØWQJØ]chubacaalatake","steam_id":76561198136201697,"connected_time":9197000000000,"state":"active","ping":89}]},{"server_id":112,"name":"Uncletopia | Los Angeles | 2 | All Maps","name_short":"lax-2","host":"lax-1.us.uncletopia.com","port":27025,"enabled":true,"region":"us-west","cc":"us","latitude":33.94279,"longitude":-118.41004,"reserved":0,"last_update":"0001-01-01T00:00:00Z","name_a2s":"Uncletopia | Los Angeles | 2 | All Maps","protocol":17,"map":"cp_snakewater_final1","folder":"tf","game":"Team Fortress","app_id":440,"player_count":0,"max_players":24,"Bots":0,"server_type":"Dedicated","server_os":"Linux","password":true,"vac":true,"version":"7882260","steam_id":85568392924469992,"keywords":["cp","nocrits","nodmgspread","uncletopia"],"game_id":440,"stv_port":27026,"stv_name":"Uncletopia | Los Angeles | 2 | All Maps | STV","players":null},{"server_id":324,"name":"Uncletopia | Los Angeles | 3 | All Maps","name_short":"lax-3","host":"lax-1.us.uncletopia.com","port":27035,"enabled":true,"region":"us-west","cc":"us","latitude":33.94279,"longitude":-118.41004,"reserved":0,"last_update":"0001-01-01T00:00:00Z","name_a2s":"Uncletopia | Los Angeles | 3 | All Maps","protocol":17,"map":"koth_lakeside_final","folder":"tf","game":"Team Fortress","app_id":440,"player_count":0,"max_players":24,"Bots":0,"server_type":"Dedicated","server_os":"Linux","password":true,"vac":true,"version":"7882260","steam_id":85568392924510198,"keywords":["cp","nocrits","nodmgspread","uncletopia"],"game_id":440,"stv_port":27036,"stv_name":"Uncletopia | Los Angeles | 3 | All Maps | STV","players":null},{"server_id":25,"name":"Uncletopia | Los Angeles | 4 | Stopwatch Beta","name_short":"lax-4","host":"lax-1.us.uncletopia.com","port":27045,"enabled":true,"region":"us-west","cc":"us","latitude":33.94279,"longitude":-118.41004,"reserved":0,"last_update":"0001-01-01T00:00:00Z","name_a2s":"Uncletopia | Los Angeles | 4 | Stopwatch Beta","protocol":17,"map":"koth_lakeside_final","folder":"tf","game":"Team Fortress","app_id":440,"player_count":0,"max_players":24,"Bots":0,"server_type":"Dedicated","server_os":"Linux","password":true,"vac":true,"version":"7882260","steam_id":85568392924510199,"keywords":["cp","nocrits","nodmgspread","uncletopia"],"game_id":440,"stv_port":27046,"stv_name":"Uncletopia | Los Angeles | 4 | Stopwatch Beta | STV","players":null},{"server_id":11,"name":"Uncletopia | London | 1 | All Maps","name_short":"lon-1","host":"lon-1.uk.uncletopia.com","port":27015,"enabled":true,"region":"eu","cc":"gb","latitude":51.509865,"longitude":-0.118092,"reserved":0,"last_update":"0001-01-01T00:00:00Z","name_a2s":"Uncletopia | London | 1 | All Maps","protocol":17,"map":"koth_cascade","folder":"tf","game":"Team Fortress","app_id":440,"player_count":8,"max_players":24,"Bots":0,"server_type":"Dedicated","server_os":"Linux","password":true,"vac":true,"version":"7882260","steam_id":85568392924367362,"keywords":["cp","nocrits","nodmgspread","uncletopia"],"game_id":440,"stv_port":27016,"stv_name":"Uncletopia | London | 1 | All Maps | STV","players":[{"user_id":24,"name":"Meddler","steam_id":76561198033001402,"connected_time":390000000000,"state":"active","ping":42},{"user_id":23,"name":"ultra lox","steam_id":76561199427318825,"connected_time":580000000000,"state":"active","ping":191},{"user_id":15,"name":"clock tower","steam_id":76561199394371317,"connected_time":1001000000000,"state":"active","ping":70},{"user_id":20,"name":"Maybe_Stunner","steam_id":76561199085822219,"connected_time":759000000000,"state":"active","ping":89},{"user_id":19,"name":"TheFox.tf","steam_id":76561197996851702,"connected_time":803000000000,"state":"active","ping":60},{"user_id":18,"name":"BumiiBum","steam_id":76561198210682456,"connected_time":875000000000,"state":"active","ping":58},{"user_id":26,"name":"you are sus","steam_id":76561199291362833,"connected_time":110000000000,"state":"active","ping":178},{"user_id":27,"name":"Myrmodion","steam_id":76561198054746247,"connected_time":89000000000,"state":"active","ping":72}]},{"server_id":114,"name":"Uncletopia | London | 2 | All Maps","name_short":"lon-2","host":"lon-1.uk.uncletopia.com","port":27025,"enabled":true,"region":"eu","cc":"gb","latitude":51.509865,"longitude":-0.118092,"reserved":0,"last_update":"0001-01-01T00:00:00Z","name_a2s":"Uncletopia | London | 2 | All Maps","protocol":17,"map":"koth_highpass","folder":"tf","game":"Team Fortress","app_id":440,"player_count":0,"max_players":24,"Bots":0,"server_type":"Dedicated","server_os":"Linux","password":true,"vac":true,"version":"7882260","steam_id":85568392924470941,"keywords":["cp","nocrits","nodmgspread","uncletopia"],"game_id":440,"stv_port":27026,"stv_name":"Uncletopia | London | 2 | All Maps | STV","players":null},{"server_id":320,"name":"Uncletopia | London | 3 | All Maps","name_short":"lon-3","host":"lon-1.uk.uncletopia.com","port":27035,"enabled":true,"region":"eu","cc":"gb","latitude":51.509865,"longitude":-0.118092,"reserved":0,"last_update":"0001-01-01T00:00:00Z","name_a2s":"Uncletopia | London | 3 | All Maps","protocol":17,"map":"koth_cascade","folder":"tf","game":"Team Fortress","app_id":440,"player_count":0,"max_players":24,"Bots":0,"server_type":"Dedicated","server_os":"Linux","password":true,"vac":true,"version":"7882260","steam_id":85568392924510192,"keywords":["cp","nocrits","nodmgspread","uncletopia"],"game_id":440,"stv_port":27036,"stv_name":"Uncletopia | London | 3 | All Maps | STV","players":null},{"server_id":321,"name":"Uncletopia | London | 4 | All Maps","name_short":"lon-4","host":"lon-1.uk.uncletopia.com","port":27045,"enabled":true,"region":"eu","cc":"gb","latitude":51.509865,"longitude":-0.118092,"reserved":0,"last_update":"0001-01-01T00:00:00Z","name_a2s":"Uncletopia | London | 4 | All Maps","protocol":17,"map":"pl_pier","folder":"tf","game":"Team Fortress","app_id":440,"player_count":21,"max_players":24,"Bots":0,"server_type":"Dedicated","server_os":"Linux","password":true,"vac":true,"version":"7882260","steam_id":85568392924510193,"keywords":["nocrits","nodmgspread","payload","uncletopia"],"game_id":440,"stv_port":27046,"stv_name":"Uncletopia | London | 4 | All Maps | STV","players":[{"user_id":124,"name":"MajorKlebstoff","steam_id":76561198035489363,"connected_time":2565000000000,"state":"active","ping":58},{"user_id":35,"name":"The Mask...","steam_id":76561198052402891,"connected_time":6764000000000,"state":"active","ping":43},{"user_id":141,"name":"Runyohell","steam_id":76561198309876860,"connected_time":952000000000,"state":"active","ping":96},{"user_id":114,"name":"FlameTheGame","steam_id":76561198841108519,"connected_time":2943000000000,"state":"active","ping":98},{"user_id":142,"name":"Jammy120","steam_id":76561198353380444,"connected_time":752000000000,"state":"active","ping":89},{"user_id":130,"name":"Thors","steam_id":76561197968739075,"connected_time":1980000000000,"state":"active","ping":45},{"user_id":89,"name":"Greenmaker","steam_id":76561198060466591,"connected_time":4274000000000,"state":"active","ping":81},{"user_id":143,"name":"mindas tf2.LT","steam_id":76561198056839438,"connected_time":722000000000,"state":"active","ping":64},{"user_id":144,"name":"Pefor","steam_id":76561199477114157,"connected_time":715000000000,"state":"active","ping":128},{"user_id":137,"name":"Symberzite","steam_id":76561198028581774,"connected_time":1264000000000,"state":"active","ping":86},{"user_id":150,"name":"aminoxsos","steam_id":76561198839741609,"connected_time":223000000000,"state":"active","ping":74},{"user_id":134,"name":"Jucatron","steam_id":76561198044259577,"connected_time":1717000000000,"state":"active","ping":78},{"user_id":136,"name":"IDon'tNeedACoolName","steam_id":76561198013547503,"connected_time":1395000000000,"state":"active","ping":63},{"user_id":99,"name":"Dry","steam_id":76561198027164095,"connected_time":3990000000000,"state":"active","ping":130},{"user_id":100,"name":"The Traveller","steam_id":76561198105364304,"connected_time":3975000000000,"state":"active","ping":106},{"user_id":77,"name":"denimchicken","steam_id":76561197989061982,"connected_time":4892000000000,"state":"active","ping":89},{"user_id":135,"name":"V★ren","steam_id":76561198063138371,"connected_time":1699000000000,"state":"active","ping":51},{"user_id":148,"name":"Kid named download","steam_id":76561199192074448,"connected_time":646000000000,"state":"active","ping":160},{"user_id":140,"name":"Zelascelar","steam_id":76561197974628666,"connected_time":1070000000000,"state":"active","ping":91},{"user_id":149,"name":"Sych06","steam_id":76561198798979302,"connected_time":636000000000,"state":"active","ping":105},{"user_id":123,"name":"clunk","steam_id":76561198836460767,"connected_time":2591000000000,"state":"active","ping":62}]},{"server_id":21,"name":"Uncletopia | London | 5 | All Maps","name_short":"lon-5","host":"lon-1.uk.uncletopia.com","port":27055,"enabled":true,"region":"eu","cc":"gb","latitude":51.509865,"longitude":-0.118092,"reserved":0,"last_update":"0001-01-01T00:00:00Z","name_a2s":"Uncletopia | London | 5 | All Maps","protocol":17,"map":"koth_highpass","folder":"tf","game":"Team Fortress","app_id":440,"player_count":21,"max_players":24,"Bots":0,"server_type":"Dedicated","server_os":"Linux","password":true,"vac":true,"version":"7882260","steam_id":85568392924742829,"keywords":["cp","nocrits","nodmgspread","uncletopia"],"game_id":440,"stv_port":27056,"stv_name":"Uncletopia | London | 5 | All Maps | STV","players":[{"user_id":3,"name":"Grey","steam_id":76561198187190267,"connected_time":19515000000000,"state":"active","ping":46},{"user_id":197,"name":"Usame bin Muhammed","steam_id":76561199198844185,"connected_time":1674000000000,"state":"active","ping":75},{"user_id":201,"name":"HaldunEymen","steam_id":76561198877464598,"connected_time":1230000000000,"state":"active","ping":91},{"user_id":196,"name":"medicinal man","steam_id":76561198202668788,"connected_time":1829000000000,"state":"active","ping":69},{"user_id":188,"name":"Dolcelatte","steam_id":76561198038501770,"connected_time":3166000000000,"state":"active","ping":60},{"user_id":218,"name":"mummi","steam_id":76561198137614047,"connected_time":37000000000,"state":"active","ping":60},{"user_id":206,"name":"EmptyBottle356","steam_id":76561197970915314,"connected_time":1078000000000,"state":"active","ping":83},{"user_id":191,"name":"wide appreciator","steam_id":76561198083286511,"connected_time":2435000000000,"state":"active","ping":38},{"user_id":202,"name":"AWildTamim","steam_id":76561198048060652,"connected_time":1228000000000,"state":"active","ping":41},{"user_id":216,"name":"ThatSiegeKid","steam_id":76561198368037656,"connected_time":503000000000,"state":"active","ping":35},{"user_id":219,"name":"shotgunaddict9000","steam_id":76561198324316160,"connected_time":27000000000,"state":"active","ping":47},{"user_id":198,"name":"Sensei","steam_id":76561198383582429,"connected_time":1673000000000,"state":"active","ping":92},{"user_id":211,"name":"spxcy","steam_id":76561198080296853,"connected_time":926000000000,"state":"active","ping":76},{"user_id":215,"name":"Helon","steam_id":76561198050761682,"connected_time":693000000000,"state":"active","ping":64},{"user_id":203,"name":"Nonok","steam_id":76561199480685498,"connected_time":1225000000000,"state":"active","ping":66},{"user_id":200,"name":"kat","steam_id":76561198857464189,"connected_time":1341000000000,"state":"active","ping":87},{"user_id":207,"name":"Bootywizard356","steam_id":76561199487381897,"connected_time":1075000000000,"state":"active","ping":97},{"user_id":165,"name":"NLSAM","steam_id":76561199111154916,"connected_time":4552000000000,"state":"active","ping":71},{"user_id":214,"name":"brick","steam_id":76561198071504997,"connected_time":696000000000,"state":"active","ping":82},{"user_id":210,"name":"nyanezt","steam_id":76561198253734265,"connected_time":1029000000000,"state":"active","ping":104},{"user_id":195,"name":"Beta Probopass","steam_id":76561198140806694,"connected_time":2264000000000,"state":"active","ping":75}]},{"server_id":22,"name":"Uncletopia | London | 6 | All Maps","name_short":"lon-6","host":"lon-1.uk.uncletopia.com","port":27065,"enabled":true,"region":"eu","cc":"gb","latitude":51.509865,"longitude":-0.118092,"reserved":0,"last_update":"0001-01-01T00:00:00Z","name_a2s":"Uncletopia | London | 6 | All Maps","protocol":17,"map":"koth_lakeside_final","folder":"tf","game":"Team Fortress","app_id":440,"player_count":20,"max_players":24,"Bots":0,"server_type":"Dedicated","server_os":"Linux","password":true,"vac":true,"version":"7882260","steam_id":85568392924742830,"keywords":["cp","nocrits","nodmgspread","uncletopia"],"game_id":440,"stv_port":27066,"stv_name":"Uncletopia | London | 6 | All Maps | STV","players":[{"user_id":6,"name":"Gardvord","steam_id":76561198120715753,"connected_time":1535000000000,"state":"active","ping":75},{"user_id":7,"name":"Beep","steam_id":76561198151248575,"connected_time":1523000000000,"state":"active","ping":75},{"user_id":8,"name":"Tiobio","steam_id":76561198355473473,"connected_time":1509000000000,"state":"active","ping":73},{"user_id":9,"name":"Uncle Terry","steam_id":76561198396415736,"connected_time":1318000000000,"state":"active","ping":50},{"user_id":10,"name":"˹Fate's·Marionette˼","steam_id":76561198034197381,"connected_time":1313000000000,"state":"active","ping":48},{"user_id":21,"name":"Jonkheervanflep","steam_id":76561198006853101,"connected_time":407000000000,"state":"active","ping":81},{"user_id":12,"name":"Fix","steam_id":76561198048000198,"connected_time":957000000000,"state":"active","ping":78},{"user_id":13,"name":"『Dorarhim』","steam_id":76561198220232352,"connected_time":950000000000,"state":"active","ping":45},{"user_id":17,"name":"TrollFace","steam_id":76561198799317717,"connected_time":588000000000,"state":"active","ping":113},{"user_id":15,"name":"Spamton G Spamton","steam_id":76561198916276543,"connected_time":811000000000,"state":"active","ping":52},{"user_id":18,"name":"Minuano","steam_id":76561199228260410,"connected_time":514000000000,"state":"active","ping":66},{"user_id":19,"name":"Bullet magnet (FIN)","steam_id":76561197975715220,"connected_time":496000000000,"state":"active","ping":90},{"user_id":20,"name":"Daga","steam_id":76561198055450219,"connected_time":453000000000,"state":"active","ping":44},{"user_id":25,"name":"Jered","steam_id":76561198834692136,"connected_time":273000000000,"state":"active","ping":44},{"user_id":27,"name":"C.H.E.R.E.P.","steam_id":76561198026938595,"connected_time":201000000000,"state":"active","ping":87},{"user_id":24,"name":"toomas2018","steam_id":76561199105796083,"connected_time":329000000000,"state":"active","ping":79},{"user_id":26,"name":"WDFresh","steam_id":76561199463217938,"connected_time":231000000000,"state":"active","ping":69},{"user_id":28,"name":"Rocket To Insanity","steam_id":76561197998166266,"connected_time":150000000000,"state":"active","ping":130},{"user_id":29,"name":"ScaryTree","steam_id":76561199384362833,"connected_time":128000000000,"state":"active","ping":85},{"user_id":30,"name":"silicon based life form","steam_id":76561199127121346,"connected_time":23000000000,"state":"active","ping":147}]},{"server_id":40,"name":"Uncletopia | London | 7 | No Payload","name_short":"lon-7","host":"lon-1.uk.uncletopia.com","port":27075,"enabled":true,"region":"eu","cc":"gb","latitude":51.509865,"longitude":-0.118092,"reserved":0,"last_update":"0001-01-01T00:00:00Z","name_a2s":"Uncletopia | London | 7 | No Payload","protocol":17,"map":"koth_harvest_final","folder":"tf","game":"Team Fortress","app_id":440,"player_count":2,"max_players":24,"Bots":0,"server_type":"Dedicated","server_os":"Linux","password":true,"vac":true,"version":"7882260","steam_id":85568392924964314,"keywords":["cp","nocrits","nodmgspread","uncletopia"],"game_id":440,"stv_port":27076,"stv_name":"Uncletopia | London | 7 | No Payload | STV","players":[{"user_id":5,"name":"person who like the pomson","steam_id":76561199452855953,"connected_time":1496000000000,"state":"active","ping":65},{"user_id":6,"name":"cock","steam_id":76561198307522022,"connected_time":1368000000000,"state":"active","ping":46}]},{"server_id":41,"name":"Uncletopia | London | 8 | Community","name_short":"lon-8","host":"lon-1.uk.uncletopia.com","port":27085,"enabled":true,"region":"eu","cc":"gb","latitude":51.509865,"longitude":-0.118092,"reserved":0,"last_update":"0001-01-01T00:00:00Z","name_a2s":"Uncletopia | London | 8 | Community","protocol":17,"map":"pl_upward","folder":"tf","game":"Team Fortress","app_id":440,"player_count":0,"max_players":24,"Bots":0,"server_type":"Dedicated","server_os":"Linux","password":true,"vac":true,"version":"7882260","steam_id":85568392924964315,"keywords":["nocrits","nodmgspread","payload","uncletopia"],"game_id":440,"stv_port":27086,"stv_name":"Uncletopia | London | 8 | Community | STV","players":null},{"server_id":300,"name":"Uncletopia | Montréal | 1 | All Maps","name_short":"mtl-1","host":"mtl-1.ca.uncletopia.com","port":27015,"enabled":true,"region":"us-east","cc":"ca","latitude":45.50889,"longitude":-73.56167,"reserved":0,"last_update":"0001-01-01T00:00:00Z","name_a2s":"Uncletopia | Montréal | 1 | All Maps","protocol":17,"map":"cp_dustbowl","folder":"tf","game":"Team Fortress","app_id":440,"player_count":0,"max_players":24,"Bots":0,"server_type":"Dedicated","server_os":"Linux","password":true,"vac":true,"version":"7882260","steam_id":85568392924500087,"keywords":["cp","nocrits","nodmgspread","uncletopia"],"game_id":440,"stv_port":27016,"stv_name":"Uncletopia | Montréal | 1 | All Maps | STV","players":null},{"server_id":301,"name":"Uncletopia | Montréal | 2 | All Maps","name_short":"mtl-2","host":"mtl-1.ca.uncletopia.com","port":27025,"enabled":true,"region":"us-east","cc":"ca","latitude":45.50889,"longitude":-73.56167,"reserved":0,"last_update":"0001-01-01T00:00:00Z","name_a2s":"Uncletopia | Montréal | 2 | All Maps","protocol":17,"map":"pl_swiftwater_final1","folder":"tf","game":"Team Fortress","app_id":440,"player_count":0,"max_players":24,"Bots":0,"server_type":"Dedicated","server_os":"Linux","password":true,"vac":true,"version":"7882260","steam_id":85568392924500088,"keywords":["nocrits","nodmgspread","payload","uncletopia"],"game_id":440,"stv_port":27026,"stv_name":"Uncletopia | Montréal | 2 | All Maps | STV","players":null},{"server_id":302,"name":"Uncletopia | Montréal | 3 | All Maps","name_short":"mtl-3","host":"mtl-1.ca.uncletopia.com","port":27035,"enabled":true,"region":"us-east","cc":"ca","latitude":45.50889,"longitude":-73.56167,"reserved":0,"last_update":"0001-01-01T00:00:00Z","name_a2s":"Uncletopia | Montréal | 3 | All Maps","protocol":17,"map":"koth_highpass","folder":"tf","game":"Team Fortress","app_id":440,"player_count":0,"max_players":24,"Bots":0,"server_type":"Dedicated","server_os":"Linux","password":true,"vac":true,"version":"7882260","steam_id":85568392924500089,"keywords":["cp","nocrits","nodmgspread","uncletopia"],"game_id":440,"stv_port":27036,"stv_name":"Uncletopia | Montréal | 3 | All Maps | STV","players":null},{"server_id":303,"name":"Uncletopia | Montréal | 4 | No Payload","name_short":"mtl-4","host":"mtl-1.ca.uncletopia.com","port":27045,"enabled":true,"region":"us-east","cc":"ca","latitude":45.50889,"longitude":-73.56167,"reserved":0,"last_update":"0001-01-01T00:00:00Z","name_a2s":"Uncletopia | Montréal | 4 | No Payload","protocol":17,"map":"koth_highpass","folder":"tf","game":"Team Fortress","app_id":440,"player_count":0,"max_players":24,"Bots":0,"server_type":"Dedicated","server_os":"Linux","password":true,"vac":true,"version":"7882260","steam_id":85568392924500090,"keywords":["cp","nocrits","nodmgspread","uncletopia"],"game_id":440,"stv_port":27046,"stv_name":"Uncletopia | Montréal | 4 | No Payload | STV","players":null},{"server_id":13,"name":"Uncletopia | New York City | 1 | All Maps","name_short":"nyc-1","host":"nyc-1.us.uncletopia.com","port":27015,"enabled":true,"region":"us-east","cc":"us","latitude":40.73061,"longitude":-73.93524,"reserved":0,"last_update":"0001-01-01T00:00:00Z","name_a2s":"Uncletopia | New York City | 1 | All Maps","protocol":17,"map":"pl_frontier_final","folder":"tf","game":"Team Fortress","app_id":440,"player_count":0,"max_players":24,"Bots":0,"server_type":"Dedicated","server_os":"Linux","password":true,"vac":true,"version":"7882260","steam_id":85568392924469993,"keywords":["nocrits","nodmgspread","payload","uncletopia"],"game_id":440,"stv_port":27016,"stv_name":"Uncletopia | New York City | 1 | All Maps | STV","players":null},{"server_id":14,"name":"Uncletopia | New York City | 2 | All Maps","name_short":"nyc-2","host":"nyc-1.us.uncletopia.com","port":27025,"enabled":true,"region":"us-east","cc":"us","latitude":40.73061,"longitude":-73.93524,"reserved":0,"last_update":"0001-01-01T00:00:00Z","name_a2s":"Uncletopia | New York City | 2 | All Maps","protocol":17,"map":"pl_frontier_final","folder":"tf","game":"Team Fortress","app_id":440,"player_count":0,"max_players":24,"Bots":0,"server_type":"Dedicated","server_os":"Linux","password":true,"vac":true,"version":"7882260","steam_id":85568392924469994,"keywords":["nocrits","nodmgspread","payload","uncletopia"],"game_id":440,"stv_port":27026,"stv_name":"Uncletopia | New York City | 2 | All Maps | STV","players":null},{"server_id":15,"name":"Uncletopia | New York City | 3 | Stopwatch Beta","name_short":"nyc-3","host":"nyc-1.us.uncletopia.com","port":27035,"enabled":true,"region":"us-east","cc":"us","latitude":40.73061,"longitude":-73.93524,"reserved":0,"last_update":"0001-01-01T00:00:00Z","name_a2s":"Uncletopia | New York City | 3 | Stopwatch Beta","protocol":17,"map":"pl_borneo","folder":"tf","game":"Team Fortress","app_id":440,"player_count":0,"max_players":24,"Bots":0,"server_type":"Dedicated","server_os":"Linux","password":true,"vac":true,"version":"7882260","steam_id":85568392924742820,"keywords":["nocrits","nodmgspread","payload","uncletopia"],"game_id":440,"stv_port":27036,"stv_name":"Uncletopia | New York City | 3 | Stopwatch Beta | STV","players":null},{"server_id":16,"name":"Uncletopia | New York City | 4 | Community","name_short":"nyc-4","host":"nyc-1.us.uncletopia.com","port":27045,"enabled":true,"region":"us-east","cc":"us","latitude":40.73061,"longitude":-73.93524,"reserved":0,"last_update":"0001-01-01T00:00:00Z","name_a2s":"Uncletopia | New York City | 4 | Community","protocol":17,"map":"cp_altitude","folder":"tf","game":"Team Fortress","app_id":440,"player_count":0,"max_players":24,"Bots":0,"server_type":"Dedicated","server_os":"Linux","password":true,"vac":true,"version":"7882260","steam_id":85568392924742821,"keywords":["cp","nocrits","nodmgspread","uncletopia"],"game_id":440,"stv_port":27046,"stv_name":"Uncletopia | New York City | 4 | Community | STV","players":null},{"server_id":142,"name":"Uncletopia | São Paulo | 1 | All Maps","name_short":"sao-1","host":"sao-1.br.uncletopia.com","port":27015,"enabled":true,"region":"sa","cc":"br","latitude":-23.533773,"longitude":-46.62529,"reserved":0,"last_update":"0001-01-01T00:00:00Z","name_a2s":"Uncletopia | São Paulo | 1 | All Maps","protocol":17,"map":"pl_upward","folder":"tf","game":"Team Fortress","app_id":440,"player_count":0,"max_players":24,"Bots":0,"server_type":"Dedicated","server_os":"Linux","password":true,"vac":true,"version":"7882260","steam_id":85568392924469996,"keywords":["nocrits","nodmgspread","payload","uncletopia"],"game_id":440,"stv_port":27016,"stv_name":"Uncletopia | São Paulo | 1 | All Maps | STV","players":null},{"server_id":143,"name":"Uncletopia | São Paulo | 2 | All Maps","name_short":"sao-2","host":"sao-2.br.uncletopia.com","port":27015,"enabled":true,"region":"sa","cc":"br","latitude":-23.533773,"longitude":-46.62529,"reserved":0,"last_update":"0001-01-01T00:00:00Z","name_a2s":"Uncletopia | São Paulo | 2 | All Maps","protocol":17,"map":"cp_process_final","folder":"tf","game":"Team Fortress","app_id":440,"player_count":0,"max_players":24,"Bots":0,"server_type":"Dedicated","server_os":"Linux","password":true,"vac":true,"version":"7882260","steam_id":85568392924485349,"keywords":["cp","nocrits","nodmgspread","uncletopia"],"game_id":440,"stv_port":27016,"stv_name":"Uncletopia | São Paulo | 2 | All Maps | STV","players":null},{"server_id":7,"name":"Uncletopia | Seattle | 1 | All Maps","name_short":"sea-1","host":"sea-1.us.uncletopia.com","port":27015,"enabled":true,"region":"us-west","cc":"us","latitude":47.608013,"longitude":-122.33517,"reserved":0,"last_update":"0001-01-01T00:00:00Z","name_a2s":"Uncletopia | Seattle | 1 | All Maps","protocol":17,"map":"cp_dustbowl","folder":"tf","game":"Team Fortress","app_id":440,"player_count":0,"max_players":24,"Bots":0,"server_type":"Dedicated","server_os":"Linux","password":true,"vac":true,"version":"7882260","steam_id":85568392924469997,"keywords":["cp","nocrits","nodmgspread","uncletopia"],"game_id":440,"stv_port":27016,"stv_name":"Uncletopia | Seattle | 1 | All Maps | STV","players":null},{"server_id":119,"name":"Uncletopia | Seattle | 2 | All Maps","name_short":"sea-2","host":"sea-1.us.uncletopia.com","port":27025,"enabled":true,"region":"us-west","cc":"us","latitude":47.608013,"longitude":-122.33517,"reserved":0,"last_update":"0001-01-01T00:00:00Z","name_a2s":"Uncletopia | Seattle | 2 | All Maps","protocol":17,"map":"pl_borneo","folder":"tf","game":"Team Fortress","app_id":440,"player_count":10,"max_players":24,"Bots":0,"server_type":"Dedicated","server_os":"Linux","password":true,"vac":true,"version":"7882260","steam_id":85568392924469998,"keywords":["nocrits","nodmgspread","payload","uncletopia"],"game_id":440,"stv_port":27026,"stv_name":"Uncletopia | Seattle | 2 | All Maps | STV","players":[{"user_id":754,"name":"Milkmur","steam_id":76561198210043821,"connected_time":2092000000000,"state":"active","ping":95},{"user_id":744,"name":"Rabblerouser","steam_id":76561198127930963,"connected_time":3458000000000,"state":"active","ping":60},{"user_id":755,"name":"bolunia","steam_id":76561198305866363,"connected_time":1810000000000,"state":"active","ping":229},{"user_id":764,"name":"Starchy","steam_id":76561199010488736,"connected_time":127000000000,"state":"active","ping":59},{"user_id":756,"name":"clegane","steam_id":76561198187827373,"connected_time":1570000000000,"state":"active","ping":73},{"user_id":757,"name":"Ermine","steam_id":76561198072831312,"connected_time":1449000000000,"state":"active","ping":110},{"user_id":750,"name":"BEACH GAMING","steam_id":76561199364316105,"connected_time":2529000000000,"state":"active","ping":52},{"user_id":765,"name":"lehoczki188","steam_id":76561199141370849,"connected_time":23000000000,"state":"spawning","ping":212},{"user_id":751,"name":"Gridlock Haver","steam_id":76561198048049027,"connected_time":2300000000000,"state":"active","ping":90},{"user_id":752,"name":"Skye \u003c3","steam_id":76561198361175547,"connected_time":2282000000000,"state":"active","ping":67}]},{"server_id":406,"name":"Uncletopia | Seattle | 3 | Stopwatch Beta","name_short":"sea-3","host":"sea-1.us.uncletopia.com","port":27035,"enabled":true,"region":"us-west","cc":"us","latitude":47.608013,"longitude":-122.33517,"reserved":0,"last_update":"0001-01-01T00:00:00Z","name_a2s":"Uncletopia | Seattle | 3 | Stopwatch Beta","protocol":17,"map":"workshop/koth_ramjam_rc1.ugc459778887","folder":"tf","game":"Team Fortress","app_id":440,"player_count":0,"max_players":24,"Bots":0,"server_type":"Dedicated","server_os":"Linux","password":true,"vac":true,"version":"7882260","steam_id":85568392924515217,"keywords":["cp","nocrits","nodmgspread","uncletopia"],"game_id":440,"stv_port":27036,"stv_name":"Uncletopia | Seattle | 3 | Stopwatch Beta | STV","players":null},{"server_id":17,"name":"Uncletopia | San Francisco | 1 | All Maps","name_short":"sfo-1","host":"sfo-1.us.uncletopia.com","port":27015,"enabled":true,"region":"us-west","cc":"us","latitude":37.77397,"longitude":-122.4313,"reserved":0,"last_update":"0001-01-01T00:00:00Z","name_a2s":"Uncletopia | San Francisco | 1 | All Maps","protocol":17,"map":"pl_upward","folder":"tf","game":"Team Fortress","app_id":440,"player_count":5,"max_players":24,"Bots":0,"server_type":"Dedicated","server_os":"Linux","password":true,"vac":true,"version":"7882260","steam_id":85568392924469999,"keywords":["nocrits","nodmgspread","payload","uncletopia"],"game_id":440,"stv_port":27016,"stv_name":"Uncletopia | San Francisco | 1 | All Maps | STV","players":[{"user_id":520,"name":"RiverMoot","steam_id":76561198081530179,"connected_time":205000000000,"state":"active","ping":120},{"user_id":351,"name":"Melody","steam_id":76561198407789232,"connected_time":15943000000000,"state":"active","ping":68},{"user_id":516,"name":"a","steam_id":76561198058079708,"connected_time":607000000000,"state":"active","ping":105},{"user_id":515,"name":"Woodstock","steam_id":76561198041442667,"connected_time":664000000000,"state":"active","ping":56},{"user_id":477,"name":"binka bonk","steam_id":76561198174751517,"connected_time":5654000000000,"state":"active","ping":55}]},{"server_id":18,"name":"Uncletopia | San Francisco | 2 | All Maps","name_short":"sfo-2","host":"sfo-1.us.uncletopia.com","port":27025,"enabled":true,"region":"us-west","cc":"us","latitude":37.77397,"longitude":-122.4313,"reserved":0,"last_update":"0001-01-01T00:00:00Z","name_a2s":"Uncletopia | San Francisco | 2 | All Maps","protocol":17,"map":"plr_hightower","folder":"tf","game":"Team Fortress","app_id":440,"player_count":0,"max_players":24,"Bots":0,"server_type":"Dedicated","server_os":"Linux","password":true,"vac":true,"version":"7882260","steam_id":85568392924470000,"keywords":["nocrits","nodmgspread","payload","uncletopia"],"game_id":440,"stv_port":27026,"stv_name":"Uncletopia | San Francisco | 2 | All Maps | STV","players":null},{"server_id":19,"name":"Uncletopia | San Francisco | 3 | Stopwatch Beta","name_short":"sfo-3","host":"sfo-1.us.uncletopia.com","port":27035,"enabled":true,"region":"us-west","cc":"us","latitude":37.77397,"longitude":-122.4313,"reserved":0,"last_update":"0001-01-01T00:00:00Z","name_a2s":"Uncletopia | San Francisco | 3 | Stopwatch Beta","protocol":17,"map":"pl_snowycoast","folder":"tf","game":"Team Fortress","app_id":440,"player_count":0,"max_players":24,"Bots":0,"server_type":"Dedicated","server_os":"Linux","password":true,"vac":true,"version":"7882260","steam_id":85568392924742824,"keywords":["nocrits","nodmgspread","payload","uncletopia"],"game_id":440,"stv_port":27036,"stv_name":"Uncletopia | San Francisco | 3 | Stopwatch Beta | STV","players":null},{"server_id":20,"name":"Uncletopia | San Francisco | 4 | Community","name_short":"sfo-4","host":"sfo-1.us.uncletopia.com","port":27045,"enabled":true,"region":"us-west","cc":"us","latitude":37.77397,"longitude":-122.4313,"reserved":0,"last_update":"0001-01-01T00:00:00Z","name_a2s":"Uncletopia | San Francisco | 4 | Community","protocol":17,"map":"workshop/koth_kemptown_rc1.ugc767410655","folder":"tf","game":"Team Fortress","app_id":440,"player_count":0,"max_players":24,"Bots":0,"server_type":"Dedicated","server_os":"Linux","password":true,"vac":true,"version":"7882260","steam_id":85568392924742826,"keywords":["cp","nocrits","nodmgspread","uncletopia"],"game_id":440,"stv_port":27046,"stv_name":"Uncletopia | San Francisco | 4 | Community | STV","players":null},{"server_id":141,"name":"Uncletopia | Sydney | 1 | All Maps","name_short":"syd-1","host":"syd-1.au.uncletopia.com","port":27015,"enabled":true,"region":"au","cc":"au","latitude":-33.865143,"longitude":151.2099,"reserved":0,"last_update":"0001-01-01T00:00:00Z","name_a2s":"Uncletopia | Sydney | 1 | All Maps","protocol":17,"map":"pl_snowycoast","folder":"tf","game":"Team Fortress","app_id":440,"player_count":24,"max_players":24,"Bots":0,"server_type":"Dedicated","server_os":"Linux","password":true,"vac":true,"version":"7882260","steam_id":85568392924470001,"keywords":["nocrits","nodmgspread","payload","uncletopia"],"game_id":440,"stv_port":27016,"stv_name":"Uncletopia | Sydney | 1 | All Maps | STV","players":[{"user_id":440,"name":"ALLAH_PROPHET","steam_id":76561199020488015,"connected_time":293000000000,"state":"active","ping":90},{"user_id":408,"name":"miyamoto is daddy","steam_id":76561199483818230,"connected_time":3353000000000,"state":"active","ping":77},{"user_id":372,"name":"UrAvgDMG","steam_id":76561199214859141,"connected_time":4565000000000,"state":"active","ping":138},{"user_id":411,"name":"ivoangelozocca","steam_id":76561199419790359,"connected_time":2587000000000,"state":"active","ping":159},{"user_id":272,"name":"cas ganister","steam_id":76561198879023728,"connected_time":10296000000000,"state":"active","ping":57},{"user_id":427,"name":"dreamydoggy","steam_id":76561198448243169,"connected_time":978000000000,"state":"active","ping":56},{"user_id":409,"name":"Lumalee ❤","steam_id":76561198157613299,"connected_time":3315000000000,"state":"active","ping":60},{"user_id":430,"name":"Gort","steam_id":76561198967244552,"connected_time":692000000000,"state":"active","ping":54},{"user_id":445,"name":"fourjaf","steam_id":76561198163147051,"connected_time":9000000000,"state":"spawning","ping":37},{"user_id":380,"name":"whiteshaq","steam_id":76561198131988811,"connected_time":4380000000000,"state":"active","ping":48},{"user_id":442,"name":"Sinister80s","steam_id":76561198343540472,"connected_time":157000000000,"state":"active","ping":65},{"user_id":431,"name":"Phobia²","steam_id":76561198038833524,"connected_time":684000000000,"state":"active","ping":54},{"user_id":436,"name":"uncle david","steam_id":76561198282686781,"connected_time":463000000000,"state":"active","ping":62},{"user_id":438,"name":"bro","steam_id":76561198310908346,"connected_time":428000000000,"state":"active","ping":71},{"user_id":433,"name":"Lukey","steam_id":76561197999887960,"connected_time":649000000000,"state":"active","ping":60},{"user_id":375,"name":"Matchfighter","steam_id":76561198043200309,"connected_time":4542000000000,"state":"active","ping":61},{"user_id":434,"name":"Omniv","steam_id":76561198064526566,"connected_time":622000000000,"state":"active","ping":74},{"user_id":437,"name":"Alexander Brogan","steam_id":76561198057959073,"connected_time":448000000000,"state":"active","ping":45},{"user_id":425,"name":"yarbinator","steam_id":76561198204678828,"connected_time":1150000000000,"state":"active","ping":56},{"user_id":414,"name":"(Handicapped) Giraffe","steam_id":76561198362704322,"connected_time":2216000000000,"state":"active","ping":56},{"user_id":422,"name":"Pug","steam_id":76561198136794372,"connected_time":1260000000000,"state":"active","ping":69},{"user_id":443,"name":"Jah","steam_id":76561198145620087,"connected_time":150000000000,"state":"active","ping":55},{"user_id":420,"name":"Prunus","steam_id":76561199064195392,"connected_time":1748000000000,"state":"active","ping":71},{"user_id":444,"name":"Abraham Lincoln","steam_id":76561198095292515,"connected_time":141000000000,"state":"active","ping":69}]},{"server_id":123,"name":"Uncletopia | Sydney | 2 | All Maps","name_short":"syd-2","host":"syd-1.au.uncletopia.com","port":27025,"enabled":true,"region":"au","cc":"au","latitude":-33.865143,"longitude":151.2099,"reserved":0,"last_update":"0001-01-01T00:00:00Z","name_a2s":"Uncletopia | Sydney | 2 | All Maps","protocol":17,"map":"koth_highpass","folder":"tf","game":"Team Fortress","app_id":440,"player_count":0,"max_players":24,"Bots":0,"server_type":"Dedicated","server_os":"Linux","password":true,"vac":true,"version":"7882260","steam_id":85568392924470002,"keywords":["cp","nocrits","nodmgspread","uncletopia"],"game_id":440,"stv_port":27026,"stv_name":"Uncletopia | Sydney | 2 | All Maps | STV","players":null},{"server_id":395,"name":"Uncletopia | Sydney | 3 | All Maps","name_short":"syd-3","host":"syd-1.au.uncletopia.com","port":27035,"enabled":true,"region":"au","cc":"au","latitude":-33.865143,"longitude":151.2099,"reserved":0,"last_update":"0001-01-01T00:00:00Z","name_a2s":"Uncletopia | Sydney | 3 | All Maps","protocol":17,"map":"pl_badwater","folder":"tf","game":"Team Fortress","app_id":440,"player_count":15,"max_players":24,"Bots":0,"server_type":"Dedicated","server_os":"Linux","password":true,"vac":true,"version":"7882260","steam_id":85568392925194467,"keywords":["nocrits","nodmgspread","payload","uncletopia"],"game_id":440,"stv_port":27036,"stv_name":"Uncletopia | Sydney | 3 | All Maps | STV","players":[{"user_id":487,"name":"Distilledrain41","steam_id":76561198272717119,"connected_time":57000000000,"state":"active","ping":47},{"user_id":447,"name":"sf/k","steam_id":76561198047758776,"connected_time":3804000000000,"state":"active","ping":39},{"user_id":488,"name":"agapordani","steam_id":76561198861405610,"connected_time":8000000000,"state":"spawning","ping":299},{"user_id":434,"name":"That_Spooky_Dude","steam_id":76561198148488389,"connected_time":4708000000000,"state":"active","ping":42},{"user_id":481,"name":"Capi","steam_id":76561198086011812,"connected_time":774000000000,"state":"active","ping":47},{"user_id":478,"name":"ballkiserk42","steam_id":76561198016233021,"connected_time":878000000000,"state":"active","ping":45},{"user_id":437,"name":"Chibi Wolf","steam_id":76561198074235306,"connected_time":4611000000000,"state":"active","ping":56},{"user_id":417,"name":"sheytoon","steam_id":76561198060824434,"connected_time":5946000000000,"state":"active","ping":47},{"user_id":479,"name":"CryoDoctor","steam_id":76561198366865379,"connected_time":865000000000,"state":"active","ping":53},{"user_id":455,"name":"uven","steam_id":76561198080981482,"connected_time":2566000000000,"state":"active","ping":31},{"user_id":483,"name":"ForgottenPizzaUncle","steam_id":76561198064337953,"connected_time":385000000000,"state":"active","ping":141},{"user_id":456,"name":"More Sus?!","steam_id":76561199135072069,"connected_time":2535000000000,"state":"active","ping":67},{"user_id":458,"name":"MindlessTie","steam_id":76561198107844324,"connected_time":2379000000000,"state":"active","ping":73},{"user_id":361,"name":"Empolé","steam_id":76561198363939040,"connected_time":11125000000000,"state":"active","ping":116},{"user_id":390,"name":"infernoraz","steam_id":76561198117582261,"connected_time":9345000000000,"state":"active","ping":34}]},{"server_id":396,"name":"Uncletopia | Sydney | 4 | All Maps","name_short":"syd-4","host":"syd-1.au.uncletopia.com","port":27045,"enabled":true,"region":"au","cc":"au","latitude":-33.865143,"longitude":151.2099,"reserved":0,"last_update":"0001-01-01T00:00:00Z","name_a2s":"Uncletopia | Sydney | 4 | All Maps","protocol":17,"map":"koth_lakeside_final","folder":"tf","game":"Team Fortress","app_id":440,"player_count":1,"max_players":24,"Bots":0,"server_type":"Dedicated","server_os":"Linux","password":true,"vac":true,"version":"7882260","steam_id":85568392925397958,"keywords":["cp","nocrits","nodmgspread","uncletopia"],"game_id":440,"stv_port":27046,"stv_name":"Uncletopia | Sydney | 4 | All Maps | STV","players":[{"user_id":19,"name":"dead man walking","steam_id":76561199465694949,"connected_time":441000000000,"state":"active","ping":72}]},{"server_id":58,"name":"Uncletopia | Sydney | 5 | Stopwatch Beta","name_short":"syd-5","host":"syd-1.au.uncletopia.com","port":27055,"enabled":true,"region":"au","cc":"au","latitude":-33.865143,"longitude":151.2099,"reserved":0,"last_update":"0001-01-01T00:00:00Z","name_a2s":"Uncletopia | Sydney | 5 | Stopwatch Beta","protocol":17,"map":"koth_viaduct","folder":"tf","game":"Team Fortress","app_id":440,"player_count":0,"max_players":24,"Bots":0,"server_type":"Dedicated","server_os":"Linux","password":true,"vac":true,"version":"7882260","steam_id":85568392925397959,"keywords":["cp","nocrits","nodmgspread","uncletopia"],"game_id":440,"stv_port":27056,"stv_name":"Uncletopia | Sydney | 5 | Stopwatch Beta | STV","players":null},{"server_id":59,"name":"Uncletopia | Sydney | 6 | Community","name_short":"syd-6","host":"syd-1.au.uncletopia.com","port":27065,"enabled":true,"region":"au","cc":"au","latitude":-33.865143,"longitude":151.2099,"reserved":0,"last_update":"0001-01-01T00:00:00Z","name_a2s":"Uncletopia | Sydney | 6 | Community","protocol":17,"map":"workshop/koth_product_final.ugc454272353","folder":"tf","game":"Team Fortress","app_id":440,"player_count":0,"max_players":24,"Bots":0,"server_type":"Dedicated","server_os":"Linux","password":true,"vac":true,"version":"7882260","steam_id":85568392925397960,"keywords":["cp","nocrits","nodmgspread","uncletopia"],"game_id":440,"stv_port":27066,"stv_name":"Uncletopia | Sydney | 6 | Community | STV","players":null},{"server_id":49,"name":"Uncletopia | Warsaw | 1 | All Maps","name_short":"waw-1","host":"waw-1.pl.uncletopia.com","port":27015,"enabled":true,"region":"eu","cc":"pl","latitude":52.2297,"longitude":21.017532,"reserved":0,"last_update":"0001-01-01T00:00:00Z","name_a2s":"","protocol":0,"map":"","folder":"","game":"","app_id":0,"player_count":0,"max_players":0,"Bots":0,"server_type":"","server_os":"","password":false,"vac":false,"version":"","steam_id":0,"keywords":null,"game_id":0,"stv_port":0,"stv_name":"","players":null},{"server_id":50,"name":"Uncletopia | Warsaw | 2 | All Maps","name_short":"waw-2","host":"waw-1.pl.uncletopia.com","port":27025,"enabled":true,"region":"eu","cc":"pl","latitude":52.2297,"longitude":21.017532,"reserved":0,"last_update":"0001-01-01T00:00:00Z","name_a2s":"Uncletopia | Warsaw | 2 | All Maps","protocol":17,"map":"koth_viaduct","folder":"tf","game":"Team Fortress","app_id":440,"player_count":0,"max_players":24,"Bots":0,"server_type":"Dedicated","server_os":"Linux","password":true,"vac":true,"version":"7882260","steam_id":85568392925397851,"keywords":["cp","nocrits","nodmgspread","uncletopia"],"game_id":440,"stv_port":27026,"stv_name":"Uncletopia | Warsaw | 2 | All Maps | STV","players":null},{"server_id":51,"name":"Uncletopia | Warsaw | 3 | All Maps","name_short":"waw-3","host":"waw-1.pl.uncletopia.com","port":27035,"enabled":true,"region":"eu","cc":"pl","latitude":52.2297,"longitude":21.017532,"reserved":0,"last_update":"0001-01-01T00:00:00Z","name_a2s":"Uncletopia | Warsaw | 3 | All Maps","protocol":17,"map":"pl_badwater","folder":"tf","game":"Team Fortress","app_id":440,"player_count":0,"max_players":24,"Bots":0,"server_type":"Dedicated","server_os":"Linux","password":true,"vac":true,"version":"7882260","steam_id":85568392925397852,"keywords":["nocrits","nodmgspread","payload","uncletopia"],"game_id":440,"stv_port":27036,"stv_name":"Uncletopia | Warsaw | 3 | All Maps | STV","players":null},{"server_id":52,"name":"Uncletopia | Warsaw | 4 | All Maps","name_short":"waw-4","host":"waw-1.pl.uncletopia.com","port":27045,"enabled":true,"region":"eu","cc":"pl","latitude":52.2297,"longitude":21.017532,"reserved":0,"last_update":"0001-01-01T00:00:00Z","name_a2s":"Uncletopia | Warsaw | 4 | All Maps","protocol":17,"map":"koth_cascade","folder":"tf","game":"Team Fortress","app_id":440,"player_count":0,"max_players":24,"Bots":0,"server_type":"Dedicated","server_os":"Linux","password":true,"vac":true,"version":"7882260","steam_id":85568392925397853,"keywords":["cp","nocrits","nodmgspread","uncletopia"],"game_id":440,"stv_port":27046,"stv_name":"Uncletopia | Warsaw | 4 | All Maps | STV","players":null},{"server_id":53,"name":"Uncletopia | Warsaw | 5 | Stopwatch Beta","name_short":"waw-5","host":"waw-1.pl.uncletopia.com","port":27055,"enabled":true,"region":"eu","cc":"pl","latitude":52.2297,"longitude":21.017532,"reserved":0,"last_update":"0001-01-01T00:00:00Z","name_a2s":"Uncletopia | Warsaw | 5 | Stopwatch Beta","protocol":17,"map":"cp_gullywash_final1","folder":"tf","game":"Team Fortress","app_id":440,"player_count":0,"max_players":24,"Bots":0,"server_type":"Dedicated","server_os":"Linux","password":true,"vac":true,"version":"7882260","steam_id":85568392925397854,"keywords":["cp","nocrits","nodmgspread","uncletopia"],"game_id":440,"stv_port":27056,"stv_name":"Uncletopia | Warsaw | 5 | Stopwatch Beta | STV","players":null},{"server_id":54,"name":"Uncletopia | Warsaw | 6 | Community","name_short":"waw-6","host":"waw-1.pl.uncletopia.com","port":27065,"enabled":true,"region":"eu","cc":"pl","latitude":52.2297,"longitude":21.017532,"reserved":0,"last_update":"0001-01-01T00:00:00Z","name_a2s":"Uncletopia | Warsaw | 6 | Community","protocol":17,"map":"workshop/cp_reckoner_rc6.ugc674719999","folder":"tf","game":"Team Fortress","app_id":440,"player_count":0,"max_players":24,"Bots":0,"server_type":"Dedicated","server_os":"Linux","password":true,"vac":true,"version":"7882260","steam_id":85568392925397856,"keywords":["cp","nocrits","nodmgspread","uncletopia"],"game_id":440,"stv_port":27066,"stv_name":"Uncletopia | Warsaw | 6 | Community | STV","players":null}]}