{"status":true,"message":"","result":[{"server_id":9,"name":"Uncletopia | Atlanta | 1 | All Maps","name_short":"atl-1","host":"atl-1.us.uncletopia.com","port":27015,"enabled":true,"region":"us-east","cc":"us","latitude":33.753746,"longitude":-84.38633,"reserved":0,"last_update":"0001-01-01T00:00:00Z","name_a2s":"Uncletopia | Atlanta | 1 | All Maps","protocol":17,"map":"cp_snakewater_final1","folder":"tf","game":"Team Fortress","app_id":440,"player_count":22,"max_players":24,"Bots":0,"server_type":"Dedicated","server_os":"Linux","password":true,"vac":true,"version":"7961495","steam_id":85568392924469982,"keywords":["cp","nocrits","nodmgspread","uncletopia"],"game_id":440,"stv_port":27016,"stv_name":"Uncletopia | Atlanta | 1 | All Maps | STV","players":null},{"server_id":104,"name":"Uncletopia | Atlanta | 2 | All Maps","name_short":"atl-2","host":"atl-1.us.uncletopia.com","port":27025,"enabled":true,"region":"us-east","cc":"us","latitude":33.753746,"longitude":-84.38633,"reserved":0,"last_update":"0001-01-01T00:00:00Z","name_a2s":"Uncletopia | Atlanta | 2 | All Maps","protocol":17,"map":"cp_process_final","folder":"tf","game":"Team Fortress","app_id":440,"player_count":9,"max_players":24,"Bots":0,"server_type":"Dedicated","server_os":"Linux","password":true,"vac":true,"version":"7961495","steam_id":85568392924469983,"keywords":["cp","nocrits","nodmgspread","uncletopia"],"game_id":440,"stv_port":27026,"stv_name":"Uncletopia | Atlanta | 2 | All Maps | STV","players":null},{"server_id":400,"name":"Uncletopia | Atlanta | 3 | All Maps","name_short":"atl-3","host":"atl-1.us.uncletopia.com","port":27035,"enabled":true,"region":"us-east","cc":"us","latitude":33.753746,"longitude":-84.38633,"reserved":0,"last_update":"0001-01-01T00:00:00Z","name_a2s":"Uncletopia | Atlanta | 3 | All Maps","protocol":17,"map":"pl_swiftwater_final1","folder":"tf","game":"Team Fortress","app_id":440,"player_count":3,"max_players":24,"Bots":0,"server_type":"Dedicated","server_os":"Linux","password":true,"vac":true,"version":"7961495","steam_id":85568392924515187,"keywords":["nocrits","nodmgspread","payload","uncletopia"],"game_id":440,"stv_port":27036,"stv_name":"Uncletopia | Atlanta | 3 | All Maps | STV","players":null},{"server_id":401,"name":"Uncletopia | Atlanta | 4 | Community","name_short":"atl-4","host":"atl-1.us.uncletopia.com","port":27045,"enabled":true,"region":"us-east","cc":"us","latitude":33.753746,"longitude":-84.38633,"reserved":0,"last_update":"0001-01-01T00:00:00Z","name_a2s":"Uncletopia | Atlanta | 4 | Community","protocol":17,"map":"rd_asteroid_redux_b1","folder":"tf","game":"Team Fortress","app_id":440,"player_count":4,"max_players":24,"Bots":0,"server_type":"Dedicated","server_os":"Linux","password":true,"vac":true,"version":"7961495","steam_id":85568392924515188,"keywords":["beta","nocrits","nodmgspread","rd","uncletopia"],"game_id":440,"stv_port":27046,"stv_name":"Uncletopia | Atlanta | 4 | Community | STV","players":null},{"server_id":2,"name":"Uncletopia | Chicago | 1 | All Maps","name_short":"chi-1","host":"chi-1.us.uncletopia.com","port":27015,"enabled":true,"region":"us-central","cc":"us","latitude":41.881832,"longitude":-87.62318,"reserved":0,"last_update":"0001-01-01T00:00:00Z","name_a2s":"Uncletopia | Chicago | 1 | All Maps","protocol":17,"map":"pl_barnblitz","folder":"tf","game":"Team Fortress","app_id":440,"player_count":24,"max_players":24,"Bots":0,"server_type":"Dedicated","server_os":"Linux","password":true,"vac":true,"version":"7961495","steam_id":85568392924469984,"keywords":["nocrits","nodmgspread","payload","uncletopia"],"game_id":440,"stv_port":27016,"stv_name":"Uncletopia | Chicago | 1 | All Maps | STV","players":[{"user_id":596,"name":"Saltail","steam_id":76561198063053039,"connected_time":12209000000000,"state":"active","ping":76},{"user_id":693,"name":"DinkleBerg","steam_id":76561198891626233,"connected_time":2734000000000,"state":"active","ping":61},{"user_id":703,"name":"Liquid Oxycodone","steam_id":76561198154162664,"connected_time":671000000000,"state":"active","ping":79},{"user_id":704,"name":"MedRed™ #IATAH","steam_id":76561198002962970,"connected_time":642000000000,"state":"active","ping":102},{"user_id":677,"name":"ducks is the name","steam_id":76561198049372798,"connected_time":4514000000000,"state":"active","ping":91},{"user_id":700,"name":"HalfDead","steam_id":76561198049700226,"connected_time":1666000000000,"state":"active","ping":80},{"user_id":718,"name":"RPGnoob","steam_id":76561198384913758,"connected_time":178000000000,"state":"active","ping":83},{"user_id":717,"name":"Herdez Hot Salsa","steam_id":76561197991740906,"connected_time":368000000000,"state":"active","ping":56},{"user_id":680,"name":"bruiseraaron","steam_id":76561198020092380,"connected_time":4240000000000,"state":"active","ping":48},{"user_id":707,"name":"DarkSpace","steam_id":76561198884668517,"connected_time":556000000000,"state":"active","ping":102},{"user_id":709,"name":"lag","steam_id":76561198117898839,"connected_time":539000000000,"state":"active","ping":114},{"user_id":662,"name":"Schlongulous","steam_id":76561198059715531,"connected_time":6196000000000,"state":"active","ping":71},{"user_id":665,"name":"StonedGiant","steam_id":76561197984386932,"connected_time":5464000000000,"state":"active","ping":61},{"user_id":696,"name":"Mango","steam_id":76561198156746320,"connected_time":2703000000000,"state":"active","ping":44},{"user_id":591,"name":"LJBLJB™","steam_id":76561198166782022,"connected_time":12512000000000,"state":"active","ping":60},{"user_id":719,"name":"aversa","steam_id":76561198840460101,"connected_time":93000000000,"state":"active","ping":61},{"user_id":712,"name":"DoctorK221","steam_id":76561198278460267,"connected_time":521000000000,"state":"active","ping":85},{"user_id":697,"name":"gnoll filth","steam_id":76561198066123607,"connected_time":2671000000000,"state":"active","ping":47},{"user_id":655,"name":"Zorlovo","steam_id":76561198006443283,"connected_time":7000000000000,"state":"active","ping":82},{"user_id":699,"name":"WaveSmash","steam_id":76561198208785485,"connected_time":2074000000000,"state":"active","ping":75},{"user_id":714,"name":"Rezakah","steam_id":76561198077987991,"connected_time":488000000000,"state":"active","ping":181},{"user_id":715,"name":"HoaroBatty","steam_id":76561198120361221,"connected_time":483000000000,"state":"active","ping":62},{"user_id":702,"name":"OrionKid","steam_id":76561198359094901,"connected_time":1522000000000,"state":"active","ping":69},{"user_id":716,"name":"HOTA","steam_id":76561199002778841,"connected_time":479000000000,"state":"active","ping":71}]},{"server_id":106,"name":"Uncletopia | Chicago | 2 | All Maps","name_short":"chi-2","host":"chi-1.us.uncletopia.com","port":27025,"enabled":true,"region":"us-central","cc":"us","latitude":41.881832,"longitude":-87.62318,"reserved":0,"last_update":"0001-01-01T00:00:00Z","name_a2s":"Uncletopia | Chicago | 2 | All Maps","protocol":17,"map":"koth_cascade","folder":"tf","game":"Team Fortress","app_id":440,"player_count":24,"max_players":24,"Bots":0,"server_type":"Dedicated","server_os":"Linux","password":true,"vac":true,"version":"7961495","steam_id":85568392924469985,"keywords":["cp","nocrits","nodmgspread","uncletopia"],"game_id":440,"stv_port":27026,"stv_name":"Uncletopia | Chicago | 2 | All Maps | STV","players":[{"user_id":538,"name":"stoppablel36","steam_id":76561198117365188,"connected_time":1390000000000,"state":"active","ping":85},{"user_id":506,"name":"NovaSc6ut","steam_id":76561198277163301,"connected_time":3922000000000,"state":"active","ping":66},{"user_id":539,"name":"Fuegan Ra","steam_id":76561198287923849,"connected_time":1321000000000,"state":"active","ping":57},{"user_id":545,"name":"Plasmie{ylo}","steam_id":76561198083513154,"connected_time":671000000000,"state":"active","ping":74},{"user_id":548,"name":"Seven76","steam_id":76561198075334888,"connected_time":224000000000,"state":"active","ping":64},{"user_id":448,"name":"Akkrillic","steam_id":76561198224891080,"connected_time":8555000000000,"state":"active","ping":64},{"user_id":525,"name":"Bim","steam_id":76561198155979811,"connected_time":1775000000000,"state":"active","ping":68},{"user_id":546,"name":"Devoid","steam_id":76561198254039012,"connected_time":659000000000,"state":"active","ping":54},{"user_id":515,"name":"Otis from Back at the Barnyard","steam_id":76561198051059704,"connected_time":2808000000000,"state":"active","ping":55},{"user_id":549,"name":"TRx AxIon2","steam_id":76561198980931557,"connected_time":213000000000,"state":"active","ping":69},{"user_id":526,"name":"lamadre07","steam_id":76561198067337453,"connected_time":1688000000000,"state":"active","ping":92},{"user_id":534,"name":"theghostofbinladen","steam_id":76561198881434725,"connected_time":1513000000000,"state":"active","ping":52},{"user_id":547,"name":"The Guy","steam_id":76561198163067571,"connected_time":659000000000,"state":"active","ping":118},{"user_id":504,"name":"Castroy","steam_id":76561198108160099,"connected_time":4187000000000,"state":"active","ping":69},{"user_id":542,"name":"Super Ghostbusters (Full Album)","steam_id":76561198057415490,"connected_time":1201000000000,"state":"active","ping":54},{"user_id":522,"name":"shut up","steam_id":76561198139761609,"connected_time":1979000000000,"state":"active","ping":61},{"user_id":507,"name":"Boomerish","steam_id":76561198083946878,"connected_time":3876000000000,"state":"active","ping":71},{"user_id":520,"name":"ip09 i-0;olk;lj9u","steam_id":76561199490115981,"connected_time":2260000000000,"state":"active","ping":66},{"user_id":544,"name":"--_Cook_--","steam_id":76561198080855748,"connected_time":711000000000,"state":"active","ping":48},{"user_id":513,"name":"Ayylmao","steam_id":76561198104780147,"connected_time":3347000000000,"state":"active","ping":46},{"user_id":473,"name":"Levi","steam_id":76561198089832776,"connected_time":6063000000000,"state":"active","ping":79},{"user_id":514,"name":"Dominic","steam_id":76561198006988361,"connected_time":3006000000000,"state":"active","ping":69},{"user_id":512,"name":"Maxxycat","steam_id":76561198194062681,"connected_time":3459000000000,"state":"active","ping":60},{"user_id":537,"name":"raw chicken enjoyer","steam_id":76561198986943063,"connected_time":1475000000000,"state":"active","ping":59}]},{"server_id":402,"name":"Uncletopia | Chicago | 3 | All Maps","name_short":"chi-3","host":"chi-1.us.uncletopia.com","port":27035,"enabled":true,"region":"us-central","cc":"us","latitude":41.881832,"longitude":-87.62318,"reserved":0,"last_update":"0001-01-01T00:00:00Z","name_a2s":"Uncletopia | Chicago | 3 | All Maps","protocol":17,"map":"pl_barnblitz","folder":"tf","game":"Team Fortress","app_id":440,"player_count":24,"max_players":24,"Bots":0,"server_type":"Dedicated","server_os":"Linux","password":true,"vac":true,"version":"7961495","steam_id":85568392924515191,"keywords":["nocrits","nodmgspread","payload","uncletopia"],"game_id":440,"stv_port":27036,"stv_name":"Uncletopia | Chicago | 3 | All Maps | STV","players":[{"user_id":750,"name":"Gobemouche","steam_id":76561198040418719,"connected_time":1541000000000,"state":"active","ping":80},{"user_id":733,"name":"Mortal Flame","steam_id":76561198130698418,"connected_time":3363000000000,"state":"active","ping":93},{"user_id":752,"name":"Node⋄","steam_id":76561198219359475,"connected_time":1467000000000,"state":"active","ping":66},{"user_id":734,"name":"C₄H₈Cl₂SGamez","steam_id":76561198250471340,"connected_time":3170000000000,"state":"active","ping":51},{"user_id":747,"name":"clicky clicky","steam_id":76561198099084394,"connected_time":1827000000000,"state":"active","ping":60},{"user_id":751,"name":"Chicken Soup","steam_id":76561197989268948,"connected_time":1479000000000,"state":"active","ping":81},{"user_id":763,"name":"plutonium isotope","steam_id":76561198319442494,"connected_time":191000000000,"state":"active","ping":105},{"user_id":738,"name":"type \"bad med\" to kick","steam_id":76561198076402476,"connected_time":3108000000000,"state":"active","ping":120},{"user_id":757,"name":"Sarbanes-Oxley","steam_id":76561197975898479,"connected_time":1002000000000,"state":"active","ping":78},{"user_id":764,"name":"TÖZI","steam_id":76561198045268695,"connected_time":144000000000,"state":"active","ping":89},{"user_id":731,"name":"SpockASD","steam_id":76561198307516731,"connected_time":3700000000000,"state":"active","ping":78},{"user_id":765,"name":"Trash","steam_id":76561198358471281,"connected_time":135000000000,"state":"active","ping":57},{"user_id":732,"name":"[82DK] Ike","steam_id":76561198135256526,"connected_time":3408000000000,"state":"active","ping":83},{"user_id":730,"name":"Milk","steam_id":76561198283314672,"connected_time":4051000000000,"state":"active","ping":78},{"user_id":749,"name":"Binkems","steam_id":76561198084220655,"connected_time":1752000000000,"state":"active","ping":55},{"user_id":741,"name":"chrischrischris3018@yahoo.com","steam_id":76561198137316053,"connected_time":2467000000000,"state":"active","ping":75},{"user_id":759,"name":"Domo","steam_id":76561198006738859,"connected_time":911000000000,"state":"active","ping":75},{"user_id":724,"name":"sooty","steam_id":76561198830243167,"connected_time":4412000000000,"state":"active","ping":67},{"user_id":762,"name":"Joe Family guy","steam_id":76561198065327106,"connected_time":208000000000,"state":"active","ping":62},{"user_id":755,"name":"Caverman156","steam_id":76561198295409223,"connected_time":1427000000000,"state":"active","ping":59},{"user_id":756,"name":"ElectronX","steam_id":76561198116034988,"connected_time":1414000000000,"state":"active","ping":103},{"user_id":748,"name":"0100101101100001011100100110110","steam_id":76561198034028769,"connected_time":1793000000000,"state":"active","ping":64},{"user_id":761,"name":":)","steam_id":76561198093921290,"connected_time":696000000000,"state":"active","ping":49},{"user_id":767,"name":"bobbymcbobington","steam_id":76561199089411172,"connected_time":127000000000,"state":"active","ping":118}]},{"server_id":403,"name":"Uncletopia | Chicago | 4 | All Maps","name_short":"chi-4","host":"chi-1.us.uncletopia.com","port":27045,"enabled":true,"region":"us-central","cc":"us","latitude":41.881832,"longitude":-87.62318,"reserved":0,"last_update":"0001-01-01T00:00:00Z","name_a2s":"Uncletopia | Chicago | 4 | All Maps","protocol":17,"map":"pl_borneo","folder":"tf","game":"Team Fortress","app_id":440,"player_count":24,"max_players":24,"Bots":0,"server_type":"Dedicated","server_os":"Linux","password":true,"vac":true,"version":"7961495","steam_id":85568392924515193,"keywords":["nocrits","nodmgspread","payload","uncletopia"],"game_id":440,"stv_port":27046,"stv_name":"Uncletopia | Chicago | 4 | All Maps | STV","players":[{"user_id":563,"name":"Truffles","steam_id":76561198095868800,"connected_time":4393000000000,"state":"active","ping":83},{"user_id":541,"name":"evilclownattack","steam_id":76561198001627114,"connected_time":6798000000000,"state":"active","ping":83},{"user_id":588,"name":"skilaruh","steam_id":76561198413172611,"connected_time":777000000000,"state":"active","ping":60},{"user_id":596,"name":"chili","steam_id":76561198070555429,"connected_time":543000000000,"state":"active","ping":86},{"user_id":544,"name":"doro","steam_id":76561198099041747,"connected_time":6736000000000,"state":"active","ping":101},{"user_id":545,"name":"only a spoonful","steam_id":76561198113180616,"connected_time":6727000000000,"state":"active","ping":69},{"user_id":583,"name":"cakgamin","steam_id":76561199088909749,"connected_time":1247000000000,"state":"active","ping":62},{"user_id":600,"name":"Bimbonito","steam_id":76561198069676563,"connected_time":436000000000,"state":"active","ping":74},{"user_id":602,"name":"Mythical Lag","steam_id":76561198347031281,"connected_time":355000000000,"state":"active","ping":74},{"user_id":599,"name":"shitass | troutsupply.net","steam_id":76561198210572481,"connected_time":490000000000,"state":"active","ping":89},{"user_id":594,"name":"Bread","steam_id":76561198251896612,"connected_time":718000000000,"state":"active","ping":43},{"user_id":577,"name":"Quick-Fix","steam_id":76561198295501978,"connected_time":2332000000000,"state":"active","ping":73},{"user_id":592,"name":"Magic Man","steam_id":76561198018396978,"connected_time":753000000000,"state":"active","ping":56},{"user_id":559,"name":"femtofarad™","steam_id":76561198308583053,"connected_time":6075000000000,"state":"active","ping":85},{"user_id":584,"name":"Techne","steam_id":76561198090486583,"connected_time":1225000000000,"state":"active","ping":97},{"user_id":551,"name":"DSG","steam_id":76561198207574152,"connected_time":6568000000000,"state":"active","ping":60},{"user_id":557,"name":"Urbanzpinapple","steam_id":76561198115426938,"connected_time":6396000000000,"state":"active","ping":88},{"user_id":595,"name":"Tetra","steam_id":76561198012329955,"connected_time":715000000000,"state":"active","ping":105},{"user_id":603,"name":"chicken pot pie gaming","steam_id":76561198104800182,"connected_time":329000000000,"state":"active","ping":58},{"user_id":576,"name":"Yarman53","steam_id":76561198099889202,"connected_time":2349000000000,"state":"active","ping":46},{"user_id":604,"name":"El Duderino","steam_id":76561198084404539,"connected_time":282000000000,"state":"active","ping":83},{"user_id":587,"name":"RoseHeart","steam_id":76561198041024002,"connected_time":801000000000,"state":"active","ping":93},{"user_id":453,"name":"Grand","steam_id":76561198290143399,"connected_time":13003000000000,"state":"active","ping":73},{"user_id":581,"name":"Aaron","steam_id":76561198091157802,"connected_time":1832000000000,"state":"active","ping":64}]},{"server_id":36,"name":"Uncletopia | Chicago | 5 | All Maps","name_short":"chi-5","host":"chi-2.us.uncletopia.com","port":27015,"enabled":true,"region":"us-central","cc":"us","latitude":41.881832,"longitude":-87.62318,"reserved":0,"last_update":"0001-01-01T00:00:00Z","name_a2s":"Uncletopia | Chicago | 5 | All Maps","protocol":17,"map":"cp_mercenarypark","folder":"tf","game":"Team Fortress","app_id":440,"player_count":21,"max_players":24,"Bots":0,"server_type":"Dedicated","server_os":"Linux","password":true,"vac":true,"version":"7961495","steam_id":85568392924866362,"keywords":["cp","nocrits","nodmgspread","uncletopia"],"game_id":440,"stv_port":27016,"stv_name":"Uncletopia | Chicago | 5 | All Maps | STV","players":[{"user_id":641,"name":"SASQUATCH","steam_id":76561198308120431,"connected_time":1863000000000,"state":"active","ping":117},{"user_id":660,"name":"Calryan","steam_id":76561198060080966,"connected_time":141000000000,"state":"active","ping":84},{"user_id":653,"name":"Cara","steam_id":76561199080618819,"connected_time":1163000000000,"state":"active","ping":131},{"user_id":633,"name":"t","steam_id":76561198175988929,"connected_time":2161000000000,"state":"active","ping":63},{"user_id":611,"name":"Dr Oshawott","steam_id":76561198042021629,"connected_time":3329000000000,"state":"active","ping":64},{"user_id":640,"name":"Chai-C","steam_id":76561198177334555,"connected_time":1866000000000,"state":"active","ping":70},{"user_id":636,"name":"Magic ben","steam_id":76561199230750652,"connected_time":1964000000000,"state":"active","ping":84},{"user_id":650,"name":"Trigger!","steam_id":76561198061514186,"connected_time":1757000000000,"state":"active","ping":84},{"user_id":605,"name":"Space Lizard","steam_id":76561198056798193,"connected_time":3721000000000,"state":"active","ping":72},{"user_id":655,"name":"Lore","steam_id":76561198098407538,"connected_time":805000000000,"state":"active","ping":54},{"user_id":656,"name":"Cosmic sR","steam_id":76561198081738675,"connected_time":798000000000,"state":"active","ping":84},{"user_id":627,"name":"sentry food","steam_id":76561198042926224,"connected_time":2427000000000,"state":"active","ping":88},{"user_id":597,"name":"Ati","steam_id":76561198381841894,"connected_time":3971000000000,"state":"active","ping":51},{"user_id":618,"name":"totally not a pile of beans","steam_id":76561198119851931,"connected_time":3021000000000,"state":"active","ping":76},{"user_id":642,"name":"Lady Nessietrescu","steam_id":76561198179253414,"connected_time":1862000000000,"state":"active","ping":66},{"user_id":615,"name":"FireQuiz","steam_id":76561198107357249,"connected_time":3237000000000,"state":"active","ping":100},{"user_id":661,"name":"Omega Move","steam_id":76561198031577205,"connected_time":141000000000,"state":"active","ping":74},{"user_id":643,"name":"㋡Erotic Leftovers㋡","steam_id":76561198117366820,"connected_time":1849000000000,"state":"active","ping":85},{"user_id":630,"name":"black ops 2 hank hill trolling","steam_id":76561198095313463,"connected_time":2346000000000,"state":"active","ping":52},{"user_id":637,"name":"Sirphantom","steam_id":76561198125415432,"connected_time":1958000000000,"state":"active","ping":102},{"user_id":648,"name":"Sweater-Fan","steam_id":76561199389567214,"connected_time":1801000000000,"state":"active","ping":62}]},{"server_id":37,"name":"Uncletopia | Chicago | 6 | All Maps","name_short":"chi-6","host":"chi-2.us.uncletopia.com","port":27025,"enabled":true,"region":"us-central","cc":"us","latitude":41.881832,"longitude":-87.62318,"reserved":0,"last_update":"0001-01-01T00:00:00Z","name_a2s":"Uncletopia | Chicago | 6 | All Maps","protocol":17,"map":"pl_upward","folder":"tf","game":"Team Fortress","app_id":440,"player_count":24,"max_players":24,"Bots":0,"server_type":"Dedicated","server_os":"Linux","password":true,"vac":true,"version":"7961495","steam_id":85568392924866363,"keywords":["nocrits","nodmgspread","payload","uncletopia"],"game_id":440,"stv_port":27026,"stv_name":"Uncletopia | Chicago | 6 | All Maps | STV","players":[{"user_id":542,"name":"WLpeanut","steam_id":76561197981006264,"connected_time":1372000000000,"state":"active","ping":80},{"user_id":494,"name":"kaputon","steam_id":76561198146299782,"connected_time":4151000000000,"state":"active","ping":60},{"user_id":545,"name":"Missing Minus","steam_id":76561198120822928,"connected_time":885000000000,"state":"active","ping":60},{"user_id":538,"name":"weeb_whacker","steam_id":76561198187098041,"connected_time":1489000000000,"state":"active","ping":54},{"user_id":513,"name":"Jeff","steam_id":76561198050929005,"connected_time":3159000000000,"state":"active","ping":55},{"user_id":441,"name":"thatguy_luigi","steam_id":76561198968055462,"connected_time":8895000000000,"state":"active","ping":102},{"user_id":546,"name":"Alshek","steam_id":76561198115594676,"connected_time":848000000000,"state":"active","ping":57},{"user_id":535,"name":"TheHarmacist","steam_id":76561198068249096,"connected_time":1835000000000,"state":"active","ping":51},{"user_id":548,"name":"Whatsapp Spy","steam_id":76561198085410969,"connected_time":812000000000,"state":"active","ping":47},{"user_id":497,"name":"DannyGamerXD","steam_id":76561198799224408,"connected_time":4061000000000,"state":"active","ping":63},{"user_id":468,"name":"Always Here for You","steam_id":76561198219252313,"connected_time":5627000000000,"state":"active","ping":65},{"user_id":506,"name":"Crispy Nugget Boy","steam_id":76561198256869589,"connected_time":3539000000000,"state":"active","ping":67},{"user_id":515,"name":"cincoyt LFB","steam_id":76561198041643833,"connected_time":3139000000000,"state":"active","ping":92},{"user_id":511,"name":"Large Man","steam_id":76561198880396651,"connected_time":3236000000000,"state":"active","ping":84},{"user_id":539,"name":"But what if theres more then WM","steam_id":76561199122315920,"connected_time":1460000000000,"state":"active","ping":70},{"user_id":522,"name":"stiGGy","steam_id":76561198049311931,"connected_time":2769000000000,"state":"active","ping":76},{"user_id":530,"name":"A Puppy","steam_id":76561198828184456,"connected_time":2187000000000,"state":"active","ping":60},{"user_id":544,"name":"eat Pant","steam_id":76561197974965536,"connected_time":898000000000,"state":"active","ping":64},{"user_id":552,"name":"magicmellen","steam_id":76561199210337711,"connected_time":150000000000,"state":"active","ping":111},{"user_id":551,"name":"FriendlyStuart","steam_id":76561198136745161,"connected_time":562000000000,"state":"active","ping":56},{"user_id":553,"name":"Omochao Plush","steam_id":76561199031860890,"connected_time":137000000000,"state":"active","ping":106},{"user_id":533,"name":"woohooren","steam_id":76561198101840527,"connected_time":2098000000000,"state":"active","ping":101},{"user_id":509,"name":"twix","steam_id":76561198040912048,"connected_time":3510000000000,"state":"active","ping":52}]},{"server_id":38,"name":"Uncletopia | Chicago | 7 | Stopwatch Beta","name_short":"chi-7","host":"chi-2.us.uncletopia.com","port":27035,"enabled":true,"region":"us-central","cc":"us","latitude":41.881832,"longitude":-87.62318,"reserved":0,"last_update":"0001-01-01T00:00:00Z","name_a2s":"Uncletopia | Chicago | 7 | Stopwatch Beta","protocol":17,"map":"cp_gullywash_final1","folder":"tf","game":"Team Fortress","app_id":440,"player_count":4,"max_players":24,"Bots":0,"server_type":"Dedicated","server_os":"Linux","password":true,"vac":true,"version":"7961495","steam_id":85568392924866364,"keywords":["cp","nocrits","nodmgspread","uncletopia"],"game_id":440,"stv_port":27036,"stv_name":"Uncletopia | Chicago | 7 | Stopwatch Beta | STV","players":[{"user_id":98,"name":"GreatColorGreen","steam_id":76561198284546954,"connected_time":2550000000000,"state":"active","ping":51},{"user_id":99,"name":"Vollly","steam_id":76561198073206108,"connected_time":2494000000000,"state":"active","ping":51},{"user_id":100,"name":"SwagPunch","steam_id":76561198187711090,"connected_time":2493000000000,"state":"active","ping":50},{"user_id":101,"name":"Lava Q","steam_id":76561199147429608,"connected_time":2473000000000,"state":"active","ping":70}]},{"server_id":39,"name":"Uncletopia | Chicago | 8 | Community","name_short":"chi-8","host":"chi-2.us.uncletopia.com","port":27045,"enabled":true,"region":"us-central","cc":"us","latitude":41.881832,"longitude":-87.62318,"reserved":0,"last_update":"0001-01-01T00:00:00Z","name_a2s":"Uncletopia | Chicago | 8 | Community","protocol":17,"map":"workshop/pl_divulgence_b4b.ugc2884808746","folder":"tf","game":"Team Fortress","app_id":440,"player_count":24,"max_players":24,"Bots":0,"server_type":"Dedicated","server_os":"Linux","password":true,"vac":true,"version":"7961495","steam_id":85568392924866365,"keywords":["nocrits","nodmgspread","payload","uncletopia"],"game_id":440,"stv_port":27046,"stv_name":"Uncletopia | Chicago | 8 | Community | STV","players":[{"user_id":702,"name":"Musica Universalis","steam_id":76561198184794174,"connected_time":1295000000000,"state":"active","ping":74},{"user_id":714,"name":"Mad{}Mouse","steam_id":76561198162576354,"connected_time":439000000000,"state":"active","ping":80},{"user_id":718,"name":"Jolt","steam_id":76561198168669087,"connected_time":139000000000,"state":"active","ping":66},{"user_id":704,"name":"fazaness","steam_id":76561198851525394,"connected_time":1288000000000,"state":"active","ping":84},{"user_id":716,"name":"Houndoo","steam_id":76561198079003902,"connected_time":257000000000,"state":"active","ping":99},{"user_id":629,"name":"Griffers","steam_id":76561198040782561,"connected_time":10105000000000,"state":"active","ping":72},{"user_id":705,"name":"Bheem","steam_id":76561198170453459,"connected_time":1285000000000,"state":"active","ping":82},{"user_id":672,"name":"We Go Crazy","steam_id":76561198209641359,"connected_time":5694000000000,"state":"active","ping":61},{"user_id":701,"name":"Whompert","steam_id":76561198042939624,"connected_time":1548000000000,"state":"active","ping":88},{"user_id":709,"name":"wise","steam_id":76561198030066204,"connected_time":1183000000000,"state":"active","ping":58},{"user_id":706,"name":"Wang of Wall St","steam_id":76561198047460598,"connected_time":1266000000000,"state":"active","ping":81},{"user_id":640,"name":"Butters495","steam_id":76561197998689042,"connected_time":8595000000000,"state":"active","ping":75},{"user_id":708,"name":"THIRDPIERCE","steam_id":76561198405366314,"connected_time":1225000000000,"state":"active","ping":87},{"user_id":684,"name":"average plane driver","steam_id":76561198061552103,"connected_time":4241000000000,"state":"active","ping":45},{"user_id":715,"name":"dribby","steam_id":76561197985925929,"connected_time":390000000000,"state":"active","ping":47},{"user_id":712,"name":".tv/grady_val","steam_id":76561198424954118,"connected_time":641000000000,"state":"active","ping":89},{"user_id":694,"name":"Rodrick Knee","steam_id":76561198283021062,"connected_time":2978000000000,"state":"active","ping":84},{"user_id":717,"name":"General Mightyian11","steam_id":76561199125278476,"connected_time":256000000000,"state":"active","ping":64},{"user_id":711,"name":"mollusk_obliteration","steam_id":76561198085388962,"connected_time":1098000000000,"state":"active","ping":58},{"user_id":685,"name":"Propaniac Gaming ☑","steam_id":76561198133963270,"connected_time":4232000000000,"state":"active","ping":62},{"user_id":692,"name":"not a good idea","steam_id":76561198032259680,"connected_time":3241000000000,"state":"active","ping":78},{"user_id":686,"name":"Kerbal01","steam_id":76561198080296298,"connected_time":4131000000000,"state":"active","ping":65},{"user_id":688,"name":"Mayo Monkey","steam_id":76561198090023039,"connected_time":3628000000000,"state":"active","ping":96},{"user_id":699,"name":"Infinitytacos","steam_id":76561198884260211,"connected_time":2320000000000,"state":"active","ping":45}]},{"server_id":8,"name":"Uncletopia | Dallas | 1 | All Maps","name_short":"dal-1","host":"dal-1.us.uncletopia.com","port":27015,"enabled":true,"region":"us-central","cc":"us","latitude":32.779167,"longitude":-96.80889,"reserved":0,"last_update":"0001-01-01T00:00:00Z","name_a2s":"Uncletopia | Dallas | 1 | All Maps","protocol":17,"map":"pl_hoodoo_final","folder":"tf","game":"Team Fortress","app_id":440,"player_count":24,"max_players":24,"Bots":0,"server_type":"Dedicated","server_os":"Linux","password":true,"vac":true,"version":"7961495","steam_id":85568392924469986,"keywords":["nocrits","nodmgspread","payload","uncletopia"],"game_id":440,"stv_port":27016,"stv_name":"Uncletopia | Dallas | 1 | All Maps | STV","players":[{"user_id":699,"name":"Magma","steam_id":76561197995793614,"connected_time":1783000000000,"state":"active","ping":69},{"user_id":491,"name":"flippercurve","steam_id":76561199238295034,"connected_time":15606000000000,"state":"active","ping":70},{"user_id":701,"name":"Mr_Tuffy","steam_id":76561199206331113,"connected_time":1437000000000,"state":"active","ping":93},{"user_id":682,"name":"Huh?","steam_id":76561198305380082,"connected_time":2626000000000,"state":"active","ping":73},{"user_id":613,"name":"Per My Last Email","steam_id":76561197970096950,"connected_time":6053000000000,"state":"active","ping":38},{"user_id":700,"name":"tres","steam_id":76561198067500833,"connected_time":1470000000000,"state":"active","ping":47},{"user_id":677,"name":"everettroth63","steam_id":76561199237772642,"connected_time":2896000000000,"state":"active","ping":80},{"user_id":676,"name":"Gwando","steam_id":76561198294629124,"connected_time":3005000000000,"state":"active","ping":46},{"user_id":680,"name":"FanaticSalt","steam_id":76561199380123059,"connected_time":2647000000000,"state":"active","ping":55},{"user_id":705,"name":"Gay Loogi Gang","steam_id":76561198097031529,"connected_time":689000000000,"state":"active","ping":79},{"user_id":694,"name":"tewz(s)","steam_id":76561198163264838,"connected_time":2170000000000,"state":"active","ping":59},{"user_id":622,"name":"Malkinson","steam_id":76561199101631369,"connected_time":5304000000000,"state":"active","ping":70},{"user_id":623,"name":"The Best Bad Idea","steam_id":76561198105931367,"connected_time":5297000000000,"state":"active","ping":47},{"user_id":696,"name":"A Straw","steam_id":76561199367935846,"connected_time":1937000000000,"state":"active","ping":77},{"user_id":642,"name":"clmatt6","steam_id":76561198027812938,"connected_time":4379000000000,"state":"active","ping":70},{"user_id":644,"name":"constipated samurai","steam_id":76561198827327225,"connected_time":4073000000000,"state":"active","ping":59},{"user_id":645,"name":"booty","steam_id":76561198817452952,"connected_time":4065000000000,"state":"active","ping":86},{"user_id":667,"name":"Dreamzapp","steam_id":76561199084936632,"connected_time":3538000000000,"state":"active","ping":100},{"user_id":691,"name":"Vladimir Puddin","steam_id":76561198139674520,"connected_time":2381000000000,"state":"active","ping":84},{"user_id":674,"name":"Evil little man","steam_id":76561198311053471,"connected_time":3125000000000,"state":"active","ping":51},{"user_id":697,"name":"MasterCrafter27","steam_id":76561198151035981,"connected_time":1933000000000,"state":"active","ping":101},{"user_id":660,"name":"Kobicha","steam_id":76561198144970720,"connected_time":3892000000000,"state":"active","ping":89},{"user_id":634,"name":"JtsRes","steam_id":76561197994809241,"connected_time":4769000000000,"state":"active","ping":60},{"user_id":703,"name":"Hydroxianchaos","steam_id":76561198043786828,"connected_time":1040000000000,"state":"active","ping":86}]},{"server_id":108,"name":"Uncletopia | Dallas | 2 | All Maps","name_short":"dal-2","host":"dal-1.us.uncletopia.com","port":27025,"enabled":true,"region":"us-central","cc":"us","latitude":32.779167,"longitude":-96.80889,"reserved":0,"last_update":"0001-01-01T00:00:00Z","name_a2s":"Uncletopia | Dallas | 2 | All Maps","protocol":17,"map":"pl_borneo","folder":"tf","game":"Team Fortress","app_id":440,"player_count":24,"max_players":24,"Bots":0,"server_type":"Dedicated","server_os":"Linux","password":true,"vac":true,"version":"7961495","steam_id":85568392924469988,"keywords":["nocrits","nodmgspread","payload","uncletopia"],"game_id":440,"stv_port":27026,"stv_name":"Uncletopia | Dallas | 2 | All Maps | STV","players":[{"user_id":715,"name":"Fruity","steam_id":76561198999674564,"connected_time":1861000000000,"state":"active","ping":45},{"user_id":720,"name":"Ajax","steam_id":76561198071310833,"connected_time":1329000000000,"state":"active","ping":73},{"user_id":686,"name":"flatts","steam_id":76561198094127177,"connected_time":4051000000000,"state":"active","ping":60},{"user_id":728,"name":"raya","steam_id":76561198051504581,"connected_time":1095000000000,"state":"active","ping":56},{"user_id":734,"name":"Sabaktes","steam_id":76561199018313476,"connected_time":316000000000,"state":"active","ping":69},{"user_id":735,"name":"GrumpyGrampaKoala","steam_id":76561198020441036,"connected_time":272000000000,"state":"active","ping":103},{"user_id":732,"name":"Rowdyshark101","steam_id":76561199019123695,"connected_time":573000000000,"state":"active","ping":49},{"user_id":733,"name":"GameBreaker","steam_id":76561198836171572,"connected_time":571000000000,"state":"active","ping":99},{"user_id":736,"name":"paypur -rng","steam_id":76561198214370515,"connected_time":271000000000,"state":"active","ping":73},{"user_id":647,"name":"IMM0RTAL","steam_id":76561198013747901,"connected_time":7097000000000,"state":"active","ping":65},{"user_id":677,"name":"BlancaLamb","steam_id":76561198025646073,"connected_time":5207000000000,"state":"active","ping":76},{"user_id":706,"name":"Kng","steam_id":76561198993248203,"connected_time":2378000000000,"state":"active","ping":89},{"user_id":710,"name":"plink","steam_id":76561198057829889,"connected_time":2289000000000,"state":"active","ping":59},{"user_id":689,"name":"Soda","steam_id":76561198219209367,"connected_time":3962000000000,"state":"active","ping":64},{"user_id":691,"name":"sleepy","steam_id":76561198255015060,"connected_time":3936000000000,"state":"active","ping":87},{"user_id":702,"name":"Holp","steam_id":76561199019186848,"connected_time":2634000000000,"state":"active","ping":79},{"user_id":693,"name":"Jäger","steam_id":76561198131110463,"connected_time":3913000000000,"state":"active","ping":73},{"user_id":724,"name":"SGT Disoriented","steam_id":76561198058177958,"connected_time":1309000000000,"state":"active","ping":59},{"user_id":712,"name":"Manic","steam_id":76561198128149670,"connected_time":2263000000000,"state":"active","ping":52},{"user_id":717,"name":"ĐïɐȐɹɦɆa","steam_id":76561198981411945,"connected_time":1804000000000,"state":"active","ping":101},{"user_id":725,"name":"jizz gaming","steam_id":76561198984762462,"connected_time":1308000000000,"state":"active","ping":90},{"user_id":672,"name":"TOKENLIZARD","steam_id":76561198218765205,"connected_time":5558000000000,"state":"active","ping":65},{"user_id":698,"name":"cc","steam_id":76561199215821942,"connected_time":2868000000000,"state":"active","ping":50},{"user_id":727,"name":"LetsGooooo!!","steam_id":76561198064958312,"connected_time":1278000000000,"state":"active","ping":78}]},{"server_id":404,"name":"Uncletopia | Dallas | 3 | All Maps","name_short":"dal-3","host":"dal-1.us.uncletopia.com","port":27035,"enabled":true,"region":"us-central","cc":"us","latitude":32.779167,"longitude":-96.80889,"reserved":0,"last_update":"0001-01-01T00:00:00Z","name_a2s":"Uncletopia | Dallas | 3 | All Maps","protocol":17,"map":"cp_sunshine","folder":"tf","game":"Team Fortress","app_id":440,"player_count":24,"max_players":24,"Bots":0,"server_type":"Dedicated","server_os":"Linux","password":true,"vac":true,"version":"7961495","steam_id":85568392924515219,"keywords":["cp","nocrits","nodmgspread","uncletopia"],"game_id":440,"stv_port":27036,"stv_name":"Uncletopia | Dallas | 3 | All Maps | STV","players":[{"user_id":612,"name":"RAWRWAIFU","steam_id":76561198032118386,"connected_time":405000000000,"state":"active","ping":70},{"user_id":581,"name":"Rebird","steam_id":76561198226329116,"connected_time":2040000000000,"state":"active","ping":59},{"user_id":609,"name":"HeHedron","steam_id":76561199199667164,"connected_time":566000000000,"state":"active","ping":86},{"user_id":605,"name":"Tired-Out Tibet-Trout","steam_id":76561198118082897,"connected_time":668000000000,"state":"active","ping":91},{"user_id":577,"name":"The Lord of Bread","steam_id":76561199203901420,"connected_time":2355000000000,"state":"active","ping":51},{"user_id":613,"name":"Antonio","steam_id":76561198168910200,"connected_time":302000000000,"state":"active","ping":63},{"user_id":587,"name":"MelonMaster537","steam_id":76561198237316048,"connected_time":1345000000000,"state":"active","ping":103},{"user_id":589,"name":"U ω U","steam_id":76561198118802562,"connected_time":1227000000000,"state":"active","ping":94},{"user_id":590,"name":"troubless","steam_id":76561198335431391,"connected_time":1215000000000,"state":"active","ping":64},{"user_id":593,"name":"weezer wednesday","steam_id":76561198340389876,"connected_time":1095000000000,"state":"active","ping":93},{"user_id":592,"name":"H2OBourne","steam_id":76561198396293109,"connected_time":1182000000000,"state":"active","ping":64},{"user_id":594,"name":"Swiggs","steam_id":76561198135015291,"connected_time":1092000000000,"state":"active","ping":62},{"user_id":614,"name":"moohawi","steam_id":76561198072590221,"connected_time":189000000000,"state":"active","ping":97},{"user_id":596,"name":"ningelo","steam_id":76561198133057951,"connected_time":962000000000,"state":"active","ping":120},{"user_id":597,"name":"A Can of AriZona Green Tea","steam_id":76561198062481133,"connected_time":930000000000,"state":"active","ping":72},{"user_id":598,"name":"2002 Toyota Corolla VE","steam_id":76561198149172070,"connected_time":899000000000,"state":"active","ping":56},{"user_id":599,"name":"American freedom bird","steam_id":76561198366142388,"connected_time":802000000000,"state":"active","ping":93},{"user_id":606,"name":"MexicanGuy","steam_id":76561198167884742,"connected_time":661000000000,"state":"active","ping":111},{"user_id":601,"name":"Churchilla","steam_id":76561198317915810,"connected_time":741000000000,"state":"active","ping":78},{"user_id":610,"name":"MayKaye","steam_id":76561199016092265,"connected_time":564000000000,"state":"active","ping":80},{"user_id":615,"name":"Orange","steam_id":76561198169914315,"connected_time":50000000000,"state":"active","ping":76},{"user_id":604,"name":"AstralLucario","steam_id":76561198075427665,"connected_time":730000000000,"state":"active","ping":71},{"user_id":607,"name":"Dafter","steam_id":76561198255988433,"connected_time":645000000000,"state":"active","ping":98},{"user_id":608,"name":"BB Lorexav","steam_id":76561198207565988,"connected_time":644000000000,"state":"active","ping":89}]},{"server_id":405,"name":"Uncletopia | Dallas | 4 | Community","name_short":"dal-4","host":"dal-1.us.uncletopia.com","port":27045,"enabled":true,"region":"us-central","cc":"us","latitude":32.779167,"longitude":-96.80889,"reserved":0,"last_update":"0001-01-01T00:00:00Z","name_a2s":"Uncletopia | Dallas | 4 | Community","protocol":17,"map":"workshop/koth_kemptown_rc1.ugc767410655","folder":"tf","game":"Team Fortress","app_id":440,"player_count":0,"max_players":24,"Bots":0,"server_type":"Dedicated","server_os":"Linux","password":true,"vac":true,"version":"7961495","steam_id":85568392924515220,"keywords":["cp","nocrits","nodmgspread","uncletopia"],"game_id":440,"stv_port":27046,"stv_name":"Uncletopia | Dallas | 4 | Community | STV","players":null},{"server_id":5,"name":"Uncletopia | Frankfurt | 1 | All Maps","name_short":"frk-1","host":"frk-1.de.uncletopia.com","port":27015,"enabled":true,"region":"eu","cc":"de","latitude":50.110924,"longitude":8.682127,"reserved":0,"last_update":"0001-01-01T00:00:00Z","name_a2s":"Uncletopia | Frankfurt | 1 | All Maps","protocol":17,"map":"pl_snowycoast","folder":"tf","game":"Team Fortress","app_id":440,"player_count":0,"max_players":24,"Bots":0,"server_type":"Dedicated","server_os":"Linux","password":true,"vac":true,"version":"7961495","steam_id":85568392924469989,"keywords":["nocrits","nodmgspread","payload","uncletopia"],"game_id":440,"stv_port":27016,"stv_name":"Uncletopia | Frankfurt | 1 | All Maps | STV","players":null},{"server_id":110,"name":"Uncletopia | Frankfurt | 2 | All Maps","name_short":"frk-2","host":"frk-1.de.uncletopia.com","port":27025,"enabled":true,"region":"eu","cc":"de","latitude":50.110924,"longitude":8.682127,"reserved":0,"last_update":"0001-01-01T00:00:00Z","name_a2s":"Uncletopia | Frankfurt | 2 | All Maps","protocol":17,"map":"koth_lakeside_final","folder":"tf","game":"Team Fortress","app_id":440,"player_count":0,"max_players":24,"Bots":0,"server_type":"Dedicated","server_os":"Linux","password":true,"vac":true,"version":"7961495","steam_id":85568392924469990,"keywords":["cp","nocrits","nodmgspread","uncletopia"],"game_id":440,"stv_port":27026,"stv_name":"Uncletopia | Frankfurt | 2 | All Maps | STV","players":null},{"server_id":308,"name":"Uncletopia | Frankfurt | 3 | All Maps","name_short":"frk-3","host":"frk-1.de.uncletopia.com","port":27035,"enabled":true,"region":"eu","cc":"de","latitude":50.110924,"longitude":8.682127,"reserved":0,"last_update":"0001-01-01T00:00:00Z","name_a2s":"Uncletopia | Frankfurt | 3 | All Maps","protocol":17,"map":"cp_sunshine","folder":"tf","game":"Team Fortress","app_id":440,"player_count":0,"max_players":24,"Bots":0,"server_type":"Dedicated","server_os":"Linux","password":true,"vac":true,"version":"7961495","steam_id":85568392924504274,"keywords":["cp","nocrits","nodmgspread","uncletopia"],"game_id":440,"stv_port":27036,"stv_name":"Uncletopia | Frankfurt | 3 | All Maps | STV","players":null},{"server_id":309,"name":"Uncletopia | Frankfurt | 4 | All Maps","name_short":"frk-4","host":"frk-1.de.uncletopia.com","port":27045,"enabled":true,"region":"eu","cc":"de","latitude":50.110924,"longitude":8.682127,"reserved":0,"last_update":"0001-01-01T00:00:00Z","name_a2s":"Uncletopia | Frankfurt | 4 | All Maps","protocol":17,"map":"cp_altitude","folder":"tf","game":"Team Fortress","app_id":440,"player_count":0,"max_players":24,"Bots":0,"server_type":"Dedicated","server_os":"Linux","password":true,"vac":true,"version":"7961495","steam_id":85568392924504275,"keywords":["cp","nocrits","nodmgspread","uncletopia"],"game_id":440,"stv_port":27046,"stv_name":"Uncletopia | Frankfurt | 4 | All Maps | STV","players":null},{"server_id":310,"name":"Uncletopia | Frankfurt | 5 | All Maps","name_short":"frk-5","host":"frk-1.de.uncletopia.com","port":27055,"enabled":true,"region":"eu","cc":"de","latitude":50.110924,"longitude":8.682127,"reserved":0,"last_update":"0001-01-01T00:00:00Z","name_a2s":"Uncletopia | Frankfurt | 5 | All Maps","protocol":17,"map":"cp_process_final","folder":"tf","game":"Team Fortress","app_id":440,"player_count":0,"max_players":24,"Bots":0,"server_type":"Dedicated","server_os":"Linux","password":true,"vac":true,"version":"7961495","steam_id":85568392924504277,"keywords":["cp","nocrits","nodmgspread","uncletopia"],"game_id":440,"stv_port":27056,"stv_name":"Uncletopia | Frankfurt | 5 | All Maps | STV","players":null},{"server_id":311,"name":"Uncletopia | Frankfurt | 6 | All Maps","name_short":"frk-6","host":"frk-1.de.uncletopia.com","port":27065,"enabled":true,"region":"eu","cc":"de","latitude":50.110924,"longitude":8.682127,"reserved":0,"last_update":"0001-01-01T00:00:00Z","name_a2s":"Uncletopia | Frankfurt | 6 | All Maps","protocol":17,"map":"pl_barnblitz","folder":"tf","game":"Team Fortress","app_id":440,"player_count":0,"max_players":24,"Bots":0,"server_type":"Dedicated","server_os":"Linux","password":true,"vac":true,"version":"7961495","steam_id":85568392924504278,"keywords":["nocrits","nodmgspread","payload","uncletopia"],"game_id":440,"stv_port":27066,"stv_name":"Uncletopia | Frankfurt | 6 | All Maps | STV","players":null},{"server_id":23,"name":"Uncletopia | Frankfurt | 7 | Stopwatch Beta","name_short":"frk-7","host":"frk-1.de.uncletopia.com","port":27075,"enabled":true,"region":"eu","cc":"de","latitude":50.110924,"longitude":8.682127,"reserved":0,"last_update":"0001-01-01T00:00:00Z","name_a2s":"Uncletopia | Frankfurt | 7 | Stopwatch Beta","protocol":17,"map":"koth_cascade","folder":"tf","game":"Team Fortress","app_id":440,"player_count":0,"max_players":24,"Bots":0,"server_type":"Dedicated","server_os":"Linux","password":true,"vac":true,"version":"7961495","steam_id":85568392924742827,"keywords":["cp","nocrits","nodmgspread","uncletopia"],"game_id":440,"stv_port":27076,"stv_name":"Uncletopia | Frankfurt | 7 | Stopwatch Beta | STV","players":null},{"server_id":24,"name":"Uncletopia | Frankfurt | 8 | Community","name_short":"frk-8","host":"frk-1.de.uncletopia.com","port":27085,"enabled":true,"region":"eu","cc":"de","latitude":50.110924,"longitude":8.682127,"reserved":0,"last_update":"0001-01-01T00:00:00Z","name_a2s":"Uncletopia | Frankfurt | 8 | Community","protocol":17,"map":"cp_dustbowl","folder":"tf","game":"Team Fortress","app_id":440,"player_count":0,"max_players":24,"Bots":0,"server_type":"Dedicated","server_os":"Linux","password":true,"vac":true,"version":"7961495","steam_id":85568392924742828,"keywords":["cp","nocrits","nodmgspread","uncletopia"],"game_id":440,"stv_port":27086,"stv_name":"Uncletopia | Frankfurt | 8 | Community | STV","players":null},{"server_id":202,"name":"Uncletopia | Hong Kong | 1 | All Maps","name_short":"hgk-1","host":"hgk-1.hk.uncletopia.com","port":27015,"enabled":true,"region":"asia","cc":"hk","latitude":22.302711,"longitude":114.177216,"reserved":0,"last_update":"0001-01-01T00:00:00Z","name_a2s":"Uncletopia | Hong Kong | 1 | All Maps","protocol":17,"map":"pl_pier","folder":"tf","game":"Team Fortress","app_id":440,"player_count":11,"max_players":24,"Bots":0,"server_type":"Dedicated","server_os":"Linux","password":true,"vac":true,"version":"7961495","steam_id":85568392924494504,"keywords":["nocrits","nodmgspread","payload","uncletopia"],"game_id":440,"stv_port":27016,"stv_name":"Uncletopia | Hong Kong | 1 | All Maps | STV","players":[{"user_id":199,"name":"Superjackman#SaveTF2","steam_id":76561199137727688,"connected_time":170000000000,"state":"active","ping":264},{"user_id":186,"name":"ConHoshi","steam_id":76561199387718733,"connected_time":944000000000,"state":"active","ping":81},{"user_id":195,"name":"aeross","steam_id":76561198834445483,"connected_time":458000000000,"state":"active","ping":66},{"user_id":183,"name":"malkuth","steam_id":76561198230213828,"connected_time":1358000000000,"state":"active","ping":60},{"user_id":153,"name":"Muerto","steam_id":76561198328718520,"connected_time":2904000000000,"state":"active","ping":106},{"user_id":201,"name":"salami","steam_id":76561198306834480,"connected_time":61000000000,"state":"active","ping":74},{"user_id":188,"name":"Xnerz","steam_id":76561199443552014,"connected_time":892000000000,"state":"active","ping":98},{"user_id":197,"name":"caloysmaze","steam_id":76561198240972508,"connected_time":430000000000,"state":"active","ping":62},{"user_id":194,"name":"Stewb","steam_id":76561198131423270,"connected_time":542000000000,"state":"active","ping":59},{"user_id":202,"name":"P","steam_id":76561198304514505,"connected_time":44000000000,"state":"active","ping":83},{"user_id":125,"name":"toad","steam_id":76561198082199290,"connected_time":4354000000000,"state":"active","ping":54}]},{"server_id":1,"name":"Uncletopia | Los Angeles | 1 | All Maps","name_short":"lax-1","host":"lax-1.us.uncletopia.com","port":27015,"enabled":true,"region":"us-west","cc":"us","latitude":33.94279,"longitude":-118.41004,"reserved":0,"last_update":"0001-01-01T00:00:00Z","name_a2s":"Uncletopia | Los Angeles | 1 | All Maps","protocol":17,"map":"cp_dustbowl","folder":"tf","game":"Team Fortress","app_id":440,"player_count":24,"max_players":24,"Bots":0,"server_type":"Dedicated","server_os":"Linux","password":true,"vac":true,"version":"7961495","steam_id":85568392924469991,"keywords":["cp","nocrits","nodmgspread","uncletopia"],"game_id":440,"stv_port":27016,"stv_name":"Uncletopia | Los Angeles | 1 | All Maps | STV","players":[{"user_id":257,"name":"Runny Eggs","steam_id":76561198006785882,"connected_time":1338000000000,"state":"active","ping":109},{"user_id":251,"name":"⛧Alkahestry","steam_id":76561198109641497,"connected_time":1462000000000,"state":"active","ping":41},{"user_id":259,"name":"Regret","steam_id":76561198255257967,"connected_time":26000000000,"state":"active","ping":348},{"user_id":247,"name":"fertile moist and well drained","steam_id":76561198031409921,"connected_time":1516000000000,"state":"active","ping":68},{"user_id":250,"name":"noelle","steam_id":76561198842577534,"connected_time":1482000000000,"state":"active","ping":79},{"user_id":252,"name":"Matches_","steam_id":76561198048925904,"connected_time":1420000000000,"state":"active","ping":59},{"user_id":249,"name":"gleek","steam_id":76561198105374054,"connected_time":1501000000000,"state":"active","ping":61},{"user_id":220,"name":"exx","steam_id":76561198090552145,"connected_time":3683000000000,"state":"active","ping":47},{"user_id":248,"name":"jovial","steam_id":76561198297130941,"connected_time":1514000000000,"state":"active","ping":45},{"user_id":258,"name":"ricky","steam_id":76561198355708209,"connected_time":392000000000,"state":"active","ping":112},{"user_id":238,"name":"Chiaki Nanami","steam_id":76561198164782653,"connected_time":2568000000000,"state":"active","ping":119},{"user_id":244,"name":"I'm using a drawing tablet","steam_id":76561198986639507,"connected_time":2162000000000,"state":"active","ping":73},{"user_id":239,"name":"gerg","steam_id":76561197997127387,"connected_time":2564000000000,"state":"active","ping":61},{"user_id":242,"name":"Phillip Jeffries","steam_id":76561198064052174,"connected_time":2309000000000,"state":"active","ping":118},{"user_id":254,"name":"Bread Wizard","steam_id":76561198123443402,"connected_time":1372000000000,"state":"active","ping":55},{"user_id":140,"name":"Squatter1","steam_id":76561198078987734,"connected_time":8422000000000,"state":"active","ping":75},{"user_id":246,"name":"luigiclub","steam_id":76561198180548194,"connected_time":1805000000000,"state":"active","ping":80},{"user_id":222,"name":"HAT-WEARING™ Maggot Gamer Cat","steam_id":76561197973992705,"connected_time":3614000000000,"state":"active","ping":70},{"user_id":241,"name":"social distance warrior","steam_id":76561198128992994,"connected_time":2527000000000,"state":"active","ping":74},{"user_id":255,"name":"HiddenEgg","steam_id":76561199045105518,"connected_time":1367000000000,"state":"active","ping":54},{"user_id":256,"name":"Komada337","steam_id":76561198153971124,"connected_time":1362000000000,"state":"active","ping":104},{"user_id":214,"name":"Buswolley","steam_id":76561197995205571,"connected_time":4189000000000,"state":"active","ping":66},{"user_id":245,"name":"Dooku","steam_id":76561198216958508,"connected_time":2027000000000,"state":"active","ping":55},{"user_id":212,"name":"Mr. Noodle","steam_id":76561198025280658,"connected_time":4251000000000,"state":"active","ping":68}]},{"server_id":112,"name":"Uncletopia | Los Angeles | 2 | All Maps","name_short":"lax-2","host":"lax-1.us.uncletopia.com","port":27025,"enabled":true,"region":"us-west","cc":"us","latitude":33.94279,"longitude":-118.41004,"reserved":0,"last_update":"0001-01-01T00:00:00Z","name_a2s":"Uncletopia | Los Angeles | 2 | All Maps","protocol":17,"map":"pl_pier","folder":"tf","game":"Team Fortress","app_id":440,"player_count":24,"max_players":24,"Bots":0,"server_type":"Dedicated","server_os":"Linux","password":true,"vac":true,"version":"7961495","steam_id":85568392924469992,"keywords":["nocrits","nodmgspread","payload","uncletopia"],"game_id":440,"stv_port":27026,"stv_name":"Uncletopia | Los Angeles | 2 | All Maps | STV","players":[{"user_id":288,"name":"Buckets","steam_id":76561198172332866,"connected_time":185000000000,"state":"active","ping":41},{"user_id":261,"name":"Future Tusk","steam_id":76561198199635217,"connected_time":2112000000000,"state":"active","ping":57},{"user_id":277,"name":"parallax","steam_id":76561198004438881,"connected_time":643000000000,"state":"active","ping":71},{"user_id":280,"name":"cargo","steam_id":76561198965511236,"connected_time":501000000000,"state":"active","ping":35},{"user_id":272,"name":"RUF","steam_id":76561198062315805,"connected_time":1436000000000,"state":"active","ping":58},{"user_id":281,"name":"Kito","steam_id":76561198032401946,"connected_time":489000000000,"state":"active","ping":78},{"user_id":289,"name":"Classus Moira","steam_id":76561199218374185,"connected_time":178000000000,"state":"active","ping":68},{"user_id":290,"name":"[chef] iron","steam_id":76561197970888616,"connected_time":100000000000,"state":"active","ping":90},{"user_id":286,"name":"foofydafoofer","steam_id":76561199395830278,"connected_time":322000000000,"state":"active","ping":67},{"user_id":233,"name":"Newport1","steam_id":76561198074614044,"connected_time":3810000000000,"state":"active","ping":47},{"user_id":256,"name":"LeadButterTF2","steam_id":76561198260530863,"connected_time":2303000000000,"state":"active","ping":43},{"user_id":221,"name":"GLXy","steam_id":76561198207551544,"connected_time":4609000000000,"state":"active","ping":78},{"user_id":287,"name":"pt","steam_id":76561198143023330,"connected_time":265000000000,"state":"active","ping":46},{"user_id":266,"name":"Clobbadat","steam_id":76561198053828975,"connected_time":1855000000000,"state":"active","ping":78},{"user_id":244,"name":"Odd Life","steam_id":76561198244979998,"connected_time":3148000000000,"state":"active","ping":54},{"user_id":249,"name":"Ryle","steam_id":76561198216682264,"connected_time":2709000000000,"state":"active","ping":39},{"user_id":279,"name":"icechiller","steam_id":76561198070895266,"connected_time":558000000000,"state":"active","ping":45},{"user_id":238,"name":"Person Man","steam_id":76561198293857963,"connected_time":3303000000000,"state":"active","ping":64},{"user_id":274,"name":"Brain Magic","steam_id":76561198010201477,"connected_time":1425000000000,"state":"active","ping":55},{"user_id":268,"name":"Tam Honks","steam_id":76561198044347961,"connected_time":1751000000000,"state":"active","ping":67},{"user_id":245,"name":"two scoops of a jar of somethin","steam_id":76561199029306384,"connected_time":3133000000000,"state":"active","ping":40},{"user_id":264,"name":"Did you know","steam_id":76561198090057040,"connected_time":2068000000000,"state":"active","ping":64},{"user_id":265,"name":"Sheev Palpatine","steam_id":76561198252332430,"connected_time":2066000000000,"state":"active","ping":83},{"user_id":276,"name":"Sábado Gigante","steam_id":76561197994685971,"connected_time":1260000000000,"state":"active","ping":56}]},{"server_id":324,"name":"Uncletopia | Los Angeles | 3 | All Maps","name_short":"lax-3","host":"lax-1.us.uncletopia.com","port":27035,"enabled":true,"region":"us-west","cc":"us","latitude":33.94279,"longitude":-118.41004,"reserved":0,"last_update":"0001-01-01T00:00:00Z","name_a2s":"Uncletopia | Los Angeles | 3 | All Maps","protocol":17,"map":"cp_dustbowl","folder":"tf","game":"Team Fortress","app_id":440,"player_count":24,"max_players":24,"Bots":0,"server_type":"Dedicated","server_os":"Linux","password":true,"vac":true,"version":"7961495","steam_id":85568392924510198,"keywords":["cp","nocrits","nodmgspread","uncletopia"],"game_id":440,"stv_port":27036,"stv_name":"Uncletopia | Los Angeles | 3 | All Maps | STV","players":[{"user_id":649,"name":"Floor Ninja","steam_id":76561198215538528,"connected_time":1151000000000,"state":"active","ping":54},{"user_id":641,"name":"Wanders","steam_id":76561198261193526,"connected_time":1364000000000,"state":"active","ping":63},{"user_id":613,"name":"Cactus™ ♥","steam_id":76561198036441270,"connected_time":3953000000000,"state":"active","ping":67},{"user_id":658,"name":"ang","steam_id":76561198435151254,"connected_time":107000000000,"state":"active","ping":58},{"user_id":574,"name":"Vintage TV","steam_id":76561198800334545,"connected_time":5945000000000,"state":"active","ping":46},{"user_id":614,"name":"Culprit Shy","steam_id":76561198206506481,"connected_time":3925000000000,"state":"active","ping":45},{"user_id":642,"name":"doctor sex","steam_id":76561199167569123,"connected_time":1363000000000,"state":"active","ping":57},{"user_id":619,"name":"♦♣Quadric♥♠","steam_id":76561198061003853,"connected_time":3415000000000,"state":"active","ping":114},{"user_id":626,"name":"subwoofer","steam_id":76561198087200115,"connected_time":2500000000000,"state":"active","ping":73},{"user_id":651,"name":"Pandora Nyx","steam_id":76561198093475054,"connected_time":793000000000,"state":"active","ping":131},{"user_id":647,"name":"thisisSteve","steam_id":76561198420882318,"connected_time":1187000000000,"state":"active","ping":52},{"user_id":629,"name":"Ja","steam_id":76561198396340174,"connected_time":2449000000000,"state":"active","ping":113},{"user_id":604,"name":"coolbust carti","steam_id":76561198065384345,"connected_time":4466000000000,"state":"active","ping":57},{"user_id":638,"name":"MinusSoup918","steam_id":76561198060902773,"connected_time":2079000000000,"state":"active","ping":73},{"user_id":612,"name":"[El Fail] MR.BadassMCLee","steam_id":76561198043787818,"connected_time":4071000000000,"state":"active","ping":62},{"user_id":657,"name":"Irritated Duck","steam_id":76561198247792076,"connected_time":157000000000,"state":"active","ping":99},{"user_id":650,"name":"Brando","steam_id":76561198078306678,"connected_time":1053000000000,"state":"active","ping":78},{"user_id":654,"name":"Vegan Veal","steam_id":76561198123607452,"connected_time":207000000000,"state":"active","ping":80},{"user_id":634,"name":"nice cheese","steam_id":76561199212189723,"connected_time":2350000000000,"state":"active","ping":54},{"user_id":648,"name":"Creet1724","steam_id":76561198811242017,"connected_time":1183000000000,"state":"active","ping":48},{"user_id":655,"name":"Adolf west","steam_id":76561199056701141,"connected_time":205000000000,"state":"active","ping":72},{"user_id":635,"name":"Rix FPV","steam_id":76561198299320893,"connected_time":2336000000000,"state":"active","ping":108},{"user_id":659,"name":"Rommel2007","steam_id":76561198041744631,"connected_time":76000000000,"state":"active","ping":51},{"user_id":573,"name":"SAVECASEY","steam_id":76561198857896847,"connected_time":6000000000000,"state":"active","ping":45}]},{"server_id":25,"name":"Uncletopia | Los Angeles | 4 | Stopwatch Beta","name_short":"lax-4","host":"lax-1.us.uncletopia.com","port":27045,"enabled":true,"region":"us-west","cc":"us","latitude":33.94279,"longitude":-118.41004,"reserved":0,"last_update":"0001-01-01T00:00:00Z","name_a2s":"Uncletopia | Los Angeles | 4 | Stopwatch Beta","protocol":17,"map":"pl_upward","folder":"tf","game":"Team Fortress","app_id":440,"player_count":0,"max_players":24,"Bots":0,"server_type":"Dedicated","server_os":"Linux","password":true,"vac":true,"version":"7961495","steam_id":85568392924510199,"keywords":["nocrits","nodmgspread","payload","uncletopia"],"game_id":440,"stv_port":27046,"stv_name":"Uncletopia | Los Angeles | 4 | Stopwatch Beta | STV","players":null},{"server_id":11,"name":"Uncletopia | London | 1 | All Maps","name_short":"lon-1","host":"lon-1.uk.uncletopia.com","port":27015,"enabled":true,"region":"eu","cc":"gb","latitude":51.509865,"longitude":-0.118092,"reserved":0,"last_update":"0001-01-01T00:00:00Z","name_a2s":"Uncletopia | London | 1 | All Maps","protocol":17,"map":"cp_sunshine","folder":"tf","game":"Team Fortress","app_id":440,"player_count":5,"max_players":24,"Bots":0,"server_type":"Dedicated","server_os":"Linux","password":true,"vac":true,"version":"7961495","steam_id":85568392924367362,"keywords":["cp","nocrits","nodmgspread","uncletopia"],"game_id":440,"stv_port":27016,"stv_name":"Uncletopia | London | 1 | All Maps | STV","players":[{"user_id":916,"name":"Japes","steam_id":76561198079625724,"connected_time":513000000000,"state":"active","ping":131},{"user_id":917,"name":"АшДваЭсОЧетыре","steam_id":76561198846349729,"connected_time":420000000000,"state":"active","ping":134},{"user_id":915,"name":"em1l","steam_id":76561198344921429,"connected_time":710000000000,"state":"active","ping":75},{"user_id":854,"name":"Psyche","steam_id":76561198091662001,"connected_time":7489000000000,"state":"active","ping":62},{"user_id":907,"name":"60Hz gaming","steam_id":76561198032698137,"connected_time":2376000000000,"state":"active","ping":69}]},{"server_id":114,"name":"Uncletopia | London | 2 | All Maps","name_short":"lon-2","host":"lon-1.uk.uncletopia.com","port":27025,"enabled":true,"region":"eu","cc":"gb","latitude":51.509865,"longitude":-0.118092,"reserved":0,"last_update":"0001-01-01T00:00:00Z","name_a2s":"Uncletopia | London | 2 | All Maps","protocol":17,"map":"koth_lakeside_final","folder":"tf","game":"Team Fortress","app_id":440,"player_count":0,"max_players":24,"Bots":0,"server_type":"Dedicated","server_os":"Linux","password":true,"vac":true,"version":"7961495","steam_id":85568392924470941,"keywords":["cp","nocrits","nodmgspread","uncletopia"],"game_id":440,"stv_port":27026,"stv_name":"Uncletopia | London | 2 | All Maps | STV","players":null},{"server_id":320,"name":"Uncletopia | London | 3 | All Maps","name_short":"lon-3","host":"lon-1.uk.uncletopia.com","port":27035,"enabled":true,"region":"eu","cc":"gb","latitude":51.509865,"longitude":-0.118092,"reserved":0,"last_update":"0001-01-01T00:00:00Z","name_a2s":"Uncletopia | London | 3 | All Maps","protocol":17,"map":"pl_pier","folder":"tf","game":"Team Fortress","app_id":440,"player_count":0,"max_players":24,"Bots":0,"server_type":"Dedicated","server_os":"Linux","password":true,"vac":true,"version":"7961495","steam_id":85568392924510192,"keywords":["nocrits","nodmgspread","payload","uncletopia"],"game_id":440,"stv_port":27036,"stv_name":"Uncletopia | London | 3 | All Maps | STV","players":null},{"server_id":321,"name":"Uncletopia | London | 4 | All Maps","name_short":"lon-4","host":"lon-1.uk.uncletopia.com","port":27045,"enabled":true,"region":"eu","cc":"gb","latitude":51.509865,"longitude":-0.118092,"reserved":0,"last_update":"0001-01-01T00:00:00Z","name_a2s":"Uncletopia | London | 4 | All Maps","protocol":17,"map":"pl_snowycoast","folder":"tf","game":"Team Fortress","app_id":440,"player_count":0,"max_players":24,"Bots":0,"server_type":"Dedicated","server_os":"Linux","password":true,"vac":true,"version":"7961495","steam_id":85568392924510193,"keywords":["nocrits","nodmgspread","payload","uncletopia"],"game_id":440,"stv_port":27046,"stv_name":"Uncletopia | London | 4 | All Maps | STV","players":null},{"server_id":21,"name":"Uncletopia | London | 5 | All Maps","name_short":"lon-5","host":"lon-1.uk.uncletopia.com","port":27055,"enabled":true,"region":"eu","cc":"gb","latitude":51.509865,"longitude":-0.118092,"reserved":0,"last_update":"0001-01-01T00:00:00Z","name_a2s":"Uncletopia | London | 5 | All Maps","protocol":17,"map":"cp_process_final","folder":"tf","game":"Team Fortress","app_id":440,"player_count":0,"max_players":24,"Bots":0,"server_type":"Dedicated","server_os":"Linux","password":true,"vac":true,"version":"7961495","steam_id":85568392924742829,"keywords":["cp","nocrits","nodmgspread","uncletopia"],"game_id":440,"stv_port":27056,"stv_name":"Uncletopia | London | 5 | All Maps | STV","players":null},{"server_id":22,"name":"Uncletopia | London | 6 | All Maps","name_short":"lon-6","host":"lon-1.uk.uncletopia.com","port":27065,"enabled":true,"region":"eu","cc":"gb","latitude":51.509865,"longitude":-0.118092,"reserved":0,"last_update":"0001-01-01T00:00:00Z","name_a2s":"Uncletopia | London | 6 | All Maps","protocol":17,"map":"pl_swiftwater_final1","folder":"tf","game":"Team Fortress","app_id":440,"player_count":0,"max_players":24,"Bots":0,"server_type":"Dedicated","server_os":"Linux","password":true,"vac":true,"version":"7961495","steam_id":85568392924742830,"keywords":["nocrits","nodmgspread","payload","uncletopia"],"game_id":440,"stv_port":27066,"stv_name":"Uncletopia | London | 6 | All Maps | STV","players":null},{"server_id":40,"name":"Uncletopia | London | 7 | No Payload","name_short":"lon-7","host":"lon-1.uk.uncletopia.com","port":27075,"enabled":true,"region":"eu","cc":"gb","latitude":51.509865,"longitude":-0.118092,"reserved":0,"last_update":"0001-01-01T00:00:00Z","name_a2s":"Uncletopia | London | 7 | No Payload","protocol":17,"map":"cp_snakewater_final1","folder":"tf","game":"Team Fortress","app_id":440,"player_count":0,"max_players":24,"Bots":0,"server_type":"Dedicated","server_os":"Linux","password":true,"vac":true,"version":"7961495","steam_id":85568392924964314,"keywords":["cp","nocrits","nodmgspread","uncletopia"],"game_id":440,"stv_port":27076,"stv_name":"Uncletopia | London | 7 | No Payload | STV","players":null},{"server_id":41,"name":"Uncletopia | London | 8 | Community","name_short":"lon-8","host":"lon-1.uk.uncletopia.com","port":27085,"enabled":true,"region":"eu","cc":"gb","latitude":51.509865,"longitude":-0.118092,"reserved":0,"last_update":"0001-01-01T00:00:00Z","name_a2s":"Uncletopia | London | 8 | Community","protocol":17,"map":"workshop/koth_slaughter_rc1.ugc1712845210","folder":"tf","game":"Team Fortress","app_id":440,"player_count":0,"max_players":24,"Bots":0,"server_type":"Dedicated","server_os":"Linux","password":true,"vac":true,"version":"7961495","steam_id":85568392924964315,"keywords":["cp","nocrits","nodmgspread","uncletopia"],"game_id":440,"stv_port":27086,"stv_name":"Uncletopia | London | 8 | Community | STV","players":null},{"server_id":300,"name":"Uncletopia | Montréal | 1 | All Maps","name_short":"mtl-1","host":"mtl-1.ca.uncletopia.com","port":27015,"enabled":true,"region":"us-east","cc":"ca","latitude":45.50889,"longitude":-73.56167,"reserved":0,"last_update":"0001-01-01T00:00:00Z","name_a2s":"","protocol":0,"map":"","folder":"","game":"","app_id":0,"player_count":0,"max_players":0,"Bots":0,"server_type":"","server_os":"","password":false,"vac":false,"version":"","steam_id":0,"keywords":null,"game_id":0,"stv_port":0,"stv_name":"","players":null},{"server_id":301,"name":"Uncletopia | Montréal | 2 | All Maps","name_short":"mtl-2","host":"mtl-1.ca.uncletopia.com","port":27025,"enabled":true,"region":"us-east","cc":"ca","latitude":45.50889,"longitude":-73.56167,"reserved":0,"last_update":"0001-01-01T00:00:00Z","name_a2s":"","protocol":0,"map":"","folder":"","game":"","app_id":0,"player_count":13,"max_players":0,"Bots":0,"server_type":"","server_os":"","password":false,"vac":false,"version":"","steam_id":0,"keywords":null,"game_id":0,"stv_port":0,"stv_name":"","players":[{"user_id":160,"name":"shr","steam_id":76561198449852071,"connected_time":634000000000,"state":"active","ping":118},{"user_id":143,"name":"Tripll-L","steam_id":76561197998077437,"connected_time":1662000000000,"state":"active","ping":91},{"user_id":162,"name":"masonallard1981","steam_id":76561199215624576,"connected_time":330000000000,"state":"active","ping":121},{"user_id":164,"name":"Psychosis","steam_id":76561198078659070,"connected_time":251000000000,"state":"active","ping":80},{"user_id":165,"name":"fraydo","steam_id":76561198287569290,"connected_time":188000000000,"state":"active","ping":64},{"user_id":145,"name":"Pizza","steam_id":76561198118748364,"connected_time":1656000000000,"state":"active","ping":83},{"user_id":149,"name":"Loser","steam_id":76561198260540499,"connected_time":1578000000000,"state":"active","ping":69},{"user_id":131,"name":"Өchpochmak","steam_id":76561198434212101,"connected_time":2894000000000,"state":"active","ping":66},{"user_id":155,"name":"Vince Offer","steam_id":76561198991008825,"connected_time":1042000000000,"state":"active","ping":71},{"user_id":69,"name":"foreskin gaming","steam_id":76561198113407992,"connected_time":6570000000000,"state":"active","ping":44},{"user_id":120,"name":"Makina","steam_id":76561198057475567,"connected_time":3434000000000,"state":"active","ping":83},{"user_id":152,"name":"Lil Bo L33T","steam_id":76561198041843704,"connected_time":1498000000000,"state":"active","ping":70},{"user_id":91,"name":"No Chance of Pearly Gates","steam_id":76561198042570322,"connected_time":5714000000000,"state":"active","ping":75}]},{"server_id":302,"name":"Uncletopia | Montréal | 3 | All Maps","name_short":"mtl-3","host":"mtl-1.ca.uncletopia.com","port":27035,"enabled":true,"region":"us-east","cc":"ca","latitude":45.50889,"longitude":-73.56167,"reserved":0,"last_update":"0001-01-01T00:00:00Z","name_a2s":"","protocol":0,"map":"","folder":"","game":"","app_id":0,"player_count":0,"max_players":0,"Bots":0,"server_type":"","server_os":"","password":false,"vac":false,"version":"","steam_id":0,"keywords":null,"game_id":0,"stv_port":0,"stv_name":"","players":null},{"server_id":303,"name":"Uncletopia | Montréal | 4 | No Payload","name_short":"mtl-4","host":"mtl-1.ca.uncletopia.com","port":27045,"enabled":true,"region":"us-east","cc":"ca","latitude":45.50889,"longitude":-73.56167,"reserved":0,"last_update":"0001-01-01T00:00:00Z","name_a2s":"","protocol":0,"map":"","folder":"","game":"","app_id":0,"player_count":0,"max_players":0,"Bots":0,"server_type":"","server_os":"","password":false,"vac":false,"version":"","steam_id":0,"keywords":null,"game_id":0,"stv_port":0,"stv_name":"","players":null},{"server_id":13,"name":"Uncletopia | New York City | 1 | All Maps","name_short":"nyc-1","host":"nyc-1.us.uncletopia.com","port":27015,"enabled":true,"region":"us-east","cc":"us","latitude":40.73061,"longitude":-73.93524,"reserved":0,"last_update":"0001-01-01T00:00:00Z","name_a2s":"Uncletopia | New York City | 1 | All Maps","protocol":17,"map":"pl_badwater","folder":"tf","game":"Team Fortress","app_id":440,"player_count":24,"max_players":24,"Bots":0,"server_type":"Dedicated","server_os":"Linux","password":true,"vac":true,"version":"7961495","steam_id":85568392924469993,"keywords":["nocrits","nodmgspread","payload","uncletopia"],"game_id":440,"stv_port":27016,"stv_name":"Uncletopia | New York City | 1 | All Maps | STV","players":[{"user_id":737,"name":"I can't aim!","steam_id":76561198223603960,"connected_time":858000000000,"state":"active","ping":115},{"user_id":721,"name":"doctorbowl","steam_id":76561198398475350,"connected_time":1984000000000,"state":"active","ping":46},{"user_id":669,"name":"professorman","steam_id":76561198041882328,"connected_time":5852000000000,"state":"active","ping":55},{"user_id":705,"name":"twinkhole sinkhole","steam_id":76561198149775502,"connected_time":3241000000000,"state":"active","ping":58},{"user_id":722,"name":"flamingcookies","steam_id":76561198280864779,"connected_time":1955000000000,"state":"active","ping":66},{"user_id":656,"name":"malon milk","steam_id":76561198042558913,"connected_time":6831000000000,"state":"active","ping":72},{"user_id":741,"name":"Mangoue","steam_id":76561198844686784,"connected_time":165000000000,"state":"active","ping":71},{"user_id":731,"name":"Aristotle Voulton","steam_id":76561198100174923,"connected_time":1023000000000,"state":"active","ping":73},{"user_id":732,"name":"Xx_Savage_Twerks_xX","steam_id":76561198011665915,"connected_time":1014000000000,"state":"active","ping":50},{"user_id":733,"name":"Flexo","steam_id":76561198111618506,"connected_time":982000000000,"state":"active","ping":141},{"user_id":734,"name":"SPOOKY HOTDOG","steam_id":76561197964599698,"connected_time":969000000000,"state":"active","ping":70},{"user_id":740,"name":"Vibe Check","steam_id":76561198087326826,"connected_time":446000000000,"state":"active","ping":65},{"user_id":725,"name":"Five","steam_id":76561198026640473,"connected_time":1510000000000,"state":"active","ping":86},{"user_id":738,"name":"Qwertoc","steam_id":76561199262546529,"connected_time":787000000000,"state":"active","ping":171},{"user_id":689,"name":"SpongedSocks","steam_id":76561198374009086,"connected_time":4421000000000,"state":"active","ping":54},{"user_id":724,"name":"theghazinator","steam_id":76561198188027695,"connected_time":1531000000000,"state":"active","ping":66},{"user_id":715,"name":"ErenJenga54","steam_id":76561199066185761,"connected_time":2378000000000,"state":"active","ping":133},{"user_id":706,"name":"the j","steam_id":76561198257263022,"connected_time":3214000000000,"state":"active","ping":66},{"user_id":718,"name":"sheep man shaun","steam_id":76561198994349483,"connected_time":2044000000000,"state":"active","ping":119},{"user_id":607,"name":"XX_gamer2001_XxX","steam_id":76561198105405869,"connected_time":12128000000000,"state":"active","ping":96},{"user_id":735,"name":"sfoster","steam_id":76561197993895857,"connected_time":967000000000,"state":"active","ping":72},{"user_id":712,"name":"vyx","steam_id":76561198037205391,"connected_time":2658000000000,"state":"active","ping":70},{"user_id":736,"name":"Streetwise","steam_id":76561197971684268,"connected_time":959000000000,"state":"active","ping":129},{"user_id":726,"name":"Dravenation","steam_id":76561198012411483,"connected_time":1242000000000,"state":"active","ping":87}]},{"server_id":14,"name":"Uncletopia | New York City | 2 | All Maps","name_short":"nyc-2","host":"nyc-1.us.uncletopia.com","port":27025,"enabled":true,"region":"us-east","cc":"us","latitude":40.73061,"longitude":-73.93524,"reserved":0,"last_update":"0001-01-01T00:00:00Z","name_a2s":"Uncletopia | New York City | 2 | All Maps","protocol":17,"map":"pl_thundermountain","folder":"tf","game":"Team Fortress","app_id":440,"player_count":24,"max_players":24,"Bots":0,"server_type":"Dedicated","server_os":"Linux","password":true,"vac":true,"version":"7961495","steam_id":85568392924469994,"keywords":["nocrits","nodmgspread","payload","uncletopia"],"game_id":440,"stv_port":27026,"stv_name":"Uncletopia | New York City | 2 | All Maps | STV","players":[{"user_id":871,"name":"wishblades","steam_id":76561199199193074,"connected_time":651000000000,"state":"active","ping":67},{"user_id":836,"name":"Weeb","steam_id":76561198333568146,"connected_time":3999000000000,"state":"active","ping":64},{"user_id":851,"name":"uheggwhite","steam_id":76561199199795741,"connected_time":3097000000000,"state":"active","ping":94},{"user_id":844,"name":"Grand Piano Tuna","steam_id":76561198135137213,"connected_time":3181000000000,"state":"active","ping":59},{"user_id":840,"name":"The Wave","steam_id":76561198268225109,"connected_time":3388000000000,"state":"active","ping":76},{"user_id":870,"name":"TF2IsBetter","steam_id":76561198116812607,"connected_time":686000000000,"state":"active","ping":69},{"user_id":866,"name":"Like a seal 😏","steam_id":76561198180951431,"connected_time":1909000000000,"state":"active","ping":46},{"user_id":877,"name":"ᗜˬᗜ","steam_id":76561198049076233,"connected_time":247000000000,"state":"active","ping":48},{"user_id":872,"name":"._.","steam_id":76561198300316801,"connected_time":638000000000,"state":"active","ping":36},{"user_id":867,"name":"Sea Nawks","steam_id":76561198110023381,"connected_time":1906000000000,"state":"active","ping":70},{"user_id":831,"name":"Speedy","steam_id":76561198080761661,"connected_time":4175000000000,"state":"active","ping":64},{"user_id":842,"name":"SawyerSaur","steam_id":76561198872835142,"connected_time":3188000000000,"state":"active","ping":86},{"user_id":768,"name":"Miner2495","steam_id":76561198445904523,"connected_time":9141000000000,"state":"active","ping":62},{"user_id":868,"name":"Relare","steam_id":76561198004059718,"connected_time":1307000000000,"state":"active","ping":74},{"user_id":813,"name":"Okpar","steam_id":76561199221067945,"connected_time":5585000000000,"state":"active","ping":96},{"user_id":854,"name":"Tots","steam_id":76561198027485007,"connected_time":2760000000000,"state":"active","ping":74},{"user_id":873,"name":"oh god i'm gonna CHUM","steam_id":76561198019210187,"connected_time":614000000000,"state":"active","ping":83},{"user_id":845,"name":"Ziggy Stardust","steam_id":76561198226531404,"connected_time":3174000000000,"state":"active","ping":65},{"user_id":865,"name":"take me back to november","steam_id":76561198099412571,"connected_time":1930000000000,"state":"active","ping":53},{"user_id":834,"name":"The_Tax_Man","steam_id":76561198205246144,"connected_time":4046000000000,"state":"active","ping":99},{"user_id":878,"name":"BabyBARKing","steam_id":76561198362318243,"connected_time":112000000000,"state":"active","ping":101},{"user_id":879,"name":"GirlKisser","steam_id":76561198936412406,"connected_time":25000000000,"state":"spawning","ping":75},{"user_id":875,"name":"SirKnight5067","steam_id":76561198377306047,"connected_time":449000000000,"state":"active","ping":69},{"user_id":869,"name":"Action-Flash","steam_id":76561198042438122,"connected_time":814000000000,"state":"active","ping":160}]},{"server_id":15,"name":"Uncletopia | New York City | 3 | Stopwatch Beta","name_short":"nyc-3","host":"nyc-1.us.uncletopia.com","port":27035,"enabled":true,"region":"us-east","cc":"us","latitude":40.73061,"longitude":-73.93524,"reserved":0,"last_update":"0001-01-01T00:00:00Z","name_a2s":"Uncletopia | New York City | 3 | Stopwatch Beta","protocol":17,"map":"workshop/koth_bagel_rc6.ugc2514036946","folder":"tf","game":"Team Fortress","app_id":440,"player_count":9,"max_players":24,"Bots":0,"server_type":"Dedicated","server_os":"Linux","password":true,"vac":true,"version":"7961495","steam_id":85568392924742820,"keywords":["cp","nocrits","nodmgspread","uncletopia"],"game_id":440,"stv_port":27036,"stv_name":"Uncletopia | New York City | 3 | Stopwatch Beta | STV","players":[{"user_id":28,"name":"3D Squelton","steam_id":76561198082762629,"connected_time":1476000000000,"state":"active","ping":72},{"user_id":27,"name":"spudn1k","steam_id":76561198103084268,"connected_time":1589000000000,"state":"active","ping":69},{"user_id":29,"name":"Deathor","steam_id":76561198072960817,"connected_time":1463000000000,"state":"active","ping":69},{"user_id":30,"name":"buh","steam_id":76561198175113859,"connected_time":1414000000000,"state":"active","ping":69},{"user_id":31,"name":"Sunset_Glimmer","steam_id":76561198389718156,"connected_time":1407000000000,"state":"active","ping":51},{"user_id":32,"name":"19th Cowboy","steam_id":76561198166454148,"connected_time":1396000000000,"state":"active","ping":80},{"user_id":33,"name":"Lydians","steam_id":76561198057985908,"connected_time":1310000000000,"state":"active","ping":71},{"user_id":34,"name":"Thequirka","steam_id":76561198968058652,"connected_time":291000000000,"state":"active","ping":108},{"user_id":35,"name":"armaghgeddon™","steam_id":76561198018519640,"connected_time":236000000000,"state":"active","ping":64}]},{"server_id":16,"name":"Uncletopia | New York City | 4 | Community","name_short":"nyc-4","host":"nyc-1.us.uncletopia.com","port":27045,"enabled":true,"region":"us-east","cc":"us","latitude":40.73061,"longitude":-73.93524,"reserved":0,"last_update":"0001-01-01T00:00:00Z","name_a2s":"Uncletopia | New York City | 4 | Community","protocol":17,"map":"workshop/koth_product_final.ugc454272353","folder":"tf","game":"Team Fortress","app_id":440,"player_count":0,"max_players":24,"Bots":0,"server_type":"Dedicated","server_os":"Linux","password":true,"vac":true,"version":"7961495","steam_id":85568392924742821,"keywords":["cp","nocrits","nodmgspread","uncletopia"],"game_id":440,"stv_port":27046,"stv_name":"Uncletopia | New York City | 4 | Community | STV","players":null},{"server_id":142,"name":"Uncletopia | São Paulo | 1 | All Maps","name_short":"sao-1","host":"sao-1.br.uncletopia.com","port":27015,"enabled":true,"region":"sa","cc":"br","latitude":-23.533773,"longitude":-46.62529,"reserved":0,"last_update":"0001-01-01T00:00:00Z","name_a2s":"Uncletopia | São Paulo | 1 | All Maps","protocol":17,"map":"pl_pier","folder":"tf","game":"Team Fortress","app_id":440,"player_count":4,"max_players":24,"Bots":0,"server_type":"Dedicated","server_os":"Linux","password":true,"vac":true,"version":"7961495","steam_id":85568392924469996,"keywords":["nocrits","nodmgspread","payload","uncletopia"],"game_id":440,"stv_port":27016,"stv_name":"Uncletopia | São Paulo | 1 | All Maps | STV","players":[{"user_id":108,"name":"Slz.","steam_id":76561199156075097,"connected_time":5362000000000,"state":"active","ping":48},{"user_id":109,"name":"Zezerdison","steam_id":76561198974347652,"connected_time":5321000000000,"state":"active","ping":61},{"user_id":110,"name":"kdhbuilder","steam_id":76561199058095193,"connected_time":5009000000000,"state":"active","ping":230},{"user_id":114,"name":"NotTony69","steam_id":76561199122717140,"connected_time":1467000000000,"state":"active","ping":225}]},{"server_id":143,"name":"Uncletopia | São Paulo | 2 | Community","name_short":"sao-2","host":"sao-2.br.uncletopia.com","port":27015,"enabled":true,"region":"sa","cc":"br","latitude":-23.533773,"longitude":-46.62529,"reserved":0,"last_update":"0001-01-01T00:00:00Z","name_a2s":"Uncletopia | São Paulo | 2 | Community","protocol":17,"map":"workshop/cp_mannbase_rc2a.ugc1900737467","folder":"tf","game":"Team Fortress","app_id":440,"player_count":0,"max_players":24,"Bots":0,"server_type":"Dedicated","server_os":"Linux","password":true,"vac":true,"version":"7961495","steam_id":85568392924485349,"keywords":["cp","nocrits","nodmgspread","uncletopia"],"game_id":440,"stv_port":27016,"stv_name":"Uncletopia | São Paulo | 2 | Community | STV","players":null},{"server_id":7,"name":"Uncletopia | Seattle | 1 | All Maps","name_short":"sea-1","host":"sea-1.us.uncletopia.com","port":27015,"enabled":true,"region":"us-west","cc":"us","latitude":47.608013,"longitude":-122.33517,"reserved":0,"last_update":"0001-01-01T00:00:00Z","name_a2s":"Uncletopia | Seattle | 1 | All Maps","protocol":17,"map":"cp_powerhouse","folder":"tf","game":"Team Fortress","app_id":440,"player_count":24,"max_players":24,"Bots":0,"server_type":"Dedicated","server_os":"Linux","password":true,"vac":true,"version":"7961495","steam_id":85568392924469997,"keywords":["cp","nocrits","nodmgspread","uncletopia"],"game_id":440,"stv_port":27016,"stv_name":"Uncletopia | Seattle | 1 | All Maps | STV","players":[{"user_id":39,"name":"cilo","steam_id":76561198046163502,"connected_time":487000000000,"state":"active","ping":71},{"user_id":4,"name":"zpalmtree","steam_id":76561198134307620,"connected_time":1725000000000,"state":"active","ping":113},{"user_id":16,"name":"yolginmo","steam_id":76561198157985901,"connected_time":1666000000000,"state":"active","ping":58},{"user_id":6,"name":"William P. Ennis","steam_id":76561198073464877,"connected_time":1723000000000,"state":"active","ping":90},{"user_id":7,"name":"Ayayayayayahuasca","steam_id":76561199002906056,"connected_time":1723000000000,"state":"active","ping":48},{"user_id":8,"name":"Ducks","steam_id":76561198130038345,"connected_time":1723000000000,"state":"active","ping":66},{"user_id":31,"name":"Mufalito","steam_id":76561198951889482,"connected_time":1155000000000,"state":"active","ping":166},{"user_id":10,"name":"NEBULA","steam_id":76561198086878595,"connected_time":1715000000000,"state":"active","ping":66},{"user_id":42,"name":"pepe warlord","steam_id":76561198080819197,"connected_time":237000000000,"state":"active","ping":79},{"user_id":12,"name":"turtle","steam_id":76561198112673874,"connected_time":1706000000000,"state":"active","ping":73},{"user_id":34,"name":"a REAL wizard!!!!","steam_id":76561198097178599,"connected_time":680000000000,"state":"active","ping":53},{"user_id":38,"name":"rorywashere /ᐠ - ˕ -マ Ⳋ","steam_id":76561198065825165,"connected_time":552000000000,"state":"active","ping":111},{"user_id":36,"name":"Big Shon","steam_id":76561198183967827,"connected_time":638000000000,"state":"active","ping":67},{"user_id":17,"name":"theconqueror","steam_id":76561199229806456,"connected_time":1660000000000,"state":"active","ping":122},{"user_id":30,"name":"Craftyjumper","steam_id":76561198126421562,"connected_time":1180000000000,"state":"active","ping":101},{"user_id":32,"name":"Whompfgh","steam_id":76561198043888015,"connected_time":985000000000,"state":"active","ping":74},{"user_id":20,"name":"no vc no c","steam_id":76561197989503095,"connected_time":1640000000000,"state":"active","ping":154},{"user_id":21,"name":"Mocha Josie","steam_id":76561198066452726,"connected_time":1640000000000,"state":"active","ping":79},{"user_id":33,"name":"Jahootis Pootis","steam_id":76561198048879388,"connected_time":985000000000,"state":"active","ping":68},{"user_id":40,"name":"D34dR4bbit","steam_id":76561198167411455,"connected_time":406000000000,"state":"active","ping":60},{"user_id":24,"name":"Noah","steam_id":76561198059048749,"connected_time":1593000000000,"state":"active","ping":66},{"user_id":41,"name":"Rodiisss","steam_id":76561198931321068,"connected_time":338000000000,"state":"active","ping":75},{"user_id":28,"name":"PJROCK101","steam_id":76561198070616561,"connected_time":1393000000000,"state":"active","ping":70},{"user_id":29,"name":"Henchie!","steam_id":76561198047567464,"connected_time":1374000000000,"state":"active","ping":104}]},{"server_id":119,"name":"Uncletopia | Seattle | 2 | All Maps","name_short":"sea-2","host":"sea-1.us.uncletopia.com","port":27025,"enabled":true,"region":"us-west","cc":"us","latitude":47.608013,"longitude":-122.33517,"reserved":0,"last_update":"0001-01-01T00:00:00Z","name_a2s":"Uncletopia | Seattle | 2 | All Maps","protocol":17,"map":"pl_swiftwater_final1","folder":"tf","game":"Team Fortress","app_id":440,"player_count":24,"max_players":24,"Bots":0,"server_type":"Dedicated","server_os":"Linux","password":true,"vac":true,"version":"7961495","steam_id":85568392924469998,"keywords":["nocrits","nodmgspread","payload","uncletopia"],"game_id":440,"stv_port":27026,"stv_name":"Uncletopia | Seattle | 2 | All Maps | STV","players":[{"user_id":3,"name":"pete davidson","steam_id":76561198073549508,"connected_time":1726000000000,"state":"active","ping":62},{"user_id":4,"name":"rat gets the cheese","steam_id":76561198031234032,"connected_time":1726000000000,"state":"active","ping":94},{"user_id":5,"name":"fishykid477","steam_id":76561198161403931,"connected_time":1725000000000,"state":"active","ping":89},{"user_id":18,"name":"bcizzo","steam_id":76561197994399953,"connected_time":1561000000000,"state":"active","ping":73},{"user_id":7,"name":"Vibrantword3732","steam_id":76561198916638641,"connected_time":1723000000000,"state":"active","ping":77},{"user_id":8,"name":"lug nut larry","steam_id":76561198170643378,"connected_time":1705000000000,"state":"active","ping":81},{"user_id":33,"name":"Maurdakar","steam_id":76561197983420976,"connected_time":1362000000000,"state":"active","ping":115},{"user_id":10,"name":"mub","steam_id":76561197961943948,"connected_time":1702000000000,"state":"active","ping":45},{"user_id":11,"name":"greens beans","steam_id":76561198153611491,"connected_time":1693000000000,"state":"active","ping":41},{"user_id":12,"name":"myunicorn","steam_id":76561199391478575,"connected_time":1688000000000,"state":"active","ping":68},{"user_id":13,"name":"Mapachito Lindo","steam_id":76561198031359995,"connected_time":1686000000000,"state":"active","ping":48},{"user_id":14,"name":"mine diam","steam_id":76561198119123981,"connected_time":1670000000000,"state":"active","ping":57},{"user_id":16,"name":"tzarVOLVER","steam_id":76561198029581713,"connected_time":1637000000000,"state":"active","ping":115},{"user_id":17,"name":"Aesthetix","steam_id":76561197995511642,"connected_time":1626000000000,"state":"active","ping":64},{"user_id":39,"name":"Josep","steam_id":76561198345759958,"connected_time":103000000000,"state":"active","ping":68},{"user_id":40,"name":"Shadow Wizard Money Gang","steam_id":76561199487351992,"connected_time":95000000000,"state":"active","ping":94},{"user_id":41,"name":"Bot Fortress 2","steam_id":76561197984325644,"connected_time":82000000000,"state":"active","ping":103},{"user_id":24,"name":"ejschild745","steam_id":76561199013388867,"connected_time":1496000000000,"state":"active","ping":80},{"user_id":42,"name":"Moonkey","steam_id":76561199237835224,"connected_time":74000000000,"state":"spawning","ping":0},{"user_id":34,"name":"ѕυ【ʕ•ᴥ•ʔ】","steam_id":76561198071233302,"connected_time":725000000000,"state":"active","ping":65},{"user_id":35,"name":"Dr. Karl, the AUS Science Guy","steam_id":76561198031278747,"connected_time":652000000000,"state":"active","ping":53},{"user_id":28,"name":"Hyper-Sexist Gender Shredder","steam_id":76561198094750009,"connected_time":1471000000000,"state":"active","ping":49},{"user_id":29,"name":"Outlier","steam_id":76561199093787770,"connected_time":1459000000000,"state":"active","ping":135},{"user_id":30,"name":"Krashovo","steam_id":76561198880163891,"connected_time":1452000000000,"state":"active","ping":115}]},{"server_id":406,"name":"Uncletopia | Seattle | 3 | Stopwatch Beta","name_short":"sea-3","host":"sea-1.us.uncletopia.com","port":27035,"enabled":true,"region":"us-west","cc":"us","latitude":47.608013,"longitude":-122.33517,"reserved":0,"last_update":"0001-01-01T00:00:00Z","name_a2s":"Uncletopia | Seattle | 3 | Stopwatch Beta","protocol":17,"map":"cp_process_final","folder":"tf","game":"Team Fortress","app_id":440,"player_count":0,"max_players":24,"Bots":0,"server_type":"Dedicated","server_os":"Linux","password":true,"vac":true,"version":"7961495","steam_id":85568392924515217,"keywords":["cp","nocrits","nodmgspread","uncletopia"],"game_id":440,"stv_port":27036,"stv_name":"Uncletopia | Seattle | 3 | Stopwatch Beta | STV","players":null},{"server_id":17,"name":"Uncletopia | San Francisco | 1 | All Maps","name_short":"sfo-1","host":"sfo-1.us.uncletopia.com","port":27015,"enabled":true,"region":"us-west","cc":"us","latitude":37.77397,"longitude":-122.4313,"reserved":0,"last_update":"0001-01-01T00:00:00Z","name_a2s":"Uncletopia | San Francisco | 1 | All Maps","protocol":17,"map":"pl_thundermountain","folder":"tf","game":"Team Fortress","app_id":440,"player_count":13,"max_players":24,"Bots":0,"server_type":"Dedicated","server_os":"Linux","password":true,"vac":true,"version":"7961495","steam_id":85568392924469999,"keywords":["nocrits","nodmgspread","payload","uncletopia"],"game_id":440,"stv_port":27016,"stv_name":"Uncletopia | San Francisco | 1 | All Maps | STV","players":[{"user_id":323,"name":"crowe","steam_id":76561198142185527,"connected_time":2332000000000,"state":"spawning","ping":115},{"user_id":265,"name":"St. Bobson Q Dugnutt III Esq Sr","steam_id":76561197993459985,"connected_time":5903000000000,"state":"spawning","ping":172},{"user_id":324,"name":"ExpertScabPicker","steam_id":76561198081961642,"connected_time":2305000000000,"state":"spawning","ping":171},{"user_id":342,"name":"The Smell of Jazz","steam_id":76561198005860388,"connected_time":1201000000000,"state":"spawning","ping":112},{"user_id":343,"name":"big car","steam_id":76561198067082350,"connected_time":1072000000000,"state":"spawning","ping":114},{"user_id":284,"name":"rad killl raccoon","steam_id":76561198980975595,"connected_time":4765000000000,"state":"spawning","ping":135},{"user_id":257,"name":"1 Great Wooden Dad","steam_id":76561198377126974,"connected_time":6098000000000,"state":"spawning","ping":186},{"user_id":334,"name":"Funkmaster yee","steam_id":76561198037738918,"connected_time":1989000000000,"state":"spawning","ping":135},{"user_id":327,"name":"ZanderZX","steam_id":76561199174834047,"connected_time":2200000000000,"state":"spawning","ping":179},{"user_id":344,"name":"Igrium","steam_id":76561198119549811,"connected_time":632000000000,"state":"spawning","ping":87},{"user_id":329,"name":"ISEEU456","steam_id":76561198069648430,"connected_time":2162000000000,"state":"spawning","ping":120},{"user_id":332,"name":"clegane","steam_id":76561198187827373,"connected_time":2062000000000,"state":"spawning","ping":138},{"user_id":331,"name":"SenTreats","steam_id":76561198085835841,"connected_time":2144000000000,"state":"spawning","ping":115}]},{"server_id":18,"name":"Uncletopia | San Francisco | 2 | All Maps","name_short":"sfo-2","host":"sfo-1.us.uncletopia.com","port":27025,"enabled":true,"region":"us-west","cc":"us","latitude":37.77397,"longitude":-122.4313,"reserved":0,"last_update":"0001-01-01T00:00:00Z","name_a2s":"Uncletopia | San Francisco | 2 | All Maps","protocol":17,"map":"pl_snowycoast","folder":"tf","game":"Team Fortress","app_id":440,"player_count":24,"max_players":24,"Bots":0,"server_type":"Dedicated","server_os":"Linux","password":true,"vac":true,"version":"7961495","steam_id":85568392924470000,"keywords":["nocrits","nodmgspread","payload","uncletopia"],"game_id":440,"stv_port":27026,"stv_name":"Uncletopia | San Francisco | 2 | All Maps | STV","players":[{"user_id":773,"name":"1998 Subaru Forester","steam_id":76561198350491491,"connected_time":546000000000,"state":"active","ping":64},{"user_id":765,"name":"elemental dragon","steam_id":76561199053290319,"connected_time":694000000000,"state":"active","ping":78},{"user_id":764,"name":"sqnguine","steam_id":76561199481839224,"connected_time":718000000000,"state":"active","ping":59},{"user_id":766,"name":"Throws Before Bros󠀡","steam_id":76561197992905530,"connected_time":687000000000,"state":"active","ping":46},{"user_id":737,"name":"mrthugpug1732","steam_id":76561198881200768,"connected_time":3351000000000,"state":"active","ping":60},{"user_id":729,"name":"YouAreReadingThis","steam_id":76561198367831600,"connected_time":4545000000000,"state":"active","ping":70},{"user_id":748,"name":"krcwettg3","steam_id":76561198811015090,"connected_time":3008000000000,"state":"active","ping":121},{"user_id":760,"name":"fart thief","steam_id":76561198046073848,"connected_time":2419000000000,"state":"active","ping":64},{"user_id":754,"name":"Ice cream sandwich","steam_id":76561198172748357,"connected_time":2781000000000,"state":"active","ping":44},{"user_id":741,"name":"[Industrial] A_HUMBLEBUMBLED","steam_id":76561198064771878,"connected_time":3213000000000,"state":"active","ping":56},{"user_id":693,"name":"your mom calls me princess too","steam_id":76561198020400899,"connected_time":7343000000000,"state":"active","ping":62},{"user_id":694,"name":"Poopie Babie","steam_id":76561198047500494,"connected_time":7336000000000,"state":"active","ping":61},{"user_id":775,"name":"OneMisguidedSlyGuy","steam_id":76561198372243261,"connected_time":509000000000,"state":"active","ping":53},{"user_id":767,"name":"queer latinx pmc contractor","steam_id":76561198058617608,"connected_time":666000000000,"state":"active","ping":64},{"user_id":770,"name":"Cypress [ +/- ] ✔","steam_id":76561198067164431,"connected_time":632000000000,"state":"active","ping":57},{"user_id":744,"name":"Linkal_","steam_id":76561199122836553,"connected_time":3110000000000,"state":"active","ping":78},{"user_id":745,"name":"Harperlovesminecraft","steam_id":76561199166529239,"connected_time":3107000000000,"state":"active","ping":75},{"user_id":746,"name":"JaM724","steam_id":76561199077582671,"connected_time":3026000000000,"state":"active","ping":118},{"user_id":777,"name":"PakaParker","steam_id":76561198441745149,"connected_time":460000000000,"state":"active","ping":63},{"user_id":763,"name":"selling rice","steam_id":76561198063357023,"connected_time":2018000000000,"state":"active","ping":32},{"user_id":771,"name":"Amogous Supreme","steam_id":76561198025476774,"connected_time":612000000000,"state":"active","ping":55},{"user_id":778,"name":"notuncooldude","steam_id":76561199129819858,"connected_time":420000000000,"state":"active","ping":154},{"user_id":781,"name":"Caspian","steam_id":76561199041466962,"connected_time":32000000000,"state":"active","ping":38},{"user_id":780,"name":"GoldtoothFour","steam_id":76561198055529332,"connected_time":396000000000,"state":"active","ping":93}]},{"server_id":19,"name":"Uncletopia | San Francisco | 3 | Stopwatch Beta","name_short":"sfo-3","host":"sfo-1.us.uncletopia.com","port":27035,"enabled":true,"region":"us-west","cc":"us","latitude":37.77397,"longitude":-122.4313,"reserved":0,"last_update":"0001-01-01T00:00:00Z","name_a2s":"Uncletopia | San Francisco | 3 | Stopwatch Beta","protocol":17,"map":"workshop/koth_bagel_rc6.ugc2514036946","folder":"tf","game":"Team Fortress","app_id":440,"player_count":0,"max_players":24,"Bots":0,"server_type":"Dedicated","server_os":"Linux","password":true,"vac":true,"version":"7961495","steam_id":85568392924742824,"keywords":["cp","nocrits","nodmgspread","uncletopia"],"game_id":440,"stv_port":27036,"stv_name":"Uncletopia | San Francisco | 3 | Stopwatch Beta | STV","players":null},{"server_id":20,"name":"Uncletopia | San Francisco | 4 | Community","name_short":"sfo-4","host":"sfo-1.us.uncletopia.com","port":27045,"enabled":true,"region":"us-west","cc":"us","latitude":37.77397,"longitude":-122.4313,"reserved":0,"last_update":"0001-01-01T00:00:00Z","name_a2s":"Uncletopia | San Francisco | 4 | Community","protocol":17,"map":"koth_viaduct","folder":"tf","game":"Team Fortress","app_id":440,"player_count":0,"max_players":24,"Bots":0,"server_type":"Dedicated","server_os":"Linux","password":true,"vac":true,"version":"7961495","steam_id":85568392924742826,"keywords":["cp","nocrits","nodmgspread","uncletopia"],"game_id":440,"stv_port":27046,"stv_name":"Uncletopia | San Francisco | 4 | Community | STV","players":null},{"server_id":141,"name":"Uncletopia | Sydney | 1 | All Maps","name_short":"syd-1","host":"syd-1.au.uncletopia.com","port":27015,"enabled":true,"region":"au","cc":"au","latitude":-33.865143,"longitude":151.2099,"reserved":0,"last_update":"0001-01-01T00:00:00Z","name_a2s":"Uncletopia | Sydney | 1 | All Maps","protocol":17,"map":"pl_frontier_final","folder":"tf","game":"Team Fortress","app_id":440,"player_count":20,"max_players":24,"Bots":0,"server_type":"Dedicated","server_os":"Linux","password":true,"vac":true,"version":"7961495","steam_id":85568392924470001,"keywords":["nocrits","nodmgspread","payload","uncletopia"],"game_id":440,"stv_port":27016,"stv_name":"Uncletopia | Sydney | 1 | All Maps | STV","players":[{"user_id":141,"name":"Speedicle","steam_id":76561199081060553,"connected_time":4274000000000,"state":"active","ping":55},{"user_id":182,"name":"Ᵽ𐌄Ť𐌄Ұ","steam_id":76561199140764838,"connected_time":1984000000000,"state":"active","ping":70},{"user_id":134,"name":"burfdae boi","steam_id":76561199000827969,"connected_time":4619000000000,"state":"active","ping":37},{"user_id":185,"name":"ibus","steam_id":76561199026701614,"connected_time":1837000000000,"state":"active","ping":81},{"user_id":183,"name":"Araxamas","steam_id":76561198014474886,"connected_time":1920000000000,"state":"active","ping":96},{"user_id":192,"name":"Plastic_Wrapp","steam_id":76561198817560659,"connected_time":835000000000,"state":"active","ping":76},{"user_id":197,"name":"dizzy","steam_id":76561198102953163,"connected_time":386000000000,"state":"active","ping":61},{"user_id":165,"name":"Evil Dragons 11","steam_id":76561199010001803,"connected_time":3157000000000,"state":"active","ping":47},{"user_id":200,"name":"Drunken_Thrasher","steam_id":76561199103549162,"connected_time":167000000000,"state":"active","ping":139},{"user_id":177,"name":"Sircrow22","steam_id":76561198211213113,"connected_time":2317000000000,"state":"active","ping":79},{"user_id":146,"name":"FlashyChips","steam_id":76561198071342589,"connected_time":4184000000000,"state":"active","ping":58},{"user_id":188,"name":"Medieval Cucumber Sorcerer","steam_id":76561198972095766,"connected_time":1249000000000,"state":"active","ping":33},{"user_id":199,"name":"Finger Bun Fun","steam_id":76561198118383219,"connected_time":362000000000,"state":"active","ping":53},{"user_id":174,"name":"Halla875","steam_id":76561198371206561,"connected_time":2524000000000,"state":"active","ping":60},{"user_id":173,"name":"BigLadBoyga","steam_id":76561198985263763,"connected_time":2533000000000,"state":"active","ping":70},{"user_id":162,"name":"perturb (feed/seed)","steam_id":76561198085124297,"connected_time":3233000000000,"state":"active","ping":55},{"user_id":179,"name":"Das Ist Scheisse","steam_id":76561198886094239,"connected_time":2288000000000,"state":"active","ping":48},{"user_id":189,"name":"FAgus","steam_id":76561198050013374,"connected_time":1186000000000,"state":"active","ping":71},{"user_id":167,"name":"tenten","steam_id":76561198402822072,"connected_time":3130000000000,"state":"active","ping":115},{"user_id":191,"name":"DKC","steam_id":76561198313578155,"connected_time":984000000000,"state":"active","ping":44}]},{"server_id":123,"name":"Uncletopia | Sydney | 2 | All Maps","name_short":"syd-2","host":"syd-1.au.uncletopia.com","port":27025,"enabled":true,"region":"au","cc":"au","latitude":-33.865143,"longitude":151.2099,"reserved":0,"last_update":"0001-01-01T00:00:00Z","name_a2s":"Uncletopia | Sydney | 2 | All Maps","protocol":17,"map":"pl_pier","folder":"tf","game":"Team Fortress","app_id":440,"player_count":2,"max_players":24,"Bots":0,"server_type":"Dedicated","server_os":"Linux","password":true,"vac":true,"version":"7961495","steam_id":85568392924470002,"keywords":["nocrits","nodmgspread","payload","uncletopia"],"game_id":440,"stv_port":27026,"stv_name":"Uncletopia | Sydney | 2 | All Maps | STV","players":[{"user_id":19,"name":"Empolé","steam_id":76561198363939040,"connected_time":1589000000000,"state":"active","ping":91},{"user_id":20,"name":"HJGuard","steam_id":76561199275636067,"connected_time":1090000000000,"state":"active","ping":71}]},{"server_id":395,"name":"Uncletopia | Sydney | 3 | All Maps","name_short":"syd-3","host":"syd-1.au.uncletopia.com","port":27035,"enabled":true,"region":"au","cc":"au","latitude":-33.865143,"longitude":151.2099,"reserved":0,"last_update":"0001-01-01T00:00:00Z","name_a2s":"Uncletopia | Sydney | 3 | All Maps","protocol":17,"map":"koth_highpass","folder":"tf","game":"Team Fortress","app_id":440,"player_count":0,"max_players":24,"Bots":0,"server_type":"Dedicated","server_os":"Linux","password":true,"vac":true,"version":"7961495","steam_id":85568392925194467,"keywords":["cp","nocrits","nodmgspread","uncletopia"],"game_id":440,"stv_port":27036,"stv_name":"Uncletopia | Sydney | 3 | All Maps | STV","players":null},{"server_id":396,"name":"Uncletopia | Sydney | 4 | All Maps","name_short":"syd-4","host":"syd-1.au.uncletopia.com","port":27045,"enabled":true,"region":"au","cc":"au","latitude":-33.865143,"longitude":151.2099,"reserved":0,"last_update":"0001-01-01T00:00:00Z","name_a2s":"Uncletopia | Sydney | 4 | All Maps","protocol":17,"map":"cp_dustbowl","folder":"tf","game":"Team Fortress","app_id":440,"player_count":0,"max_players":24,"Bots":0,"server_type":"Dedicated","server_os":"Linux","password":true,"vac":true,"version":"7961495","steam_id":85568392925397958,"keywords":["cp","nocrits","nodmgspread","uncletopia"],"game_id":440,"stv_port":27046,"stv_name":"Uncletopia | Sydney | 4 | All Maps | STV","players":null},{"server_id":58,"name":"Uncletopia | Sydney | 5 | Stopwatch Beta","name_short":"syd-5","host":"syd-1.au.uncletopia.com","port":27055,"enabled":true,"region":"au","cc":"au","latitude":-33.865143,"longitude":151.2099,"reserved":0,"last_update":"0001-01-01T00:00:00Z","name_a2s":"Uncletopia | Sydney | 5 | Stopwatch Beta","protocol":17,"map":"koth_viaduct","folder":"tf","game":"Team Fortress","app_id":440,"player_count":0,"max_players":24,"Bots":0,"server_type":"Dedicated","server_os":"Linux","password":true,"vac":true,"version":"7961495","steam_id":85568392925397959,"keywords":["cp","nocrits","nodmgspread","uncletopia"],"game_id":440,"stv_port":27056,"stv_name":"Uncletopia | Sydney | 5 | Stopwatch Beta | STV","players":null},{"server_id":59,"name":"Uncletopia | Sydney | 6 | Community","name_short":"syd-6","host":"syd-1.au.uncletopia.com","port":27065,"enabled":true,"region":"au","cc":"au","latitude":-33.865143,"longitude":151.2099,"reserved":0,"last_update":"0001-01-01T00:00:00Z","name_a2s":"Uncletopia | Sydney | 6 | Community","protocol":17,"map":"koth_cascade","folder":"tf","game":"Team Fortress","app_id":440,"player_count":0,"max_players":24,"Bots":0,"server_type":"Dedicated","server_os":"Linux","password":true,"vac":true,"version":"7961495","steam_id":85568392925397960,"keywords":["cp","nocrits","nodmgspread","uncletopia"],"game_id":440,"stv_port":27066,"stv_name":"Uncletopia | Sydney | 6 | Community | STV","players":null},{"server_id":49,"name":"Uncletopia | Warsaw | 1 | All Maps","name_short":"waw-1","host":"waw-1.pl.uncletopia.com","port":27015,"enabled":true,"region":"eu","cc":"pl","latitude":52.2297,"longitude":21.017532,"reserved":0,"last_update":"0001-01-01T00:00:00Z","name_a2s":"Uncletopia | Warsaw | 1 | All Maps","protocol":17,"map":"pl_swiftwater_final1","folder":"tf","game":"Team Fortress","app_id":440,"player_count":0,"max_players":24,"Bots":0,"server_type":"Dedicated","server_os":"Linux","password":true,"vac":true,"version":"7961495","steam_id":85568392925397850,"keywords":["nocrits","nodmgspread","payload","uncletopia"],"game_id":440,"stv_port":27016,"stv_name":"Uncletopia | Warsaw | 1 | All Maps | STV","players":null},{"server_id":50,"name":"Uncletopia | Warsaw | 2 | All Maps","name_short":"waw-2","host":"waw-1.pl.uncletopia.com","port":27025,"enabled":true,"region":"eu","cc":"pl","latitude":52.2297,"longitude":21.017532,"reserved":0,"last_update":"0001-01-01T00:00:00Z","name_a2s":"Uncletopia | Warsaw | 2 | All Maps","protocol":17,"map":"cp_dustbowl","folder":"tf","game":"Team Fortress","app_id":440,"player_count":0,"max_players":24,"Bots":0,"server_type":"Dedicated","server_os":"Linux","password":true,"vac":true,"version":"7961495","steam_id":85568392925397851,"keywords":["cp","nocrits","nodmgspread","uncletopia"],"game_id":440,"stv_port":27026,"stv_name":"Uncletopia | Warsaw | 2 | All Maps | STV","players":null},{"server_id":51,"name":"Uncletopia | Warsaw | 3 | All Maps","name_short":"waw-3","host":"waw-1.pl.uncletopia.com","port":27035,"enabled":true,"region":"eu","cc":"pl","latitude":52.2297,"longitude":21.017532,"reserved":0,"last_update":"0001-01-01T00:00:00Z","name_a2s":"Uncletopia | Warsaw | 3 | All Maps","protocol":17,"map":"pl_upward","folder":"tf","game":"Team Fortress","app_id":440,"player_count":0,"max_players":24,"Bots":0,"server_type":"Dedicated","server_os":"Linux","password":true,"vac":true,"version":"7961495","steam_id":85568392925397852,"keywords":["nocrits","nodmgspread","payload","uncletopia"],"game_id":440,"stv_port":27036,"stv_name":"Uncletopia | Warsaw | 3 | All Maps | STV","players":null},{"server_id":52,"name":"Uncletopia | Warsaw | 4 | All Maps","name_short":"waw-4","host":"waw-1.pl.uncletopia.com","port":27045,"enabled":true,"region":"eu","cc":"pl","latitude":52.2297,"longitude":21.017532,"reserved":0,"last_update":"0001-01-01T00:00:00Z","name_a2s":"Uncletopia | Warsaw | 4 | All Maps","protocol":17,"map":"koth_viaduct","folder":"tf","game":"Team Fortress","app_id":440,"player_count":0,"max_players":24,"Bots":0,"server_type":"Dedicated","server_os":"Linux","password":true,"vac":true,"version":"7961495","steam_id":85568392925397853,"keywords":["cp","nocrits","nodmgspread","uncletopia"],"game_id":440,"stv_port":27046,"stv_name":"Uncletopia | Warsaw | 4 | All Maps | STV","players":null},{"server_id":53,"name":"Uncletopia | Warsaw | 5 | Stopwatch Beta","name_short":"waw-5","host":"waw-1.pl.uncletopia.com","port":27055,"enabled":true,"region":"eu","cc":"pl","latitude":52.2297,"longitude":21.017532,"reserved":0,"last_update":"0001-01-01T00:00:00Z","name_a2s":"Uncletopia | Warsaw | 5 | Stopwatch Beta","protocol":17,"map":"cp_snakewater_final1","folder":"tf","game":"Team Fortress","app_id":440,"player_count":0,"max_players":24,"Bots":0,"server_type":"Dedicated","server_os":"Linux","password":true,"vac":true,"version":"7961495","steam_id":85568392925397854,"keywords":["cp","nocrits","nodmgspread","uncletopia"],"game_id":440,"stv_port":27056,"stv_name":"Uncletopia | Warsaw | 5 | Stopwatch Beta | STV","players":null},{"server_id":54,"name":"Uncletopia | Warsaw | 6 | Community","name_short":"waw-6","host":"waw-1.pl.uncletopia.com","port":27065,"enabled":true,"region":"eu","cc":"pl","latitude":52.2297,"longitude":21.017532,"reserved":0,"last_update":"0001-01-01T00:00:00Z","name_a2s":"Uncletopia | Warsaw | 6 | Community","protocol":17,"map":"cp_mountainlab","folder":"tf","game":"Team Fortress","app_id":440,"player_count":0,"max_players":24,"Bots":0,"server_type":"Dedicated","server_os":"Linux","password":true,"vac":true,"version":"7961495","steam_id":85568392925397856,"keywords":["cp","nocrits","nodmgspread","uncletopia"],"game_id":440,"stv_port":27066,"stv_name":"Uncletopia | Warsaw | 6 | Community | STV","players":null}]}