{"status":true,"message":"","result":[{"server_id":9,"name":"Uncletopia | Atlanta | 1 | All Maps","name_short":"atl-1","host":"atl-1.us.uncletopia.com","port":27015,"enabled":true,"region":"us-east","cc":"us","latitude":33.753746,"longitude":-84.38633,"reserved":0,"last_update":"0001-01-01T00:00:00Z","name_a2s":"Uncletopia | Atlanta | 1 | All Maps","protocol":17,"map":"cp_steel","folder":"tf","game":"Team Fortress","app_id":440,"player_count":24,"max_players":24,"Bots":0,"server_type":"Dedicated","server_os":"Linux","password":true,"vac":true,"version":"7723704","steam_id":85568392924469982,"keywords":["cp","nocrits","nodmgspread","uncletopia"],"game_id":440,"stv_port":27016,"stv_name":"Uncletopia | Atlanta | 1 | All Maps | STV","players":[{"user_id":865,"name":"tf2 gaming","steam_id":76561199406973770,"connected_time":86000000000,"state":"active","ping":153},{"user_id":781,"name":"Red","steam_id":76561197998285162,"connected_time":6931000000000,"state":"active","ping":86},{"user_id":840,"name":"big guapo","steam_id":76561198103228695,"connected_time":1522000000000,"state":"active","ping":58},{"user_id":846,"name":"Wallace","steam_id":76561198369517354,"connected_time":1422000000000,"state":"active","ping":114},{"user_id":862,"name":"THIRDPIERCE","steam_id":76561198405366314,"connected_time":152000000000,"state":"active","ping":88},{"user_id":859,"name":"oxymoron","steam_id":76561198237292644,"connected_time":272000000000,"state":"active","ping":78},{"user_id":860,"name":"Hummus Enjoyer","steam_id":76561198105213446,"connected_time":254000000000,"state":"active","ping":65},{"user_id":808,"name":"A Bic Lighter","steam_id":76561198070606068,"connected_time":4182000000000,"state":"active","ping":73},{"user_id":789,"name":"Chef","steam_id":76561198086523798,"connected_time":5730000000000,"state":"active","ping":74},{"user_id":848,"name":"Weihnachtsuchen","steam_id":76561198079448618,"connected_time":1377000000000,"state":"active","ping":81},{"user_id":849,"name":"Hedigo","steam_id":76561198415104808,"connected_time":1370000000000,"state":"active","ping":77},{"user_id":844,"name":"can't escape from crossing apes","steam_id":76561198327138508,"connected_time":1431000000000,"state":"active","ping":89},{"user_id":843,"name":"SirGi0","steam_id":76561199069695635,"connected_time":1455000000000,"state":"active","ping":57},{"user_id":861,"name":"who ate the cheese","steam_id":76561198275408467,"connected_time":224000000000,"state":"active","ping":47},{"user_id":850,"name":"WoHBilly","steam_id":76561198125307221,"connected_time":1341000000000,"state":"active","ping":78},{"user_id":863,"name":"peachy","steam_id":76561198026664629,"connected_time":148000000000,"state":"active","ping":59},{"user_id":851,"name":"ae","steam_id":76561198185490827,"connected_time":1330000000000,"state":"active","ping":86},{"user_id":852,"name":"gakkan","steam_id":76561199248610033,"connected_time":1312000000000,"state":"active","ping":117},{"user_id":854,"name":"Ann Ziegler (No Sound)","steam_id":76561198052249401,"connected_time":1267000000000,"state":"active","ping":71},{"user_id":864,"name":"Antwan","steam_id":76561198246200638,"connected_time":144000000000,"state":"active","ping":67},{"user_id":834,"name":"timestew","steam_id":76561198367583372,"connected_time":2510000000000,"state":"active","ping":86},{"user_id":855,"name":"Ryan","steam_id":76561198046600383,"connected_time":1180000000000,"state":"active","ping":75},{"user_id":856,"name":"M.L.JEW","steam_id":76561198997375055,"connected_time":1126000000000,"state":"active","ping":77},{"user_id":827,"name":"IZISOO","steam_id":76561198970380577,"connected_time":3051000000000,"state":"active","ping":100}]},{"server_id":400,"name":"Uncletopia | Atlanta | 3 | Stopwatch Beta","name_short":"atl-3","host":"atl-1.us.uncletopia.com","port":27035,"enabled":true,"region":"us-east","cc":"us","latitude":33.753746,"longitude":-84.38633,"reserved":0,"last_update":"0001-01-01T00:00:00Z","name_a2s":"Uncletopia | Atlanta | 3 | Stopwatch Beta","protocol":17,"map":"koth_cascade","folder":"tf","game":"Team Fortress","app_id":440,"player_count":0,"max_players":24,"Bots":0,"server_type":"Dedicated","server_os":"Linux","password":true,"vac":true,"version":"7723704","steam_id":85568392924515187,"keywords":["cp","nocrits","nodmgspread","uncletopia"],"game_id":440,"stv_port":27036,"stv_name":"Uncletopia | Atlanta | 3 | Stopwatch Beta | STV","players":null},{"server_id":401,"name":"Uncletopia | Atlanta | 4 | No Payload","name_short":"atl-4","host":"atl-1.us.uncletopia.com","port":27045,"enabled":true,"region":"us-east","cc":"us","latitude":33.753746,"longitude":-84.38633,"reserved":0,"last_update":"0001-01-01T00:00:00Z","name_a2s":"Uncletopia | Atlanta | 4 | No Payload","protocol":17,"map":"ctf_landfall","folder":"tf","game":"Team Fortress","app_id":440,"player_count":0,"max_players":24,"Bots":0,"server_type":"Dedicated","server_os":"Linux","password":true,"vac":true,"version":"7723704","steam_id":85568392924515188,"keywords":["ctf","nocrits","nodmgspread","uncletopia"],"game_id":440,"stv_port":27046,"stv_name":"Uncletopia | Atlanta | 4 | No Payload | STV","players":null},{"server_id":2,"name":"Uncletopia | Chicago | 1 | All Maps","name_short":"chi-1","host":"chi-1.us.uncletopia.com","port":27015,"enabled":true,"region":"us-central","cc":"us","latitude":41.881832,"longitude":-87.62318,"reserved":0,"last_update":"0001-01-01T00:00:00Z","name_a2s":"Uncletopia | Chicago | 1 | All Maps","protocol":17,"map":"pl_frontier_final","folder":"tf","game":"Team Fortress","app_id":440,"player_count":24,"max_players":24,"Bots":0,"server_type":"Dedicated","server_os":"Linux","password":true,"vac":true,"version":"7723704","steam_id":85568392924469984,"keywords":["nocrits","nodmgspread","payload","uncletopia"],"game_id":440,"stv_port":27016,"stv_name":"Uncletopia | Chicago | 1 | All Maps | STV","players":[{"user_id":778,"name":"Jupiter","steam_id":76561198181315681,"connected_time":2510000000000,"state":"active","ping":56},{"user_id":790,"name":"NoShen","steam_id":76561198147434663,"connected_time":385000000000,"state":"active","ping":68},{"user_id":773,"name":"--Helix-- be a festive boi :\u003e","steam_id":76561198221882244,"connected_time":2895000000000,"state":"active","ping":66},{"user_id":783,"name":"azure","steam_id":76561198067497459,"connected_time":1399000000000,"state":"active","ping":72},{"user_id":780,"name":"› snow","steam_id":76561198109783729,"connected_time":2272000000000,"state":"active","ping":48},{"user_id":680,"name":"Gamut","steam_id":76561199185822800,"connected_time":10458000000000,"state":"active","ping":70},{"user_id":781,"name":"Whorenet","steam_id":76561198090433209,"connected_time":2064000000000,"state":"active","ping":90},{"user_id":695,"name":"Sudo","steam_id":76561198123714026,"connected_time":9420000000000,"state":"active","ping":108},{"user_id":789,"name":"Money Collector","steam_id":76561198046249467,"connected_time":601000000000,"state":"active","ping":58},{"user_id":728,"name":"IIP","steam_id":76561198286102406,"connected_time":5988000000000,"state":"active","ping":67},{"user_id":755,"name":"Judge Dad","steam_id":76561198071473697,"connected_time":4322000000000,"state":"active","ping":64},{"user_id":718,"name":"jade","steam_id":76561198044363630,"connected_time":7443000000000,"state":"active","ping":60},{"user_id":792,"name":"Anthoneeee","steam_id":76561199209220671,"connected_time":161000000000,"state":"active","ping":119},{"user_id":756,"name":"based housewife","steam_id":76561198066812433,"connected_time":4310000000000,"state":"active","ping":59},{"user_id":786,"name":"caribou","steam_id":76561198137197751,"connected_time":1082000000000,"state":"active","ping":72},{"user_id":788,"name":"summerof69","steam_id":76561198069049410,"connected_time":1020000000000,"state":"active","ping":45},{"user_id":736,"name":"CptFoley191","steam_id":76561197970891415,"connected_time":5888000000000,"state":"active","ping":109},{"user_id":791,"name":"SLOPPY BLOWJOB DEVIL","steam_id":76561198819545533,"connected_time":254000000000,"state":"active","ping":56},{"user_id":762,"name":"penjamin","steam_id":76561199245670274,"connected_time":4085000000000,"state":"active","ping":105},{"user_id":776,"name":"stuporvillian","steam_id":76561198083796225,"connected_time":2604000000000,"state":"active","ping":63},{"user_id":748,"name":"Strange Festive Femboy","steam_id":76561198050385093,"connected_time":4921000000000,"state":"active","ping":88},{"user_id":767,"name":"TYPICAL HUMAN","steam_id":76561198060914982,"connected_time":3649000000000,"state":"active","ping":108},{"user_id":769,"name":"Carbon8ed","steam_id":76561198188488341,"connected_time":3146000000000,"state":"active","ping":61},{"user_id":739,"name":"Sposeidon","steam_id":76561199044781490,"connected_time":5759000000000,"state":"active","ping":59}]},{"server_id":106,"name":"Uncletopia | Chicago | 2 | All Maps","name_short":"chi-2","host":"chi-1.us.uncletopia.com","port":27025,"enabled":true,"region":"us-central","cc":"us","latitude":41.881832,"longitude":-87.62318,"reserved":0,"last_update":"0001-01-01T00:00:00Z","name_a2s":"Uncletopia | Chicago | 2 | All Maps","protocol":17,"map":"koth_lakeside_final","folder":"tf","game":"Team Fortress","app_id":440,"player_count":0,"max_players":24,"Bots":0,"server_type":"Dedicated","server_os":"Linux","password":true,"vac":true,"version":"7723704","steam_id":85568392924469985,"keywords":["cp","nocrits","nodmgspread","uncletopia"],"game_id":440,"stv_port":27026,"stv_name":"Uncletopia | Chicago | 2 | All Maps | STV","players":null},{"server_id":402,"name":"Uncletopia | Chicago | 3 | All Maps","name_short":"chi-3","host":"chi-1.us.uncletopia.com","port":27035,"enabled":true,"region":"us-central","cc":"us","latitude":41.881832,"longitude":-87.62318,"reserved":0,"last_update":"0001-01-01T00:00:00Z","name_a2s":"Uncletopia | Chicago | 3 | All Maps","protocol":17,"map":"ctf_2fort","folder":"tf","game":"Team Fortress","app_id":440,"player_count":12,"max_players":24,"Bots":0,"server_type":"Dedicated","server_os":"Linux","password":true,"vac":true,"version":"7723704","steam_id":85568392924515191,"keywords":["ctf","nocrits","nodmgspread","uncletopia"],"game_id":440,"stv_port":27036,"stv_name":"Uncletopia | Chicago | 3 | All Maps | STV","players":[{"user_id":665,"name":"aisu","steam_id":76561198043768507,"connected_time":2107000000000,"state":"active","ping":60},{"user_id":635,"name":"Superplay64","steam_id":76561198172471162,"connected_time":3763000000000,"state":"active","ping":70},{"user_id":636,"name":"ℋℇἂṼഴ","steam_id":76561199062259389,"connected_time":3453000000000,"state":"active","ping":110},{"user_id":646,"name":"Agent of Kaos","steam_id":76561198260891166,"connected_time":3175000000000,"state":"active","ping":66},{"user_id":641,"name":"Nebulon-B_Frigate_FTW","steam_id":76561198040955960,"connected_time":3284000000000,"state":"active","ping":138},{"user_id":668,"name":"SpiderString","steam_id":76561198092409181,"connected_time":1684000000000,"state":"active","ping":91},{"user_id":675,"name":"reni","steam_id":76561199192183787,"connected_time":486000000000,"state":"active","ping":94},{"user_id":658,"name":"Dystopia","steam_id":76561198119628320,"connected_time":2807000000000,"state":"active","ping":136},{"user_id":645,"name":"Wildhoovy","steam_id":76561198111879320,"connected_time":3205000000000,"state":"active","ping":67},{"user_id":650,"name":"Blizzard_TIW","steam_id":76561198296324013,"connected_time":3098000000000,"state":"active","ping":58},{"user_id":657,"name":"agamingoblin3","steam_id":76561199406964877,"connected_time":2858000000000,"state":"active","ping":79},{"user_id":262,"name":"{[F.H]} Hydroida","steam_id":76561197999797274,"connected_time":33869000000000,"state":"active","ping":48}]},{"server_id":403,"name":"Uncletopia | Chicago | 4 | All Maps","name_short":"chi-4","host":"chi-1.us.uncletopia.com","port":27045,"enabled":true,"region":"us-central","cc":"us","latitude":41.881832,"longitude":-87.62318,"reserved":0,"last_update":"0001-01-01T00:00:00Z","name_a2s":"Uncletopia | Chicago | 4 | All Maps","protocol":17,"map":"pl_upward","folder":"tf","game":"Team Fortress","app_id":440,"player_count":22,"max_players":24,"Bots":0,"server_type":"Dedicated","server_os":"Linux","password":true,"vac":true,"version":"7723704","steam_id":85568392924515193,"keywords":["nocrits","nodmgspread","payload","uncletopia"],"game_id":440,"stv_port":27046,"stv_name":"Uncletopia | Chicago | 4 | All Maps | STV","players":[{"user_id":683,"name":"2003 chevy malibu","steam_id":76561199075669125,"connected_time":3983000000000,"state":"active","ping":62},{"user_id":703,"name":"Menlymen","steam_id":76561198046508051,"connected_time":3519000000000,"state":"active","ping":74},{"user_id":717,"name":"Sir Iasis","steam_id":76561198035666760,"connected_time":589000000000,"state":"active","ping":56},{"user_id":731,"name":"schwicky shwag","steam_id":76561198037921140,"connected_time":25000000000,"state":"spawning","ping":206},{"user_id":705,"name":"Ping","steam_id":76561199206514106,"connected_time":2822000000000,"state":"active","ping":48},{"user_id":709,"name":"Kiril","steam_id":76561198051433762,"connected_time":1985000000000,"state":"active","ping":123},{"user_id":692,"name":"HanakoToast","steam_id":76561198045233131,"connected_time":3752000000000,"state":"active","ping":94},{"user_id":727,"name":"invb","steam_id":76561197998263914,"connected_time":351000000000,"state":"active","ping":49},{"user_id":714,"name":"spy4play2","steam_id":76561198058635746,"connected_time":894000000000,"state":"active","ping":52},{"user_id":730,"name":"duneblaster0","steam_id":76561198040364680,"connected_time":219000000000,"state":"active","ping":45},{"user_id":728,"name":"kezia","steam_id":76561198059815894,"connected_time":331000000000,"state":"active","ping":45},{"user_id":718,"name":"Tony Calzoni","steam_id":76561198036843904,"connected_time":548000000000,"state":"active","ping":48},{"user_id":732,"name":"Goku","steam_id":76561198064143198,"connected_time":8000000000,"state":"spawning","ping":60},{"user_id":680,"name":"Faraday","steam_id":76561198089928357,"connected_time":4392000000000,"state":"active","ping":71},{"user_id":720,"name":"Le Talandar","steam_id":76561198072268728,"connected_time":542000000000,"state":"active","ping":63},{"user_id":722,"name":"Authentic Tacos","steam_id":76561198092447766,"connected_time":511000000000,"state":"active","ping":62},{"user_id":723,"name":"The Engie","steam_id":76561198029782412,"connected_time":478000000000,"state":"active","ping":63},{"user_id":600,"name":"Glass Joe","steam_id":76561198317365741,"connected_time":11605000000000,"state":"active","ping":73},{"user_id":675,"name":"emukill","steam_id":76561198053143720,"connected_time":4843000000000,"state":"active","ping":99},{"user_id":725,"name":"WitnoH","steam_id":76561199328925735,"connected_time":467000000000,"state":"active","ping":90},{"user_id":710,"name":"crybaby","steam_id":76561199383952901,"connected_time":1921000000000,"state":"active","ping":64},{"user_id":726,"name":"Boring101","steam_id":76561198300662918,"connected_time":466000000000,"state":"active","ping":75}]},{"server_id":36,"name":"Uncletopia | Chicago | 5 | All Maps","name_short":"chi-5","host":"chi-2.us.uncletopia.com","port":27015,"enabled":true,"region":"us-central","cc":"us","latitude":41.881832,"longitude":-87.62318,"reserved":0,"last_update":"0001-01-01T00:00:00Z","name_a2s":"Uncletopia | Chicago | 5 | All Maps","protocol":17,"map":"koth_cascade","folder":"tf","game":"Team Fortress","app_id":440,"player_count":0,"max_players":24,"Bots":0,"server_type":"Dedicated","server_os":"Linux","password":true,"vac":true,"version":"7723704","steam_id":85568392924866362,"keywords":["cp","nocrits","nodmgspread","uncletopia"],"game_id":440,"stv_port":27016,"stv_name":"Uncletopia | Chicago | 5 | All Maps | STV","players":null},{"server_id":37,"name":"Uncletopia | Chicago | 6 | All Maps","name_short":"chi-6","host":"chi-2.us.uncletopia.com","port":27025,"enabled":true,"region":"us-central","cc":"us","latitude":41.881832,"longitude":-87.62318,"reserved":0,"last_update":"0001-01-01T00:00:00Z","name_a2s":"Uncletopia | Chicago | 6 | All Maps","protocol":17,"map":"plr_nightfall_final","folder":"tf","game":"Team Fortress","app_id":440,"player_count":0,"max_players":24,"Bots":0,"server_type":"Dedicated","server_os":"Linux","password":true,"vac":true,"version":"7723704","steam_id":85568392924866363,"keywords":["nocrits","nodmgspread","payload","uncletopia"],"game_id":440,"stv_port":27026,"stv_name":"Uncletopia | Chicago | 6 | All Maps | STV","players":null},{"server_id":38,"name":"Uncletopia | Chicago | 7 | Stopwatch Beta","name_short":"chi-7","host":"chi-2.us.uncletopia.com","port":27035,"enabled":true,"region":"us-central","cc":"us","latitude":41.881832,"longitude":-87.62318,"reserved":0,"last_update":"0001-01-01T00:00:00Z","name_a2s":"Uncletopia | Chicago | 7 | Stopwatch Beta","protocol":17,"map":"pl_upward","folder":"tf","game":"Team Fortress","app_id":440,"player_count":0,"max_players":24,"Bots":0,"server_type":"Dedicated","server_os":"Linux","password":true,"vac":true,"version":"7723704","steam_id":85568392924866364,"keywords":["nocrits","nodmgspread","payload","uncletopia"],"game_id":440,"stv_port":27036,"stv_name":"Uncletopia | Chicago | 7 | Stopwatch Beta | STV","players":null},{"server_id":39,"name":"Uncletopia | Chicago | 8 | Community","name_short":"chi-8","host":"chi-2.us.uncletopia.com","port":27045,"enabled":true,"region":"us-central","cc":"us","latitude":41.881832,"longitude":-87.62318,"reserved":0,"last_update":"0001-01-01T00:00:00Z","name_a2s":"Uncletopia | Chicago | 8 | Community","protocol":17,"map":"workshop/koth_ashville_final.ugc2130459942","folder":"tf","game":"Team Fortress","app_id":440,"player_count":0,"max_players":24,"Bots":0,"server_type":"Dedicated","server_os":"Linux","password":true,"vac":true,"version":"7723704","steam_id":85568392924866365,"keywords":["cp","nocrits","nodmgspread","uncletopia"],"game_id":440,"stv_port":27046,"stv_name":"Uncletopia | Chicago | 8 | Community | STV","players":null},{"server_id":8,"name":"Uncletopia | Dallas | 1 | All Maps","name_short":"dal-1","host":"dal-1.us.uncletopia.com","port":27015,"enabled":true,"region":"us-central","cc":"us","latitude":32.779167,"longitude":-96.80889,"reserved":0,"last_update":"0001-01-01T00:00:00Z","name_a2s":"Uncletopia | Dallas | 1 | All Maps","protocol":17,"map":"cp_dustbowl","folder":"tf","game":"Team Fortress","app_id":440,"player_count":12,"max_players":24,"Bots":0,"server_type":"Dedicated","server_os":"Linux","password":true,"vac":true,"version":"7723704","steam_id":85568392924469986,"keywords":["cp","nocrits","nodmgspread","uncletopia"],"game_id":440,"stv_port":27016,"stv_name":"Uncletopia | Dallas | 1 | All Maps | STV","players":[{"user_id":750,"name":"citrineTriage","steam_id":76561197998416694,"connected_time":6165000000000,"state":"active","ping":80},{"user_id":751,"name":"canisCasanova","steam_id":76561198075582076,"connected_time":6156000000000,"state":"active","ping":72},{"user_id":805,"name":"go to jail","steam_id":76561198273111735,"connected_time":1993000000000,"state":"active","ping":65},{"user_id":806,"name":"Dill","steam_id":76561197985091914,"connected_time":1942000000000,"state":"active","ping":80},{"user_id":784,"name":"Sir Dankus Memeus","steam_id":76561198167318640,"connected_time":3626000000000,"state":"active","ping":45},{"user_id":764,"name":"MantisTobboggan","steam_id":76561197969447887,"connected_time":4704000000000,"state":"active","ping":120},{"user_id":800,"name":"glug slug","steam_id":76561197988690273,"connected_time":2275000000000,"state":"active","ping":81},{"user_id":785,"name":"Chicken Nugget","steam_id":76561198082601232,"connected_time":3617000000000,"state":"active","ping":77},{"user_id":796,"name":"Jimmy","steam_id":76561197970838363,"connected_time":2414000000000,"state":"active","ping":90},{"user_id":811,"name":"+","steam_id":76561198262422184,"connected_time":1548000000000,"state":"active","ping":51},{"user_id":817,"name":"cuddlebug123","steam_id":76561198081220016,"connected_time":371000000000,"state":"active","ping":75},{"user_id":813,"name":"Arcane Flame","steam_id":76561198360024422,"connected_time":1491000000000,"state":"active","ping":85}]},{"server_id":108,"name":"Uncletopia | Dallas | 2 | All Maps","name_short":"dal-2","host":"dal-1.us.uncletopia.com","port":27025,"enabled":true,"region":"us-central","cc":"us","latitude":32.779167,"longitude":-96.80889,"reserved":0,"last_update":"0001-01-01T00:00:00Z","name_a2s":"Uncletopia | Dallas | 2 | All Maps","protocol":17,"map":"koth_lakeside_final","folder":"tf","game":"Team Fortress","app_id":440,"player_count":0,"max_players":24,"Bots":0,"server_type":"Dedicated","server_os":"Linux","password":true,"vac":true,"version":"7723704","steam_id":85568392924469988,"keywords":["cp","nocrits","nodmgspread","uncletopia"],"game_id":440,"stv_port":27026,"stv_name":"Uncletopia | Dallas | 2 | All Maps | STV","players":null},{"server_id":5,"name":"Uncletopia | Frankfurt | 1 | All Maps","name_short":"frk-1","host":"frk-1.de.uncletopia.com","port":27015,"enabled":true,"region":"eu","cc":"de","latitude":50.110924,"longitude":8.682127,"reserved":0,"last_update":"0001-01-01T00:00:00Z","name_a2s":"Uncletopia | Frankfurt | 1 | All Maps","protocol":17,"map":"koth_highpass","folder":"tf","game":"Team Fortress","app_id":440,"player_count":0,"max_players":24,"Bots":0,"server_type":"Dedicated","server_os":"Linux","password":true,"vac":true,"version":"7723704","steam_id":85568392924469989,"keywords":["cp","nocrits","nodmgspread","uncletopia"],"game_id":440,"stv_port":27016,"stv_name":"Uncletopia | Frankfurt | 1 | All Maps | STV","players":null},{"server_id":110,"name":"Uncletopia | Frankfurt | 2 | All Maps","name_short":"frk-2","host":"frk-1.de.uncletopia.com","port":27025,"enabled":true,"region":"eu","cc":"de","latitude":50.110924,"longitude":8.682127,"reserved":0,"last_update":"0001-01-01T00:00:00Z","name_a2s":"Uncletopia | Frankfurt | 2 | All Maps","protocol":17,"map":"cp_snakewater_final1","folder":"tf","game":"Team Fortress","app_id":440,"player_count":0,"max_players":24,"Bots":0,"server_type":"Dedicated","server_os":"Linux","password":true,"vac":true,"version":"7723704","steam_id":85568392924469990,"keywords":["cp","nocrits","nodmgspread","uncletopia"],"game_id":440,"stv_port":27026,"stv_name":"Uncletopia | Frankfurt | 2 | All Maps | STV","players":null},{"server_id":308,"name":"Uncletopia | Frankfurt | 3 | All Maps","name_short":"frk-3","host":"frk-1.de.uncletopia.com","port":27035,"enabled":true,"region":"eu","cc":"de","latitude":50.110924,"longitude":8.682127,"reserved":0,"last_update":"0001-01-01T00:00:00Z","name_a2s":"Uncletopia | Frankfurt | 3 | All Maps","protocol":17,"map":"pl_barnblitz","folder":"tf","game":"Team Fortress","app_id":440,"player_count":0,"max_players":24,"Bots":0,"server_type":"Dedicated","server_os":"Linux","password":true,"vac":true,"version":"7723704","steam_id":85568392924504274,"keywords":["nocrits","nodmgspread","payload","uncletopia"],"game_id":440,"stv_port":27036,"stv_name":"Uncletopia | Frankfurt | 3 | All Maps | STV","players":null},{"server_id":309,"name":"Uncletopia | Frankfurt | 4 | All Maps","name_short":"frk-4","host":"frk-1.de.uncletopia.com","port":27045,"enabled":true,"region":"eu","cc":"de","latitude":50.110924,"longitude":8.682127,"reserved":0,"last_update":"0001-01-01T00:00:00Z","name_a2s":"Uncletopia | Frankfurt | 4 | All Maps","protocol":17,"map":"pl_snowycoast","folder":"tf","game":"Team Fortress","app_id":440,"player_count":0,"max_players":24,"Bots":0,"server_type":"Dedicated","server_os":"Linux","password":true,"vac":true,"version":"7723704","steam_id":85568392924504275,"keywords":["nocrits","nodmgspread","payload","uncletopia"],"game_id":440,"stv_port":27046,"stv_name":"Uncletopia | Frankfurt | 4 | All Maps | STV","players":null},{"server_id":310,"name":"Uncletopia | Frankfurt | 5 | All Maps","name_short":"frk-5","host":"frk-1.de.uncletopia.com","port":27055,"enabled":true,"region":"eu","cc":"de","latitude":50.110924,"longitude":8.682127,"reserved":0,"last_update":"0001-01-01T00:00:00Z","name_a2s":"Uncletopia | Frankfurt | 5 | All Maps","protocol":17,"map":"pl_barnblitz","folder":"tf","game":"Team Fortress","app_id":440,"player_count":0,"max_players":24,"Bots":0,"server_type":"Dedicated","server_os":"Linux","password":true,"vac":true,"version":"7723704","steam_id":85568392924504277,"keywords":["nocrits","nodmgspread","payload","uncletopia"],"game_id":440,"stv_port":27056,"stv_name":"Uncletopia | Frankfurt | 5 | All Maps | STV","players":null},{"server_id":311,"name":"Uncletopia | Frankfurt | 6 | All Maps","name_short":"frk-6","host":"frk-1.de.uncletopia.com","port":27065,"enabled":true,"region":"eu","cc":"de","latitude":50.110924,"longitude":8.682127,"reserved":0,"last_update":"0001-01-01T00:00:00Z","name_a2s":"Uncletopia | Frankfurt | 6 | All Maps","protocol":17,"map":"pl_badwater","folder":"tf","game":"Team Fortress","app_id":440,"player_count":0,"max_players":24,"Bots":0,"server_type":"Dedicated","server_os":"Linux","password":true,"vac":true,"version":"7723704","steam_id":85568392924504278,"keywords":["nocrits","nodmgspread","payload","uncletopia"],"game_id":440,"stv_port":27066,"stv_name":"Uncletopia | Frankfurt | 6 | All Maps | STV","players":null},{"server_id":23,"name":"Uncletopia | Frankfurt | 7 | Stopwatch Beta","name_short":"frk-7","host":"frk-1.de.uncletopia.com","port":27075,"enabled":true,"region":"eu","cc":"de","latitude":50.110924,"longitude":8.682127,"reserved":0,"last_update":"0001-01-01T00:00:00Z","name_a2s":"Uncletopia | Frankfurt | 7 | Stopwatch Beta","protocol":17,"map":"koth_viaduct","folder":"tf","game":"Team Fortress","app_id":440,"player_count":0,"max_players":24,"Bots":0,"server_type":"Dedicated","server_os":"Linux","password":true,"vac":true,"version":"7723704","steam_id":85568392924742827,"keywords":["cp","nocrits","nodmgspread","uncletopia"],"game_id":440,"stv_port":27076,"stv_name":"Uncletopia | Frankfurt | 7 | Stopwatch Beta | STV","players":null},{"server_id":24,"name":"Uncletopia | Frankfurt | 8 | Community","name_short":"frk-8","host":"frk-1.de.uncletopia.com","port":27085,"enabled":true,"region":"eu","cc":"de","latitude":50.110924,"longitude":8.682127,"reserved":0,"last_update":"0001-01-01T00:00:00Z","name_a2s":"Uncletopia | Frankfurt | 8 | Community","protocol":17,"map":"workshop/pl_vigil_rc9.ugc1266210012","folder":"tf","game":"Team Fortress","app_id":440,"player_count":0,"max_players":24,"Bots":0,"server_type":"Dedicated","server_os":"Linux","password":true,"vac":true,"version":"7723704","steam_id":85568392924742828,"keywords":["nocrits","nodmgspread","payload","uncletopia"],"game_id":440,"stv_port":27086,"stv_name":"Uncletopia | Frankfurt | 8 | Community | STV","players":null},{"server_id":202,"name":"Uncletopia | Hong Kong | 1 | All Maps","name_short":"hgk-1","host":"hgk-1.hk.uncletopia.com","port":27015,"enabled":true,"region":"asia","cc":"hk","latitude":22.302711,"longitude":114.177216,"reserved":0,"last_update":"0001-01-01T00:00:00Z","name_a2s":"Uncletopia | Hong Kong | 1 | All Maps","protocol":17,"map":"pl_frontier_final","folder":"tf","game":"Team Fortress","app_id":440,"player_count":24,"max_players":24,"Bots":0,"server_type":"Dedicated","server_os":"Linux","password":true,"vac":true,"version":"7723704","steam_id":85568392924494504,"keywords":["nocrits","nodmgspread","payload","uncletopia"],"game_id":440,"stv_port":27016,"stv_name":"Uncletopia | Hong Kong | 1 | All Maps | STV","players":[{"user_id":228,"name":"ogey","steam_id":76561198074339034,"connected_time":5440000000000,"state":"active","ping":73},{"user_id":262,"name":"u/MeLEx3D","steam_id":76561199227871384,"connected_time":1144000000000,"state":"active","ping":57},{"user_id":226,"name":"bocchi have the bocchis","steam_id":76561198412329672,"connected_time":5710000000000,"state":"active","ping":100},{"user_id":255,"name":"Hatless Hatman","steam_id":76561198377541105,"connected_time":2227000000000,"state":"active","ping":57},{"user_id":254,"name":"Corhix","steam_id":76561198968706355,"connected_time":2456000000000,"state":"active","ping":42},{"user_id":245,"name":"brizzard","steam_id":76561198048438653,"connected_time":3413000000000,"state":"active","ping":46},{"user_id":203,"name":"uptriste","steam_id":76561198158666692,"connected_time":7110000000000,"state":"active","ping":41},{"user_id":274,"name":"Cum","steam_id":76561199244428779,"connected_time":218000000000,"state":"active","ping":84},{"user_id":233,"name":"Krayken","steam_id":76561197997933283,"connected_time":4815000000000,"state":"active","ping":89},{"user_id":243,"name":"Ocha","steam_id":76561199224096189,"connected_time":3724000000000,"state":"active","ping":90},{"user_id":257,"name":"screaming sniper","steam_id":76561199085568674,"connected_time":1985000000000,"state":"active","ping":60},{"user_id":269,"name":"Beef Wellington","steam_id":76561197995635241,"connected_time":897000000000,"state":"active","ping":113},{"user_id":271,"name":"derek.patriarca30","steam_id":76561199427230206,"connected_time":668000000000,"state":"active","ping":61},{"user_id":266,"name":"Puddin","steam_id":76561198140052918,"connected_time":1085000000000,"state":"active","ping":88},{"user_id":252,"name":"Apriliayyds","steam_id":76561198143916650,"connected_time":2503000000000,"state":"active","ping":93},{"user_id":130,"name":"(no sound) bocchi's oppai","steam_id":76561198008307645,"connected_time":10395000000000,"state":"active","ping":76},{"user_id":259,"name":"Cipher(#savetf2)","steam_id":76561198796591492,"connected_time":1507000000000,"state":"active","ping":120},{"user_id":237,"name":"u/Plencers2","steam_id":76561198311052198,"connected_time":4658000000000,"state":"active","ping":84},{"user_id":273,"name":"JL","steam_id":76561198398011398,"connected_time":543000000000,"state":"active","ping":125},{"user_id":85,"name":"The Dad","steam_id":76561198369523192,"connected_time":14425000000000,"state":"active","ping":64},{"user_id":264,"name":"Milk❤ (most hated guy in ut)","steam_id":76561198163911560,"connected_time":1142000000000,"state":"active","ping":90},{"user_id":267,"name":"Thomas Edward Yorke","steam_id":76561198198435598,"connected_time":1056000000000,"state":"active","ping":122},{"user_id":268,"name":"Noyour","steam_id":76561198323259830,"connected_time":980000000000,"state":"active","ping":115},{"user_id":260,"name":"itrash","steam_id":76561199068229379,"connected_time":1506000000000,"state":"active","ping":67}]},{"server_id":1,"name":"Uncletopia | Los Angeles | 1 | All Maps","name_short":"lax-1","host":"lax-1.us.uncletopia.com","port":27015,"enabled":true,"region":"us-west","cc":"us","latitude":33.94279,"longitude":-118.41004,"reserved":0,"last_update":"0001-01-01T00:00:00Z","name_a2s":"Uncletopia | Los Angeles | 1 | All Maps","protocol":17,"map":"koth_viaduct","folder":"tf","game":"Team Fortress","app_id":440,"player_count":0,"max_players":24,"Bots":0,"server_type":"Dedicated","server_os":"Linux","password":true,"vac":true,"version":"7723704","steam_id":85568392924469991,"keywords":["cp","nocrits","nodmgspread","uncletopia"],"game_id":440,"stv_port":27016,"stv_name":"Uncletopia | Los Angeles | 1 | All Maps | STV","players":null},{"server_id":112,"name":"Uncletopia | Los Angeles | 2 | All Maps","name_short":"lax-2","host":"lax-1.us.uncletopia.com","port":27025,"enabled":true,"region":"us-west","cc":"us","latitude":33.94279,"longitude":-118.41004,"reserved":0,"last_update":"0001-01-01T00:00:00Z","name_a2s":"Uncletopia | Los Angeles | 2 | All Maps","protocol":17,"map":"pl_snowycoast","folder":"tf","game":"Team Fortress","app_id":440,"player_count":24,"max_players":24,"Bots":0,"server_type":"Dedicated","server_os":"Linux","password":true,"vac":true,"version":"7723704","steam_id":85568392924469992,"keywords":["nocrits","nodmgspread","payload","uncletopia"],"game_id":440,"stv_port":27026,"stv_name":"Uncletopia | Los Angeles | 2 | All Maps | STV","players":[{"user_id":347,"name":"cringeass nae-nae girl","steam_id":76561198108753857,"connected_time":525000000000,"state":"active","ping":85},{"user_id":314,"name":"Cec3","steam_id":76561198128982411,"connected_time":2770000000000,"state":"active","ping":122},{"user_id":339,"name":"gary i need trenbolone","steam_id":76561198991938829,"connected_time":869000000000,"state":"active","ping":48},{"user_id":336,"name":"Wordly Eggplant","steam_id":76561198166704083,"connected_time":1315000000000,"state":"active","ping":57},{"user_id":263,"name":"Grunga","steam_id":76561198129145299,"connected_time":6195000000000,"state":"active","ping":65},{"user_id":344,"name":"Maurix6","steam_id":76561198066634370,"connected_time":676000000000,"state":"active","ping":32},{"user_id":325,"name":"goldleader123","steam_id":76561198985991888,"connected_time":1817000000000,"state":"active","ping":141},{"user_id":326,"name":"Susan","steam_id":76561198045705049,"connected_time":1782000000000,"state":"active","ping":52},{"user_id":262,"name":"Grime","steam_id":76561198066308925,"connected_time":6202000000000,"state":"active","ping":43},{"user_id":327,"name":"ganjasmoker22","steam_id":76561198168621580,"connected_time":1775000000000,"state":"active","ping":79},{"user_id":342,"name":"Gaz","steam_id":76561198112838904,"connected_time":717000000000,"state":"active","ping":44},{"user_id":270,"name":"[K.Y.L.L.]Drone #0432 (it)","steam_id":76561198027321950,"connected_time":5366000000000,"state":"active","ping":76},{"user_id":352,"name":"Schnitz","steam_id":76561198265484253,"connected_time":397000000000,"state":"active","ping":54},{"user_id":320,"name":"Brynkiwi","steam_id":76561198052177917,"connected_time":2207000000000,"state":"active","ping":56},{"user_id":329,"name":"Who Am I?","steam_id":76561198098141967,"connected_time":1518000000000,"state":"active","ping":45},{"user_id":317,"name":"Shh","steam_id":76561198075865231,"connected_time":2287000000000,"state":"active","ping":119},{"user_id":353,"name":"Raven57p","steam_id":76561198118992563,"connected_time":52000000000,"state":"spawning","ping":122},{"user_id":346,"name":"o2","steam_id":76561199262570913,"connected_time":646000000000,"state":"active","ping":179},{"user_id":305,"name":"Sailor_Cat424","steam_id":76561198122992535,"connected_time":3644000000000,"state":"active","ping":76},{"user_id":349,"name":"rad killl raccoon","steam_id":76561198980975595,"connected_time":418000000000,"state":"active","ping":96},{"user_id":338,"name":"JINJI","steam_id":76561198311686677,"connected_time":1248000000000,"state":"active","ping":70},{"user_id":321,"name":"Feral Impala","steam_id":76561198065654776,"connected_time":2109000000000,"state":"active","ping":58},{"user_id":350,"name":"Saggle","steam_id":76561198056075147,"connected_time":417000000000,"state":"active","ping":183},{"user_id":354,"name":"sweaterfan","steam_id":76561199389567214,"connected_time":48000000000,"state":"active","ping":90}]},{"server_id":324,"name":"Uncletopia | Los Angeles | 3 | All Maps","name_short":"lax-3","host":"lax-1.us.uncletopia.com","port":27035,"enabled":true,"region":"us-west","cc":"us","latitude":33.94279,"longitude":-118.41004,"reserved":0,"last_update":"0001-01-01T00:00:00Z","name_a2s":"Uncletopia | Los Angeles | 3 | All Maps","protocol":17,"map":"cp_sunshine","folder":"tf","game":"Team Fortress","app_id":440,"player_count":22,"max_players":24,"Bots":0,"server_type":"Dedicated","server_os":"Linux","password":true,"vac":true,"version":"7723704","steam_id":85568392924510198,"keywords":["cp","nocrits","nodmgspread","uncletopia"],"game_id":440,"stv_port":27036,"stv_name":"Uncletopia | Los Angeles | 3 | All Maps | STV","players":[{"user_id":216,"name":"moe","steam_id":76561198929586245,"connected_time":2833000000000,"state":"active","ping":47},{"user_id":241,"name":"Eggnog","steam_id":76561197968179862,"connected_time":514000000000,"state":"active","ping":66},{"user_id":239,"name":"Professor Peppermint","steam_id":76561198184017082,"connected_time":1066000000000,"state":"active","ping":79},{"user_id":235,"name":"AverageCEO","steam_id":76561198341738788,"connected_time":1256000000000,"state":"active","ping":83},{"user_id":228,"name":"The Caretaker","steam_id":76561198125241411,"connected_time":2445000000000,"state":"active","ping":69},{"user_id":192,"name":"huiei","steam_id":76561198073763735,"connected_time":4484000000000,"state":"active","ping":57},{"user_id":243,"name":"Seriously Bruh","steam_id":76561198070408485,"connected_time":399000000000,"state":"active","ping":76},{"user_id":214,"name":"Nez","steam_id":76561197963109059,"connected_time":2997000000000,"state":"active","ping":54},{"user_id":223,"name":"404 Name Not Found","steam_id":76561198146803176,"connected_time":2599000000000,"state":"active","ping":79},{"user_id":236,"name":"Sophia","steam_id":76561199383270286,"connected_time":1229000000000,"state":"active","ping":110},{"user_id":242,"name":"litroolay","steam_id":76561197995226856,"connected_time":473000000000,"state":"active","ping":67},{"user_id":110,"name":"arcticmonkeysfan2006","steam_id":76561198345528370,"connected_time":11522000000000,"state":"active","ping":46},{"user_id":245,"name":"Dargon","steam_id":76561198059383981,"connected_time":229000000000,"state":"active","ping":39},{"user_id":246,"name":"K4STOR","steam_id":76561198141582543,"connected_time":121000000000,"state":"spawning","ping":109},{"user_id":209,"name":"Kuyumiester","steam_id":76561198126835302,"connected_time":3416000000000,"state":"active","ping":77},{"user_id":247,"name":"Snoofy Snorfa","steam_id":76561198161556537,"connected_time":68000000000,"state":"active","ping":138},{"user_id":200,"name":"wizard","steam_id":76561197974871380,"connected_time":4227000000000,"state":"active","ping":73},{"user_id":248,"name":"COLOSSAL HOG","steam_id":76561198079923652,"connected_time":36000000000,"state":"active","ping":84},{"user_id":187,"name":"Mom","steam_id":76561198207936000,"connected_time":5552000000000,"state":"active","ping":45},{"user_id":198,"name":"Frongus","steam_id":76561197979056451,"connected_time":4300000000000,"state":"active","ping":75},{"user_id":234,"name":"over the horizon","steam_id":76561198292070566,"connected_time":2132000000000,"state":"active","ping":96},{"user_id":199,"name":"panda","steam_id":76561198025214612,"connected_time":4292000000000,"state":"active","ping":77}]},{"server_id":25,"name":"Uncletopia | Los Angeles | 4 | Stopwatch Beta","name_short":"lax-4","host":"lax-1.us.uncletopia.com","port":27045,"enabled":true,"region":"us-west","cc":"us","latitude":33.94279,"longitude":-118.41004,"reserved":0,"last_update":"0001-01-01T00:00:00Z","name_a2s":"Uncletopia | Los Angeles | 4 | Stopwatch Beta","protocol":17,"map":"cp_sunshine","folder":"tf","game":"Team Fortress","app_id":440,"player_count":0,"max_players":24,"Bots":0,"server_type":"Dedicated","server_os":"Linux","password":true,"vac":true,"version":"7723704","steam_id":85568392924510199,"keywords":["cp","nocrits","nodmgspread","uncletopia"],"game_id":440,"stv_port":27046,"stv_name":"Uncletopia | Los Angeles | 4 | Stopwatch Beta | STV","players":null},{"server_id":11,"name":"Uncletopia | London | 1 | All Maps","name_short":"lon-1","host":"lon-1.uk.uncletopia.com","port":27015,"enabled":true,"region":"eu","cc":"gb","latitude":51.509865,"longitude":-0.118092,"reserved":0,"last_update":"0001-01-01T00:00:00Z","name_a2s":"Uncletopia | London | 1 | All Maps","protocol":17,"map":"cp_snakewater_final1","folder":"tf","game":"Team Fortress","app_id":440,"player_count":19,"max_players":24,"Bots":0,"server_type":"Dedicated","server_os":"Linux","password":true,"vac":true,"version":"7723704","steam_id":85568392924367362,"keywords":["cp","nocrits","nodmgspread","uncletopia"],"game_id":440,"stv_port":27016,"stv_name":"Uncletopia | London | 1 | All Maps | STV","players":[{"user_id":61,"name":"Atomic homo","steam_id":76561198058944826,"connected_time":1954000000000,"state":"active","ping":47},{"user_id":66,"name":"Shlyk","steam_id":76561198333387103,"connected_time":1767000000000,"state":"active","ping":98},{"user_id":76,"name":"ralph wiggum","steam_id":76561198041034886,"connected_time":1257000000000,"state":"active","ping":58},{"user_id":70,"name":"Squash Banana","steam_id":76561198055480280,"connected_time":1531000000000,"state":"active","ping":95},{"user_id":7,"name":"Rcki","steam_id":76561198164291462,"connected_time":6789000000000,"state":"active","ping":73},{"user_id":90,"name":"Flint","steam_id":76561197995920776,"connected_time":271000000000,"state":"active","ping":48},{"user_id":13,"name":"gamerweed5","steam_id":76561198087651151,"connected_time":6380000000000,"state":"active","ping":39},{"user_id":68,"name":"desu","steam_id":76561198052878585,"connected_time":1638000000000,"state":"active","ping":141},{"user_id":79,"name":"Scrumlet","steam_id":76561198339806643,"connected_time":1007000000000,"state":"active","ping":68},{"user_id":82,"name":"small tony","steam_id":76561199141010349,"connected_time":877000000000,"state":"active","ping":92},{"user_id":83,"name":"FUKTARD2005","steam_id":76561198839121591,"connected_time":850000000000,"state":"active","ping":61},{"user_id":30,"name":"r0la","steam_id":76561198128315340,"connected_time":4559000000000,"state":"active","ping":84},{"user_id":46,"name":"Bob Wildest","steam_id":76561199256639506,"connected_time":3342000000000,"state":"active","ping":130},{"user_id":85,"name":"Ragnor","steam_id":76561198269543979,"connected_time":664000000000,"state":"active","ping":49},{"user_id":87,"name":"marsel","steam_id":76561198116168271,"connected_time":571000000000,"state":"active","ping":71},{"user_id":88,"name":"HOTDOG CHAMP","steam_id":76561198105036930,"connected_time":554000000000,"state":"active","ping":72},{"user_id":89,"name":"SodaKid_7","steam_id":76561198079419485,"connected_time":523000000000,"state":"active","ping":167},{"user_id":57,"name":"Dunte","steam_id":76561199100863648,"connected_time":2525000000000,"state":"active","ping":94},{"user_id":92,"name":"Pingutaro","steam_id":76561198112803718,"connected_time":242000000000,"state":"active","ping":72}]},{"server_id":114,"name":"Uncletopia | London | 2 | All Maps","name_short":"lon-2","host":"lon-1.uk.uncletopia.com","port":27025,"enabled":true,"region":"eu","cc":"gb","latitude":51.509865,"longitude":-0.118092,"reserved":0,"last_update":"0001-01-01T00:00:00Z","name_a2s":"Uncletopia | London | 2 | All Maps","protocol":17,"map":"pl_upward","folder":"tf","game":"Team Fortress","app_id":440,"player_count":0,"max_players":24,"Bots":0,"server_type":"Dedicated","server_os":"Linux","password":true,"vac":true,"version":"7723704","steam_id":85568392924470941,"keywords":["nocrits","nodmgspread","payload","uncletopia"],"game_id":440,"stv_port":27026,"stv_name":"Uncletopia | London | 2 | All Maps | STV","players":null},{"server_id":320,"name":"Uncletopia | London | 3 | All Maps","name_short":"lon-3","host":"lon-1.uk.uncletopia.com","port":27035,"enabled":true,"region":"eu","cc":"gb","latitude":51.509865,"longitude":-0.118092,"reserved":0,"last_update":"0001-01-01T00:00:00Z","name_a2s":"Uncletopia | London | 3 | All Maps","protocol":17,"map":"pl_snowycoast","folder":"tf","game":"Team Fortress","app_id":440,"player_count":0,"max_players":24,"Bots":0,"server_type":"Dedicated","server_os":"Linux","password":true,"vac":true,"version":"7723704","steam_id":85568392924510192,"keywords":["nocrits","nodmgspread","payload","uncletopia"],"game_id":440,"stv_port":27036,"stv_name":"Uncletopia | London | 3 | All Maps | STV","players":null},{"server_id":321,"name":"Uncletopia | London | 4 | All Maps","name_short":"lon-4","host":"lon-1.uk.uncletopia.com","port":27045,"enabled":true,"region":"eu","cc":"gb","latitude":51.509865,"longitude":-0.118092,"reserved":0,"last_update":"0001-01-01T00:00:00Z","name_a2s":"Uncletopia | London | 4 | All Maps","protocol":17,"map":"koth_lakeside_final","folder":"tf","game":"Team Fortress","app_id":440,"player_count":0,"max_players":24,"Bots":0,"server_type":"Dedicated","server_os":"Linux","password":true,"vac":true,"version":"7723704","steam_id":85568392924510193,"keywords":["cp","nocrits","nodmgspread","uncletopia"],"game_id":440,"stv_port":27046,"stv_name":"Uncletopia | London | 4 | All Maps | STV","players":null},{"server_id":21,"name":"Uncletopia | London | 5 | All Maps","name_short":"lon-5","host":"lon-1.uk.uncletopia.com","port":27055,"enabled":true,"region":"eu","cc":"gb","latitude":51.509865,"longitude":-0.118092,"reserved":0,"last_update":"0001-01-01T00:00:00Z","name_a2s":"Uncletopia | London | 5 | All Maps","protocol":17,"map":"cp_snakewater_final1","folder":"tf","game":"Team Fortress","app_id":440,"player_count":0,"max_players":24,"Bots":0,"server_type":"Dedicated","server_os":"Linux","password":true,"vac":true,"version":"7723704","steam_id":85568392924742829,"keywords":["cp","nocrits","nodmgspread","uncletopia"],"game_id":440,"stv_port":27056,"stv_name":"Uncletopia | London | 5 | All Maps | STV","players":null},{"server_id":22,"name":"Uncletopia | London | 6 | All Maps","name_short":"lon-6","host":"lon-1.uk.uncletopia.com","port":27065,"enabled":true,"region":"eu","cc":"gb","latitude":51.509865,"longitude":-0.118092,"reserved":0,"last_update":"0001-01-01T00:00:00Z","name_a2s":"Uncletopia | London | 6 | All Maps","protocol":17,"map":"cp_process_final","folder":"tf","game":"Team Fortress","app_id":440,"player_count":0,"max_players":24,"Bots":0,"server_type":"Dedicated","server_os":"Linux","password":true,"vac":true,"version":"7723704","steam_id":85568392924742830,"keywords":["cp","nocrits","nodmgspread","uncletopia"],"game_id":440,"stv_port":27066,"stv_name":"Uncletopia | London | 6 | All Maps | STV","players":null},{"server_id":40,"name":"Uncletopia | London | 7 | No Payload","name_short":"lon-7","host":"lon-1.uk.uncletopia.com","port":27075,"enabled":true,"region":"eu","cc":"gb","latitude":51.509865,"longitude":-0.118092,"reserved":0,"last_update":"0001-01-01T00:00:00Z","name_a2s":"Uncletopia | London | 7 | No Payload","protocol":17,"map":"koth_viaduct","folder":"tf","game":"Team Fortress","app_id":440,"player_count":0,"max_players":24,"Bots":0,"server_type":"Dedicated","server_os":"Linux","password":true,"vac":true,"version":"7723704","steam_id":85568392924964314,"keywords":["cp","nocrits","nodmgspread","uncletopia"],"game_id":440,"stv_port":27076,"stv_name":"Uncletopia | London | 7 | No Payload | STV","players":null},{"server_id":41,"name":"Uncletopia | London | 8 | Community","name_short":"lon-8","host":"lon-1.uk.uncletopia.com","port":27085,"enabled":true,"region":"eu","cc":"gb","latitude":51.509865,"longitude":-0.118092,"reserved":0,"last_update":"0001-01-01T00:00:00Z","name_a2s":"Uncletopia | London | 8 | Community","protocol":17,"map":"koth_highpass","folder":"tf","game":"Team Fortress","app_id":440,"player_count":0,"max_players":24,"Bots":0,"server_type":"Dedicated","server_os":"Linux","password":true,"vac":true,"version":"7723704","steam_id":85568392924964315,"keywords":["cp","nocrits","nodmgspread","uncletopia"],"game_id":440,"stv_port":27086,"stv_name":"Uncletopia | London | 8 | Community | STV","players":null},{"server_id":300,"name":"Uncletopia | Montréal | 1 | All Maps","name_short":"mtl-1","host":"mtl-1.ca.uncletopia.com","port":27015,"enabled":true,"region":"us-east","cc":"ca","latitude":45.50889,"longitude":-73.56167,"reserved":0,"last_update":"0001-01-01T00:00:00Z","name_a2s":"Uncletopia | Montréal | 1 | All Maps","protocol":17,"map":"koth_cascade","folder":"tf","game":"Team Fortress","app_id":440,"player_count":0,"max_players":24,"Bots":0,"server_type":"Dedicated","server_os":"Linux","password":true,"vac":true,"version":"7723704","steam_id":85568392924500087,"keywords":["cp","nocrits","nodmgspread","uncletopia"],"game_id":440,"stv_port":27016,"stv_name":"Uncletopia | Montréal | 1 | All Maps | STV","players":null},{"server_id":301,"name":"Uncletopia | Montréal | 2 | All Maps","name_short":"mtl-2","host":"mtl-1.ca.uncletopia.com","port":27025,"enabled":true,"region":"us-east","cc":"ca","latitude":45.50889,"longitude":-73.56167,"reserved":0,"last_update":"0001-01-01T00:00:00Z","name_a2s":"Uncletopia | Montréal | 2 | All Maps","protocol":17,"map":"koth_highpass","folder":"tf","game":"Team Fortress","app_id":440,"player_count":0,"max_players":24,"Bots":0,"server_type":"Dedicated","server_os":"Linux","password":true,"vac":true,"version":"7723704","steam_id":85568392924500088,"keywords":["cp","nocrits","nodmgspread","uncletopia"],"game_id":440,"stv_port":27026,"stv_name":"Uncletopia | Montréal | 2 | All Maps | STV","players":null},{"server_id":302,"name":"Uncletopia | Montréal | 3 | All Maps","name_short":"mtl-3","host":"mtl-1.ca.uncletopia.com","port":27035,"enabled":true,"region":"us-east","cc":"ca","latitude":45.50889,"longitude":-73.56167,"reserved":0,"last_update":"0001-01-01T00:00:00Z","name_a2s":"Uncletopia | Montréal | 3 | All Maps","protocol":17,"map":"cp_mountainlab","folder":"tf","game":"Team Fortress","app_id":440,"player_count":0,"max_players":24,"Bots":0,"server_type":"Dedicated","server_os":"Linux","password":true,"vac":true,"version":"7723704","steam_id":85568392924500089,"keywords":["cp","nocrits","nodmgspread","uncletopia"],"game_id":440,"stv_port":27036,"stv_name":"Uncletopia | Montréal | 3 | All Maps | STV","players":null},{"server_id":303,"name":"Uncletopia | Montréal | 4 | No Payload","name_short":"mtl-4","host":"mtl-1.ca.uncletopia.com","port":27045,"enabled":true,"region":"us-east","cc":"ca","latitude":45.50889,"longitude":-73.56167,"reserved":0,"last_update":"0001-01-01T00:00:00Z","name_a2s":"Uncletopia | Montréal | 4 | No Payload","protocol":17,"map":"koth_viaduct","folder":"tf","game":"Team Fortress","app_id":440,"player_count":0,"max_players":24,"Bots":0,"server_type":"Dedicated","server_os":"Linux","password":true,"vac":true,"version":"7723704","steam_id":85568392924500090,"keywords":["cp","nocrits","nodmgspread","uncletopia"],"game_id":440,"stv_port":27046,"stv_name":"Uncletopia | Montréal | 4 | No Payload | STV","players":null},{"server_id":13,"name":"Uncletopia | New York City | 1 | All Maps","name_short":"nyc-1","host":"nyc-1.us.uncletopia.com","port":27015,"enabled":true,"region":"us-east","cc":"us","latitude":40.73061,"longitude":-73.93524,"reserved":0,"last_update":"0001-01-01T00:00:00Z","name_a2s":"Uncletopia | New York City | 1 | All Maps","protocol":17,"map":"cp_dustbowl","folder":"tf","game":"Team Fortress","app_id":440,"player_count":0,"max_players":24,"Bots":0,"server_type":"Dedicated","server_os":"Linux","password":true,"vac":true,"version":"7723704","steam_id":85568392924469993,"keywords":["cp","nocrits","nodmgspread","uncletopia"],"game_id":440,"stv_port":27016,"stv_name":"Uncletopia | New York City | 1 | All Maps | STV","players":null},{"server_id":14,"name":"Uncletopia | New York City | 2 | All Maps","name_short":"nyc-2","host":"nyc-1.us.uncletopia.com","port":27025,"enabled":true,"region":"us-east","cc":"us","latitude":40.73061,"longitude":-73.93524,"reserved":0,"last_update":"0001-01-01T00:00:00Z","name_a2s":"Uncletopia | New York City | 2 | All Maps","protocol":17,"map":"koth_viaduct","folder":"tf","game":"Team Fortress","app_id":440,"player_count":0,"max_players":24,"Bots":0,"server_type":"Dedicated","server_os":"Linux","password":true,"vac":true,"version":"7723704","steam_id":85568392924469994,"keywords":["cp","nocrits","nodmgspread","uncletopia"],"game_id":440,"stv_port":27026,"stv_name":"Uncletopia | New York City | 2 | All Maps | STV","players":null},{"server_id":15,"name":"Uncletopia | New York City | 3 | Stopwatch Beta","name_short":"nyc-3","host":"nyc-1.us.uncletopia.com","port":27035,"enabled":true,"region":"us-east","cc":"us","latitude":40.73061,"longitude":-73.93524,"reserved":0,"last_update":"0001-01-01T00:00:00Z","name_a2s":"Uncletopia | New York City | 3 | Stopwatch Beta","protocol":17,"map":"pl_upward","folder":"tf","game":"Team Fortress","app_id":440,"player_count":0,"max_players":24,"Bots":0,"server_type":"Dedicated","server_os":"Linux","password":true,"vac":true,"version":"7723704","steam_id":85568392924742820,"keywords":["nocrits","nodmgspread","payload","uncletopia"],"game_id":440,"stv_port":27036,"stv_name":"Uncletopia | New York City | 3 | Stopwatch Beta | STV","players":null},{"server_id":16,"name":"Uncletopia | New York City | 4 | Community","name_short":"nyc-4","host":"nyc-1.us.uncletopia.com","port":27045,"enabled":true,"region":"us-east","cc":"us","latitude":40.73061,"longitude":-73.93524,"reserved":0,"last_update":"0001-01-01T00:00:00Z","name_a2s":"Uncletopia | New York City | 4 | Community","protocol":17,"map":"workshop/koth_bagel_rc5.ugc2514036946","folder":"tf","game":"Team Fortress","app_id":440,"player_count":0,"max_players":24,"Bots":0,"server_type":"Dedicated","server_os":"Linux","password":true,"vac":true,"version":"7723704","steam_id":85568392924742821,"keywords":["cp","nocrits","nodmgspread","uncletopia"],"game_id":440,"stv_port":27046,"stv_name":"Uncletopia | New York City | 4 | Community | STV","players":null},{"server_id":142,"name":"Uncletopia | São Paulo | 1 | All Maps","name_short":"sao-1","host":"sao-1.br.uncletopia.com","port":27015,"enabled":true,"region":"sa","cc":"br","latitude":-23.533773,"longitude":-46.62529,"reserved":0,"last_update":"0001-01-01T00:00:00Z","name_a2s":"Uncletopia | São Paulo | 1 | All Maps","protocol":17,"map":"cp_process_final","folder":"tf","game":"Team Fortress","app_id":440,"player_count":0,"max_players":24,"Bots":0,"server_type":"Dedicated","server_os":"Linux","password":true,"vac":true,"version":"7723704","steam_id":85568392924469996,"keywords":["cp","nocrits","nodmgspread","uncletopia"],"game_id":440,"stv_port":27016,"stv_name":"Uncletopia | São Paulo | 1 | All Maps | STV","players":null},{"server_id":143,"name":"Uncletopia | São Paulo | 2 | All Maps","name_short":"sao-2","host":"sao-2.br.uncletopia.com","port":27015,"enabled":true,"region":"sa","cc":"br","latitude":-23.533773,"longitude":-46.62529,"reserved":0,"last_update":"0001-01-01T00:00:00Z","name_a2s":"Uncletopia | São Paulo | 2 | All Maps","protocol":17,"map":"pl_frontier_final","folder":"tf","game":"Team Fortress","app_id":440,"player_count":0,"max_players":24,"Bots":0,"server_type":"Dedicated","server_os":"Linux","password":true,"vac":true,"version":"7723704","steam_id":85568392924485349,"keywords":["nocrits","nodmgspread","payload","uncletopia"],"game_id":440,"stv_port":27016,"stv_name":"Uncletopia | São Paulo | 2 | All Maps | STV","players":null},{"server_id":7,"name":"Uncletopia | Seattle | 1 | All Maps","name_short":"sea-1","host":"sea-1.us.uncletopia.com","port":27015,"enabled":true,"region":"us-west","cc":"us","latitude":47.608013,"longitude":-122.33517,"reserved":0,"last_update":"0001-01-01T00:00:00Z","name_a2s":"Uncletopia | Seattle | 1 | All Maps","protocol":17,"map":"pl_pier","folder":"tf","game":"Team Fortress","app_id":440,"player_count":16,"max_players":24,"Bots":0,"server_type":"Dedicated","server_os":"Linux","password":true,"vac":true,"version":"7723704","steam_id":85568392924469997,"keywords":["nocrits","nodmgspread","payload","uncletopia"],"game_id":440,"stv_port":27016,"stv_name":"Uncletopia | Seattle | 1 | All Maps | STV","players":[{"user_id":658,"name":"Barack Obama Gaming","steam_id":76561198129242016,"connected_time":393000000000,"state":"active","ping":45},{"user_id":645,"name":"cracky","steam_id":76561197971365444,"connected_time":2064000000000,"state":"active","ping":44},{"user_id":659,"name":"Tuffy","steam_id":76561198083778611,"connected_time":385000000000,"state":"active","ping":78},{"user_id":660,"name":"gorlab","steam_id":76561198025089694,"connected_time":292000000000,"state":"active","ping":68},{"user_id":661,"name":"Ayayahuasca","steam_id":76561199002906056,"connected_time":238000000000,"state":"active","ping":44},{"user_id":609,"name":"blessed yule","steam_id":76561198146228439,"connected_time":5306000000000,"state":"active","ping":48},{"user_id":646,"name":"hotdog every meal","steam_id":76561198392514273,"connected_time":1982000000000,"state":"active","ping":59},{"user_id":657,"name":"PopcornNinja101","steam_id":76561198330680181,"connected_time":441000000000,"state":"active","ping":46},{"user_id":647,"name":"lol dude it's the big slime","steam_id":76561198128164970,"connected_time":1853000000000,"state":"active","ping":74},{"user_id":648,"name":"Asphodel","steam_id":76561198750101819,"connected_time":1789000000000,"state":"active","ping":52},{"user_id":631,"name":"Google","steam_id":76561198857237473,"connected_time":3394000000000,"state":"active","ping":45},{"user_id":656,"name":"Weeb Trash","steam_id":76561198032832165,"connected_time":606000000000,"state":"active","ping":77},{"user_id":652,"name":"DeadlyAnomalies","steam_id":76561198125818085,"connected_time":1615000000000,"state":"active","ping":71},{"user_id":634,"name":"goldhed","steam_id":76561198051751133,"connected_time":3337000000000,"state":"active","ping":50},{"user_id":613,"name":"TehBroccolini","steam_id":76561198150308387,"connected_time":4915000000000,"state":"active","ping":72},{"user_id":525,"name":"lavender","steam_id":76561199069518286,"connected_time":13080000000000,"state":"active","ping":68}]},{"server_id":119,"name":"Uncletopia | Seattle | 2 | All Maps","name_short":"sea-2","host":"sea-1.us.uncletopia.com","port":27025,"enabled":true,"region":"us-west","cc":"us","latitude":47.608013,"longitude":-122.33517,"reserved":0,"last_update":"0001-01-01T00:00:00Z","name_a2s":"Uncletopia | Seattle | 2 | All Maps","protocol":17,"map":"cp_altitude","folder":"tf","game":"Team Fortress","app_id":440,"player_count":23,"max_players":24,"Bots":0,"server_type":"Dedicated","server_os":"Linux","password":true,"vac":true,"version":"7723704","steam_id":85568392924469998,"keywords":["cp","nocrits","nodmgspread","uncletopia"],"game_id":440,"stv_port":27026,"stv_name":"Uncletopia | Seattle | 2 | All Maps | STV","players":[{"user_id":630,"name":"JustaTroll","steam_id":76561198351004116,"connected_time":3879000000000,"state":"active","ping":81},{"user_id":663,"name":"Guppy","steam_id":76561198055351185,"connected_time":1341000000000,"state":"active","ping":181},{"user_id":638,"name":"TriggerPullPone","steam_id":76561198071789810,"connected_time":2745000000000,"state":"active","ping":71},{"user_id":670,"name":"NRMN","steam_id":76561198086863106,"connected_time":145000000000,"state":"active","ping":46},{"user_id":654,"name":"merge without looking","steam_id":76561198975450630,"connected_time":1817000000000,"state":"active","ping":45},{"user_id":639,"name":"gragam","steam_id":76561198093346068,"connected_time":2730000000000,"state":"active","ping":58},{"user_id":662,"name":"[Physicist] LSD Philosopher","steam_id":76561198152788858,"connected_time":1425000000000,"state":"active","ping":61},{"user_id":668,"name":"Sgt Autmn","steam_id":76561198072047939,"connected_time":531000000000,"state":"active","ping":46},{"user_id":671,"name":"served","steam_id":76561199438267625,"connected_time":75000000000,"state":"active","ping":126},{"user_id":642,"name":"Achoo","steam_id":76561198009091066,"connected_time":2660000000000,"state":"active","ping":46},{"user_id":645,"name":"honked off the bobo","steam_id":76561198123287268,"connected_time":2324000000000,"state":"active","ping":91},{"user_id":598,"name":"dead.","steam_id":76561199159855869,"connected_time":6378000000000,"state":"active","ping":118},{"user_id":646,"name":"Merry Matches_","steam_id":76561198048925904,"connected_time":2310000000000,"state":"active","ping":91},{"user_id":652,"name":"Ironlenny","steam_id":76561197977278066,"connected_time":1946000000000,"state":"active","ping":60},{"user_id":648,"name":"Bruhhole","steam_id":76561198271117177,"connected_time":2139000000000,"state":"active","ping":44},{"user_id":649,"name":"Mrvin5434","steam_id":76561199091381775,"connected_time":2069000000000,"state":"active","ping":89},{"user_id":667,"name":"Alex (Projeffional Gramer)","steam_id":76561198314221897,"connected_time":548000000000,"state":"active","ping":56},{"user_id":664,"name":"cyra","steam_id":76561198025454291,"connected_time":970000000000,"state":"active","ping":31},{"user_id":653,"name":"Dia Shakes","steam_id":76561198099617734,"connected_time":1907000000000,"state":"active","ping":56},{"user_id":665,"name":"Diegorkus","steam_id":76561198076956980,"connected_time":725000000000,"state":"active","ping":45},{"user_id":599,"name":"bad spy player","steam_id":76561198873699671,"connected_time":6369000000000,"state":"active","ping":42},{"user_id":656,"name":"Biznickel","steam_id":76561199422511230,"connected_time":1811000000000,"state":"active","ping":47}]},{"server_id":406,"name":"Uncletopia | Seattle | 3 | Stopwatch Beta","name_short":"sea-3","host":"sea-1.us.uncletopia.com","port":27035,"enabled":true,"region":"us-west","cc":"us","latitude":47.608013,"longitude":-122.33517,"reserved":0,"last_update":"0001-01-01T00:00:00Z","name_a2s":"Uncletopia | Seattle | 3 | Stopwatch Beta","protocol":17,"map":"cp_altitude","folder":"tf","game":"Team Fortress","app_id":440,"player_count":0,"max_players":24,"Bots":0,"server_type":"Dedicated","server_os":"Linux","password":true,"vac":false,"version":"7723704","steam_id":0,"keywords":["cp","nocrits","nodmgspread","uncletopia"],"game_id":440,"stv_port":27036,"stv_name":"Uncletopia | Seattle | 3 | Stopwatch Beta | STV","players":null},{"server_id":17,"name":"Uncletopia | San Francisco | 1 | All Maps","name_short":"sfo-1","host":"sfo-1.us.uncletopia.com","port":27015,"enabled":true,"region":"us-west","cc":"us","latitude":37.77397,"longitude":-122.4313,"reserved":0,"last_update":"0001-01-01T00:00:00Z","name_a2s":"Uncletopia | San Francisco | 1 | All Maps","protocol":17,"map":"pl_frontier_final","folder":"tf","game":"Team Fortress","app_id":440,"player_count":24,"max_players":24,"Bots":0,"server_type":"Dedicated","server_os":"Linux","password":true,"vac":true,"version":"7723704","steam_id":85568392924469999,"keywords":["nocrits","nodmgspread","payload","uncletopia"],"game_id":440,"stv_port":27016,"stv_name":"Uncletopia | San Francisco | 1 | All Maps | STV","players":[{"user_id":624,"name":"soup mode","steam_id":76561198071451771,"connected_time":430000000000,"state":"active","ping":45},{"user_id":626,"name":"Stargazer Ashley","steam_id":76561198035479925,"connected_time":335000000000,"state":"active","ping":49},{"user_id":617,"name":"gazpacho","steam_id":76561198132903078,"connected_time":1412000000000,"state":"active","ping":54},{"user_id":618,"name":"a cat plushie","steam_id":76561198080046542,"connected_time":1148000000000,"state":"active","ping":61},{"user_id":627,"name":"Madawg","steam_id":76561198167400793,"connected_time":332000000000,"state":"active","ping":53},{"user_id":610,"name":"Rusty","steam_id":76561198055585129,"connected_time":2314000000000,"state":"active","ping":67},{"user_id":572,"name":"original joke","steam_id":76561199194587482,"connected_time":5728000000000,"state":"active","ping":57},{"user_id":577,"name":"Livin' Like Larry","steam_id":76561198313360974,"connected_time":5110000000000,"state":"active","ping":33},{"user_id":568,"name":"Pikky","steam_id":76561198133170057,"connected_time":6140000000000,"state":"active","ping":47},{"user_id":567,"name":"BRK.","steam_id":76561198079634017,"connected_time":6193000000000,"state":"active","ping":61},{"user_id":631,"name":"Juustin","steam_id":76561198121922413,"connected_time":53000000000,"state":"active","ping":48},{"user_id":532,"name":"Y'all are Garage","steam_id":76561198012829324,"connected_time":8406000000000,"state":"active","ping":55},{"user_id":533,"name":"meow_the_cat","steam_id":76561198294347721,"connected_time":8399000000000,"state":"active","ping":53},{"user_id":586,"name":"LazyDoll","steam_id":76561198053186338,"connected_time":4342000000000,"state":"active","ping":62},{"user_id":609,"name":"Scrux","steam_id":76561198129763115,"connected_time":2346000000000,"state":"active","ping":63},{"user_id":628,"name":"Winton Overwat","steam_id":76561199046789832,"connected_time":251000000000,"state":"active","ping":57},{"user_id":611,"name":"Walter","steam_id":76561198176428878,"connected_time":2278000000000,"state":"active","ping":70},{"user_id":615,"name":"shoes","steam_id":76561198044104086,"connected_time":1443000000000,"state":"active","ping":60},{"user_id":612,"name":"Sir Galahad","steam_id":76561198195999859,"connected_time":2271000000000,"state":"active","ping":64},{"user_id":597,"name":"namaste at home dad","steam_id":76561198056971063,"connected_time":3408000000000,"state":"active","ping":102},{"user_id":629,"name":"Kyra Bread","steam_id":76561199438877625,"connected_time":226000000000,"state":"active","ping":90},{"user_id":622,"name":"BrightOrangeMango","steam_id":76561198023144607,"connected_time":901000000000,"state":"active","ping":70},{"user_id":623,"name":"Murk Wahlberg","steam_id":76561198131467867,"connected_time":660000000000,"state":"active","ping":38},{"user_id":630,"name":"Corporal Boom","steam_id":76561198135677629,"connected_time":188000000000,"state":"active","ping":71}]},{"server_id":18,"name":"Uncletopia | San Francisco | 2 | All Maps","name_short":"sfo-2","host":"sfo-1.us.uncletopia.com","port":27025,"enabled":true,"region":"us-west","cc":"us","latitude":37.77397,"longitude":-122.4313,"reserved":0,"last_update":"0001-01-01T00:00:00Z","name_a2s":"Uncletopia | San Francisco | 2 | All Maps","protocol":17,"map":"pl_pier","folder":"tf","game":"Team Fortress","app_id":440,"player_count":0,"max_players":24,"Bots":0,"server_type":"Dedicated","server_os":"Linux","password":true,"vac":true,"version":"7723704","steam_id":85568392924470000,"keywords":["nocrits","nodmgspread","payload","uncletopia"],"game_id":440,"stv_port":27026,"stv_name":"Uncletopia | San Francisco | 2 | All Maps | STV","players":null},{"server_id":19,"name":"Uncletopia | San Francisco | 3 | Stopwatch Beta","name_short":"sfo-3","host":"sfo-1.us.uncletopia.com","port":27035,"enabled":true,"region":"us-west","cc":"us","latitude":37.77397,"longitude":-122.4313,"reserved":0,"last_update":"0001-01-01T00:00:00Z","name_a2s":"Uncletopia | San Francisco | 3 | Stopwatch Beta","protocol":17,"map":"pl_pier","folder":"tf","game":"Team Fortress","app_id":440,"player_count":0,"max_players":24,"Bots":0,"server_type":"Dedicated","server_os":"Linux","password":true,"vac":true,"version":"7723704","steam_id":85568392924742824,"keywords":["nocrits","nodmgspread","payload","uncletopia"],"game_id":440,"stv_port":27036,"stv_name":"Uncletopia | San Francisco | 3 | Stopwatch Beta | STV","players":null},{"server_id":20,"name":"Uncletopia | San Francisco | 4 | Community","name_short":"sfo-4","host":"sfo-1.us.uncletopia.com","port":27045,"enabled":true,"region":"us-west","cc":"us","latitude":37.77397,"longitude":-122.4313,"reserved":0,"last_update":"0001-01-01T00:00:00Z","name_a2s":"Uncletopia | San Francisco | 4 | Community","protocol":17,"map":"koth_cascade","folder":"tf","game":"Team Fortress","app_id":440,"player_count":0,"max_players":24,"Bots":0,"server_type":"Dedicated","server_os":"Linux","password":true,"vac":true,"version":"7723704","steam_id":85568392924742826,"keywords":["cp","nocrits","nodmgspread","uncletopia"],"game_id":440,"stv_port":27046,"stv_name":"Uncletopia | San Francisco | 4 | Community | STV","players":null},{"server_id":141,"name":"Uncletopia | Sydney | 1 | All Maps","name_short":"syd-1","host":"syd-1.au.uncletopia.com","port":27015,"enabled":true,"region":"au","cc":"au","latitude":-33.865143,"longitude":151.2099,"reserved":0,"last_update":"0001-01-01T00:00:00Z","name_a2s":"Uncletopia | Sydney | 1 | All Maps","protocol":17,"map":"cp_process_final","folder":"tf","game":"Team Fortress","app_id":440,"player_count":23,"max_players":24,"Bots":0,"server_type":"Dedicated","server_os":"Linux","password":true,"vac":true,"version":"7723704","steam_id":85568392924470001,"keywords":["cp","nocrits","nodmgspread","uncletopia"],"game_id":440,"stv_port":27016,"stv_name":"Uncletopia | Sydney | 1 | All Maps | STV","players":[{"user_id":388,"name":"Zoey","steam_id":76561198126153554,"connected_time":2950000000000,"state":"active","ping":85},{"user_id":285,"name":"sat_","steam_id":76561198170693338,"connected_time":11075000000000,"state":"active","ping":86},{"user_id":398,"name":"Jetfire","steam_id":76561198047370036,"connected_time":2204000000000,"state":"active","ping":76},{"user_id":385,"name":"PS6 maffaaa","steam_id":76561198074409027,"connected_time":3120000000000,"state":"active","ping":52},{"user_id":421,"name":"MonkeyDoo","steam_id":76561198287586849,"connected_time":947000000000,"state":"active","ping":55},{"user_id":355,"name":"Worst Sniper","steam_id":76561198025733081,"connected_time":5439000000000,"state":"active","ping":78},{"user_id":392,"name":"Mr. Blop","steam_id":76561198072273373,"connected_time":2616000000000,"state":"active","ping":63},{"user_id":397,"name":"Spoopy Neko","steam_id":76561198212958225,"connected_time":2319000000000,"state":"active","ping":83},{"user_id":429,"name":"Loga(n)","steam_id":76561198252922034,"connected_time":36000000000,"state":"active","ping":65},{"user_id":379,"name":"Chooka","steam_id":76561197992307814,"connected_time":4008000000000,"state":"active","ping":74},{"user_id":419,"name":"cbpop","steam_id":76561198992538857,"connected_time":1114000000000,"state":"active","ping":77},{"user_id":393,"name":"UmbraFae","steam_id":76561198181594407,"connected_time":2578000000000,"state":"active","ping":51},{"user_id":414,"name":"o p t i v e","steam_id":76561198131756192,"connected_time":1434000000000,"state":"active","ping":75},{"user_id":415,"name":"zen","steam_id":76561198302670452,"connected_time":1394000000000,"state":"active","ping":61},{"user_id":425,"name":"Doc Scope","steam_id":76561198008861338,"connected_time":268000000000,"state":"active","ping":65},{"user_id":427,"name":"Comedy Mode","steam_id":76561198293250088,"connected_time":154000000000,"state":"active","ping":94},{"user_id":395,"name":"all4link","steam_id":76561198872894728,"connected_time":2488000000000,"state":"active","ping":54},{"user_id":428,"name":"Mr5cap","steam_id":76561198016583905,"connected_time":141000000000,"state":"spawning","ping":74},{"user_id":356,"name":"speed bomb","steam_id":76561198277363788,"connected_time":5371000000000,"state":"active","ping":88},{"user_id":416,"name":"Ultra","steam_id":76561198061828206,"connected_time":1378000000000,"state":"active","ping":53},{"user_id":423,"name":"ToadFungus","steam_id":76561199219667039,"connected_time":685000000000,"state":"active","ping":104},{"user_id":363,"name":"KeeperOfBalance","steam_id":76561198028070089,"connected_time":5323000000000,"state":"active","ping":84},{"user_id":426,"name":"rich","steam_id":76561198003594944,"connected_time":199000000000,"state":"active","ping":50}]},{"server_id":123,"name":"Uncletopia | Sydney | 2 | All Maps","name_short":"syd-2","host":"syd-1.au.uncletopia.com","port":27025,"enabled":true,"region":"au","cc":"au","latitude":-33.865143,"longitude":151.2099,"reserved":0,"last_update":"0001-01-01T00:00:00Z","name_a2s":"Uncletopia | Sydney | 2 | All Maps","protocol":17,"map":"pl_badwater","folder":"tf","game":"Team Fortress","app_id":440,"player_count":22,"max_players":24,"Bots":0,"server_type":"Dedicated","server_os":"Linux","password":true,"vac":true,"version":"7723704","steam_id":85568392924470002,"keywords":["nocrits","nodmgspread","payload","uncletopia"],"game_id":440,"stv_port":27026,"stv_name":"Uncletopia | Sydney | 2 | All Maps | STV","players":[{"user_id":151,"name":"auhsor","steam_id":76561197970679749,"connected_time":351000000000,"state":"active","ping":36},{"user_id":135,"name":"ericacummins","steam_id":76561198946280912,"connected_time":1008000000000,"state":"active","ping":85},{"user_id":136,"name":"bro","steam_id":76561198310908346,"connected_time":952000000000,"state":"active","ping":60},{"user_id":123,"name":"Bing Soy","steam_id":76561198057093383,"connected_time":1613000000000,"state":"active","ping":51},{"user_id":132,"name":"ca7x3","steam_id":76561198181194862,"connected_time":1056000000000,"state":"active","ping":60},{"user_id":152,"name":"MR. T","steam_id":76561198847421088,"connected_time":332000000000,"state":"active","ping":175},{"user_id":137,"name":"Mr Asian","steam_id":76561199119648313,"connected_time":938000000000,"state":"active","ping":68},{"user_id":127,"name":"BattlePingu","steam_id":76561198133068585,"connected_time":1306000000000,"state":"active","ping":66},{"user_id":149,"name":"The Inked Rabbit","steam_id":76561199158680285,"connected_time":388000000000,"state":"active","ping":42},{"user_id":150,"name":"Gasoline","steam_id":76561198879023728,"connected_time":368000000000,"state":"active","ping":80},{"user_id":93,"name":"hawk","steam_id":76561198135164277,"connected_time":3529000000000,"state":"active","ping":59},{"user_id":94,"name":"Wrainbow","steam_id":76561199039385168,"connected_time":3446000000000,"state":"active","ping":72},{"user_id":95,"name":"Ne1son","steam_id":76561198085020252,"connected_time":3438000000000,"state":"active","ping":81},{"user_id":138,"name":"limp check","steam_id":76561197980015398,"connected_time":928000000000,"state":"active","ping":48},{"user_id":96,"name":"iceage2","steam_id":76561198072382387,"connected_time":3432000000000,"state":"active","ping":60},{"user_id":143,"name":"Owlenstein™","steam_id":76561198093983826,"connected_time":733000000000,"state":"active","ping":106},{"user_id":141,"name":"A Purple Swirl","steam_id":76561197994590608,"connected_time":841000000000,"state":"active","ping":44},{"user_id":157,"name":"Nugget","steam_id":76561197961747465,"connected_time":30000000000,"state":"active","ping":81},{"user_id":147,"name":"VietGuy","steam_id":76561198839900058,"connected_time":592000000000,"state":"active","ping":159},{"user_id":144,"name":"Casio on a plastic beach","steam_id":76561199183857371,"connected_time":718000000000,"state":"active","ping":42},{"user_id":156,"name":"Borgooskulleater","steam_id":76561198347646513,"connected_time":51000000000,"state":"active","ping":53},{"user_id":102,"name":"Olsero","steam_id":76561198167850321,"connected_time":3220000000000,"state":"active","ping":91}]},{"server_id":395,"name":"Uncletopia | Sydney | 3 | All Maps","name_short":"syd-3","host":"syd-1.au.uncletopia.com","port":27035,"enabled":true,"region":"au","cc":"au","latitude":-33.865143,"longitude":151.2099,"reserved":0,"last_update":"0001-01-01T00:00:00Z","name_a2s":"Uncletopia | Sydney | 3 | All Maps","protocol":17,"map":"pl_barnblitz","folder":"tf","game":"Team Fortress","app_id":440,"player_count":0,"max_players":24,"Bots":0,"server_type":"Dedicated","server_os":"Linux","password":true,"vac":true,"version":"7723704","steam_id":85568392925194467,"keywords":["nocrits","nodmgspread","payload","uncletopia"],"game_id":440,"stv_port":27036,"stv_name":"Uncletopia | Sydney | 3 | All Maps | STV","players":null},{"server_id":396,"name":"Uncletopia | Sydney | 4 | All Maps","name_short":"syd-4","host":"syd-1.au.uncletopia.com","port":27045,"enabled":true,"region":"au","cc":"au","latitude":-33.865143,"longitude":151.2099,"reserved":0,"last_update":"0001-01-01T00:00:00Z","name_a2s":"Uncletopia | Sydney | 4 | All Maps","protocol":17,"map":"koth_viaduct","folder":"tf","game":"Team Fortress","app_id":440,"player_count":0,"max_players":24,"Bots":0,"server_type":"Dedicated","server_os":"Linux","password":true,"vac":true,"version":"7723704","steam_id":85568392925397958,"keywords":["cp","nocrits","nodmgspread","uncletopia"],"game_id":440,"stv_port":27046,"stv_name":"Uncletopia | Sydney | 4 | All Maps | STV","players":null},{"server_id":58,"name":"Uncletopia | Sydney | 5 | Stopwatch Beta","name_short":"syd-5","host":"syd-1.au.uncletopia.com","port":27055,"enabled":true,"region":"au","cc":"au","latitude":-33.865143,"longitude":151.2099,"reserved":0,"last_update":"0001-01-01T00:00:00Z","name_a2s":"Uncletopia | Sydney | 5 | Stopwatch Beta","protocol":17,"map":"cp_altitude","folder":"tf","game":"Team Fortress","app_id":440,"player_count":0,"max_players":24,"Bots":0,"server_type":"Dedicated","server_os":"Linux","password":true,"vac":true,"version":"7723704","steam_id":85568392925397959,"keywords":["cp","nocrits","nodmgspread","uncletopia"],"game_id":440,"stv_port":27056,"stv_name":"Uncletopia | Sydney | 5 | Stopwatch Beta | STV","players":null},{"server_id":59,"name":"Uncletopia | Sydney | 6 | Community","name_short":"syd-6","host":"syd-1.au.uncletopia.com","port":27065,"enabled":true,"region":"au","cc":"au","latitude":-33.865143,"longitude":151.2099,"reserved":0,"last_update":"0001-01-01T00:00:00Z","name_a2s":"Uncletopia | Sydney | 6 | Community","protocol":17,"map":"workshop/cp_caldera_rc2.ugc2834196889","folder":"tf","game":"Team Fortress","app_id":440,"player_count":0,"max_players":24,"Bots":0,"server_type":"Dedicated","server_os":"Linux","password":true,"vac":true,"version":"7723704","steam_id":85568392925397960,"keywords":["cp","nocrits","nodmgspread","uncletopia"],"game_id":440,"stv_port":27066,"stv_name":"Uncletopia | Sydney | 6 | Community | STV","players":null},{"server_id":49,"name":"Uncletopia | Warsaw | 1 | All Maps","name_short":"waw-1","host":"waw-1.pl.uncletopia.com","port":27015,"enabled":true,"region":"eu","cc":"pl","latitude":52.2297,"longitude":21.017532,"reserved":0,"last_update":"0001-01-01T00:00:00Z","name_a2s":"Uncletopia | Warsaw | 1 | All Maps","protocol":17,"map":"cp_snakewater_final1","folder":"tf","game":"Team Fortress","app_id":440,"player_count":0,"max_players":24,"Bots":0,"server_type":"Dedicated","server_os":"Linux","password":true,"vac":true,"version":"7723704","steam_id":85568392925397850,"keywords":["cp","nocrits","nodmgspread","uncletopia"],"game_id":440,"stv_port":27016,"stv_name":"Uncletopia | Warsaw | 1 | All Maps | STV","players":null},{"server_id":50,"name":"Uncletopia | Warsaw | 2 | All Maps","name_short":"waw-2","host":"waw-1.pl.uncletopia.com","port":27025,"enabled":true,"region":"eu","cc":"pl","latitude":52.2297,"longitude":21.017532,"reserved":0,"last_update":"0001-01-01T00:00:00Z","name_a2s":"Uncletopia | Warsaw | 2 | All Maps","protocol":17,"map":"pl_barnblitz","folder":"tf","game":"Team Fortress","app_id":440,"player_count":0,"max_players":24,"Bots":0,"server_type":"Dedicated","server_os":"Linux","password":true,"vac":true,"version":"7723704","steam_id":85568392925397851,"keywords":["nocrits","nodmgspread","payload","uncletopia"],"game_id":440,"stv_port":27026,"stv_name":"Uncletopia | Warsaw | 2 | All Maps | STV","players":null},{"server_id":51,"name":"Uncletopia | Warsaw | 3 | All Maps","name_short":"waw-3","host":"waw-1.pl.uncletopia.com","port":27035,"enabled":true,"region":"eu","cc":"pl","latitude":52.2297,"longitude":21.017532,"reserved":0,"last_update":"0001-01-01T00:00:00Z","name_a2s":"Uncletopia | Warsaw | 3 | All Maps","protocol":17,"map":"pl_barnblitz","folder":"tf","game":"Team Fortress","app_id":440,"player_count":0,"max_players":24,"Bots":0,"server_type":"Dedicated","server_os":"Linux","password":true,"vac":true,"version":"7723704","steam_id":85568392925397852,"keywords":["nocrits","nodmgspread","payload","uncletopia"],"game_id":440,"stv_port":27036,"stv_name":"Uncletopia | Warsaw | 3 | All Maps | STV","players":null},{"server_id":52,"name":"Uncletopia | Warsaw | 4 | All Maps","name_short":"waw-4","host":"waw-1.pl.uncletopia.com","port":27045,"enabled":true,"region":"eu","cc":"pl","latitude":52.2297,"longitude":21.017532,"reserved":0,"last_update":"0001-01-01T00:00:00Z","name_a2s":"Uncletopia | Warsaw | 4 | All Maps","protocol":17,"map":"pl_snowycoast","folder":"tf","game":"Team Fortress","app_id":440,"player_count":0,"max_players":24,"Bots":0,"server_type":"Dedicated","server_os":"Linux","password":true,"vac":true,"version":"7723704","steam_id":85568392925397853,"keywords":["nocrits","nodmgspread","payload","uncletopia"],"game_id":440,"stv_port":27046,"stv_name":"Uncletopia | Warsaw | 4 | All Maps | STV","players":null},{"server_id":53,"name":"Uncletopia | Warsaw | 5 | Stopwatch Beta","name_short":"waw-5","host":"waw-1.pl.uncletopia.com","port":27055,"enabled":true,"region":"eu","cc":"pl","latitude":52.2297,"longitude":21.017532,"reserved":0,"last_update":"0001-01-01T00:00:00Z","name_a2s":"Uncletopia | Warsaw | 5 | Stopwatch Beta","protocol":17,"map":"cp_sunshine","folder":"tf","game":"Team Fortress","app_id":440,"player_count":0,"max_players":24,"Bots":0,"server_type":"Dedicated","server_os":"Linux","password":true,"vac":true,"version":"7723704","steam_id":85568392925397854,"keywords":["cp","nocrits","nodmgspread","uncletopia"],"game_id":440,"stv_port":27056,"stv_name":"Uncletopia | Warsaw | 5 | Stopwatch Beta | STV","players":null},{"server_id":54,"name":"Uncletopia | Warsaw | 6 | Community","name_short":"waw-6","host":"waw-1.pl.uncletopia.com","port":27065,"enabled":true,"region":"eu","cc":"pl","latitude":52.2297,"longitude":21.017532,"reserved":0,"last_update":"0001-01-01T00:00:00Z","name_a2s":"Uncletopia | Warsaw | 6 | Community","protocol":17,"map":"pl_snowycoast","folder":"tf","game":"Team Fortress","app_id":440,"player_count":0,"max_players":24,"Bots":0,"server_type":"Dedicated","server_os":"Linux","password":true,"vac":true,"version":"7723704","steam_id":85568392925397856,"keywords":["nocrits","nodmgspread","payload","uncletopia"],"game_id":440,"stv_port":27066,"stv_name":"Uncletopia | Warsaw | 6 | Community | STV","players":null}]}