{"status":true,"message":"","result":[{"server_id":9,"name":"Uncletopia | Atlanta | 1 | All Maps","name_short":"atl-1","host":"atl-1.us.uncletopia.com","port":27015,"enabled":true,"region":"us-east","cc":"us","latitude":33.753746,"longitude":-84.38633,"reserved":0,"last_update":"0001-01-01T00:00:00Z","name_a2s":"Uncletopia | Atlanta | 1 | All Maps","protocol":17,"map":"pl_borneo","folder":"tf","game":"Team Fortress","app_id":440,"player_count":24,"max_players":24,"Bots":0,"server_type":"Dedicated","server_os":"Linux","password":true,"vac":true,"version":"7882260","steam_id":85568392924469982,"keywords":["nocrits","nodmgspread","payload","uncletopia"],"game_id":440,"stv_port":27016,"stv_name":"Uncletopia | Atlanta | 1 | All Maps | STV","players":[{"user_id":206,"name":"Captain Chicken","steam_id":76561198398677744,"connected_time":5495000000000,"state":"active","ping":93},{"user_id":248,"name":"peee pee man","steam_id":76561198044979205,"connected_time":1739000000000,"state":"active","ping":78},{"user_id":256,"name":"Jona2180","steam_id":76561198807012900,"connected_time":843000000000,"state":"active","ping":64},{"user_id":262,"name":"Dr Oshawott","steam_id":76561198042021629,"connected_time":589000000000,"state":"active","ping":89},{"user_id":113,"name":"zzz","steam_id":76561198143727547,"connected_time":11948000000000,"state":"active","ping":122},{"user_id":264,"name":"Paul Blart","steam_id":76561198068110623,"connected_time":376000000000,"state":"active","ping":106},{"user_id":265,"name":"Satori Komeiji","steam_id":76561198158211423,"connected_time":362000000000,"state":"active","ping":97},{"user_id":253,"name":"Brian","steam_id":76561198089908485,"connected_time":1161000000000,"state":"active","ping":59},{"user_id":247,"name":"J O V A","steam_id":76561198090333536,"connected_time":1822000000000,"state":"active","ping":73},{"user_id":259,"name":"hatchetax","steam_id":76561199013337543,"connected_time":781000000000,"state":"active","ping":53},{"user_id":226,"name":"HarryjusttHarry","steam_id":76561198982810452,"connected_time":3993000000000,"state":"active","ping":93},{"user_id":129,"name":"wG deez","steam_id":76561198277163301,"connected_time":11013000000000,"state":"active","ping":80},{"user_id":252,"name":"Sophie","steam_id":76561198170408057,"connected_time":1203000000000,"state":"active","ping":54},{"user_id":267,"name":"Albino Jellyfish","steam_id":76561198208561097,"connected_time":0,"state":"spawning","ping":0},{"user_id":222,"name":"Daniel Craig Fan","steam_id":76561198053467923,"connected_time":4212000000000,"state":"active","ping":80},{"user_id":266,"name":"lwyr","steam_id":76561198007982579,"connected_time":286000000000,"state":"active","ping":57},{"user_id":183,"name":"noobkiller420","steam_id":76561198079416036,"connected_time":7497000000000,"state":"active","ping":82},{"user_id":192,"name":"lynt","steam_id":76561198988333976,"connected_time":6732000000000,"state":"active","ping":42},{"user_id":239,"name":"Toonice","steam_id":76561198402994885,"connected_time":2640000000000,"state":"active","ping":87},{"user_id":254,"name":"Broadsword","steam_id":76561198011160411,"connected_time":869000000000,"state":"active","ping":51},{"user_id":251,"name":"Crystron","steam_id":76561198880437428,"connected_time":1484000000000,"state":"active","ping":76},{"user_id":168,"name":"Sage","steam_id":76561198143101697,"connected_time":8604000000000,"state":"active","ping":120},{"user_id":260,"name":"(no monitor) ayylien","steam_id":76561198042127970,"connected_time":772000000000,"state":"active","ping":51},{"user_id":193,"name":"noobfrotter69","steam_id":76561198249206656,"connected_time":6666000000000,"state":"active","ping":92}]},{"server_id":104,"name":"Uncletopia | Atlanta | 2 | All Maps","name_short":"atl-2","host":"atl-1.us.uncletopia.com","port":27025,"enabled":true,"region":"us-east","cc":"us","latitude":33.753746,"longitude":-84.38633,"reserved":0,"last_update":"0001-01-01T00:00:00Z","name_a2s":"Uncletopia | Atlanta | 2 | All Maps","protocol":17,"map":"cp_snakewater_final1","folder":"tf","game":"Team Fortress","app_id":440,"player_count":24,"max_players":24,"Bots":0,"server_type":"Dedicated","server_os":"Linux","password":true,"vac":true,"version":"7882260","steam_id":85568392924469983,"keywords":["cp","nocrits","nodmgspread","uncletopia"],"game_id":440,"stv_port":27026,"stv_name":"Uncletopia | Atlanta | 2 | All Maps | STV","players":[{"user_id":384,"name":"fruitpunch","steam_id":76561198156516161,"connected_time":4817000000000,"state":"active","ping":73},{"user_id":388,"name":"Notation","steam_id":76561198119509319,"connected_time":4743000000000,"state":"active","ping":48},{"user_id":418,"name":"Batsy","steam_id":76561198044767185,"connected_time":2344000000000,"state":"active","ping":46},{"user_id":427,"name":"DrLuciferWinchester","steam_id":76561198261849661,"connected_time":1865000000000,"state":"active","ping":166},{"user_id":409,"name":"trobin120","steam_id":76561199122420273,"connected_time":2996000000000,"state":"active","ping":59},{"user_id":422,"name":"the real babytron","steam_id":76561197989627918,"connected_time":2287000000000,"state":"active","ping":85},{"user_id":436,"name":"Wigl","steam_id":76561198019324464,"connected_time":505000000000,"state":"active","ping":65},{"user_id":403,"name":"lost in spaaaaace","steam_id":76561199085974120,"connected_time":3277000000000,"state":"active","ping":62},{"user_id":439,"name":"Zin","steam_id":76561199041369507,"connected_time":185000000000,"state":"active","ping":75},{"user_id":424,"name":"nothing burger eater","steam_id":76561198046201690,"connected_time":2146000000000,"state":"active","ping":151},{"user_id":402,"name":"Obelisk","steam_id":76561198049416866,"connected_time":3400000000000,"state":"active","ping":50},{"user_id":386,"name":"MineAGK","steam_id":76561198128372943,"connected_time":4815000000000,"state":"active","ping":81},{"user_id":432,"name":"PBxJAY","steam_id":76561198402471788,"connected_time":874000000000,"state":"active","ping":134},{"user_id":394,"name":"reallyfriendly","steam_id":76561197996819313,"connected_time":4222000000000,"state":"active","ping":62},{"user_id":433,"name":"Wallet","steam_id":76561198081067377,"connected_time":783000000000,"state":"active","ping":61},{"user_id":435,"name":"Gary Gilbert","steam_id":76561198143988056,"connected_time":543000000000,"state":"active","ping":105},{"user_id":356,"name":"ThatGamingKiwi","steam_id":76561199170522237,"connected_time":6035000000000,"state":"active","ping":95},{"user_id":438,"name":"Meat Mans Meat","steam_id":76561198062149455,"connected_time":382000000000,"state":"active","ping":45},{"user_id":428,"name":"Motorol¬™","steam_id":76561198358119669,"connected_time":1487000000000,"state":"active","ping":134},{"user_id":423,"name":"Frajer","steam_id":76561198059129680,"connected_time":2286000000000,"state":"active","ping":81},{"user_id":393,"name":"Stakie","steam_id":76561198401556657,"connected_time":4314000000000,"state":"active","ping":161},{"user_id":412,"name":"tubby","steam_id":76561198174982661,"connected_time":2635000000000,"state":"active","ping":72},{"user_id":434,"name":"A Can of Arizona Green Tea","steam_id":76561198062481133,"connected_time":589000000000,"state":"active","ping":93},{"user_id":430,"name":"rgb keyboard","steam_id":76561198814096380,"connected_time":1216000000000,"state":"active","ping":84}]},{"server_id":400,"name":"Uncletopia | Atlanta | 3 | Community","name_short":"atl-3","host":"atl-1.us.uncletopia.com","port":27035,"enabled":true,"region":"us-east","cc":"us","latitude":33.753746,"longitude":-84.38633,"reserved":0,"last_update":"0001-01-01T00:00:00Z","name_a2s":"Uncletopia | Atlanta | 3 | Community","protocol":17,"map":"workshop/cp_glassworks_rc6a.ugc454118349","folder":"tf","game":"Team Fortress","app_id":440,"player_count":1,"max_players":24,"Bots":0,"server_type":"Dedicated","server_os":"Linux","password":true,"vac":true,"version":"7882260","steam_id":85568392924515187,"keywords":["cp","nocrits","nodmgspread","uncletopia"],"game_id":440,"stv_port":27036,"stv_name":"Uncletopia | Atlanta | 3 | Community | STV","players":[{"user_id":9,"name":"WAR_CRIMES |Ham Mafia|","steam_id":76561199481159545,"connected_time":24000000000,"state":"active","ping":83}]},{"server_id":401,"name":"Uncletopia | Atlanta | 4 | No Payload","name_short":"atl-4","host":"atl-1.us.uncletopia.com","port":27045,"enabled":true,"region":"us-east","cc":"us","latitude":33.753746,"longitude":-84.38633,"reserved":0,"last_update":"0001-01-01T00:00:00Z","name_a2s":"","protocol":0,"map":"","folder":"","game":"","app_id":0,"player_count":0,"max_players":0,"Bots":0,"server_type":"","server_os":"","password":false,"vac":false,"version":"","steam_id":0,"keywords":null,"game_id":0,"stv_port":0,"stv_name":"","players":null},{"server_id":2,"name":"Uncletopia | Chicago | 1 | All Maps","name_short":"chi-1","host":"chi-1.us.uncletopia.com","port":27015,"enabled":true,"region":"us-central","cc":"us","latitude":41.881832,"longitude":-87.62318,"reserved":0,"last_update":"0001-01-01T00:00:00Z","name_a2s":"Uncletopia | Chicago | 1 | All Maps","protocol":17,"map":"pl_upward","folder":"tf","game":"Team Fortress","app_id":440,"player_count":24,"max_players":24,"Bots":0,"server_type":"Dedicated","server_os":"Linux","password":true,"vac":true,"version":"7882260","steam_id":85568392924469984,"keywords":["nocrits","nodmgspread","payload","uncletopia"],"game_id":440,"stv_port":27016,"stv_name":"Uncletopia | Chicago | 1 | All Maps | STV","players":[{"user_id":295,"name":"R.Y.","steam_id":76561199384459715,"connected_time":1931000000000,"state":"active","ping":100},{"user_id":275,"name":"Antifa Alligator","steam_id":76561197988170816,"connected_time":2999000000000,"state":"active","ping":64},{"user_id":302,"name":"Rock and Stone","steam_id":76561198057374871,"connected_time":845000000000,"state":"active","ping":58},{"user_id":309,"name":"Tito","steam_id":76561198041702529,"connected_time":436000000000,"state":"active","ping":86},{"user_id":310,"name":"You are dead not big surprise","steam_id":76561198961669220,"connected_time":280000000000,"state":"active","ping":76},{"user_id":277,"name":"cringe","steam_id":76561198104086771,"connected_time":2966000000000,"state":"active","ping":100},{"user_id":278,"name":"Tophu","steam_id":76561198380229671,"connected_time":2947000000000,"state":"active","ping":59},{"user_id":287,"name":"kermitcreeper(ZAZA)","steam_id":76561199222829972,"connected_time":2265000000000,"state":"active","ping":57},{"user_id":252,"name":"richard clock","steam_id":76561198048455671,"connected_time":5020000000000,"state":"active","ping":57},{"user_id":300,"name":"AquaPhoenix","steam_id":76561198157474924,"connected_time":1332000000000,"state":"active","ping":45},{"user_id":297,"name":"jazaniac","steam_id":76561198059955588,"connected_time":1648000000000,"state":"active","ping":86},{"user_id":264,"name":"Shipmunk","steam_id":76561198063062670,"connected_time":4369000000000,"state":"active","ping":60},{"user_id":190,"name":"WatchWill","steam_id":76561198157237945,"connected_time":10759000000000,"state":"active","ping":69},{"user_id":268,"name":"Dwaggy","steam_id":76561198027369555,"connected_time":4106000000000,"state":"active","ping":61},{"user_id":200,"name":"vv","steam_id":76561198134813102,"connected_time":9827000000000,"state":"active","ping":56},{"user_id":214,"name":"Cofi","steam_id":76561199026721822,"connected_time":8450000000000,"state":"active","ping":103},{"user_id":305,"name":"ArrowOmega","steam_id":76561198079364917,"connected_time":800000000000,"state":"active","ping":68},{"user_id":311,"name":"AviiCream ‚ô°","steam_id":76561199186721860,"connected_time":149000000000,"state":"active","ping":55},{"user_id":308,"name":"jim bob","steam_id":76561198815547064,"connected_time":469000000000,"state":"active","ping":60},{"user_id":303,"name":"Gnarly Shark Bite","steam_id":76561198004058342,"connected_time":839000000000,"state":"active","ping":72},{"user_id":293,"name":"Schmingus","steam_id":76561199476148332,"connected_time":2048000000000,"state":"active","ping":114},{"user_id":299,"name":"Daehypeels","steam_id":76561198268981599,"connected_time":1374000000000,"state":"active","ping":63},{"user_id":301,"name":"rock raiders enjoyer","steam_id":76561198139718219,"connected_time":853000000000,"state":"active","ping":82},{"user_id":294,"name":"[UHS] K24A4 2.4","steam_id":76561199072970627,"connected_time":2032000000000,"state":"active","ping":46}]},{"server_id":106,"name":"Uncletopia | Chicago | 2 | All Maps","name_short":"chi-2","host":"chi-1.us.uncletopia.com","port":27025,"enabled":true,"region":"us-central","cc":"us","latitude":41.881832,"longitude":-87.62318,"reserved":0,"last_update":"0001-01-01T00:00:00Z","name_a2s":"Uncletopia | Chicago | 2 | All Maps","protocol":17,"map":"ctf_turbine","folder":"tf","game":"Team Fortress","app_id":440,"player_count":21,"max_players":24,"Bots":0,"server_type":"Dedicated","server_os":"Linux","password":true,"vac":true,"version":"7882260","steam_id":85568392924469985,"keywords":["ctf","nocrits","nodmgspread","uncletopia"],"game_id":440,"stv_port":27026,"stv_name":"Uncletopia | Chicago | 2 | All Maps | STV","players":[{"user_id":67,"name":"Corn","steam_id":76561198177186718,"connected_time":1384000000000,"state":"spawning","ping":52},{"user_id":96,"name":"Riis","steam_id":76561199345210632,"connected_time":3000000000,"state":"spawning","ping":101},{"user_id":87,"name":"Sturmwolken [1312]","steam_id":76561198260905784,"connected_time":478000000000,"state":"spawning","ping":64},{"user_id":59,"name":"maS","steam_id":76561198033846407,"connected_time":1868000000000,"state":"spawning","ping":62},{"user_id":91,"name":"Racist(in Minecraft)","steam_id":76561198117206414,"connected_time":50000000000,"state":"spawning","ping":80},{"user_id":78,"name":"Krypa","steam_id":76561198144307152,"connected_time":774000000000,"state":"spawning","ping":44},{"user_id":35,"name":"Get Beaned","steam_id":76561198391590820,"connected_time":3701000000000,"state":"spawning","ping":98},{"user_id":36,"name":"Rickety Cricket","steam_id":76561198025814747,"connected_time":3631000000000,"state":"spawning","ping":65},{"user_id":93,"name":"\"free\" healthcare","steam_id":76561199385170644,"connected_time":12000000000,"state":"connecting","ping":65},{"user_id":70,"name":"Rustyorion","steam_id":76561198439186347,"connected_time":1327000000000,"state":"spawning","ping":103},{"user_id":88,"name":"piebluedog","steam_id":76561198141362745,"connected_time":395000000000,"state":"spawning","ping":68},{"user_id":95,"name":"Rocco__","steam_id":76561197992824074,"connected_time":8000000000,"state":"spawning","ping":76},{"user_id":61,"name":"Bear of the Polar Variety","steam_id":76561198370330710,"connected_time":1459000000000,"state":"spawning","ping":60},{"user_id":94,"name":"VALENCE","steam_id":76561198118492031,"connected_time":12000000000,"state":"spawning","ping":59},{"user_id":44,"name":"Luscious Ham","steam_id":76561199065549686,"connected_time":3474000000000,"state":"spawning","ping":58},{"user_id":56,"name":"Mburesh","steam_id":76561198137460717,"connected_time":2303000000000,"state":"spawning","ping":75},{"user_id":83,"name":"gabaghoulio","steam_id":76561198013650292,"connected_time":650000000000,"state":"spawning","ping":111},{"user_id":89,"name":"3-13","steam_id":76561198063929021,"connected_time":314000000000,"state":"spawning","ping":64},{"user_id":51,"name":"nurp","steam_id":76561198071687616,"connected_time":3279000000000,"state":"spawning","ping":67},{"user_id":85,"name":"quint","steam_id":76561198046797995,"connected_time":643000000000,"state":"spawning","ping":51},{"user_id":90,"name":"Chucklez","steam_id":76561198058193135,"connected_time":308000000000,"state":"spawning","ping":70}]},{"server_id":402,"name":"Uncletopia | Chicago | 3 | All Maps","name_short":"chi-3","host":"chi-1.us.uncletopia.com","port":27035,"enabled":true,"region":"us-central","cc":"us","latitude":41.881832,"longitude":-87.62318,"reserved":0,"last_update":"0001-01-01T00:00:00Z","name_a2s":"Uncletopia | Chicago | 3 | All Maps","protocol":17,"map":"pl_badwater","folder":"tf","game":"Team Fortress","app_id":440,"player_count":0,"max_players":24,"Bots":0,"server_type":"Dedicated","server_os":"Linux","password":true,"vac":true,"version":"7882260","steam_id":85568392924515191,"keywords":["nocrits","nodmgspread","payload","uncletopia"],"game_id":440,"stv_port":27036,"stv_name":"Uncletopia | Chicago | 3 | All Maps | STV","players":null},{"server_id":403,"name":"Uncletopia | Chicago | 4 | All Maps","name_short":"chi-4","host":"chi-1.us.uncletopia.com","port":27045,"enabled":true,"region":"us-central","cc":"us","latitude":41.881832,"longitude":-87.62318,"reserved":0,"last_update":"0001-01-01T00:00:00Z","name_a2s":"Uncletopia | Chicago | 4 | All Maps","protocol":17,"map":"koth_cascade","folder":"tf","game":"Team Fortress","app_id":440,"player_count":0,"max_players":24,"Bots":0,"server_type":"Dedicated","server_os":"Linux","password":true,"vac":true,"version":"7882260","steam_id":85568392924515193,"keywords":["cp","nocrits","nodmgspread","uncletopia"],"game_id":440,"stv_port":27046,"stv_name":"Uncletopia | Chicago | 4 | All Maps | STV","players":null},{"server_id":36,"name":"Uncletopia | Chicago | 5 | All Maps","name_short":"chi-5","host":"chi-2.us.uncletopia.com","port":27015,"enabled":true,"region":"us-central","cc":"us","latitude":41.881832,"longitude":-87.62318,"reserved":0,"last_update":"0001-01-01T00:00:00Z","name_a2s":"Uncletopia | Chicago | 5 | All Maps","protocol":17,"map":"pl_snowycoast","folder":"tf","game":"Team Fortress","app_id":440,"player_count":0,"max_players":24,"Bots":0,"server_type":"Dedicated","server_os":"Linux","password":true,"vac":true,"version":"7882260","steam_id":85568392924866362,"keywords":["nocrits","nodmgspread","payload","uncletopia"],"game_id":440,"stv_port":27016,"stv_name":"Uncletopia | Chicago | 5 | All Maps | STV","players":null},{"server_id":37,"name":"Uncletopia | Chicago | 6 | All Maps","name_short":"chi-6","host":"chi-2.us.uncletopia.com","port":27025,"enabled":true,"region":"us-central","cc":"us","latitude":41.881832,"longitude":-87.62318,"reserved":0,"last_update":"0001-01-01T00:00:00Z","name_a2s":"Uncletopia | Chicago | 6 | All Maps","protocol":17,"map":"koth_cascade","folder":"tf","game":"Team Fortress","app_id":440,"player_count":0,"max_players":24,"Bots":0,"server_type":"Dedicated","server_os":"Linux","password":true,"vac":true,"version":"7882260","steam_id":85568392924866363,"keywords":["cp","nocrits","nodmgspread","uncletopia"],"game_id":440,"stv_port":27026,"stv_name":"Uncletopia | Chicago | 6 | All Maps | STV","players":null},{"server_id":38,"name":"Uncletopia | Chicago | 7 | Stopwatch Beta","name_short":"chi-7","host":"chi-2.us.uncletopia.com","port":27035,"enabled":true,"region":"us-central","cc":"us","latitude":41.881832,"longitude":-87.62318,"reserved":0,"last_update":"0001-01-01T00:00:00Z","name_a2s":"Uncletopia | Chicago | 7 | Stopwatch Beta","protocol":17,"map":"workshop/cp_process_f12.ugc2302948105","folder":"tf","game":"Team Fortress","app_id":440,"player_count":0,"max_players":24,"Bots":0,"server_type":"Dedicated","server_os":"Linux","password":true,"vac":true,"version":"7882260","steam_id":85568392924866364,"keywords":["cp","nocrits","nodmgspread","uncletopia"],"game_id":440,"stv_port":27036,"stv_name":"Uncletopia | Chicago | 7 | Stopwatch Beta | STV","players":null},{"server_id":39,"name":"Uncletopia | Chicago | 8 | Community","name_short":"chi-8","host":"chi-2.us.uncletopia.com","port":27045,"enabled":true,"region":"us-central","cc":"us","latitude":41.881832,"longitude":-87.62318,"reserved":0,"last_update":"0001-01-01T00:00:00Z","name_a2s":"Uncletopia | Chicago | 8 | Community","protocol":17,"map":"workshop/cp_kalinka_rc6a.ugc1272700588","folder":"tf","game":"Team Fortress","app_id":440,"player_count":0,"max_players":24,"Bots":0,"server_type":"Dedicated","server_os":"Linux","password":true,"vac":true,"version":"7882260","steam_id":85568392924866365,"keywords":["cp","nocrits","nodmgspread","uncletopia"],"game_id":440,"stv_port":27046,"stv_name":"Uncletopia | Chicago | 8 | Community | STV","players":null},{"server_id":8,"name":"Uncletopia | Dallas | 1 | All Maps","name_short":"dal-1","host":"dal-1.us.uncletopia.com","port":27015,"enabled":true,"region":"us-central","cc":"us","latitude":32.779167,"longitude":-96.80889,"reserved":0,"last_update":"0001-01-01T00:00:00Z","name_a2s":"Uncletopia | Dallas | 1 | All Maps","protocol":17,"map":"cp_dustbowl","folder":"tf","game":"Team Fortress","app_id":440,"player_count":23,"max_players":24,"Bots":0,"server_type":"Dedicated","server_os":"Linux","password":true,"vac":true,"version":"7882260","steam_id":85568392924469986,"keywords":["cp","nocrits","nodmgspread","uncletopia"],"game_id":440,"stv_port":27016,"stv_name":"Uncletopia | Dallas | 1 | All Maps | STV","players":[{"user_id":170,"name":"Shamrock Shake Oct.10.2020 @8pm","steam_id":76561198833313201,"connected_time":252000000000,"state":"active","ping":99},{"user_id":156,"name":"Jesse Bear","steam_id":76561198217075305,"connected_time":1399000000000,"state":"active","ping":97},{"user_id":157,"name":"epicsauce guy 9491","steam_id":76561198414336279,"connected_time":1380000000000,"state":"active","ping":62},{"user_id":159,"name":"Z0mb01","steam_id":76561198840675301,"connected_time":1342000000000,"state":"active","ping":136},{"user_id":117,"name":"Big Man","steam_id":76561198353366625,"connected_time":3638000000000,"state":"active","ping":79},{"user_id":155,"name":"rawrie","steam_id":76561198005371178,"connected_time":1435000000000,"state":"active","ping":60},{"user_id":169,"name":"ChaoticSony","steam_id":76561198288624642,"connected_time":367000000000,"state":"active","ping":90},{"user_id":171,"name":"novastarphantom","steam_id":76561198045909935,"connected_time":215000000000,"state":"active","ping":75},{"user_id":177,"name":"Mr. Call You Back","steam_id":76561198025172811,"connected_time":106000000000,"state":"active","ping":77},{"user_id":172,"name":"mycoolcucumber","steam_id":76561198177586211,"connected_time":203000000000,"state":"active","ping":77},{"user_id":164,"name":"HighJingo","steam_id":76561198846814390,"connected_time":1242000000000,"state":"active","ping":49},{"user_id":149,"name":"Jacob Hornberger 2016","steam_id":76561198204549723,"connected_time":1816000000000,"state":"active","ping":140},{"user_id":173,"name":"Antwan","steam_id":76561198246200638,"connected_time":189000000000,"state":"active","ping":45},{"user_id":122,"name":"Kid B8","steam_id":76561198086764710,"connected_time":3402000000000,"state":"active","ping":75},{"user_id":139,"name":"Rukh","steam_id":76561197999361315,"connected_time":2800000000000,"state":"active","ping":101},{"user_id":145,"name":"Arrluk","steam_id":76561198396679452,"connected_time":2276000000000,"state":"active","ping":69},{"user_id":39,"name":"fatnuts87","steam_id":76561198119689085,"connected_time":8114000000000,"state":"active","ping":62},{"user_id":175,"name":"Crow","steam_id":76561198399415578,"connected_time":151000000000,"state":"active","ping":54},{"user_id":154,"name":"M","steam_id":76561198255827013,"connected_time":1510000000000,"state":"active","ping":127},{"user_id":166,"name":"Sly Marbo","steam_id":76561198056476987,"connected_time":1204000000000,"state":"active","ping":69},{"user_id":167,"name":"Sir Coreden","steam_id":76561198008430589,"connected_time":1166000000000,"state":"active","ping":86},{"user_id":176,"name":"altpuppy","steam_id":76561198325643231,"connected_time":131000000000,"state":"active","ping":77},{"user_id":179,"name":"VerseG","steam_id":76561198059246919,"connected_time":2000000000,"state":"spawning","ping":107}]},{"server_id":108,"name":"Uncletopia | Dallas | 2 | All Maps","name_short":"dal-2","host":"dal-1.us.uncletopia.com","port":27025,"enabled":true,"region":"us-central","cc":"us","latitude":32.779167,"longitude":-96.80889,"reserved":0,"last_update":"0001-01-01T00:00:00Z","name_a2s":"Uncletopia | Dallas | 2 | All Maps","protocol":17,"map":"pl_upward","folder":"tf","game":"Team Fortress","app_id":440,"player_count":24,"max_players":24,"Bots":0,"server_type":"Dedicated","server_os":"Linux","password":true,"vac":true,"version":"7882260","steam_id":85568392924469988,"keywords":["nocrits","nodmgspread","payload","uncletopia"],"game_id":440,"stv_port":27026,"stv_name":"Uncletopia | Dallas | 2 | All Maps | STV","players":[{"user_id":50,"name":"BigNugs","steam_id":76561198056402610,"connected_time":1456000000000,"state":"active","ping":86},{"user_id":11,"name":"god gamer","steam_id":76561198168149434,"connected_time":4479000000000,"state":"active","ping":118},{"user_id":67,"name":"bachphong760","steam_id":76561199433780443,"connected_time":396000000000,"state":"active","ping":138},{"user_id":13,"name":"craf","steam_id":76561198163535075,"connected_time":4078000000000,"state":"active","ping":90},{"user_id":51,"name":"pairy halms","steam_id":76561198932716385,"connected_time":1419000000000,"state":"active","ping":92},{"user_id":47,"name":"Positive0","steam_id":76561198035780181,"connected_time":1531000000000,"state":"active","ping":60},{"user_id":29,"name":"milk master","steam_id":76561198127851014,"connected_time":2485000000000,"state":"active","ping":47},{"user_id":63,"name":"bocaJ","steam_id":76561198374535092,"connected_time":1101000000000,"state":"active","ping":61},{"user_id":61,"name":"goooot","steam_id":76561198155591052,"connected_time":1253000000000,"state":"active","ping":49},{"user_id":52,"name":"KingKata","steam_id":76561198289610011,"connected_time":1403000000000,"state":"active","ping":125},{"user_id":66,"name":"Riff III","steam_id":76561198066921423,"connected_time":731000000000,"state":"active","ping":65},{"user_id":37,"name":"AstroVulpes","steam_id":76561198384277161,"connected_time":1921000000000,"state":"active","ping":176},{"user_id":38,"name":"PostBASH","steam_id":76561199194134673,"connected_time":1900000000000,"state":"active","ping":60},{"user_id":39,"name":"SCraig64","steam_id":76561198171251965,"connected_time":1820000000000,"state":"active","ping":55},{"user_id":65,"name":"GibbusGod","steam_id":76561199232436690,"connected_time":887000000000,"state":"active","ping":68},{"user_id":64,"name":"üå∏Princess Novaüå∏","steam_id":76561198320711089,"connected_time":1025000000000,"state":"active","ping":96},{"user_id":46,"name":"rice","steam_id":76561198119326733,"connected_time":1588000000000,"state":"active","ping":84},{"user_id":49,"name":"Crabby Patty","steam_id":76561198071150936,"connected_time":1525000000000,"state":"active","ping":69},{"user_id":53,"name":"Big Jon","steam_id":76561198402285099,"connected_time":1385000000000,"state":"active","ping":97},{"user_id":54,"name":"Hydrocat21","steam_id":76561199104332626,"connected_time":1379000000000,"state":"active","ping":97},{"user_id":56,"name":"Auggy","steam_id":76561198041816037,"connected_time":1325000000000,"state":"active","ping":100},{"user_id":62,"name":"Sim","steam_id":76561198991904637,"connected_time":1222000000000,"state":"active","ping":75},{"user_id":58,"name":"Deltaco","steam_id":76561198094572694,"connected_time":1306000000000,"state":"active","ping":125},{"user_id":59,"name":"lycoris","steam_id":76561199113965768,"connected_time":1270000000000,"state":"active","ping":89}]},{"server_id":5,"name":"Uncletopia | Frankfurt | 1 | All Maps","name_short":"frk-1","host":"frk-1.de.uncletopia.com","port":27015,"enabled":true,"region":"eu","cc":"de","latitude":50.110924,"longitude":8.682127,"reserved":0,"last_update":"0001-01-01T00:00:00Z","name_a2s":"Uncletopia | Frankfurt | 1 | All Maps","protocol":17,"map":"cp_dustbowl","folder":"tf","game":"Team Fortress","app_id":440,"player_count":24,"max_players":24,"Bots":0,"server_type":"Dedicated","server_os":"Linux","password":true,"vac":true,"version":"7882260","steam_id":85568392924469989,"keywords":["cp","nocrits","nodmgspread","uncletopia"],"game_id":440,"stv_port":27016,"stv_name":"Uncletopia | Frankfurt | 1 | All Maps | STV","players":[{"user_id":397,"name":"oscar","steam_id":76561198079636127,"connected_time":4031000000000,"state":"active","ping":82},{"user_id":372,"name":"SpaceNut","steam_id":76561198059198302,"connected_time":5407000000000,"state":"active","ping":60},{"user_id":400,"name":"Rainbow Sapling","steam_id":76561198127682941,"connected_time":3560000000000,"state":"active","ping":79},{"user_id":437,"name":"Pyrolander","steam_id":76561198050785450,"connected_time":468000000000,"state":"active","ping":55},{"user_id":425,"name":"dustloaf","steam_id":76561198074339302,"connected_time":1474000000000,"state":"active","ping":101},{"user_id":402,"name":"Lugialf","steam_id":76561198069050794,"connected_time":3338000000000,"state":"active","ping":87},{"user_id":433,"name":"Luuk","steam_id":76561198088266026,"connected_time":1309000000000,"state":"active","ping":54},{"user_id":422,"name":"Sh1n","steam_id":76561199012155377,"connected_time":1907000000000,"state":"active","ping":42},{"user_id":404,"name":"Carter","steam_id":76561198005243938,"connected_time":3150000000000,"state":"active","ping":74},{"user_id":442,"name":"Plants vs Zombies","steam_id":76561198354960567,"connected_time":437000000000,"state":"active","ping":47},{"user_id":443,"name":"(large)","steam_id":76561198020340561,"connected_time":435000000000,"state":"active","ping":68},{"user_id":427,"name":"Boki","steam_id":76561198044553351,"connected_time":1421000000000,"state":"active","ping":75},{"user_id":445,"name":"Mr.O #deletesniper","steam_id":76561198039567498,"connected_time":152000000000,"state":"active","ping":60},{"user_id":388,"name":"PiN hEaD","steam_id":76561198834713682,"connected_time":4687000000000,"state":"active","ping":76},{"user_id":376,"name":"Ketich","steam_id":76561198021772703,"connected_time":5131000000000,"state":"active","ping":75},{"user_id":444,"name":"Poltron","steam_id":76561198059972377,"connected_time":407000000000,"state":"active","ping":74},{"user_id":428,"name":"Vancelot","steam_id":76561198050750089,"connected_time":1414000000000,"state":"active","ping":85},{"user_id":434,"name":"metamikko","steam_id":76561198324704234,"connected_time":1299000000000,"state":"active","ping":99},{"user_id":411,"name":"Valkyr","steam_id":76561197994049208,"connected_time":2848000000000,"state":"active","ping":69},{"user_id":429,"name":"·É¶_JeffyVR_·É¶","steam_id":76561198932558520,"connected_time":1403000000000,"state":"active","ping":72},{"user_id":414,"name":"cyc –ø—Å–∏—Ö–æ–∫–∏–¥","steam_id":76561198039233724,"connected_time":2761000000000,"state":"active","ping":119},{"user_id":439,"name":"Better Call Medic","steam_id":76561198939711234,"connected_time":457000000000,"state":"active","ping":118},{"user_id":431,"name":"amoeba037","steam_id":76561198119449463,"connected_time":1393000000000,"state":"active","ping":73},{"user_id":440,"name":"Bobo","steam_id":76561198052308399,"connected_time":456000000000,"state":"active","ping":56}]},{"server_id":110,"name":"Uncletopia | Frankfurt | 2 | All Maps","name_short":"frk-2","host":"frk-1.de.uncletopia.com","port":27025,"enabled":true,"region":"eu","cc":"de","latitude":50.110924,"longitude":8.682127,"reserved":0,"last_update":"0001-01-01T00:00:00Z","name_a2s":"Uncletopia | Frankfurt | 2 | All Maps","protocol":17,"map":"pl_snowycoast","folder":"tf","game":"Team Fortress","app_id":440,"player_count":24,"max_players":24,"Bots":0,"server_type":"Dedicated","server_os":"Linux","password":true,"vac":true,"version":"7882260","steam_id":85568392924469990,"keywords":["nocrits","nodmgspread","payload","uncletopia"],"game_id":440,"stv_port":27026,"stv_name":"Uncletopia | Frankfurt | 2 | All Maps | STV","players":[{"user_id":535,"name":"Klifton","steam_id":76561198803743443,"connected_time":4019000000000,"state":"active","ping":67},{"user_id":563,"name":"TND","steam_id":76561197996379424,"connected_time":2265000000000,"state":"active","ping":51},{"user_id":591,"name":"cooler bones","steam_id":76561199480942903,"connected_time":440000000000,"state":"active","ping":60},{"user_id":593,"name":"Mehman","steam_id":76561199020244051,"connected_time":261000000000,"state":"active","ping":193},{"user_id":592,"name":"flr","steam_id":76561198249327786,"connected_time":311000000000,"state":"active","ping":61},{"user_id":571,"name":"epic gamer moment","steam_id":76561198299515070,"connected_time":1662000000000,"state":"active","ping":95},{"user_id":555,"name":"vdova v√Ωrobce","steam_id":76561198012946164,"connected_time":2890000000000,"state":"active","ping":67},{"user_id":586,"name":"Sir Kiops","steam_id":76561198022769275,"connected_time":763000000000,"state":"active","ping":102},{"user_id":589,"name":"dafydd","steam_id":76561198052200325,"connected_time":640000000000,"state":"active","ping":75},{"user_id":570,"name":"quickfast","steam_id":76561199438900919,"connected_time":1846000000000,"state":"active","ping":58},{"user_id":583,"name":"szewczenko","steam_id":76561198938098190,"connected_time":868000000000,"state":"active","ping":75},{"user_id":557,"name":"siamang ape","steam_id":76561198366599617,"connected_time":2884000000000,"state":"active","ping":51},{"user_id":590,"name":"Dewotter","steam_id":76561198007653168,"connected_time":627000000000,"state":"active","ping":72},{"user_id":581,"name":"stonebum","steam_id":76561198057004606,"connected_time":896000000000,"state":"active","ping":56},{"user_id":594,"name":"Deffrey","steam_id":76561198084366179,"connected_time":221000000000,"state":"active","ping":79},{"user_id":584,"name":"multiflex","steam_id":76561198049639319,"connected_time":824000000000,"state":"active","ping":62},{"user_id":582,"name":"Morgan BullFrog","steam_id":76561198088334623,"connected_time":881000000000,"state":"active","ping":102},{"user_id":550,"name":"Torttu","steam_id":76561198013980029,"connected_time":3661000000000,"state":"active","ping":61},{"user_id":543,"name":"nibsÓÑ∏","steam_id":76561198040099538,"connected_time":3863000000000,"state":"active","ping":75},{"user_id":545,"name":"Sniper is poorly designed","steam_id":76561198357107806,"connected_time":3724000000000,"state":"active","ping":63},{"user_id":569,"name":"Ruvix","steam_id":76561198239689346,"connected_time":2025000000000,"state":"active","ping":75},{"user_id":595,"name":"Providence","steam_id":76561198003920270,"connected_time":200000000000,"state":"active","ping":88},{"user_id":596,"name":"WATANG!","steam_id":76561198040478926,"connected_time":199000000000,"state":"active","ping":68},{"user_id":585,"name":"One Hop Dis Time *BWRAB*","steam_id":76561198146081601,"connected_time":820000000000,"state":"active","ping":46}]},{"server_id":308,"name":"Uncletopia | Frankfurt | 3 | All Maps","name_short":"frk-3","host":"frk-1.de.uncletopia.com","port":27035,"enabled":true,"region":"eu","cc":"de","latitude":50.110924,"longitude":8.682127,"reserved":0,"last_update":"0001-01-01T00:00:00Z","name_a2s":"Uncletopia | Frankfurt | 3 | All Maps","protocol":17,"map":"cp_dustbowl","folder":"tf","game":"Team Fortress","app_id":440,"player_count":21,"max_players":24,"Bots":0,"server_type":"Dedicated","server_os":"Linux","password":true,"vac":true,"version":"7882260","steam_id":85568392924504274,"keywords":["cp","nocrits","nodmgspread","uncletopia"],"game_id":440,"stv_port":27036,"stv_name":"Uncletopia | Frankfurt | 3 | All Maps | STV","players":[{"user_id":982,"name":"Testicular torsion","steam_id":76561198119547399,"connected_time":1700000000000,"state":"active","ping":54},{"user_id":975,"name":"Oxy:*","steam_id":76561198275120049,"connected_time":2274000000000,"state":"active","ping":64},{"user_id":957,"name":"usia","steam_id":76561198120406679,"connected_time":3069000000000,"state":"active","ping":91},{"user_id":983,"name":"EGirl | Klarra","steam_id":76561198077745407,"connected_time":1335000000000,"state":"active","ping":60},{"user_id":922,"name":"szmen","steam_id":76561198072569764,"connected_time":5443000000000,"state":"active","ping":74},{"user_id":956,"name":"Kocham Wode z Filtra","steam_id":76561198016042113,"connected_time":3104000000000,"state":"active","ping":82},{"user_id":960,"name":"Emma","steam_id":76561198076724979,"connected_time":2782000000000,"state":"active","ping":58},{"user_id":959,"name":"F.Fazbear","steam_id":76561198406606196,"connected_time":2895000000000,"state":"active","ping":82},{"user_id":995,"name":"Spectral Sloth","steam_id":76561198170083139,"connected_time":577000000000,"state":"active","ping":83},{"user_id":992,"name":"Ghostie","steam_id":76561199040253415,"connected_time":720000000000,"state":"active","ping":45},{"user_id":937,"name":"Washburne","steam_id":76561198032810579,"connected_time":4486000000000,"state":"active","ping":69},{"user_id":862,"name":"Loki Beaker","steam_id":76561198048086250,"connected_time":8896000000000,"state":"active","ping":48},{"user_id":984,"name":"LAZORBEAM","steam_id":76561198088735927,"connected_time":1311000000000,"state":"active","ping":56},{"user_id":998,"name":"MVM Tank","steam_id":76561198292845505,"connected_time":183000000000,"state":"active","ping":93},{"user_id":965,"name":"lightsabers","steam_id":76561198101292843,"connected_time":2535000000000,"state":"active","ping":58},{"user_id":898,"name":"Charmedelf","steam_id":76561197993611881,"connected_time":7482000000000,"state":"active","ping":59},{"user_id":994,"name":"feed and seed","steam_id":76561199088046420,"connected_time":640000000000,"state":"active","ping":58},{"user_id":997,"name":"Saltanat","steam_id":76561198802621568,"connected_time":363000000000,"state":"active","ping":75},{"user_id":996,"name":"Clitorina","steam_id":76561198077570815,"connected_time":528000000000,"state":"active","ping":46},{"user_id":971,"name":"boofing prozac","steam_id":76561198851157897,"connected_time":2404000000000,"state":"active","ping":83},{"user_id":973,"name":"Matteo Il Biondo","steam_id":76561198315389475,"connected_time":2365000000000,"state":"active","ping":62}]},{"server_id":309,"name":"Uncletopia | Frankfurt | 4 | All Maps","name_short":"frk-4","host":"frk-1.de.uncletopia.com","port":27045,"enabled":true,"region":"eu","cc":"de","latitude":50.110924,"longitude":8.682127,"reserved":0,"last_update":"0001-01-01T00:00:00Z","name_a2s":"Uncletopia | Frankfurt | 4 | All Maps","protocol":17,"map":"pl_barnblitz","folder":"tf","game":"Team Fortress","app_id":440,"player_count":10,"max_players":24,"Bots":0,"server_type":"Dedicated","server_os":"Linux","password":true,"vac":true,"version":"7882260","steam_id":85568392924504275,"keywords":["nocrits","nodmgspread","payload","uncletopia"],"game_id":440,"stv_port":27046,"stv_name":"Uncletopia | Frankfurt | 4 | All Maps | STV","players":[{"user_id":136,"name":"Not Medicine Addict","steam_id":76561198806658234,"connected_time":108000000000,"state":"active","ping":84},{"user_id":137,"name":"tralalaOuiOui","steam_id":76561197963471507,"connected_time":64000000000,"state":"active","ping":47},{"user_id":122,"name":"ScaryTree","steam_id":76561199384362833,"connected_time":975000000000,"state":"active","ping":105},{"user_id":115,"name":"r","steam_id":76561198410598772,"connected_time":2776000000000,"state":"active","ping":59},{"user_id":124,"name":"frikandel speciaal","steam_id":76561198137997056,"connected_time":560000000000,"state":"active","ping":48},{"user_id":125,"name":"‚ôõ„Ç∏„Éß„Éº„Ç§‚ôõ","steam_id":76561198238984788,"connected_time":470000000000,"state":"active","ping":59},{"user_id":127,"name":"Jeerven","steam_id":76561198259189841,"connected_time":380000000000,"state":"active","ping":59},{"user_id":131,"name":"Kamanie","steam_id":76561198135448255,"connected_time":299000000000,"state":"active","ping":47},{"user_id":132,"name":"Jones","steam_id":76561198046037216,"connected_time":270000000000,"state":"active","ping":212},{"user_id":134,"name":"zoinks!","steam_id":76561198068645362,"connected_time":192000000000,"state":"active","ping":52}]},{"server_id":310,"name":"Uncletopia | Frankfurt | 5 | All Maps","name_short":"frk-5","host":"frk-1.de.uncletopia.com","port":27055,"enabled":true,"region":"eu","cc":"de","latitude":50.110924,"longitude":8.682127,"reserved":0,"last_update":"0001-01-01T00:00:00Z","name_a2s":"Uncletopia | Frankfurt | 5 | All Maps","protocol":17,"map":"pl_swiftwater_final1","folder":"tf","game":"Team Fortress","app_id":440,"player_count":24,"max_players":24,"Bots":0,"server_type":"Dedicated","server_os":"Linux","password":true,"vac":true,"version":"7882260","steam_id":85568392924504277,"keywords":["nocrits","nodmgspread","payload","uncletopia"],"game_id":440,"stv_port":27056,"stv_name":"Uncletopia | Frankfurt | 5 | All Maps | STV","players":[{"user_id":225,"name":"JohkupohkuXD","steam_id":76561198391108762,"connected_time":895000000000,"state":"active","ping":93},{"user_id":212,"name":"Ë™∞„Åã„ÅåË¶ã„Å¶„ÅÑ„Çã","steam_id":76561198834913692,"connected_time":1926000000000,"state":"active","ping":59},{"user_id":224,"name":"Umberto Bossi","steam_id":76561198136150267,"connected_time":1035000000000,"state":"active","ping":52},{"user_id":213,"name":"Udinese Dion","steam_id":76561198067931573,"connected_time":1722000000000,"state":"active","ping":49},{"user_id":177,"name":"cazador","steam_id":76561198123096922,"connected_time":4816000000000,"state":"active","ping":90},{"user_id":222,"name":"Kildon","steam_id":76561198134661558,"connected_time":1114000000000,"state":"active","ping":90},{"user_id":229,"name":"Dill Killem","steam_id":76561199071571354,"connected_time":625000000000,"state":"active","ping":76},{"user_id":211,"name":"Ecton","steam_id":76561198025103720,"connected_time":2002000000000,"state":"active","ping":60},{"user_id":165,"name":"xavier","steam_id":76561198076494034,"connected_time":5026000000000,"state":"active","ping":57},{"user_id":209,"name":"Miles","steam_id":76561198084891833,"connected_time":2131000000000,"state":"active","ping":48},{"user_id":193,"name":"Galzra87","steam_id":76561198063414443,"connected_time":3236000000000,"state":"active","ping":71},{"user_id":220,"name":"pablo.gonzales.2013","steam_id":76561199057576622,"connected_time":1166000000000,"state":"active","ping":72},{"user_id":189,"name":"hananamanna","steam_id":76561198006570285,"connected_time":3334000000000,"state":"active","ping":103},{"user_id":214,"name":"Umbro","steam_id":76561198087930438,"connected_time":1595000000000,"state":"active","ping":75},{"user_id":223,"name":"skill","steam_id":76561198106012909,"connected_time":1099000000000,"state":"active","ping":69},{"user_id":195,"name":"dimitrij_6ix_god","steam_id":76561199023275543,"connected_time":3105000000000,"state":"active","ping":76},{"user_id":140,"name":"Rahu 'Siebren' Godless","steam_id":76561198276259175,"connected_time":7643000000000,"state":"active","ping":105},{"user_id":231,"name":"SmoothJazz","steam_id":76561198143044358,"connected_time":463000000000,"state":"active","ping":75},{"user_id":217,"name":"Drake_Zee_Spy","steam_id":76561197977997264,"connected_time":1191000000000,"state":"active","ping":60},{"user_id":221,"name":"i look at gay people","steam_id":76561198078032019,"connected_time":1166000000000,"state":"active","ping":76},{"user_id":230,"name":"Vershal Smershal","steam_id":76561198116223995,"connected_time":507000000000,"state":"active","ping":63},{"user_id":188,"name":"HelwiiHill","steam_id":76561198066730552,"connected_time":3603000000000,"state":"active","ping":83},{"user_id":208,"name":"Combat Wombat","steam_id":76561197994720068,"connected_time":2177000000000,"state":"active","ping":77},{"user_id":218,"name":"MAKENTAKEN","steam_id":76561199127359587,"connected_time":1191000000000,"state":"active","ping":86}]},{"server_id":311,"name":"Uncletopia | Frankfurt | 6 | All Maps","name_short":"frk-6","host":"frk-1.de.uncletopia.com","port":27065,"enabled":true,"region":"eu","cc":"de","latitude":50.110924,"longitude":8.682127,"reserved":0,"last_update":"0001-01-01T00:00:00Z","name_a2s":"Uncletopia | Frankfurt | 6 | All Maps","protocol":17,"map":"cp_snakewater_final1","folder":"tf","game":"Team Fortress","app_id":440,"player_count":24,"max_players":24,"Bots":0,"server_type":"Dedicated","server_os":"Linux","password":true,"vac":true,"version":"7882260","steam_id":85568392924504278,"keywords":["cp","nocrits","nodmgspread","uncletopia"],"game_id":440,"stv_port":27066,"stv_name":"Uncletopia | Frankfurt | 6 | All Maps | STV","players":[{"user_id":119,"name":"A Succulent Chinese Meal","steam_id":76561198069472440,"connected_time":1273000000000,"state":"active","ping":82},{"user_id":140,"name":"Patrick Bateman","steam_id":76561198140462195,"connected_time":940000000000,"state":"active","ping":165},{"user_id":114,"name":"halo 3 rat","steam_id":76561198439007717,"connected_time":1627000000000,"state":"active","ping":80},{"user_id":135,"name":"Joy","steam_id":76561198155314925,"connected_time":992000000000,"state":"active","ping":64},{"user_id":144,"name":"miev","steam_id":76561198078278737,"connected_time":804000000000,"state":"active","ping":85},{"user_id":122,"name":"SNS BATIN–ê–®","steam_id":76561198053914183,"connected_time":1235000000000,"state":"active","ping":67},{"user_id":141,"name":"Cataleptic","steam_id":76561197997966949,"connected_time":878000000000,"state":"active","ping":74},{"user_id":143,"name":"KnugenIV","steam_id":76561198127091993,"connected_time":843000000000,"state":"active","ping":56},{"user_id":153,"name":"HADID_sex_god","steam_id":76561198302623594,"connected_time":161000000000,"state":"active","ping":92},{"user_id":151,"name":"–ëravo","steam_id":76561198259340310,"connected_time":443000000000,"state":"active","ping":72},{"user_id":152,"name":"Savussy","steam_id":76561198388201179,"connected_time":328000000000,"state":"active","ping":46},{"user_id":79,"name":"KeTlEr","steam_id":76561198100957443,"connected_time":5423000000000,"state":"active","ping":68},{"user_id":127,"name":"rizzstraining order","steam_id":76561198255576760,"connected_time":1090000000000,"state":"active","ping":58},{"user_id":128,"name":"Ventulus","steam_id":76561198037004830,"connected_time":1081000000000,"state":"active","ping":74},{"user_id":129,"name":"sinkuchan","steam_id":76561198054012474,"connected_time":1070000000000,"state":"active","ping":58},{"user_id":130,"name":"Mineran","steam_id":76561198357224424,"connected_time":1070000000000,"state":"active","ping":84},{"user_id":137,"name":"or win","steam_id":76561198056238137,"connected_time":982000000000,"state":"active","ping":73},{"user_id":138,"name":"Tison","steam_id":76561199127635841,"connected_time":981000000000,"state":"active","ping":45},{"user_id":86,"name":"hlug2340","steam_id":76561198087970118,"connected_time":4790000000000,"state":"active","ping":88},{"user_id":154,"name":"meriones","steam_id":76561198034234373,"connected_time":74000000000,"state":"active","ping":58},{"user_id":145,"name":"Sirzen","steam_id":76561198170155434,"connected_time":803000000000,"state":"active","ping":53},{"user_id":150,"name":"mike erhmentraut","steam_id":76561199025378498,"connected_time":505000000000,"state":"active","ping":63},{"user_id":147,"name":"HOI","steam_id":76561198061182117,"connected_time":765000000000,"state":"active","ping":65},{"user_id":148,"name":"Zero (Orbital Gear Mastermind)","steam_id":76561198017416816,"connected_time":752000000000,"state":"active","ping":61}]},{"server_id":23,"name":"Uncletopia | Frankfurt | 7 | Stopwatch Beta","name_short":"frk-7","host":"frk-1.de.uncletopia.com","port":27075,"enabled":true,"region":"eu","cc":"de","latitude":50.110924,"longitude":8.682127,"reserved":0,"last_update":"0001-01-01T00:00:00Z","name_a2s":"Uncletopia | Frankfurt | 7 | Stopwatch Beta","protocol":17,"map":"cp_dustbowl","folder":"tf","game":"Team Fortress","app_id":440,"player_count":0,"max_players":24,"Bots":0,"server_type":"Dedicated","server_os":"Linux","password":true,"vac":true,"version":"7882260","steam_id":85568392924742827,"keywords":["cp","nocrits","nodmgspread","uncletopia"],"game_id":440,"stv_port":27076,"stv_name":"Uncletopia | Frankfurt | 7 | Stopwatch Beta | STV","players":null},{"server_id":24,"name":"Uncletopia | Frankfurt | 8 | Community","name_short":"frk-8","host":"frk-1.de.uncletopia.com","port":27085,"enabled":true,"region":"eu","cc":"de","latitude":50.110924,"longitude":8.682127,"reserved":0,"last_update":"0001-01-01T00:00:00Z","name_a2s":"Uncletopia | Frankfurt | 8 | Community","protocol":17,"map":"koth_cascade","folder":"tf","game":"Team Fortress","app_id":440,"player_count":0,"max_players":24,"Bots":0,"server_type":"Dedicated","server_os":"Linux","password":true,"vac":true,"version":"7882260","steam_id":85568392924742828,"keywords":["cp","nocrits","nodmgspread","uncletopia"],"game_id":440,"stv_port":27086,"stv_name":"Uncletopia | Frankfurt | 8 | Community | STV","players":null},{"server_id":202,"name":"Uncletopia | Hong Kong | 1 | All Maps","name_short":"hgk-1","host":"hgk-1.hk.uncletopia.com","port":27015,"enabled":true,"region":"asia","cc":"hk","latitude":22.302711,"longitude":114.177216,"reserved":0,"last_update":"0001-01-01T00:00:00Z","name_a2s":"Uncletopia | Hong Kong | 1 | All Maps","protocol":17,"map":"koth_highpass","folder":"tf","game":"Team Fortress","app_id":440,"player_count":0,"max_players":24,"Bots":0,"server_type":"Dedicated","server_os":"Linux","password":true,"vac":true,"version":"7882260","steam_id":85568392924494504,"keywords":["cp","nocrits","nodmgspread","uncletopia"],"game_id":440,"stv_port":27016,"stv_name":"Uncletopia | Hong Kong | 1 | All Maps | STV","players":null},{"server_id":1,"name":"Uncletopia | Los Angeles | 1 | All Maps","name_short":"lax-1","host":"lax-1.us.uncletopia.com","port":27015,"enabled":true,"region":"us-west","cc":"us","latitude":33.94279,"longitude":-118.41004,"reserved":0,"last_update":"0001-01-01T00:00:00Z","name_a2s":"Uncletopia | Los Angeles | 1 | All Maps","protocol":17,"map":"pl_pier","folder":"tf","game":"Team Fortress","app_id":440,"player_count":0,"max_players":24,"Bots":0,"server_type":"Dedicated","server_os":"Linux","password":true,"vac":true,"version":"7882260","steam_id":85568392924469991,"keywords":["nocrits","nodmgspread","payload","uncletopia"],"game_id":440,"stv_port":27016,"stv_name":"Uncletopia | Los Angeles | 1 | All Maps | STV","players":null},{"server_id":112,"name":"Uncletopia | Los Angeles | 2 | All Maps","name_short":"lax-2","host":"lax-1.us.uncletopia.com","port":27025,"enabled":true,"region":"us-west","cc":"us","latitude":33.94279,"longitude":-118.41004,"reserved":0,"last_update":"0001-01-01T00:00:00Z","name_a2s":"Uncletopia | Los Angeles | 2 | All Maps","protocol":17,"map":"cp_sunshine","folder":"tf","game":"Team Fortress","app_id":440,"player_count":24,"max_players":24,"Bots":0,"server_type":"Dedicated","server_os":"Linux","password":true,"vac":true,"version":"7882260","steam_id":85568392924469992,"keywords":["cp","nocrits","nodmgspread","uncletopia"],"game_id":440,"stv_port":27026,"stv_name":"Uncletopia | Los Angeles | 2 | All Maps | STV","players":[{"user_id":336,"name":"Cythemanticore","steam_id":76561198346374610,"connected_time":1192000000000,"state":"active","ping":77},{"user_id":327,"name":"uzr","steam_id":76561198799343084,"connected_time":1848000000000,"state":"active","ping":51},{"user_id":254,"name":"Zebulon","steam_id":76561198025719753,"connected_time":6087000000000,"state":"active","ping":63},{"user_id":293,"name":"Drakon","steam_id":76561198078210822,"connected_time":3933000000000,"state":"active","ping":57},{"user_id":339,"name":"Konrad Vilulf","steam_id":76561198111124481,"connected_time":973000000000,"state":"active","ping":113},{"user_id":333,"name":"SesataPomang","steam_id":76561198145133059,"connected_time":1297000000000,"state":"active","ping":77},{"user_id":295,"name":"African Water Buffalo","steam_id":76561198106938500,"connected_time":3907000000000,"state":"active","ping":46},{"user_id":236,"name":"echelon","steam_id":76561198139172979,"connected_time":7327000000000,"state":"active","ping":55},{"user_id":347,"name":"Spag Hekki","steam_id":76561198207579353,"connected_time":196000000000,"state":"active","ping":109},{"user_id":314,"name":"Rave Cat","steam_id":76561198026369683,"connected_time":2744000000000,"state":"active","ping":61},{"user_id":344,"name":"Yosh","steam_id":76561198027078899,"connected_time":354000000000,"state":"active","ping":89},{"user_id":322,"name":"bendera","steam_id":76561197965486503,"connected_time":2212000000000,"state":"active","ping":114},{"user_id":348,"name":"H00DEDRIOT","steam_id":76561198351880498,"connected_time":169000000000,"state":"active","ping":85},{"user_id":346,"name":"Sasha Waybright (real)","steam_id":76561198063076753,"connected_time":230000000000,"state":"active","ping":59},{"user_id":335,"name":"Grub","steam_id":76561198174510235,"connected_time":1275000000000,"state":"active","ping":189},{"user_id":337,"name":"TrueBoredom","steam_id":76561198027021364,"connected_time":1133000000000,"state":"active","ping":60},{"user_id":331,"name":"Reem0h","steam_id":76561198169848690,"connected_time":1345000000000,"state":"active","ping":110},{"user_id":340,"name":"Herr Doktor","steam_id":76561198025473302,"connected_time":941000000000,"state":"active","ping":136},{"user_id":330,"name":"carnal wizard","steam_id":76561198052431073,"connected_time":1476000000000,"state":"active","ping":69},{"user_id":341,"name":"god's gothest girlfriend","steam_id":76561198004113005,"connected_time":896000000000,"state":"active","ping":151},{"user_id":273,"name":"Walmus","steam_id":76561198111416393,"connected_time":5412000000000,"state":"active","ping":55},{"user_id":342,"name":"Mega","steam_id":76561198121258379,"connected_time":874000000000,"state":"active","ping":131},{"user_id":345,"name":"aimboat","steam_id":76561198218131923,"connected_time":232000000000,"state":"active","ping":110},{"user_id":343,"name":"brix","steam_id":76561199238923581,"connected_time":860000000000,"state":"active","ping":170}]},{"server_id":324,"name":"Uncletopia | Los Angeles | 3 | All Maps","name_short":"lax-3","host":"lax-1.us.uncletopia.com","port":27035,"enabled":true,"region":"us-west","cc":"us","latitude":33.94279,"longitude":-118.41004,"reserved":0,"last_update":"0001-01-01T00:00:00Z","name_a2s":"Uncletopia | Los Angeles | 3 | All Maps","protocol":17,"map":"cp_mountainlab","folder":"tf","game":"Team Fortress","app_id":440,"player_count":6,"max_players":24,"Bots":0,"server_type":"Dedicated","server_os":"Linux","password":true,"vac":true,"version":"7882260","steam_id":85568392924510198,"keywords":["cp","nocrits","nodmgspread","uncletopia"],"game_id":440,"stv_port":27036,"stv_name":"Uncletopia | Los Angeles | 3 | All Maps | STV","players":[{"user_id":192,"name":"BONKster","steam_id":76561198170089663,"connected_time":9135000000000,"state":"active","ping":123},{"user_id":313,"name":"bebo","steam_id":76561198385085005,"connected_time":335000000000,"state":"active","ping":54},{"user_id":306,"name":"Zykron","steam_id":76561199056400800,"connected_time":996000000000,"state":"active","ping":51},{"user_id":308,"name":"Joe Biden (Deceased)","steam_id":76561198170427507,"connected_time":746000000000,"state":"active","ping":46},{"user_id":266,"name":"Surfing Garchomp","steam_id":76561199107236884,"connected_time":2770000000000,"state":"active","ping":80},{"user_id":309,"name":"bcizzo","steam_id":76561197994399953,"connected_time":736000000000,"state":"active","ping":65}]},{"server_id":25,"name":"Uncletopia | Los Angeles | 4 | Stopwatch Beta","name_short":"lax-4","host":"lax-1.us.uncletopia.com","port":27045,"enabled":true,"region":"us-west","cc":"us","latitude":33.94279,"longitude":-118.41004,"reserved":0,"last_update":"0001-01-01T00:00:00Z","name_a2s":"Uncletopia | Los Angeles | 4 | Stopwatch Beta","protocol":17,"map":"cp_snakewater_final1","folder":"tf","game":"Team Fortress","app_id":440,"player_count":0,"max_players":24,"Bots":0,"server_type":"Dedicated","server_os":"Linux","password":true,"vac":true,"version":"7882260","steam_id":85568392924510199,"keywords":["cp","nocrits","nodmgspread","uncletopia"],"game_id":440,"stv_port":27046,"stv_name":"Uncletopia | Los Angeles | 4 | Stopwatch Beta | STV","players":null},{"server_id":11,"name":"Uncletopia | London | 1 | All Maps","name_short":"lon-1","host":"lon-1.uk.uncletopia.com","port":27015,"enabled":true,"region":"eu","cc":"gb","latitude":51.509865,"longitude":-0.118092,"reserved":0,"last_update":"0001-01-01T00:00:00Z","name_a2s":"Uncletopia | London | 1 | All Maps","protocol":17,"map":"pl_pier","folder":"tf","game":"Team Fortress","app_id":440,"player_count":24,"max_players":24,"Bots":0,"server_type":"Dedicated","server_os":"Linux","password":true,"vac":true,"version":"7882260","steam_id":85568392924367362,"keywords":["nocrits","nodmgspread","payload","uncletopia"],"game_id":440,"stv_port":27016,"stv_name":"Uncletopia | London | 1 | All Maps | STV","players":[{"user_id":679,"name":"Loaf","steam_id":76561198148290115,"connected_time":1962000000000,"state":"active","ping":66},{"user_id":689,"name":"üÉî Nugg1t(she/they)","steam_id":76561198065652251,"connected_time":410000000000,"state":"active","ping":54},{"user_id":614,"name":"Jofiah/TTV","steam_id":76561197977233962,"connected_time":5884000000000,"state":"active","ping":45},{"user_id":685,"name":"Sakari","steam_id":76561197997811299,"connected_time":1429000000000,"state":"active","ping":73},{"user_id":656,"name":"Mapavri","steam_id":76561198370196400,"connected_time":3742000000000,"state":"active","ping":87},{"user_id":677,"name":"Son Goku","steam_id":76561199383437138,"connected_time":2125000000000,"state":"active","ping":121},{"user_id":675,"name":"Petight","steam_id":76561197999438798,"connected_time":2404000000000,"state":"active","ping":44},{"user_id":686,"name":"kenyunS","steam_id":76561199031431665,"connected_time":1119000000000,"state":"active","ping":146},{"user_id":676,"name":"Smokio","steam_id":76561198069650580,"connected_time":2364000000000,"state":"active","ping":77},{"user_id":690,"name":"Minimi","steam_id":76561198873850443,"connected_time":333000000000,"state":"active","ping":38},{"user_id":649,"name":"‚ô• aura ‚ô•","steam_id":76561198066258544,"connected_time":4254000000000,"state":"active","ping":67},{"user_id":683,"name":"DED (CEO of Jar-A-Tea)","steam_id":76561198110469231,"connected_time":1648000000000,"state":"active","ping":55},{"user_id":671,"name":"Kretur","steam_id":76561198161086266,"connected_time":2541000000000,"state":"active","ping":99},{"user_id":682,"name":"SOPHIIEE","steam_id":76561198443798981,"connected_time":1689000000000,"state":"active","ping":57},{"user_id":651,"name":"Wiwiff_","steam_id":76561199164255561,"connected_time":4047000000000,"state":"active","ping":74},{"user_id":691,"name":"porngamer","steam_id":76561198204620491,"connected_time":246000000000,"state":"active","ping":45},{"user_id":684,"name":"Koi-Koi","steam_id":76561198045527771,"connected_time":1482000000000,"state":"active","ping":69},{"user_id":653,"name":"Yuzu","steam_id":76561198121694613,"connected_time":3842000000000,"state":"active","ping":55},{"user_id":620,"name":"goff","steam_id":76561198118989010,"connected_time":5811000000000,"state":"active","ping":50},{"user_id":626,"name":"killbind irl","steam_id":76561198180637374,"connected_time":5333000000000,"state":"active","ping":92},{"user_id":688,"name":"DrunkHungarian","steam_id":76561198853346540,"connected_time":474000000000,"state":"active","ping":63},{"user_id":665,"name":"dec","steam_id":76561198009660168,"connected_time":3004000000000,"state":"active","ping":52},{"user_id":645,"name":"chazza","steam_id":76561199076124858,"connected_time":4495000000000,"state":"active","ping":49},{"user_id":672,"name":"piss‚Ñ¢","steam_id":76561198108098760,"connected_time":2541000000000,"state":"active","ping":45}]},{"server_id":114,"name":"Uncletopia | London | 2 | All Maps","name_short":"lon-2","host":"lon-1.uk.uncletopia.com","port":27025,"enabled":true,"region":"eu","cc":"gb","latitude":51.509865,"longitude":-0.118092,"reserved":0,"last_update":"0001-01-01T00:00:00Z","name_a2s":"Uncletopia | London | 2 | All Maps","protocol":17,"map":"pl_swiftwater_final1","folder":"tf","game":"Team Fortress","app_id":440,"player_count":24,"max_players":24,"Bots":0,"server_type":"Dedicated","server_os":"Linux","password":true,"vac":true,"version":"7882260","steam_id":85568392924470941,"keywords":["nocrits","nodmgspread","payload","uncletopia"],"game_id":440,"stv_port":27026,"stv_name":"Uncletopia | London | 2 | All Maps | STV","players":[{"user_id":213,"name":"Flying Squirrel","steam_id":76561198005202791,"connected_time":1407000000000,"state":"active","ping":71},{"user_id":217,"name":"3igen3ggy","steam_id":76561197989548015,"connected_time":652000000000,"state":"active","ping":74},{"user_id":208,"name":"Uncle Terry","steam_id":76561198396415736,"connected_time":1709000000000,"state":"active","ping":52},{"user_id":222,"name":"Meddler","steam_id":76561198033001402,"connected_time":216000000000,"state":"active","ping":44},{"user_id":128,"name":"Punchy","steam_id":76561197961020896,"connected_time":6231000000000,"state":"active","ping":50},{"user_id":170,"name":"Kotbube Peter","steam_id":76561198148386749,"connected_time":4346000000000,"state":"active","ping":64},{"user_id":197,"name":"Rai-the-CobaltClaw","steam_id":76561198027741747,"connected_time":1978000000000,"state":"active","ping":72},{"user_id":221,"name":"ÀêmissingÀê","steam_id":76561198080541279,"connected_time":288000000000,"state":"active","ping":104},{"user_id":204,"name":"thuurs","steam_id":76561198095850568,"connected_time":1814000000000,"state":"active","ping":59},{"user_id":219,"name":"congo","steam_id":76561198236836866,"connected_time":502000000000,"state":"active","ping":90},{"user_id":200,"name":"Ichba' Playa' Mana'","steam_id":76561198152701211,"connected_time":1927000000000,"state":"active","ping":77},{"user_id":145,"name":"VMX The Gamer BROS","steam_id":76561198083980267,"connected_time":5345000000000,"state":"active","ping":86},{"user_id":187,"name":"Krzty","steam_id":76561198306160711,"connected_time":3280000000000,"state":"active","ping":70},{"user_id":201,"name":"shh... tiny carrots r sleeping","steam_id":76561198069649097,"connected_time":1920000000000,"state":"active","ping":48},{"user_id":214,"name":"IndigoJones","steam_id":76561198050284262,"connected_time":1120000000000,"state":"active","ping":51},{"user_id":220,"name":"Nero Claudius","steam_id":76561198173936397,"connected_time":379000000000,"state":"active","ping":102},{"user_id":210,"name":"$n√òw","steam_id":76561198238781028,"connected_time":1697000000000,"state":"active","ping":104},{"user_id":188,"name":"d u k k i","steam_id":76561198071807437,"connected_time":3248000000000,"state":"active","ping":89},{"user_id":196,"name":"Jimmy","steam_id":76561198133680783,"connected_time":2038000000000,"state":"active","ping":73},{"user_id":223,"name":"chocolate flavoured femboy","steam_id":76561198819353867,"connected_time":147000000000,"state":"active","ping":33},{"user_id":203,"name":"hmscole09","steam_id":76561198811362788,"connected_time":1891000000000,"state":"active","ping":58},{"user_id":173,"name":"Griffith","steam_id":76561198074407897,"connected_time":4306000000000,"state":"active","ping":121},{"user_id":211,"name":"senior pomidor","steam_id":76561198123659806,"connected_time":1660000000000,"state":"active","ping":97},{"user_id":177,"name":"Nassu","steam_id":76561198147367577,"connected_time":4078000000000,"state":"active","ping":161}]},{"server_id":320,"name":"Uncletopia | London | 3 | All Maps","name_short":"lon-3","host":"lon-1.uk.uncletopia.com","port":27035,"enabled":true,"region":"eu","cc":"gb","latitude":51.509865,"longitude":-0.118092,"reserved":0,"last_update":"0001-01-01T00:00:00Z","name_a2s":"Uncletopia | London | 3 | All Maps","protocol":17,"map":"koth_cascade","folder":"tf","game":"Team Fortress","app_id":440,"player_count":3,"max_players":24,"Bots":0,"server_type":"Dedicated","server_os":"Linux","password":true,"vac":true,"version":"7882260","steam_id":85568392924510192,"keywords":["cp","nocrits","nodmgspread","uncletopia"],"game_id":440,"stv_port":27036,"stv_name":"Uncletopia | London | 3 | All Maps | STV","players":[{"user_id":126,"name":"Man With A Pan","steam_id":76561199138916276,"connected_time":767000000000,"state":"active","ping":65},{"user_id":127,"name":"HotFloppyFish","steam_id":76561199130564220,"connected_time":667000000000,"state":"active","ping":48},{"user_id":129,"name":"Lario","steam_id":76561199194109193,"connected_time":571000000000,"state":"active","ping":52}]},{"server_id":321,"name":"Uncletopia | London | 4 | All Maps","name_short":"lon-4","host":"lon-1.uk.uncletopia.com","port":27045,"enabled":true,"region":"eu","cc":"gb","latitude":51.509865,"longitude":-0.118092,"reserved":0,"last_update":"0001-01-01T00:00:00Z","name_a2s":"Uncletopia | London | 4 | All Maps","protocol":17,"map":"pl_pier","folder":"tf","game":"Team Fortress","app_id":440,"player_count":24,"max_players":24,"Bots":0,"server_type":"Dedicated","server_os":"Linux","password":true,"vac":true,"version":"7882260","steam_id":85568392924510193,"keywords":["nocrits","nodmgspread","payload","uncletopia"],"game_id":440,"stv_port":27046,"stv_name":"Uncletopia | London | 4 | All Maps | STV","players":[{"user_id":629,"name":"elwen","steam_id":76561198025282054,"connected_time":1730000000000,"state":"active","ping":71},{"user_id":560,"name":"ramirez","steam_id":76561198117060048,"connected_time":6754000000000,"state":"active","ping":61},{"user_id":621,"name":"Carrotcracker","steam_id":76561198034862396,"connected_time":2531000000000,"state":"active","ping":78},{"user_id":619,"name":"eeeeee","steam_id":76561198017786875,"connected_time":2721000000000,"state":"active","ping":60},{"user_id":588,"name":"Gordon","steam_id":76561198303652059,"connected_time":4620000000000,"state":"active","ping":57},{"user_id":630,"name":"scarfweather","steam_id":76561198121331836,"connected_time":1599000000000,"state":"active","ping":54},{"user_id":637,"name":"lulu","steam_id":76561199147764133,"connected_time":1403000000000,"state":"active","ping":75},{"user_id":638,"name":"Oriuke","steam_id":76561197992166123,"connected_time":615000000000,"state":"active","ping":47},{"user_id":613,"name":"GinoFastidio","steam_id":76561198075830259,"connected_time":3143000000000,"state":"active","ping":130},{"user_id":601,"name":"mercurial","steam_id":76561198046227550,"connected_time":3574000000000,"state":"active","ping":44},{"user_id":623,"name":"[sigma] rwota","steam_id":76561198385769722,"connected_time":2331000000000,"state":"active","ping":105},{"user_id":610,"name":"jaime8D","steam_id":76561197980590671,"connected_time":3202000000000,"state":"active","ping":79},{"user_id":645,"name":"General Petrov","steam_id":76561198027204104,"connected_time":238000000000,"state":"active","ping":86},{"user_id":644,"name":"rev up the bugatti wahey","steam_id":76561198079589665,"connected_time":296000000000,"state":"active","ping":80},{"user_id":632,"name":"Supreme Sads","steam_id":76561198061061147,"connected_time":1579000000000,"state":"active","ping":78},{"user_id":580,"name":"Wattoz","steam_id":76561198127779511,"connected_time":4970000000000,"state":"active","ping":54},{"user_id":641,"name":"keri","steam_id":76561199066513442,"connected_time":395000000000,"state":"active","ping":68},{"user_id":590,"name":"Buddy","steam_id":76561198050185582,"connected_time":4608000000000,"state":"active","ping":68},{"user_id":634,"name":"inna","steam_id":76561198168537318,"connected_time":1563000000000,"state":"active","ping":76},{"user_id":612,"name":"Pipper","steam_id":76561197970326616,"connected_time":3180000000000,"state":"active","ping":78},{"user_id":635,"name":"Moonman327","steam_id":76561197992616059,"connected_time":1548000000000,"state":"active","ping":142},{"user_id":607,"name":"One Shiny Boi‚Ñ¢","steam_id":76561198199193627,"connected_time":3392000000000,"state":"active","ping":75},{"user_id":636,"name":"Snoucher","steam_id":76561198955323108,"connected_time":1536000000000,"state":"active","ping":78},{"user_id":640,"name":"Pingu","steam_id":76561198074477219,"connected_time":535000000000,"state":"active","ping":50}]},{"server_id":21,"name":"Uncletopia | London | 5 | All Maps","name_short":"lon-5","host":"lon-1.uk.uncletopia.com","port":27055,"enabled":true,"region":"eu","cc":"gb","latitude":51.509865,"longitude":-0.118092,"reserved":0,"last_update":"0001-01-01T00:00:00Z","name_a2s":"Uncletopia | London | 5 | All Maps","protocol":17,"map":"pl_frontier_final","folder":"tf","game":"Team Fortress","app_id":440,"player_count":19,"max_players":24,"Bots":0,"server_type":"Dedicated","server_os":"Linux","password":true,"vac":true,"version":"7882260","steam_id":85568392924742829,"keywords":["nocrits","nodmgspread","payload","uncletopia"],"game_id":440,"stv_port":27056,"stv_name":"Uncletopia | London | 5 | All Maps | STV","players":[{"user_id":194,"name":"ricky pee pee","steam_id":76561198152620745,"connected_time":987000000000,"state":"spawning","ping":48},{"user_id":179,"name":"Teecho","steam_id":76561197995269610,"connected_time":1663000000000,"state":"spawning","ping":30},{"user_id":195,"name":"Majima Gaming HD","steam_id":76561198365750503,"connected_time":926000000000,"state":"spawning","ping":34},{"user_id":149,"name":"jordieeh2011","steam_id":76561198202001138,"connected_time":3004000000000,"state":"spawning","ping":72},{"user_id":197,"name":"Baron","steam_id":76561198021901783,"connected_time":524000000000,"state":"spawning","ping":47},{"user_id":193,"name":"RocK Knight","steam_id":76561198186054573,"connected_time":1031000000000,"state":"spawning","ping":88},{"user_id":162,"name":"Basil","steam_id":76561197990239733,"connected_time":2301000000000,"state":"spawning","ping":43},{"user_id":199,"name":"Tywhip","steam_id":76561199207545191,"connected_time":14000000000,"state":"spawning","ping":68},{"user_id":155,"name":"Vanilla","steam_id":76561198073933435,"connected_time":2463000000000,"state":"spawning","ping":207},{"user_id":131,"name":"Foreskin Gamer","steam_id":76561198283106341,"connected_time":3481000000000,"state":"spawning","ping":63},{"user_id":157,"name":"radek","steam_id":76561197998883721,"connected_time":2455000000000,"state":"spawning","ping":71},{"user_id":158,"name":"Micha≈Ç","steam_id":76561198320346362,"connected_time":2429000000000,"state":"spawning","ping":64},{"user_id":177,"name":"Dorich","steam_id":76561198287126217,"connected_time":1745000000000,"state":"spawning","ping":65},{"user_id":198,"name":"Toofy","steam_id":76561197989727907,"connected_time":56000000000,"state":"active","ping":39},{"user_id":183,"name":"Horo","steam_id":76561198009504508,"connected_time":1399000000000,"state":"spawning","ping":41},{"user_id":187,"name":"XBOX Sturux","steam_id":76561198277644122,"connected_time":1127000000000,"state":"spawning","ping":81},{"user_id":191,"name":"ScarredPixel123","steam_id":76561199165112703,"connected_time":1081000000000,"state":"spawning","ping":100},{"user_id":171,"name":"womp","steam_id":76561198283192660,"connected_time":2053000000000,"state":"spawning","ping":72}]},{"server_id":22,"name":"Uncletopia | London | 6 | All Maps","name_short":"lon-6","host":"lon-1.uk.uncletopia.com","port":27065,"enabled":true,"region":"eu","cc":"gb","latitude":51.509865,"longitude":-0.118092,"reserved":0,"last_update":"0001-01-01T00:00:00Z","name_a2s":"Uncletopia | London | 6 | All Maps","protocol":17,"map":"koth_highpass","folder":"tf","game":"Team Fortress","app_id":440,"player_count":0,"max_players":24,"Bots":0,"server_type":"Dedicated","server_os":"Linux","password":true,"vac":true,"version":"7882260","steam_id":85568392924742830,"keywords":["cp","nocrits","nodmgspread","uncletopia"],"game_id":440,"stv_port":27066,"stv_name":"Uncletopia | London | 6 | All Maps | STV","players":null},{"server_id":40,"name":"Uncletopia | London | 7 | No Payload","name_short":"lon-7","host":"lon-1.uk.uncletopia.com","port":27075,"enabled":true,"region":"eu","cc":"gb","latitude":51.509865,"longitude":-0.118092,"reserved":0,"last_update":"0001-01-01T00:00:00Z","name_a2s":"Uncletopia | London | 7 | No Payload","protocol":17,"map":"plr_nightfall_final","folder":"tf","game":"Team Fortress","app_id":440,"player_count":0,"max_players":24,"Bots":0,"server_type":"Dedicated","server_os":"Linux","password":true,"vac":true,"version":"7882260","steam_id":85568392924964314,"keywords":["nocrits","nodmgspread","payload","uncletopia"],"game_id":440,"stv_port":27076,"stv_name":"Uncletopia | London | 7 | No Payload | STV","players":null},{"server_id":41,"name":"Uncletopia | London | 8 | Community","name_short":"lon-8","host":"lon-1.uk.uncletopia.com","port":27085,"enabled":true,"region":"eu","cc":"gb","latitude":51.509865,"longitude":-0.118092,"reserved":0,"last_update":"0001-01-01T00:00:00Z","name_a2s":"Uncletopia | London | 8 | Community","protocol":17,"map":"workshop/koth_trenchfoot_b1a.ugc731436616","folder":"tf","game":"Team Fortress","app_id":440,"player_count":0,"max_players":24,"Bots":0,"server_type":"Dedicated","server_os":"Linux","password":true,"vac":true,"version":"7882260","steam_id":85568392924964315,"keywords":["cp","nocrits","nodmgspread","uncletopia"],"game_id":440,"stv_port":27086,"stv_name":"Uncletopia | London | 8 | Community | STV","players":null},{"server_id":300,"name":"Uncletopia | Montr√©al | 1 | All Maps","name_short":"mtl-1","host":"mtl-1.ca.uncletopia.com","port":27015,"enabled":true,"region":"us-east","cc":"ca","latitude":45.50889,"longitude":-73.56167,"reserved":0,"last_update":"0001-01-01T00:00:00Z","name_a2s":"Uncletopia | Montr√©al | 1 | All Maps","protocol":17,"map":"cp_dustbowl","folder":"tf","game":"Team Fortress","app_id":440,"player_count":0,"max_players":24,"Bots":0,"server_type":"Dedicated","server_os":"Linux","password":true,"vac":true,"version":"7882260","steam_id":85568392924500087,"keywords":["cp","nocrits","nodmgspread","uncletopia"],"game_id":440,"stv_port":27016,"stv_name":"Uncletopia | Montr√©al | 1 | All Maps | STV","players":null},{"server_id":301,"name":"Uncletopia | Montr√©al | 2 | All Maps","name_short":"mtl-2","host":"mtl-1.ca.uncletopia.com","port":27025,"enabled":true,"region":"us-east","cc":"ca","latitude":45.50889,"longitude":-73.56167,"reserved":0,"last_update":"0001-01-01T00:00:00Z","name_a2s":"Uncletopia | Montr√©al | 2 | All Maps","protocol":17,"map":"pl_barnblitz","folder":"tf","game":"Team Fortress","app_id":440,"player_count":0,"max_players":24,"Bots":0,"server_type":"Dedicated","server_os":"Linux","password":true,"vac":true,"version":"7882260","steam_id":85568392924500088,"keywords":["nocrits","nodmgspread","payload","uncletopia"],"game_id":440,"stv_port":27026,"stv_name":"Uncletopia | Montr√©al | 2 | All Maps | STV","players":null},{"server_id":302,"name":"Uncletopia | Montr√©al | 3 | All Maps","name_short":"mtl-3","host":"mtl-1.ca.uncletopia.com","port":27035,"enabled":true,"region":"us-east","cc":"ca","latitude":45.50889,"longitude":-73.56167,"reserved":0,"last_update":"0001-01-01T00:00:00Z","name_a2s":"Uncletopia | Montr√©al | 3 | All Maps","protocol":17,"map":"pl_borneo","folder":"tf","game":"Team Fortress","app_id":440,"player_count":0,"max_players":24,"Bots":0,"server_type":"Dedicated","server_os":"Linux","password":true,"vac":true,"version":"7882260","steam_id":85568392924500089,"keywords":["nocrits","nodmgspread","payload","uncletopia"],"game_id":440,"stv_port":27036,"stv_name":"Uncletopia | Montr√©al | 3 | All Maps | STV","players":null},{"server_id":303,"name":"Uncletopia | Montr√©al | 4 | No Payload","name_short":"mtl-4","host":"mtl-1.ca.uncletopia.com","port":27045,"enabled":true,"region":"us-east","cc":"ca","latitude":45.50889,"longitude":-73.56167,"reserved":0,"last_update":"0001-01-01T00:00:00Z","name_a2s":"Uncletopia | Montr√©al | 4 | No Payload","protocol":17,"map":"cp_altitude","folder":"tf","game":"Team Fortress","app_id":440,"player_count":0,"max_players":24,"Bots":0,"server_type":"Dedicated","server_os":"Linux","password":true,"vac":true,"version":"7882260","steam_id":85568392924500090,"keywords":["cp","nocrits","nodmgspread","uncletopia"],"game_id":440,"stv_port":27046,"stv_name":"Uncletopia | Montr√©al | 4 | No Payload | STV","players":null},{"server_id":13,"name":"Uncletopia | New York City | 1 | All Maps","name_short":"nyc-1","host":"nyc-1.us.uncletopia.com","port":27015,"enabled":true,"region":"us-east","cc":"us","latitude":40.73061,"longitude":-73.93524,"reserved":0,"last_update":"0001-01-01T00:00:00Z","name_a2s":"Uncletopia | New York City | 1 | All Maps","protocol":17,"map":"pl_barnblitz","folder":"tf","game":"Team Fortress","app_id":440,"player_count":23,"max_players":24,"Bots":0,"server_type":"Dedicated","server_os":"Linux","password":true,"vac":true,"version":"7882260","steam_id":85568392924469993,"keywords":["nocrits","nodmgspread","payload","uncletopia"],"game_id":440,"stv_port":27016,"stv_name":"Uncletopia | New York City | 1 | All Maps | STV","players":[{"user_id":187,"name":"Jasper Zawn","steam_id":76561198077651204,"connected_time":92000000000,"state":"active","ping":67},{"user_id":166,"name":"Jonny","steam_id":76561198105764236,"connected_time":1885000000000,"state":"active","ping":107},{"user_id":179,"name":"Grunt420","steam_id":76561199407313140,"connected_time":1157000000000,"state":"active","ping":174},{"user_id":189,"name":"painting4","steam_id":76561198067554256,"connected_time":66000000000,"state":"active","ping":108},{"user_id":192,"name":"lpk","steam_id":76561198025478698,"connected_time":2000000000,"state":"spawning","ping":56},{"user_id":175,"name":"Arceus","steam_id":76561199146716278,"connected_time":1290000000000,"state":"active","ping":62},{"user_id":190,"name":"Sovereign","steam_id":76561198223959572,"connected_time":54000000000,"state":"active","ping":94},{"user_id":164,"name":"Xuulis","steam_id":76561198042810905,"connected_time":2008000000000,"state":"active","ping":91},{"user_id":140,"name":"Mutt","steam_id":76561198113640643,"connected_time":2854000000000,"state":"active","ping":130},{"user_id":170,"name":"The Land Admiral","steam_id":76561198159356609,"connected_time":1690000000000,"state":"active","ping":55},{"user_id":191,"name":"Drapph","steam_id":76561199384213314,"connected_time":42000000000,"state":"active","ping":86},{"user_id":176,"name":"average rust player","steam_id":76561198047627340,"connected_time":1289000000000,"state":"active","ping":54},{"user_id":181,"name":"threshecutioner612","steam_id":76561199482933802,"connected_time":743000000000,"state":"active","ping":68},{"user_id":184,"name":"bonehead","steam_id":76561198090002944,"connected_time":285000000000,"state":"active","ping":68},{"user_id":153,"name":"Adonut","steam_id":76561198805858184,"connected_time":2411000000000,"state":"active","ping":97},{"user_id":168,"name":"Jeremy","steam_id":76561198286240347,"connected_time":1839000000000,"state":"active","ping":76},{"user_id":183,"name":"Failtastic","steam_id":76561198994009973,"connected_time":322000000000,"state":"active","ping":47},{"user_id":185,"name":"‡πñ√êiestow","steam_id":76561198046662484,"connected_time":101000000000,"state":"active","ping":64},{"user_id":133,"name":"Slazzer","steam_id":76561198404351844,"connected_time":3326000000000,"state":"active","ping":58},{"user_id":134,"name":"Sgt. Oddball","steam_id":76561198036096912,"connected_time":3297000000000,"state":"active","ping":65},{"user_id":178,"name":"EvesTheMonks","steam_id":76561198121842278,"connected_time":1171000000000,"state":"active","ping":59},{"user_id":158,"name":"nerd gaming","steam_id":76561198066018972,"connected_time":2241000000000,"state":"active","ping":82},{"user_id":180,"name":"gobbie FASTNESS","steam_id":76561198026865054,"connected_time":1124000000000,"state":"active","ping":56}]},{"server_id":14,"name":"Uncletopia | New York City | 2 | All Maps","name_short":"nyc-2","host":"nyc-1.us.uncletopia.com","port":27025,"enabled":true,"region":"us-east","cc":"us","latitude":40.73061,"longitude":-73.93524,"reserved":0,"last_update":"0001-01-01T00:00:00Z","name_a2s":"Uncletopia | New York City | 2 | All Maps","protocol":17,"map":"koth_viaduct","folder":"tf","game":"Team Fortress","app_id":440,"player_count":24,"max_players":24,"Bots":0,"server_type":"Dedicated","server_os":"Linux","password":true,"vac":true,"version":"7882260","steam_id":85568392924469994,"keywords":["cp","nocrits","nodmgspread","uncletopia"],"game_id":440,"stv_port":27026,"stv_name":"Uncletopia | New York City | 2 | All Maps | STV","players":[{"user_id":42,"name":"walterhwhite","steam_id":76561199433675789,"connected_time":412000000000,"state":"active","ping":121},{"user_id":29,"name":"Tlaloc","steam_id":76561198375215983,"connected_time":608000000000,"state":"active","ping":116},{"user_id":18,"name":"Gaskranx","steam_id":76561198020269547,"connected_time":918000000000,"state":"active","ping":55},{"user_id":12,"name":"mepng","steam_id":76561199018758598,"connected_time":1402000000000,"state":"active","ping":93},{"user_id":51,"name":"sweglord227","steam_id":76561198415510262,"connected_time":61000000000,"state":"active","ping":61},{"user_id":46,"name":"Effie","steam_id":76561198261842068,"connected_time":356000000000,"state":"active","ping":60},{"user_id":20,"name":"frizzle fried","steam_id":76561198062991744,"connected_time":901000000000,"state":"active","ping":48},{"user_id":21,"name":"A Trigger Happy Chipmunk","steam_id":76561198013608736,"connected_time":886000000000,"state":"active","ping":56},{"user_id":47,"name":"Sergeant Joker #savetf2","steam_id":76561198854616604,"connected_time":349000000000,"state":"active","ping":57},{"user_id":27,"name":"cosmic pug23","steam_id":76561199083071013,"connected_time":634000000000,"state":"active","ping":83},{"user_id":38,"name":"Legit_Jaxer","steam_id":76561198172234053,"connected_time":459000000000,"state":"active","ping":129},{"user_id":50,"name":"-W3E- grim10465","steam_id":76561198045698581,"connected_time":95000000000,"state":"active","ping":44},{"user_id":33,"name":"Captain Morghan","steam_id":76561198388657942,"connected_time":530000000000,"state":"active","ping":52},{"user_id":32,"name":"mr beast","steam_id":76561199148187380,"connected_time":572000000000,"state":"active","ping":96},{"user_id":34,"name":"Vladimir Puddin","steam_id":76561198139674520,"connected_time":529000000000,"state":"active","ping":72},{"user_id":35,"name":"numa","steam_id":76561198856016840,"connected_time":510000000000,"state":"active","ping":45},{"user_id":36,"name":"LemonZest","steam_id":76561199196369249,"connected_time":500000000000,"state":"active","ping":67},{"user_id":37,"name":"creeeeeee","steam_id":76561198392539722,"connected_time":479000000000,"state":"active","ping":78},{"user_id":39,"name":"Ring A Ding","steam_id":76561199205871164,"connected_time":449000000000,"state":"active","ping":98},{"user_id":43,"name":"wafflehamster2000","steam_id":76561198849161820,"connected_time":409000000000,"state":"active","ping":88},{"user_id":41,"name":"beleaguered harlot","steam_id":76561198036884600,"connected_time":430000000000,"state":"active","ping":55},{"user_id":44,"name":"ttv/Muenstier","steam_id":76561198312153623,"connected_time":391000000000,"state":"active","ping":91},{"user_id":48,"name":"pogo","steam_id":76561198148913461,"connected_time":340000000000,"state":"active","ping":44},{"user_id":49,"name":"CupOJo","steam_id":76561198067153390,"connected_time":329000000000,"state":"active","ping":71}]},{"server_id":15,"name":"Uncletopia | New York City | 3 | Stopwatch Beta","name_short":"nyc-3","host":"nyc-1.us.uncletopia.com","port":27035,"enabled":true,"region":"us-east","cc":"us","latitude":40.73061,"longitude":-73.93524,"reserved":0,"last_update":"0001-01-01T00:00:00Z","name_a2s":"Uncletopia | New York City | 3 | Stopwatch Beta","protocol":17,"map":"cp_sunshine","folder":"tf","game":"Team Fortress","app_id":440,"player_count":0,"max_players":24,"Bots":0,"server_type":"Dedicated","server_os":"Linux","password":true,"vac":true,"version":"7882260","steam_id":85568392924742820,"keywords":["cp","nocrits","nodmgspread","uncletopia"],"game_id":440,"stv_port":27036,"stv_name":"Uncletopia | New York City | 3 | Stopwatch Beta | STV","players":null},{"server_id":16,"name":"Uncletopia | New York City | 4 | Community","name_short":"nyc-4","host":"nyc-1.us.uncletopia.com","port":27045,"enabled":true,"region":"us-east","cc":"us","latitude":40.73061,"longitude":-73.93524,"reserved":0,"last_update":"0001-01-01T00:00:00Z","name_a2s":"Uncletopia | New York City | 4 | Community","protocol":17,"map":"pl_badwater","folder":"tf","game":"Team Fortress","app_id":440,"player_count":0,"max_players":24,"Bots":0,"server_type":"Dedicated","server_os":"Linux","password":true,"vac":true,"version":"7882260","steam_id":85568392924742821,"keywords":["nocrits","nodmgspread","payload","uncletopia"],"game_id":440,"stv_port":27046,"stv_name":"Uncletopia | New York City | 4 | Community | STV","players":null},{"server_id":142,"name":"Uncletopia | S√£o Paulo | 1 | All Maps","name_short":"sao-1","host":"sao-1.br.uncletopia.com","port":27015,"enabled":true,"region":"sa","cc":"br","latitude":-23.533773,"longitude":-46.62529,"reserved":0,"last_update":"0001-01-01T00:00:00Z","name_a2s":"Uncletopia | S√£o Paulo | 1 | All Maps","protocol":17,"map":"pl_swiftwater_final1","folder":"tf","game":"Team Fortress","app_id":440,"player_count":3,"max_players":24,"Bots":0,"server_type":"Dedicated","server_os":"Linux","password":true,"vac":true,"version":"7882260","steam_id":85568392924469996,"keywords":["nocrits","nodmgspread","payload","uncletopia"],"game_id":440,"stv_port":27016,"stv_name":"Uncletopia | S√£o Paulo | 1 | All Maps | STV","players":[{"user_id":5,"name":"GamireXD","steam_id":76561198927748948,"connected_time":699000000000,"state":"active","ping":102},{"user_id":6,"name":"Songalongamon","steam_id":76561198114565169,"connected_time":586000000000,"state":"active","ping":45},{"user_id":7,"name":"Abbysx","steam_id":76561199201525381,"connected_time":481000000000,"state":"active","ping":107}]},{"server_id":143,"name":"Uncletopia | S√£o Paulo | 2 | All Maps","name_short":"sao-2","host":"sao-2.br.uncletopia.com","port":27015,"enabled":true,"region":"sa","cc":"br","latitude":-23.533773,"longitude":-46.62529,"reserved":0,"last_update":"0001-01-01T00:00:00Z","name_a2s":"Uncletopia | S√£o Paulo | 2 | All Maps","protocol":17,"map":"pl_borneo","folder":"tf","game":"Team Fortress","app_id":440,"player_count":0,"max_players":24,"Bots":0,"server_type":"Dedicated","server_os":"Linux","password":true,"vac":true,"version":"7882260","steam_id":85568392924485349,"keywords":["nocrits","nodmgspread","payload","uncletopia"],"game_id":440,"stv_port":27016,"stv_name":"Uncletopia | S√£o Paulo | 2 | All Maps | STV","players":null},{"server_id":7,"name":"Uncletopia | Seattle | 1 | All Maps","name_short":"sea-1","host":"sea-1.us.uncletopia.com","port":27015,"enabled":true,"region":"us-west","cc":"us","latitude":47.608013,"longitude":-122.33517,"reserved":0,"last_update":"0001-01-01T00:00:00Z","name_a2s":"Uncletopia | Seattle | 1 | All Maps","protocol":17,"map":"pl_pier","folder":"tf","game":"Team Fortress","app_id":440,"player_count":24,"max_players":24,"Bots":0,"server_type":"Dedicated","server_os":"Linux","password":true,"vac":true,"version":"7882260","steam_id":85568392924469997,"keywords":["nocrits","nodmgspread","payload","uncletopia"],"game_id":440,"stv_port":27016,"stv_name":"Uncletopia | Seattle | 1 | All Maps | STV","players":[{"user_id":173,"name":"duddlee","steam_id":76561198030052564,"connected_time":185000000000,"state":"active","ping":58},{"user_id":169,"name":"Depths","steam_id":76561198343435310,"connected_time":927000000000,"state":"active","ping":71},{"user_id":175,"name":"AmiableNebula","steam_id":76561198094306627,"connected_time":106000000000,"state":"active","ping":74},{"user_id":153,"name":"Ducks","steam_id":76561198130038345,"connected_time":2481000000000,"state":"active","ping":67},{"user_id":142,"name":"Fallen","steam_id":76561198206490352,"connected_time":3858000000000,"state":"active","ping":71},{"user_id":174,"name":"ror!","steam_id":76561198021227843,"connected_time":152000000000,"state":"active","ping":79},{"user_id":145,"name":"SibilantSerpent","steam_id":76561198154488754,"connected_time":3634000000000,"state":"active","ping":53},{"user_id":158,"name":"Keamy","steam_id":76561199471434875,"connected_time":1943000000000,"state":"active","ping":32},{"user_id":171,"name":"lavacreepergamer","steam_id":76561198928692114,"connected_time":400000000000,"state":"active","ping":100},{"user_id":163,"name":"AceSea","steam_id":76561198851176490,"connected_time":1319000000000,"state":"active","ping":58},{"user_id":87,"name":"Delicate Steve","steam_id":76561198063582381,"connected_time":8363000000000,"state":"active","ping":62},{"user_id":168,"name":"Mignyanne :3","steam_id":76561198048754056,"connected_time":1035000000000,"state":"active","ping":61},{"user_id":95,"name":"Flesh Eating Turtle","steam_id":76561198116742139,"connected_time":7897000000000,"state":"active","ping":49},{"user_id":159,"name":"Radio","steam_id":76561198194821053,"connected_time":1880000000000,"state":"active","ping":48},{"user_id":176,"name":"S Q U I S H E  T H A T  C A T","steam_id":76561198293865429,"connected_time":99000000000,"state":"active","ping":44},{"user_id":147,"name":"toes","steam_id":76561198221151676,"connected_time":2929000000000,"state":"active","ping":59},{"user_id":139,"name":"shiadyne","steam_id":76561198271939793,"connected_time":4690000000000,"state":"active","ping":65},{"user_id":141,"name":"camp3r","steam_id":76561197992870439,"connected_time":3870000000000,"state":"active","ping":33},{"user_id":157,"name":"charm quark","steam_id":76561198098770777,"connected_time":1955000000000,"state":"active","ping":46},{"user_id":172,"name":"RagingBagon","steam_id":76561198255453127,"connected_time":388000000000,"state":"active","ping":76},{"user_id":161,"name":"liliLovesUnicorns83","steam_id":76561199391478575,"connected_time":1337000000000,"state":"active","ping":73},{"user_id":170,"name":"Nico The Cheese","steam_id":76561199065272792,"connected_time":444000000000,"state":"active","ping":86},{"user_id":178,"name":"a chicken","steam_id":76561198313121580,"connected_time":78000000000,"state":"active","ping":78},{"user_id":179,"name":"Strikerbolt","steam_id":76561199095622897,"connected_time":78000000000,"state":"active","ping":76}]},{"server_id":119,"name":"Uncletopia | Seattle | 2 | All Maps","name_short":"sea-2","host":"sea-1.us.uncletopia.com","port":27025,"enabled":true,"region":"us-west","cc":"us","latitude":47.608013,"longitude":-122.33517,"reserved":0,"last_update":"0001-01-01T00:00:00Z","name_a2s":"Uncletopia | Seattle | 2 | All Maps","protocol":17,"map":"pl_snowycoast","folder":"tf","game":"Team Fortress","app_id":440,"player_count":0,"max_players":24,"Bots":0,"server_type":"Dedicated","server_os":"Linux","password":true,"vac":true,"version":"7882260","steam_id":85568392924469998,"keywords":["nocrits","nodmgspread","payload","uncletopia"],"game_id":440,"stv_port":27026,"stv_name":"Uncletopia | Seattle | 2 | All Maps | STV","players":null},{"server_id":406,"name":"Uncletopia | Seattle | 3 | Stopwatch Beta","name_short":"sea-3","host":"sea-1.us.uncletopia.com","port":27035,"enabled":true,"region":"us-west","cc":"us","latitude":47.608013,"longitude":-122.33517,"reserved":0,"last_update":"0001-01-01T00:00:00Z","name_a2s":"Uncletopia | Seattle | 3 | Stopwatch Beta","protocol":17,"map":"cp_snakewater_final1","folder":"tf","game":"Team Fortress","app_id":440,"player_count":2,"max_players":24,"Bots":0,"server_type":"Dedicated","server_os":"Linux","password":true,"vac":true,"version":"7882260","steam_id":85568392924515217,"keywords":["cp","nocrits","nodmgspread","uncletopia"],"game_id":440,"stv_port":27036,"stv_name":"Uncletopia | Seattle | 3 | Stopwatch Beta | STV","players":[{"user_id":4,"name":"SquibJib","steam_id":76561199176919819,"connected_time":363000000000,"state":"active","ping":134},{"user_id":5,"name":"JustDokiDokiLiteratureClub!9221","steam_id":76561198821706797,"connected_time":356000000000,"state":"active","ping":121}]},{"server_id":17,"name":"Uncletopia | San Francisco | 1 | All Maps","name_short":"sfo-1","host":"sfo-1.us.uncletopia.com","port":27015,"enabled":true,"region":"us-west","cc":"us","latitude":37.77397,"longitude":-122.4313,"reserved":0,"last_update":"0001-01-01T00:00:00Z","name_a2s":"Uncletopia | San Francisco | 1 | All Maps","protocol":17,"map":"cp_process_final","folder":"tf","game":"Team Fortress","app_id":440,"player_count":0,"max_players":24,"Bots":0,"server_type":"Dedicated","server_os":"Linux","password":true,"vac":true,"version":"7757534","steam_id":85568392924469999,"keywords":["cp","nocrits","nodmgspread","uncletopia"],"game_id":440,"stv_port":27016,"stv_name":"Uncletopia | San Francisco | 1 | All Maps | STV","players":null},{"server_id":18,"name":"Uncletopia | San Francisco | 2 | All Maps","name_short":"sfo-2","host":"sfo-1.us.uncletopia.com","port":27025,"enabled":true,"region":"us-west","cc":"us","latitude":37.77397,"longitude":-122.4313,"reserved":0,"last_update":"0001-01-01T00:00:00Z","name_a2s":"Uncletopia | San Francisco | 2 | All Maps","protocol":17,"map":"koth_highpass","folder":"tf","game":"Team Fortress","app_id":440,"player_count":0,"max_players":24,"Bots":0,"server_type":"Dedicated","server_os":"Linux","password":true,"vac":true,"version":"7757534","steam_id":85568392924470000,"keywords":["cp","nocrits","nodmgspread","uncletopia"],"game_id":440,"stv_port":27026,"stv_name":"Uncletopia | San Francisco | 2 | All Maps | STV","players":null},{"server_id":19,"name":"Uncletopia | San Francisco | 3 | Stopwatch Beta","name_short":"sfo-3","host":"sfo-1.us.uncletopia.com","port":27035,"enabled":true,"region":"us-west","cc":"us","latitude":37.77397,"longitude":-122.4313,"reserved":0,"last_update":"0001-01-01T00:00:00Z","name_a2s":"Uncletopia | San Francisco | 3 | Stopwatch Beta","protocol":17,"map":"koth_lakeside_final","folder":"tf","game":"Team Fortress","app_id":440,"player_count":0,"max_players":24,"Bots":0,"server_type":"Dedicated","server_os":"Linux","password":true,"vac":true,"version":"7757534","steam_id":85568392924742824,"keywords":["cp","nocrits","nodmgspread","uncletopia"],"game_id":440,"stv_port":27036,"stv_name":"Uncletopia | San Francisco | 3 | Stopwatch Beta | STV","players":null},{"server_id":20,"name":"Uncletopia | San Francisco | 4 | Community","name_short":"sfo-4","host":"sfo-1.us.uncletopia.com","port":27045,"enabled":true,"region":"us-west","cc":"us","latitude":37.77397,"longitude":-122.4313,"reserved":0,"last_update":"0001-01-01T00:00:00Z","name_a2s":"Uncletopia | San Francisco | 4 | Community","protocol":17,"map":"cp_altitude","folder":"tf","game":"Team Fortress","app_id":440,"player_count":0,"max_players":24,"Bots":0,"server_type":"Dedicated","server_os":"Linux","password":true,"vac":true,"version":"7757534","steam_id":85568392924742826,"keywords":["cp","nocrits","nodmgspread","uncletopia"],"game_id":440,"stv_port":27046,"stv_name":"Uncletopia | San Francisco | 4 | Community | STV","players":null},{"server_id":141,"name":"Uncletopia | Sydney | 1 | All Maps","name_short":"syd-1","host":"syd-1.au.uncletopia.com","port":27015,"enabled":true,"region":"au","cc":"au","latitude":-33.865143,"longitude":151.2099,"reserved":0,"last_update":"0001-01-01T00:00:00Z","name_a2s":"Uncletopia | Sydney | 1 | All Maps","protocol":17,"map":"cp_snakewater_final1","folder":"tf","game":"Team Fortress","app_id":440,"player_count":0,"max_players":24,"Bots":0,"server_type":"Dedicated","server_os":"Linux","password":true,"vac":true,"version":"7882260","steam_id":85568392924470001,"keywords":["cp","nocrits","nodmgspread","uncletopia"],"game_id":440,"stv_port":27016,"stv_name":"Uncletopia | Sydney | 1 | All Maps | STV","players":null},{"server_id":123,"name":"Uncletopia | Sydney | 2 | All Maps","name_short":"syd-2","host":"syd-1.au.uncletopia.com","port":27025,"enabled":true,"region":"au","cc":"au","latitude":-33.865143,"longitude":151.2099,"reserved":0,"last_update":"0001-01-01T00:00:00Z","name_a2s":"Uncletopia | Sydney | 2 | All Maps","protocol":17,"map":"pl_barnblitz","folder":"tf","game":"Team Fortress","app_id":440,"player_count":0,"max_players":24,"Bots":0,"server_type":"Dedicated","server_os":"Linux","password":true,"vac":true,"version":"7882260","steam_id":85568392924470002,"keywords":["nocrits","nodmgspread","payload","uncletopia"],"game_id":440,"stv_port":27026,"stv_name":"Uncletopia | Sydney | 2 | All Maps | STV","players":null},{"server_id":395,"name":"Uncletopia | Sydney | 3 | All Maps","name_short":"syd-3","host":"syd-1.au.uncletopia.com","port":27035,"enabled":true,"region":"au","cc":"au","latitude":-33.865143,"longitude":151.2099,"reserved":0,"last_update":"0001-01-01T00:00:00Z","name_a2s":"Uncletopia | Sydney | 3 | All Maps","protocol":17,"map":"pl_badwater","folder":"tf","game":"Team Fortress","app_id":440,"player_count":0,"max_players":24,"Bots":0,"server_type":"Dedicated","server_os":"Linux","password":true,"vac":true,"version":"7882260","steam_id":85568392925194467,"keywords":["nocrits","nodmgspread","payload","uncletopia"],"game_id":440,"stv_port":27036,"stv_name":"Uncletopia | Sydney | 3 | All Maps | STV","players":null},{"server_id":396,"name":"Uncletopia | Sydney | 4 | All Maps","name_short":"syd-4","host":"syd-1.au.uncletopia.com","port":27045,"enabled":true,"region":"au","cc":"au","latitude":-33.865143,"longitude":151.2099,"reserved":0,"last_update":"0001-01-01T00:00:00Z","name_a2s":"Uncletopia | Sydney | 4 | All Maps","protocol":17,"map":"cp_dustbowl","folder":"tf","game":"Team Fortress","app_id":440,"player_count":0,"max_players":24,"Bots":0,"server_type":"Dedicated","server_os":"Linux","password":true,"vac":true,"version":"7882260","steam_id":85568392925397958,"keywords":["cp","nocrits","nodmgspread","uncletopia"],"game_id":440,"stv_port":27046,"stv_name":"Uncletopia | Sydney | 4 | All Maps | STV","players":null},{"server_id":58,"name":"Uncletopia | Sydney | 5 | Stopwatch Beta","name_short":"syd-5","host":"syd-1.au.uncletopia.com","port":27055,"enabled":true,"region":"au","cc":"au","latitude":-33.865143,"longitude":151.2099,"reserved":0,"last_update":"0001-01-01T00:00:00Z","name_a2s":"Uncletopia | Sydney | 5 | Stopwatch Beta","protocol":17,"map":"workshop/pl_barnblitz_pro7.ugc582280235","folder":"tf","game":"Team Fortress","app_id":440,"player_count":0,"max_players":24,"Bots":0,"server_type":"Dedicated","server_os":"Linux","password":true,"vac":true,"version":"7882260","steam_id":85568392925397959,"keywords":["nocrits","nodmgspread","payload","uncletopia"],"game_id":440,"stv_port":27056,"stv_name":"Uncletopia | Sydney | 5 | Stopwatch Beta | STV","players":null},{"server_id":59,"name":"Uncletopia | Sydney | 6 | Community","name_short":"syd-6","host":"syd-1.au.uncletopia.com","port":27065,"enabled":true,"region":"au","cc":"au","latitude":-33.865143,"longitude":151.2099,"reserved":0,"last_update":"0001-01-01T00:00:00Z","name_a2s":"Uncletopia | Sydney | 6 | Community","protocol":17,"map":"pl_snowycoast","folder":"tf","game":"Team Fortress","app_id":440,"player_count":0,"max_players":24,"Bots":0,"server_type":"Dedicated","server_os":"Linux","password":true,"vac":true,"version":"7882260","steam_id":85568392925397960,"keywords":["nocrits","nodmgspread","payload","uncletopia"],"game_id":440,"stv_port":27066,"stv_name":"Uncletopia | Sydney | 6 | Community | STV","players":null},{"server_id":49,"name":"Uncletopia | Warsaw | 1 | All Maps","name_short":"waw-1","host":"waw-1.pl.uncletopia.com","port":27015,"enabled":true,"region":"eu","cc":"pl","latitude":52.2297,"longitude":21.017532,"reserved":0,"last_update":"0001-01-01T00:00:00Z","name_a2s":"","protocol":0,"map":"","folder":"","game":"","app_id":0,"player_count":0,"max_players":0,"Bots":0,"server_type":"","server_os":"","password":false,"vac":false,"version":"","steam_id":0,"keywords":null,"game_id":0,"stv_port":0,"stv_name":"","players":null},{"server_id":50,"name":"Uncletopia | Warsaw | 2 | All Maps","name_short":"waw-2","host":"waw-1.pl.uncletopia.com","port":27025,"enabled":true,"region":"eu","cc":"pl","latitude":52.2297,"longitude":21.017532,"reserved":0,"last_update":"0001-01-01T00:00:00Z","name_a2s":"Uncletopia | Warsaw | 2 | All Maps","protocol":17,"map":"koth_lakeside_final","folder":"tf","game":"Team Fortress","app_id":440,"player_count":0,"max_players":24,"Bots":0,"server_type":"Dedicated","server_os":"Linux","password":true,"vac":true,"version":"7882260","steam_id":85568392925397851,"keywords":["cp","nocrits","nodmgspread","uncletopia"],"game_id":440,"stv_port":27026,"stv_name":"Uncletopia | Warsaw | 2 | All Maps | STV","players":null},{"server_id":51,"name":"Uncletopia | Warsaw | 3 | All Maps","name_short":"waw-3","host":"waw-1.pl.uncletopia.com","port":27035,"enabled":true,"region":"eu","cc":"pl","latitude":52.2297,"longitude":21.017532,"reserved":0,"last_update":"0001-01-01T00:00:00Z","name_a2s":"Uncletopia | Warsaw | 3 | All Maps","protocol":17,"map":"koth_viaduct","folder":"tf","game":"Team Fortress","app_id":440,"player_count":2,"max_players":24,"Bots":0,"server_type":"Dedicated","server_os":"Linux","password":true,"vac":true,"version":"7882260","steam_id":85568392925397852,"keywords":["cp","nocrits","nodmgspread","uncletopia"],"game_id":440,"stv_port":27036,"stv_name":"Uncletopia | Warsaw | 3 | All Maps | STV","players":[{"user_id":4,"name":"Kiz","steam_id":76561198811732820,"connected_time":1896000000000,"state":"active","ping":92},{"user_id":5,"name":"DicyPicky","steam_id":76561198078873335,"connected_time":1884000000000,"state":"active","ping":74}]},{"server_id":52,"name":"Uncletopia | Warsaw | 4 | All Maps","name_short":"waw-4","host":"waw-1.pl.uncletopia.com","port":27045,"enabled":true,"region":"eu","cc":"pl","latitude":52.2297,"longitude":21.017532,"reserved":0,"last_update":"0001-01-01T00:00:00Z","name_a2s":"Uncletopia | Warsaw | 4 | All Maps","protocol":17,"map":"koth_highpass","folder":"tf","game":"Team Fortress","app_id":440,"player_count":0,"max_players":24,"Bots":0,"server_type":"Dedicated","server_os":"Linux","password":true,"vac":true,"version":"7882260","steam_id":85568392925397853,"keywords":["cp","nocrits","nodmgspread","uncletopia"],"game_id":440,"stv_port":27046,"stv_name":"Uncletopia | Warsaw | 4 | All Maps | STV","players":null},{"server_id":53,"name":"Uncletopia | Warsaw | 5 | Stopwatch Beta","name_short":"waw-5","host":"waw-1.pl.uncletopia.com","port":27055,"enabled":true,"region":"eu","cc":"pl","latitude":52.2297,"longitude":21.017532,"reserved":0,"last_update":"0001-01-01T00:00:00Z","name_a2s":"Uncletopia | Warsaw | 5 | Stopwatch Beta","protocol":17,"map":"cp_mountainlab","folder":"tf","game":"Team Fortress","app_id":440,"player_count":0,"max_players":24,"Bots":0,"server_type":"Dedicated","server_os":"Linux","password":true,"vac":true,"version":"7882260","steam_id":85568392925397854,"keywords":["cp","nocrits","nodmgspread","uncletopia"],"game_id":440,"stv_port":27056,"stv_name":"Uncletopia | Warsaw | 5 | Stopwatch Beta | STV","players":null},{"server_id":54,"name":"Uncletopia | Warsaw | 6 | Community","name_short":"waw-6","host":"waw-1.pl.uncletopia.com","port":27065,"enabled":true,"region":"eu","cc":"pl","latitude":52.2297,"longitude":21.017532,"reserved":0,"last_update":"0001-01-01T00:00:00Z","name_a2s":"Uncletopia | Warsaw | 6 | Community","protocol":17,"map":"koth_viaduct","folder":"tf","game":"Team Fortress","app_id":440,"player_count":0,"max_players":24,"Bots":0,"server_type":"Dedicated","server_os":"Linux","password":true,"vac":true,"version":"7882260","steam_id":85568392925397856,"keywords":["cp","nocrits","nodmgspread","uncletopia"],"game_id":440,"stv_port":27066,"stv_name":"Uncletopia | Warsaw | 6 | Community | STV","players":null}]}