{"status":true,"message":"","result":[{"server_id":9,"name":"Uncletopia | Atlanta | 1 | All Maps","name_short":"atl-1","host":"atl-1.us.uncletopia.com","port":27015,"enabled":true,"region":"us-east","cc":"us","latitude":33.753746,"longitude":-84.38633,"reserved":0,"last_update":"0001-01-01T00:00:00Z","name_a2s":"Uncletopia | Atlanta | 1 | All Maps","protocol":17,"map":"pl_badwater","folder":"tf","game":"Team Fortress","app_id":440,"player_count":24,"max_players":24,"Bots":0,"server_type":"Dedicated","server_os":"Linux","password":true,"vac":true,"version":"7723704","steam_id":85568392924469982,"keywords":["nocrits","nodmgspread","payload","uncletopia"],"game_id":440,"stv_port":27016,"stv_name":"Uncletopia | Atlanta | 1 | All Maps | STV","players":[{"user_id":15,"name":"ATL1 | on my hunting trip","steam_id":76561198315341646,"connected_time":16635000000000,"state":"active","ping":67},{"user_id":224,"name":"Granny Krissy","steam_id":76561197960848174,"connected_time":335000000000,"state":"active","ping":69},{"user_id":183,"name":"Quiggles lft","steam_id":76561199177247655,"connected_time":3091000000000,"state":"active","ping":58},{"user_id":202,"name":"name him golfball","steam_id":76561198068958789,"connected_time":1386000000000,"state":"active","ping":46},{"user_id":226,"name":"ATL1 | Lancer Fan Club","steam_id":76561198355495948,"connected_time":304000000000,"state":"active","ping":83},{"user_id":163,"name":"Towns","steam_id":76561198984662863,"connected_time":5120000000000,"state":"active","ping":72},{"user_id":188,"name":"T√ñZI","steam_id":76561198045268695,"connected_time":2323000000000,"state":"active","ping":72},{"user_id":229,"name":"vid_","steam_id":76561198065159053,"connected_time":0,"state":"spawning","ping":11},{"user_id":206,"name":"your xmas forecast","steam_id":76561198042243083,"connected_time":1211000000000,"state":"active","ping":52},{"user_id":120,"name":"TTV AhoyK","steam_id":76561198274742715,"connected_time":9102000000000,"state":"active","ping":59},{"user_id":219,"name":"Jin Gulilo","steam_id":76561198065151242,"connected_time":515000000000,"state":"active","ping":65},{"user_id":192,"name":"Blargian Snagglebeast","steam_id":76561198115831507,"connected_time":2299000000000,"state":"active","ping":65},{"user_id":215,"name":"Apachegg","steam_id":76561199407948948,"connected_time":641000000000,"state":"active","ping":90},{"user_id":160,"name":"citrus","steam_id":76561198294606679,"connected_time":5713000000000,"state":"active","ping":90},{"user_id":220,"name":"M.L.JEW","steam_id":76561198997375055,"connected_time":502000000000,"state":"active","ping":67},{"user_id":209,"name":"uzr","steam_id":76561198799343084,"connected_time":800000000000,"state":"active","ping":111},{"user_id":214,"name":"Chesh","steam_id":76561197990316722,"connected_time":682000000000,"state":"active","ping":71},{"user_id":180,"name":"Tommy Pickles (Very Cool)","steam_id":76561198391261463,"connected_time":3135000000000,"state":"active","ping":83},{"user_id":228,"name":"TheRealWeiner","steam_id":76561198056871257,"connected_time":52000000000,"state":"active","ping":87},{"user_id":213,"name":"carter","steam_id":76561198285295764,"connected_time":749000000000,"state":"active","ping":63},{"user_id":176,"name":"mos","steam_id":76561198300579532,"connected_time":3409000000000,"state":"active","ping":56},{"user_id":189,"name":"David De Bergerac","steam_id":76561198010306294,"connected_time":2323000000000,"state":"active","ping":76},{"user_id":178,"name":"ATL1 | J O V A","steam_id":76561198090333536,"connected_time":3397000000000,"state":"active","ping":66},{"user_id":205,"name":"math","steam_id":76561198092542997,"connected_time":1270000000000,"state":"active","ping":88}]},{"server_id":400,"name":"Uncletopia | Atlanta | 3 | Stopwatch Beta","name_short":"atl-3","host":"atl-1.us.uncletopia.com","port":27035,"enabled":true,"region":"us-east","cc":"us","latitude":33.753746,"longitude":-84.38633,"reserved":0,"last_update":"0001-01-01T00:00:00Z","name_a2s":"Uncletopia | Atlanta | 3 | Stopwatch Beta","protocol":17,"map":"koth_cascade","folder":"tf","game":"Team Fortress","app_id":440,"player_count":0,"max_players":24,"Bots":0,"server_type":"Dedicated","server_os":"Linux","password":true,"vac":true,"version":"7723704","steam_id":85568392924515187,"keywords":["cp","nocrits","nodmgspread","uncletopia"],"game_id":440,"stv_port":27036,"stv_name":"Uncletopia | Atlanta | 3 | Stopwatch Beta | STV","players":null},{"server_id":401,"name":"Uncletopia | Atlanta | 4 | No Payload","name_short":"atl-4","host":"atl-1.us.uncletopia.com","port":27045,"enabled":true,"region":"us-east","cc":"us","latitude":33.753746,"longitude":-84.38633,"reserved":0,"last_update":"0001-01-01T00:00:00Z","name_a2s":"Uncletopia | Atlanta | 4 | No Payload","protocol":17,"map":"pl_pier","folder":"tf","game":"Team Fortress","app_id":440,"player_count":0,"max_players":24,"Bots":0,"server_type":"Dedicated","server_os":"Linux","password":true,"vac":true,"version":"7723704","steam_id":85568392924515188,"keywords":["nocrits","nodmgspread","payload","uncletopia"],"game_id":440,"stv_port":27046,"stv_name":"Uncletopia | Atlanta | 4 | No Payload | STV","players":null},{"server_id":2,"name":"Uncletopia | Chicago | 1 | All Maps","name_short":"chi-1","host":"chi-1.us.uncletopia.com","port":27015,"enabled":true,"region":"us-central","cc":"us","latitude":41.881832,"longitude":-87.62318,"reserved":0,"last_update":"0001-01-01T00:00:00Z","name_a2s":"Uncletopia | Chicago | 1 | All Maps","protocol":17,"map":"cp_process_final","folder":"tf","game":"Team Fortress","app_id":440,"player_count":24,"max_players":24,"Bots":0,"server_type":"Dedicated","server_os":"Linux","password":true,"vac":true,"version":"7723704","steam_id":85568392924469984,"keywords":["cp","nocrits","nodmgspread","uncletopia"],"game_id":440,"stv_port":27016,"stv_name":"Uncletopia | Chicago | 1 | All Maps | STV","players":[{"user_id":310,"name":"twizted","steam_id":76561197960407274,"connected_time":63000000000,"state":"active","ping":92},{"user_id":311,"name":"Cap? I own one, yes","steam_id":76561199037497493,"connected_time":37000000000,"state":"active","ping":53},{"user_id":306,"name":"-Enter Name Here-","steam_id":76561198040358938,"connected_time":192000000000,"state":"active","ping":74},{"user_id":298,"name":"evil domy","steam_id":76561198156084643,"connected_time":559000000000,"state":"active","ping":74},{"user_id":248,"name":"BAT BOY","steam_id":76561198034611414,"connected_time":6442000000000,"state":"active","ping":93},{"user_id":307,"name":"donut dan (pumpkin spice)","steam_id":76561198132222035,"connected_time":174000000000,"state":"active","ping":49},{"user_id":301,"name":"xdMasterEye","steam_id":76561198253891458,"connected_time":376000000000,"state":"active","ping":127},{"user_id":240,"name":"SuperJagops","steam_id":76561198034689716,"connected_time":6795000000000,"state":"active","ping":56},{"user_id":292,"name":"blibulon","steam_id":76561198370642854,"connected_time":900000000000,"state":"active","ping":116},{"user_id":312,"name":"Huge","steam_id":76561199030987614,"connected_time":23000000000,"state":"active","ping":77},{"user_id":276,"name":"evan_is_sauce","steam_id":76561199086802383,"connected_time":2594000000000,"state":"active","ping":92},{"user_id":243,"name":"Le","steam_id":76561198817754233,"connected_time":6601000000000,"state":"active","ping":54},{"user_id":305,"name":"Quansen","steam_id":76561198151594550,"connected_time":248000000000,"state":"active","ping":58},{"user_id":211,"name":"nalezinik","steam_id":76561198030026119,"connected_time":8586000000000,"state":"active","ping":59},{"user_id":287,"name":"Do Moose go Moo?","steam_id":76561198073550620,"connected_time":1504000000000,"state":"active","ping":45},{"user_id":313,"name":"gordon freeman christmas","steam_id":76561198367735460,"connected_time":14000000000,"state":"active","ping":72},{"user_id":289,"name":"Shinezzzz","steam_id":76561199121094790,"connected_time":994000000000,"state":"active","ping":63},{"user_id":275,"name":"Vrostick","steam_id":76561198079477782,"connected_time":2612000000000,"state":"active","ping":73},{"user_id":300,"name":"MamaDereBear","steam_id":76561198035094155,"connected_time":401000000000,"state":"active","ping":75},{"user_id":299,"name":"Fishbotinator","steam_id":76561198085347196,"connected_time":421000000000,"state":"active","ping":68},{"user_id":277,"name":"// €ûE–ØiC€û //","steam_id":76561197968436818,"connected_time":2579000000000,"state":"active","ping":48},{"user_id":297,"name":"American Airlines Flight 11","steam_id":76561198969630835,"connected_time":682000000000,"state":"active","ping":74},{"user_id":278,"name":"John Darksoul","steam_id":76561198031675881,"connected_time":2527000000000,"state":"active","ping":45},{"user_id":296,"name":"roegurt","steam_id":76561198075089940,"connected_time":768000000000,"state":"active","ping":74}]},{"server_id":106,"name":"Uncletopia | Chicago | 2 | All Maps","name_short":"chi-2","host":"chi-1.us.uncletopia.com","port":27025,"enabled":true,"region":"us-central","cc":"us","latitude":41.881832,"longitude":-87.62318,"reserved":0,"last_update":"0001-01-01T00:00:00Z","name_a2s":"Uncletopia | Chicago | 2 | All Maps","protocol":17,"map":"koth_king","folder":"tf","game":"Team Fortress","app_id":440,"player_count":24,"max_players":24,"Bots":0,"server_type":"Dedicated","server_os":"Linux","password":true,"vac":true,"version":"7723704","steam_id":85568392924469985,"keywords":["cp","nocrits","nodmgspread","uncletopia"],"game_id":440,"stv_port":27026,"stv_name":"Uncletopia | Chicago | 2 | All Maps | STV","players":[{"user_id":136,"name":"Ziath","steam_id":76561198094009164,"connected_time":1602000000000,"state":"active","ping":65},{"user_id":155,"name":"Revenant","steam_id":76561198074139416,"connected_time":656000000000,"state":"active","ping":68},{"user_id":49,"name":"Rornir","steam_id":76561198081829615,"connected_time":5733000000000,"state":"active","ping":37},{"user_id":140,"name":"colin_elster","steam_id":76561198436402351,"connected_time":1486000000000,"state":"active","ping":62},{"user_id":152,"name":"Hubba","steam_id":76561199447136263,"connected_time":675000000000,"state":"active","ping":159},{"user_id":159,"name":"Khinfu","steam_id":76561198216606969,"connected_time":330000000000,"state":"active","ping":63},{"user_id":153,"name":"Misanthrope","steam_id":76561198090692884,"connected_time":674000000000,"state":"active","ping":79},{"user_id":107,"name":"Blitzy","steam_id":76561198149472890,"connected_time":3124000000000,"state":"active","ping":75},{"user_id":117,"name":"nemesis","steam_id":76561198115050507,"connected_time":2760000000000,"state":"active","ping":61},{"user_id":137,"name":"48","steam_id":76561198156422760,"connected_time":1591000000000,"state":"active","ping":62},{"user_id":131,"name":"GrapeGoodra","steam_id":76561198042141579,"connected_time":2200000000000,"state":"active","ping":48},{"user_id":146,"name":"QuarticalPhysics","steam_id":76561198061386266,"connected_time":1242000000000,"state":"active","ping":72},{"user_id":151,"name":"a festive sooley","steam_id":76561198134500189,"connected_time":776000000000,"state":"active","ping":113},{"user_id":142,"name":"Goofball","steam_id":76561198074189084,"connected_time":1474000000000,"state":"active","ping":53},{"user_id":156,"name":"Drilly22","steam_id":76561198068838338,"connected_time":632000000000,"state":"active","ping":92},{"user_id":145,"name":"CreativeUsername","steam_id":76561198186045503,"connected_time":1307000000000,"state":"active","ping":53},{"user_id":110,"name":"ratie","steam_id":76561198059399661,"connected_time":3110000000000,"state":"active","ping":78},{"user_id":154,"name":"kris krueger","steam_id":76561198268654031,"connected_time":672000000000,"state":"active","ping":59},{"user_id":157,"name":"ryce","steam_id":76561198114572309,"connected_time":624000000000,"state":"active","ping":74},{"user_id":125,"name":"Tyler\u0026Fingers","steam_id":76561198085154485,"connected_time":2648000000000,"state":"active","ping":81},{"user_id":160,"name":"lauren/","steam_id":76561198048745798,"connected_time":40000000000,"state":"active","ping":45},{"user_id":147,"name":"Dukeofspook","steam_id":76561198052896687,"connected_time":1129000000000,"state":"active","ping":73},{"user_id":127,"name":"lambmyth","steam_id":76561199215261209,"connected_time":2518000000000,"state":"active","ping":95},{"user_id":135,"name":"Kaiser Wilhelm II‚Ñ¢","steam_id":76561199073434606,"connected_time":1750000000000,"state":"active","ping":174}]},{"server_id":402,"name":"Uncletopia | Chicago | 3 | All Maps","name_short":"chi-3","host":"chi-1.us.uncletopia.com","port":27035,"enabled":true,"region":"us-central","cc":"us","latitude":41.881832,"longitude":-87.62318,"reserved":0,"last_update":"0001-01-01T00:00:00Z","name_a2s":"Uncletopia | Chicago | 3 | All Maps","protocol":17,"map":"cp_mountainlab","folder":"tf","game":"Team Fortress","app_id":440,"player_count":0,"max_players":24,"Bots":0,"server_type":"Dedicated","server_os":"Linux","password":true,"vac":true,"version":"7723704","steam_id":85568392924515191,"keywords":["cp","nocrits","nodmgspread","uncletopia"],"game_id":440,"stv_port":27036,"stv_name":"Uncletopia | Chicago | 3 | All Maps | STV","players":null},{"server_id":403,"name":"Uncletopia | Chicago | 4 | All Maps","name_short":"chi-4","host":"chi-1.us.uncletopia.com","port":27045,"enabled":true,"region":"us-central","cc":"us","latitude":41.881832,"longitude":-87.62318,"reserved":0,"last_update":"0001-01-01T00:00:00Z","name_a2s":"Uncletopia | Chicago | 4 | All Maps","protocol":17,"map":"cp_mountainlab","folder":"tf","game":"Team Fortress","app_id":440,"player_count":0,"max_players":24,"Bots":0,"server_type":"Dedicated","server_os":"Linux","password":true,"vac":true,"version":"7723704","steam_id":85568392924515193,"keywords":["cp","nocrits","nodmgspread","uncletopia"],"game_id":440,"stv_port":27046,"stv_name":"Uncletopia | Chicago | 4 | All Maps | STV","players":null},{"server_id":36,"name":"Uncletopia | Chicago | 5 | All Maps","name_short":"chi-5","host":"chi-2.us.uncletopia.com","port":27015,"enabled":true,"region":"us-central","cc":"us","latitude":41.881832,"longitude":-87.62318,"reserved":0,"last_update":"0001-01-01T00:00:00Z","name_a2s":"Uncletopia | Chicago | 5 | All Maps","protocol":17,"map":"plr_hightower","folder":"tf","game":"Team Fortress","app_id":440,"player_count":24,"max_players":24,"Bots":0,"server_type":"Dedicated","server_os":"Linux","password":true,"vac":true,"version":"7723704","steam_id":85568392924866362,"keywords":["nocrits","nodmgspread","payload","uncletopia"],"game_id":440,"stv_port":27016,"stv_name":"Uncletopia | Chicago | 5 | All Maps | STV","players":[{"user_id":88,"name":"Challenger Charles","steam_id":76561198005576553,"connected_time":541000000000,"state":"active","ping":83},{"user_id":64,"name":"therizzmaster7421","steam_id":76561197989592141,"connected_time":2807000000000,"state":"active","ping":57},{"user_id":95,"name":"Spiral","steam_id":76561198067541346,"connected_time":362000000000,"state":"active","ping":76},{"user_id":68,"name":"extremely used sock","steam_id":76561199104396911,"connected_time":2294000000000,"state":"active","ping":65},{"user_id":41,"name":"science_fan.1948","steam_id":76561199076453501,"connected_time":4068000000000,"state":"active","ping":98},{"user_id":52,"name":"Samus","steam_id":76561198121933439,"connected_time":3255000000000,"state":"active","ping":99},{"user_id":85,"name":"Lowkey","steam_id":76561198173151446,"connected_time":746000000000,"state":"active","ping":84},{"user_id":44,"name":"tinkercrab11","steam_id":76561198881792140,"connected_time":3900000000000,"state":"active","ping":76},{"user_id":14,"name":"CassandraRC7 (She/her)","steam_id":76561198094123940,"connected_time":5460000000000,"state":"active","ping":61},{"user_id":62,"name":"Max_Attack","steam_id":76561198944028607,"connected_time":2846000000000,"state":"active","ping":69},{"user_id":89,"name":"SweetLou","steam_id":76561198064569582,"connected_time":534000000000,"state":"active","ping":95},{"user_id":94,"name":"Lesser Hero","steam_id":76561198351785386,"connected_time":465000000000,"state":"active","ping":62},{"user_id":56,"name":"Hindmost","steam_id":76561199081837220,"connected_time":3005000000000,"state":"active","ping":121},{"user_id":45,"name":"Cuttle's Fish","steam_id":76561198280483257,"connected_time":3872000000000,"state":"active","ping":58},{"user_id":91,"name":"Love Being an Owl","steam_id":76561198293422282,"connected_time":524000000000,"state":"active","ping":89},{"user_id":92,"name":"Vanny","steam_id":76561198297961039,"connected_time":516000000000,"state":"active","ping":69},{"user_id":80,"name":"Kawflynn","steam_id":76561198029885678,"connected_time":960000000000,"state":"active","ping":74},{"user_id":57,"name":"Stormartillery","steam_id":76561198408982577,"connected_time":2991000000000,"state":"active","ping":75},{"user_id":98,"name":"Mr.Manman","steam_id":76561198826448660,"connected_time":157000000000,"state":"active","ping":68},{"user_id":99,"name":"PinkAndPathetic","steam_id":76561198047109016,"connected_time":104000000000,"state":"active","ping":75},{"user_id":78,"name":"kablong","steam_id":76561199094392047,"connected_time":1503000000000,"state":"active","ping":81},{"user_id":59,"name":"des","steam_id":76561198079226634,"connected_time":2946000000000,"state":"active","ping":76},{"user_id":96,"name":"Spectre","steam_id":76561198025652246,"connected_time":329000000000,"state":"active","ping":52},{"user_id":97,"name":"GodLikeFocus","steam_id":76561198160524763,"connected_time":310000000000,"state":"active","ping":60}]},{"server_id":37,"name":"Uncletopia | Chicago | 6 | All Maps","name_short":"chi-6","host":"chi-2.us.uncletopia.com","port":27025,"enabled":true,"region":"us-central","cc":"us","latitude":41.881832,"longitude":-87.62318,"reserved":0,"last_update":"0001-01-01T00:00:00Z","name_a2s":"Uncletopia | Chicago | 6 | All Maps","protocol":17,"map":"koth_viaduct","folder":"tf","game":"Team Fortress","app_id":440,"player_count":0,"max_players":24,"Bots":0,"server_type":"Dedicated","server_os":"Linux","password":true,"vac":true,"version":"7723704","steam_id":85568392924866363,"keywords":["cp","nocrits","nodmgspread","uncletopia"],"game_id":440,"stv_port":27026,"stv_name":"Uncletopia | Chicago | 6 | All Maps | STV","players":null},{"server_id":38,"name":"Uncletopia | Chicago | 7 | Stopwatch Beta","name_short":"chi-7","host":"chi-2.us.uncletopia.com","port":27035,"enabled":true,"region":"us-central","cc":"us","latitude":41.881832,"longitude":-87.62318,"reserved":0,"last_update":"0001-01-01T00:00:00Z","name_a2s":"Uncletopia | Chicago | 7 | Stopwatch Beta","protocol":17,"map":"workshop/cp_process_f11.ugc2302948105","folder":"tf","game":"Team Fortress","app_id":440,"player_count":5,"max_players":24,"Bots":0,"server_type":"Dedicated","server_os":"Linux","password":true,"vac":true,"version":"7723704","steam_id":85568392924866364,"keywords":["alltalk","cp","nocrits","nodmgspread","uncletopia"],"game_id":440,"stv_port":27036,"stv_name":"Uncletopia | Chicago | 7 | Stopwatch Beta | STV","players":[{"user_id":7,"name":"raspy","steam_id":76561198027298961,"connected_time":1578000000000,"state":"active","ping":47},{"user_id":8,"name":"Bonca","steam_id":76561198137503531,"connected_time":1543000000000,"state":"active","ping":151},{"user_id":11,"name":"lukamine","steam_id":76561198166827208,"connected_time":554000000000,"state":"active","ping":90},{"user_id":10,"name":"whimsy.","steam_id":76561198878171763,"connected_time":1405000000000,"state":"active","ping":150},{"user_id":12,"name":"EnablingTrash101","steam_id":76561198132151550,"connected_time":69000000000,"state":"active","ping":97}]},{"server_id":39,"name":"Uncletopia | Chicago | 8 | Community","name_short":"chi-8","host":"chi-2.us.uncletopia.com","port":27045,"enabled":true,"region":"us-central","cc":"us","latitude":41.881832,"longitude":-87.62318,"reserved":0,"last_update":"0001-01-01T00:00:00Z","name_a2s":"Uncletopia | Chicago | 8 | Community","protocol":17,"map":"pl_frontier_final","folder":"tf","game":"Team Fortress","app_id":440,"player_count":0,"max_players":24,"Bots":0,"server_type":"Dedicated","server_os":"Linux","password":true,"vac":true,"version":"7723704","steam_id":85568392924866365,"keywords":["nocrits","nodmgspread","payload","uncletopia"],"game_id":440,"stv_port":27046,"stv_name":"Uncletopia | Chicago | 8 | Community | STV","players":null},{"server_id":8,"name":"Uncletopia | Dallas | 1 | All Maps","name_short":"dal-1","host":"dal-1.us.uncletopia.com","port":27015,"enabled":true,"region":"us-central","cc":"us","latitude":32.779167,"longitude":-96.80889,"reserved":0,"last_update":"0001-01-01T00:00:00Z","name_a2s":"Uncletopia | Dallas | 1 | All Maps","protocol":17,"map":"pl_barnblitz","folder":"tf","game":"Team Fortress","app_id":440,"player_count":24,"max_players":24,"Bots":0,"server_type":"Dedicated","server_os":"Linux","password":true,"vac":true,"version":"7723704","steam_id":85568392924469986,"keywords":["nocrits","nodmgspread","payload","uncletopia"],"game_id":440,"stv_port":27016,"stv_name":"Uncletopia | Dallas | 1 | All Maps | STV","players":[{"user_id":106,"name":"Pancreas Enjoyer","steam_id":76561199438598904,"connected_time":3348000000000,"state":"active","ping":105},{"user_id":104,"name":"Platinum","steam_id":76561198052463484,"connected_time":3370000000000,"state":"active","ping":101},{"user_id":152,"name":"yeyoi","steam_id":76561198069821885,"connected_time":930000000000,"state":"active","ping":45},{"user_id":128,"name":"Mikey","steam_id":76561199125982967,"connected_time":1691000000000,"state":"active","ping":84},{"user_id":157,"name":"[]{}#^*+=","steam_id":76561198127039453,"connected_time":492000000000,"state":"active","ping":65},{"user_id":158,"name":"sagekiss","steam_id":76561198038831240,"connected_time":490000000000,"state":"active","ping":100},{"user_id":141,"name":"zinnk","steam_id":76561198092081825,"connected_time":1432000000000,"state":"active","ping":79},{"user_id":156,"name":"RooKie","steam_id":76561198215901079,"connected_time":509000000000,"state":"active","ping":71},{"user_id":153,"name":"corviraptor (\u003c-- awesome)","steam_id":76561198058284392,"connected_time":894000000000,"state":"active","ping":52},{"user_id":91,"name":"Power With Flower","steam_id":76561198798123834,"connected_time":4247000000000,"state":"active","ping":61},{"user_id":108,"name":"[SAW] Lost Darkrai","steam_id":76561198021034873,"connected_time":3346000000000,"state":"active","ping":47},{"user_id":131,"name":"Venomous Pastry","steam_id":76561198038999341,"connected_time":1656000000000,"state":"active","ping":74},{"user_id":145,"name":"albertoRamirez.8.24","steam_id":76561198123216429,"connected_time":1151000000000,"state":"active","ping":61},{"user_id":146,"name":"[AS]","steam_id":76561198094990358,"connected_time":1149000000000,"state":"active","ping":74},{"user_id":138,"name":"ENORMOUS HOG","steam_id":76561198079923652,"connected_time":1478000000000,"state":"active","ping":56},{"user_id":142,"name":"Lolxdloldx","steam_id":76561198136887125,"connected_time":1301000000000,"state":"active","ping":73},{"user_id":159,"name":"Skrt.","steam_id":76561197970654243,"connected_time":425000000000,"state":"active","ping":70},{"user_id":135,"name":"lily","steam_id":76561198102681457,"connected_time":1561000000000,"state":"active","ping":75},{"user_id":125,"name":"yo pierre wanna cum out here","steam_id":76561198800324957,"connected_time":2012000000000,"state":"active","ping":57},{"user_id":136,"name":"IBanzaiI","steam_id":76561198001549040,"connected_time":1511000000000,"state":"active","ping":72},{"user_id":117,"name":"LalitoTV","steam_id":76561198334302951,"connected_time":2981000000000,"state":"active","ping":98},{"user_id":139,"name":"mommy hog","steam_id":76561199230929836,"connected_time":1461000000000,"state":"active","ping":68},{"user_id":151,"name":"Dragorf2010","steam_id":76561199238402270,"connected_time":960000000000,"state":"active","ping":78},{"user_id":98,"name":"Arizona","steam_id":76561198113748347,"connected_time":3624000000000,"state":"active","ping":66}]},{"server_id":108,"name":"Uncletopia | Dallas | 2 | All Maps","name_short":"dal-2","host":"dal-1.us.uncletopia.com","port":27025,"enabled":true,"region":"us-central","cc":"us","latitude":32.779167,"longitude":-96.80889,"reserved":0,"last_update":"0001-01-01T00:00:00Z","name_a2s":"Uncletopia | Dallas | 2 | All Maps","protocol":17,"map":"pl_snowycoast","folder":"tf","game":"Team Fortress","app_id":440,"player_count":0,"max_players":24,"Bots":0,"server_type":"Dedicated","server_os":"Linux","password":true,"vac":true,"version":"7723704","steam_id":85568392924469988,"keywords":["nocrits","nodmgspread","payload","uncletopia"],"game_id":440,"stv_port":27026,"stv_name":"Uncletopia | Dallas | 2 | All Maps | STV","players":null},{"server_id":5,"name":"Uncletopia | Frankfurt | 1 | All Maps","name_short":"frk-1","host":"frk-1.de.uncletopia.com","port":27015,"enabled":true,"region":"eu","cc":"de","latitude":50.110924,"longitude":8.682127,"reserved":0,"last_update":"0001-01-01T00:00:00Z","name_a2s":"Uncletopia | Frankfurt | 1 | All Maps","protocol":17,"map":"pl_snowycoast","folder":"tf","game":"Team Fortress","app_id":440,"player_count":23,"max_players":24,"Bots":0,"server_type":"Dedicated","server_os":"Linux","password":true,"vac":true,"version":"7723704","steam_id":85568392924469989,"keywords":["nocrits","nodmgspread","payload","uncletopia"],"game_id":440,"stv_port":27016,"stv_name":"Uncletopia | Frankfurt | 1 | All Maps | STV","players":[{"user_id":364,"name":"PLUTO","steam_id":76561198312436128,"connected_time":2864000000000,"state":"active","ping":128},{"user_id":385,"name":"KRIST√ìF (:","steam_id":76561198426600979,"connected_time":1568000000000,"state":"active","ping":61},{"user_id":365,"name":"masutaaa","steam_id":76561198072233046,"connected_time":2863000000000,"state":"active","ping":89},{"user_id":384,"name":"DIO","steam_id":76561198440934950,"connected_time":1604000000000,"state":"active","ping":72},{"user_id":406,"name":"Crazedspicy","steam_id":76561199004590962,"connected_time":536000000000,"state":"active","ping":57},{"user_id":412,"name":"this is honestly","steam_id":76561198865193084,"connected_time":8000000000,"state":"spawning","ping":167},{"user_id":313,"name":"Zateske","steam_id":76561198047446276,"connected_time":5894000000000,"state":"active","ping":59},{"user_id":386,"name":"magnus","steam_id":76561198045570936,"connected_time":1561000000000,"state":"active","ping":85},{"user_id":400,"name":"scuM--","steam_id":76561198273679047,"connected_time":988000000000,"state":"active","ping":53},{"user_id":381,"name":"Atronic","steam_id":76561198354960567,"connected_time":2060000000000,"state":"active","ping":51},{"user_id":401,"name":"radu","steam_id":76561199232442508,"connected_time":928000000000,"state":"active","ping":137},{"user_id":403,"name":"KuhlerKarl","steam_id":76561198411211564,"connected_time":783000000000,"state":"active","ping":68},{"user_id":410,"name":"CoryBaxterWH","steam_id":76561198060041823,"connected_time":255000000000,"state":"active","ping":142},{"user_id":409,"name":"Use The Finger","steam_id":76561198050203563,"connected_time":309000000000,"state":"active","ping":70},{"user_id":407,"name":"Norbza","steam_id":76561198830908630,"connected_time":450000000000,"state":"active","ping":85},{"user_id":399,"name":"manure merchant","steam_id":76561198010109316,"connected_time":1070000000000,"state":"active","ping":59},{"user_id":379,"name":"R3inis","steam_id":76561199030393569,"connected_time":2217000000000,"state":"active","ping":78},{"user_id":371,"name":"QuB","steam_id":76561198086443034,"connected_time":2747000000000,"state":"active","ping":71},{"user_id":382,"name":"Accwith12chr","steam_id":76561198311593297,"connected_time":2020000000000,"state":"active","ping":84},{"user_id":392,"name":"–ò–Ω—Å–ø–µ–∫—Ç–æ—Ä –ê—Ç–∞—Å","steam_id":76561199175688390,"connected_time":1372000000000,"state":"active","ping":75},{"user_id":358,"name":"SamDaPiRatE","steam_id":76561197969053733,"connected_time":3160000000000,"state":"active","ping":65},{"user_id":393,"name":"VibeCheck","steam_id":76561198425961218,"connected_time":1370000000000,"state":"active","ping":109},{"user_id":411,"name":"Cuthbert","steam_id":76561198204649481,"connected_time":227000000000,"state":"active","ping":95}]},{"server_id":110,"name":"Uncletopia | Frankfurt | 2 | All Maps","name_short":"frk-2","host":"frk-1.de.uncletopia.com","port":27025,"enabled":true,"region":"eu","cc":"de","latitude":50.110924,"longitude":8.682127,"reserved":0,"last_update":"0001-01-01T00:00:00Z","name_a2s":"Uncletopia | Frankfurt | 2 | All Maps","protocol":17,"map":"cp_5gorge","folder":"tf","game":"Team Fortress","app_id":440,"player_count":2,"max_players":24,"Bots":0,"server_type":"Dedicated","server_os":"Linux","password":true,"vac":true,"version":"7723704","steam_id":85568392924469990,"keywords":["cp","nocrits","nodmgspread","uncletopia"],"game_id":440,"stv_port":27026,"stv_name":"Uncletopia | Frankfurt | 2 | All Maps | STV","players":[{"user_id":94,"name":"Karsapaali","steam_id":76561198322322739,"connected_time":158000000000,"state":"active","ping":76},{"user_id":45,"name":"curious femboy","steam_id":76561199199388221,"connected_time":2877000000000,"state":"active","ping":61}]},{"server_id":308,"name":"Uncletopia | Frankfurt | 3 | All Maps","name_short":"frk-3","host":"frk-1.de.uncletopia.com","port":27035,"enabled":true,"region":"eu","cc":"de","latitude":50.110924,"longitude":8.682127,"reserved":0,"last_update":"0001-01-01T00:00:00Z","name_a2s":"Uncletopia | Frankfurt | 3 | All Maps","protocol":17,"map":"pl_borneo","folder":"tf","game":"Team Fortress","app_id":440,"player_count":24,"max_players":24,"Bots":0,"server_type":"Dedicated","server_os":"Linux","password":true,"vac":true,"version":"7723704","steam_id":85568392924504274,"keywords":["nocrits","nodmgspread","payload","uncletopia"],"game_id":440,"stv_port":27036,"stv_name":"Uncletopia | Frankfurt | 3 | All Maps | STV","players":[{"user_id":283,"name":"jeff","steam_id":76561198025815509,"connected_time":3331000000000,"state":"active","ping":54},{"user_id":339,"name":"pl_z≈Çawoda","steam_id":76561198040588109,"connected_time":607000000000,"state":"active","ping":73},{"user_id":234,"name":"dolo","steam_id":76561198206672297,"connected_time":5747000000000,"state":"active","ping":57},{"user_id":321,"name":"pl_ben","steam_id":76561198084890757,"connected_time":1229000000000,"state":"active","ping":61},{"user_id":341,"name":"grrr","steam_id":76561198036486671,"connected_time":391000000000,"state":"active","ping":60},{"user_id":307,"name":"Archvyle","steam_id":76561198445328161,"connected_time":1756000000000,"state":"active","ping":55},{"user_id":268,"name":"noamshor","steam_id":76561198974556515,"connected_time":3896000000000,"state":"active","ping":127},{"user_id":318,"name":"Swedde","steam_id":76561198297296440,"connected_time":1277000000000,"state":"active","ping":77},{"user_id":303,"name":"sgt Bytheway","steam_id":76561198094169965,"connected_time":1880000000000,"state":"active","ping":68},{"user_id":291,"name":"arcticcu the croc","steam_id":76561198002435882,"connected_time":2205000000000,"state":"active","ping":91},{"user_id":331,"name":"the boogly","steam_id":76561198354604708,"connected_time":864000000000,"state":"active","ping":49},{"user_id":340,"name":"Mr.Schnittlauch","steam_id":76561198295868113,"connected_time":495000000000,"state":"active","ping":50},{"user_id":228,"name":"Festive Charly","steam_id":76561197961895147,"connected_time":5921000000000,"state":"active","ping":53},{"user_id":333,"name":"WolfmanCZ","steam_id":76561199157141414,"connected_time":822000000000,"state":"active","ping":73},{"user_id":323,"name":"Freezerino","steam_id":76561198434091381,"connected_time":1154000000000,"state":"active","ping":64},{"user_id":335,"name":"NALA","steam_id":76561198039806469,"connected_time":714000000000,"state":"active","ping":70},{"user_id":336,"name":"Smuggs","steam_id":76561197999456003,"connected_time":676000000000,"state":"active","ping":57},{"user_id":294,"name":"sham","steam_id":76561197972856152,"connected_time":2043000000000,"state":"active","ping":103},{"user_id":309,"name":"DOMINOS","steam_id":76561198334591211,"connected_time":1706000000000,"state":"active","ping":64},{"user_id":227,"name":"Warped","steam_id":76561197989916494,"connected_time":5955000000000,"state":"active","ping":57},{"user_id":254,"name":"Dramagizio","steam_id":76561198047935918,"connected_time":4299000000000,"state":"active","ping":46},{"user_id":322,"name":"ugly","steam_id":76561199050412617,"connected_time":1213000000000,"state":"active","ping":227},{"user_id":257,"name":"Flarp von Karma","steam_id":76561198043855292,"connected_time":4251000000000,"state":"active","ping":57},{"user_id":289,"name":"Hool","steam_id":76561198108733152,"connected_time":2940000000000,"state":"active","ping":89}]},{"server_id":309,"name":"Uncletopia | Frankfurt | 4 | All Maps","name_short":"frk-4","host":"frk-1.de.uncletopia.com","port":27045,"enabled":true,"region":"eu","cc":"de","latitude":50.110924,"longitude":8.682127,"reserved":0,"last_update":"0001-01-01T00:00:00Z","name_a2s":"Uncletopia | Frankfurt | 4 | All Maps","protocol":17,"map":"pl_upward","folder":"tf","game":"Team Fortress","app_id":440,"player_count":24,"max_players":24,"Bots":0,"server_type":"Dedicated","server_os":"Linux","password":true,"vac":true,"version":"7723704","steam_id":85568392924504275,"keywords":["nocrits","nodmgspread","payload","uncletopia"],"game_id":440,"stv_port":27046,"stv_name":"Uncletopia | Frankfurt | 4 | All Maps | STV","players":[{"user_id":266,"name":"Shane Rizz","steam_id":76561198402363748,"connected_time":1099000000000,"state":"active","ping":47},{"user_id":297,"name":"(wm) Das Fleisch","steam_id":76561198001250715,"connected_time":78000000000,"state":"active","ping":50},{"user_id":277,"name":"peams","steam_id":76561198343328308,"connected_time":776000000000,"state":"active","ping":59},{"user_id":295,"name":"Wardruna96","steam_id":76561199057083828,"connected_time":329000000000,"state":"active","ping":87},{"user_id":284,"name":"festive FoOz","steam_id":76561197998636728,"connected_time":542000000000,"state":"active","ping":64},{"user_id":285,"name":"Fat Pigeon","steam_id":76561198817940142,"connected_time":533000000000,"state":"active","ping":56},{"user_id":260,"name":"F","steam_id":76561199149462792,"connected_time":2032000000000,"state":"active","ping":61},{"user_id":261,"name":"Superior Turtle","steam_id":76561199051735799,"connected_time":1889000000000,"state":"active","ping":54},{"user_id":279,"name":"Kocksaku Kawajiri","steam_id":76561198815127418,"connected_time":703000000000,"state":"active","ping":81},{"user_id":268,"name":"Abe Lincoln","steam_id":76561198075232017,"connected_time":1084000000000,"state":"active","ping":52},{"user_id":291,"name":"alexander","steam_id":76561198257069012,"connected_time":439000000000,"state":"active","ping":63},{"user_id":269,"name":"The Scout","steam_id":76561199057666269,"connected_time":1067000000000,"state":"active","ping":78},{"user_id":270,"name":"TTV/pablo_ricco","steam_id":76561198279839318,"connected_time":1045000000000,"state":"active","ping":85},{"user_id":286,"name":"Spenji","steam_id":76561198126634202,"connected_time":484000000000,"state":"active","ping":75},{"user_id":275,"name":"Your friend (maybe)","steam_id":76561198240278328,"connected_time":974000000000,"state":"active","ping":72},{"user_id":281,"name":"xXdoge gaming 42069Xx","steam_id":76561198372971096,"connected_time":606000000000,"state":"active","ping":78},{"user_id":282,"name":"cursed","steam_id":76561198834633510,"connected_time":599000000000,"state":"active","ping":57},{"user_id":283,"name":"DrExplosive","steam_id":76561198063678579,"connected_time":597000000000,"state":"active","ping":57},{"user_id":288,"name":"Mowelic","steam_id":76561198873641222,"connected_time":458000000000,"state":"active","ping":86},{"user_id":289,"name":"Leroy","steam_id":76561198103604285,"connected_time":447000000000,"state":"active","ping":75},{"user_id":290,"name":"ZackPlay3r","steam_id":76561198416075558,"connected_time":442000000000,"state":"active","ping":165},{"user_id":296,"name":"pummed","steam_id":76561198827108475,"connected_time":206000000000,"state":"active","ping":73},{"user_id":293,"name":"MESSI","steam_id":76561198179339326,"connected_time":422000000000,"state":"active","ping":82},{"user_id":294,"name":"Pronton","steam_id":76561198082502910,"connected_time":421000000000,"state":"active","ping":61}]},{"server_id":310,"name":"Uncletopia | Frankfurt | 5 | All Maps","name_short":"frk-5","host":"frk-1.de.uncletopia.com","port":27055,"enabled":true,"region":"eu","cc":"de","latitude":50.110924,"longitude":8.682127,"reserved":0,"last_update":"0001-01-01T00:00:00Z","name_a2s":"Uncletopia | Frankfurt | 5 | All Maps","protocol":17,"map":"cp_dustbowl","folder":"tf","game":"Team Fortress","app_id":440,"player_count":24,"max_players":24,"Bots":0,"server_type":"Dedicated","server_os":"Linux","password":true,"vac":true,"version":"7723704","steam_id":85568392924504277,"keywords":["cp","nocrits","nodmgspread","uncletopia"],"game_id":440,"stv_port":27056,"stv_name":"Uncletopia | Frankfurt | 5 | All Maps | STV","players":[{"user_id":312,"name":"toidi","steam_id":76561198029148234,"connected_time":1396000000000,"state":"active","ping":76},{"user_id":228,"name":"0xDEADBEEF","steam_id":76561199075416111,"connected_time":6441000000000,"state":"active","ping":89},{"user_id":316,"name":"loge","steam_id":76561198046307460,"connected_time":1374000000000,"state":"active","ping":53},{"user_id":305,"name":"it helps with the nausea","steam_id":76561198257287335,"connected_time":1786000000000,"state":"active","ping":73},{"user_id":210,"name":"dustee","steam_id":76561198023486582,"connected_time":7695000000000,"state":"active","ping":74},{"user_id":309,"name":"lookbrood","steam_id":76561198025592834,"connected_time":1584000000000,"state":"active","ping":61},{"user_id":291,"name":"Dommy","steam_id":76561197990864747,"connected_time":2641000000000,"state":"active","ping":53},{"user_id":324,"name":"r06u3","steam_id":76561198254099253,"connected_time":1066000000000,"state":"active","ping":179},{"user_id":301,"name":"dochris.2","steam_id":76561198026478625,"connected_time":2138000000000,"state":"active","ping":52},{"user_id":327,"name":"Herzeleid","steam_id":76561198148668665,"connected_time":983000000000,"state":"active","ping":80},{"user_id":323,"name":"Anguirusfan1","steam_id":76561198804681404,"connected_time":1192000000000,"state":"active","ping":63},{"user_id":292,"name":"dassasinb","steam_id":76561198128316186,"connected_time":2598000000000,"state":"active","ping":67},{"user_id":229,"name":":)","steam_id":76561198039964082,"connected_time":6250000000000,"state":"active","ping":59},{"user_id":325,"name":"todesfluse","steam_id":76561198043104695,"connected_time":1058000000000,"state":"active","ping":54},{"user_id":319,"name":"simn","steam_id":76561198159182269,"connected_time":1312000000000,"state":"active","ping":52},{"user_id":334,"name":"Tywhip","steam_id":76561199207545191,"connected_time":658000000000,"state":"active","ping":59},{"user_id":328,"name":"Condigium","steam_id":76561198838929185,"connected_time":962000000000,"state":"active","ping":52},{"user_id":329,"name":"Birne","steam_id":76561198001335120,"connected_time":911000000000,"state":"active","ping":62},{"user_id":336,"name":"Belgorodec","steam_id":76561199383879505,"connected_time":451000000000,"state":"active","ping":111},{"user_id":337,"name":"[HOL] Solringen","steam_id":76561198003584681,"connected_time":447000000000,"state":"active","ping":69},{"user_id":297,"name":"TTV Sylence","steam_id":76561198893298215,"connected_time":2483000000000,"state":"active","ping":86},{"user_id":333,"name":"giorno giovanna","steam_id":76561198993161087,"connected_time":805000000000,"state":"active","ping":59},{"user_id":265,"name":"no_name.dll","steam_id":76561199011969062,"connected_time":4794000000000,"state":"active","ping":68},{"user_id":302,"name":"sareena","steam_id":76561198810194062,"connected_time":2085000000000,"state":"active","ping":92}]},{"server_id":311,"name":"Uncletopia | Frankfurt | 6 | All Maps","name_short":"frk-6","host":"frk-1.de.uncletopia.com","port":27065,"enabled":true,"region":"eu","cc":"de","latitude":50.110924,"longitude":8.682127,"reserved":0,"last_update":"0001-01-01T00:00:00Z","name_a2s":"Uncletopia | Frankfurt | 6 | All Maps","protocol":17,"map":"cp_gorge","folder":"tf","game":"Team Fortress","app_id":440,"player_count":24,"max_players":24,"Bots":0,"server_type":"Dedicated","server_os":"Linux","password":true,"vac":true,"version":"7723704","steam_id":85568392924504278,"keywords":["cp","nocrits","nodmgspread","uncletopia"],"game_id":440,"stv_port":27066,"stv_name":"Uncletopia | Frankfurt | 6 | All Maps | STV","players":[{"user_id":208,"name":"radek","steam_id":76561197998883721,"connected_time":1352000000000,"state":"active","ping":74},{"user_id":112,"name":"Kolmannen","steam_id":76561198288826376,"connected_time":7361000000000,"state":"active","ping":83},{"user_id":231,"name":"TSx* {Demon-Angel}","steam_id":76561198151486463,"connected_time":203000000000,"state":"active","ping":67},{"user_id":226,"name":"Mclovin567","steam_id":76561198799105302,"connected_time":263000000000,"state":"active","ping":49},{"user_id":136,"name":"After8","steam_id":76561198090750865,"connected_time":5692000000000,"state":"active","ping":69},{"user_id":218,"name":"Weenie Hut Jr's","steam_id":76561198050515739,"connected_time":909000000000,"state":"active","ping":60},{"user_id":238,"name":"crazycalumrock","steam_id":76561198049890080,"connected_time":23000000000,"state":"active","ping":56},{"user_id":201,"name":"owo","steam_id":76561199042470246,"connected_time":1413000000000,"state":"active","ping":60},{"user_id":192,"name":"Marcos","steam_id":76561198798925721,"connected_time":1827000000000,"state":"active","ping":66},{"user_id":145,"name":"Sipsu","steam_id":76561198059424107,"connected_time":5084000000000,"state":"active","ping":71},{"user_id":227,"name":"Soya Suki","steam_id":76561197998106435,"connected_time":253000000000,"state":"active","ping":47},{"user_id":217,"name":"AWJ ÀÜ-ÀÜ","steam_id":76561198053628243,"connected_time":924000000000,"state":"active","ping":83},{"user_id":225,"name":"Ducky[WADZ]üê§","steam_id":76561198060341245,"connected_time":440000000000,"state":"active","ping":54},{"user_id":154,"name":"lulu","steam_id":76561199147764133,"connected_time":3967000000000,"state":"active","ping":88},{"user_id":228,"name":"„ÉÜ„Ç§„É´„Çπ","steam_id":76561198022403271,"connected_time":249000000000,"state":"active","ping":45},{"user_id":206,"name":"L√∂ys√§ Masa","steam_id":76561198343396172,"connected_time":1370000000000,"state":"active","ping":90},{"user_id":229,"name":"TSx* Osa__PL","steam_id":76561198027016799,"connected_time":221000000000,"state":"active","ping":74},{"user_id":230,"name":"TSx* Naxer","steam_id":76561198011986779,"connected_time":212000000000,"state":"active","ping":75},{"user_id":233,"name":"PONCHO 90","steam_id":76561198412197820,"connected_time":188000000000,"state":"active","ping":72},{"user_id":234,"name":"Stu","steam_id":76561198131449281,"connected_time":178000000000,"state":"active","ping":48},{"user_id":237,"name":"Beb","steam_id":76561198106119248,"connected_time":164000000000,"state":"active","ping":66},{"user_id":236,"name":"AforeKingDwarf","steam_id":76561198043562926,"connected_time":174000000000,"state":"active","ping":60},{"user_id":109,"name":"GodOfGobboz","steam_id":76561198154677956,"connected_time":8491000000000,"state":"active","ping":78},{"user_id":213,"name":"John Taxenfraud","steam_id":76561199011358805,"connected_time":1132000000000,"state":"active","ping":169}]},{"server_id":23,"name":"Uncletopia | Frankfurt | 7 | Stopwatch Beta","name_short":"frk-7","host":"frk-1.de.uncletopia.com","port":27075,"enabled":true,"region":"eu","cc":"de","latitude":50.110924,"longitude":8.682127,"reserved":0,"last_update":"0001-01-01T00:00:00Z","name_a2s":"Uncletopia | Frankfurt | 7 | Stopwatch Beta","protocol":17,"map":"workshop/pl_barnblitz_pro7.ugc582280235","folder":"tf","game":"Team Fortress","app_id":440,"player_count":0,"max_players":24,"Bots":0,"server_type":"Dedicated","server_os":"Linux","password":true,"vac":true,"version":"7723704","steam_id":85568392924742827,"keywords":["nocrits","nodmgspread","payload","uncletopia"],"game_id":440,"stv_port":27076,"stv_name":"Uncletopia | Frankfurt | 7 | Stopwatch Beta | STV","players":null},{"server_id":24,"name":"Uncletopia | Frankfurt | 8 | Community","name_short":"frk-8","host":"frk-1.de.uncletopia.com","port":27085,"enabled":true,"region":"eu","cc":"de","latitude":50.110924,"longitude":8.682127,"reserved":0,"last_update":"0001-01-01T00:00:00Z","name_a2s":"Uncletopia | Frankfurt | 8 | Community","protocol":17,"map":"workshop/pl_fifthcurve_rc1.ugc648227046","folder":"tf","game":"Team Fortress","app_id":440,"player_count":0,"max_players":24,"Bots":0,"server_type":"Dedicated","server_os":"Linux","password":true,"vac":true,"version":"7723704","steam_id":85568392924742828,"keywords":["nocrits","nodmgspread","payload","uncletopia"],"game_id":440,"stv_port":27086,"stv_name":"Uncletopia | Frankfurt | 8 | Community | STV","players":null},{"server_id":202,"name":"Uncletopia | Hong Kong | 1 | All Maps","name_short":"hgk-1","host":"hgk-1.hk.uncletopia.com","port":27015,"enabled":true,"region":"asia","cc":"hk","latitude":22.302711,"longitude":114.177216,"reserved":0,"last_update":"0001-01-01T00:00:00Z","name_a2s":"Uncletopia | Hong Kong | 1 | All Maps","protocol":17,"map":"ctf_2fort","folder":"tf","game":"Team Fortress","app_id":440,"player_count":0,"max_players":24,"Bots":0,"server_type":"Dedicated","server_os":"Linux","password":true,"vac":true,"version":"7723704","steam_id":85568392924494504,"keywords":["ctf","nocrits","nodmgspread","uncletopia"],"game_id":440,"stv_port":27016,"stv_name":"Uncletopia | Hong Kong | 1 | All Maps | STV","players":null},{"server_id":1,"name":"Uncletopia | Los Angeles | 1 | All Maps","name_short":"lax-1","host":"lax-1.us.uncletopia.com","port":27015,"enabled":true,"region":"us-west","cc":"us","latitude":33.94279,"longitude":-118.41004,"reserved":0,"last_update":"0001-01-01T00:00:00Z","name_a2s":"Uncletopia | Los Angeles | 1 | All Maps","protocol":17,"map":"cp_dustbowl","folder":"tf","game":"Team Fortress","app_id":440,"player_count":24,"max_players":24,"Bots":0,"server_type":"Dedicated","server_os":"Linux","password":true,"vac":true,"version":"7723704","steam_id":85568392924469991,"keywords":["cp","nocrits","nodmgspread","uncletopia"],"game_id":440,"stv_port":27016,"stv_name":"Uncletopia | Los Angeles | 1 | All Maps | STV","players":[{"user_id":34,"name":"azureglxy","steam_id":76561198861388315,"connected_time":855000000000,"state":"active","ping":48},{"user_id":35,"name":"A Puppy","steam_id":76561198828184456,"connected_time":815000000000,"state":"active","ping":96},{"user_id":48,"name":"Camfour","steam_id":76561198083090140,"connected_time":233000000000,"state":"active","ping":96},{"user_id":9,"name":"SlitherDoodle","steam_id":76561198000275473,"connected_time":2109000000000,"state":"active","ping":46},{"user_id":10,"name":"Peido Magro","steam_id":76561199169499520,"connected_time":1890000000000,"state":"active","ping":66},{"user_id":24,"name":"Khornate Berzerker","steam_id":76561198316610724,"connected_time":1164000000000,"state":"active","ping":87},{"user_id":12,"name":"Klexo17","steam_id":76561199228704272,"connected_time":1856000000000,"state":"active","ping":51},{"user_id":43,"name":"Tohru Adachi","steam_id":76561198302118756,"connected_time":591000000000,"state":"active","ping":58},{"user_id":20,"name":"StarWither","steam_id":76561198383264295,"connected_time":1256000000000,"state":"active","ping":79},{"user_id":21,"name":"Round King","steam_id":76561198273185290,"connected_time":1227000000000,"state":"active","ping":128},{"user_id":17,"name":"ehs","steam_id":76561198431048339,"connected_time":1375000000000,"state":"active","ping":65},{"user_id":28,"name":"hoboways","steam_id":76561198168035195,"connected_time":966000000000,"state":"active","ping":120},{"user_id":30,"name":"spyackaso spyu","steam_id":76561198039728594,"connected_time":939000000000,"state":"active","ping":70},{"user_id":42,"name":"The Potato Romancer","steam_id":76561198204197648,"connected_time":618000000000,"state":"active","ping":47},{"user_id":29,"name":"blue_axolotl64","steam_id":76561199121285443,"connected_time":956000000000,"state":"active","ping":98},{"user_id":31,"name":"Snake Handler","steam_id":76561198027198306,"connected_time":904000000000,"state":"active","ping":117},{"user_id":32,"name":"Terra","steam_id":76561199095390353,"connected_time":894000000000,"state":"active","ping":69},{"user_id":33,"name":"ZoomPickle","steam_id":76561198801107779,"connected_time":861000000000,"state":"active","ping":115},{"user_id":41,"name":"willywanka9112twitchtv","steam_id":76561199140797407,"connected_time":633000000000,"state":"active","ping":137},{"user_id":38,"name":"imadabest","steam_id":76561199123304377,"connected_time":736000000000,"state":"active","ping":65},{"user_id":39,"name":"Festive Kappa","steam_id":76561198392375910,"connected_time":706000000000,"state":"active","ping":70},{"user_id":44,"name":"ArnoldGaming","steam_id":76561198040140247,"connected_time":580000000000,"state":"active","ping":132},{"user_id":45,"name":"Goblin Gaming üë∫","steam_id":76561199123532358,"connected_time":561000000000,"state":"active","ping":108},{"user_id":47,"name":"TheBold","steam_id":76561199194787298,"connected_time":287000000000,"state":"active","ping":50}]},{"server_id":112,"name":"Uncletopia | Los Angeles | 2 | All Maps","name_short":"lax-2","host":"lax-1.us.uncletopia.com","port":27025,"enabled":true,"region":"us-west","cc":"us","latitude":33.94279,"longitude":-118.41004,"reserved":0,"last_update":"0001-01-01T00:00:00Z","name_a2s":"Uncletopia | Los Angeles | 2 | All Maps","protocol":17,"map":"koth_viaduct","folder":"tf","game":"Team Fortress","app_id":440,"player_count":0,"max_players":24,"Bots":0,"server_type":"Dedicated","server_os":"Linux","password":true,"vac":true,"version":"7723704","steam_id":85568392924469992,"keywords":["cp","nocrits","nodmgspread","uncletopia"],"game_id":440,"stv_port":27026,"stv_name":"Uncletopia | Los Angeles | 2 | All Maps | STV","players":null},{"server_id":324,"name":"Uncletopia | Los Angeles | 3 | All Maps","name_short":"lax-3","host":"lax-1.us.uncletopia.com","port":27035,"enabled":true,"region":"us-west","cc":"us","latitude":33.94279,"longitude":-118.41004,"reserved":0,"last_update":"0001-01-01T00:00:00Z","name_a2s":"Uncletopia | Los Angeles | 3 | All Maps","protocol":17,"map":"koth_viaduct","folder":"tf","game":"Team Fortress","app_id":440,"player_count":0,"max_players":24,"Bots":0,"server_type":"Dedicated","server_os":"Linux","password":true,"vac":true,"version":"7723704","steam_id":85568392924510198,"keywords":["cp","nocrits","nodmgspread","uncletopia"],"game_id":440,"stv_port":27036,"stv_name":"Uncletopia | Los Angeles | 3 | All Maps | STV","players":null},{"server_id":25,"name":"Uncletopia | Los Angeles | 4 | Stopwatch Beta","name_short":"lax-4","host":"lax-1.us.uncletopia.com","port":27045,"enabled":true,"region":"us-west","cc":"us","latitude":33.94279,"longitude":-118.41004,"reserved":0,"last_update":"0001-01-01T00:00:00Z","name_a2s":"Uncletopia | Los Angeles | 4 | Stopwatch Beta","protocol":17,"map":"cp_sunshine","folder":"tf","game":"Team Fortress","app_id":440,"player_count":0,"max_players":24,"Bots":0,"server_type":"Dedicated","server_os":"Linux","password":true,"vac":true,"version":"7723704","steam_id":85568392924510199,"keywords":["cp","nocrits","nodmgspread","uncletopia"],"game_id":440,"stv_port":27046,"stv_name":"Uncletopia | Los Angeles | 4 | Stopwatch Beta | STV","players":null},{"server_id":11,"name":"Uncletopia | London | 1 | All Maps","name_short":"lon-1","host":"lon-1.uk.uncletopia.com","port":27015,"enabled":true,"region":"eu","cc":"gb","latitude":51.509865,"longitude":-0.118092,"reserved":0,"last_update":"0001-01-01T00:00:00Z","name_a2s":"Uncletopia | London | 1 | All Maps","protocol":17,"map":"pl_barnblitz","folder":"tf","game":"Team Fortress","app_id":440,"player_count":24,"max_players":24,"Bots":0,"server_type":"Dedicated","server_os":"Linux","password":true,"vac":true,"version":"7723704","steam_id":85568392924367362,"keywords":["nocrits","nodmgspread","payload","uncletopia"],"game_id":440,"stv_port":27016,"stv_name":"Uncletopia | London | 1 | All Maps | STV","players":[{"user_id":648,"name":"Tort","steam_id":76561198329646769,"connected_time":1808000000000,"state":"active","ping":49},{"user_id":661,"name":"Clitorina","steam_id":76561198077570815,"connected_time":450000000000,"state":"active","ping":45},{"user_id":662,"name":"cheesecake.","steam_id":76561198426604784,"connected_time":394000000000,"state":"active","ping":36},{"user_id":616,"name":"Joseph Stalin LFT","steam_id":76561198033199746,"connected_time":2631000000000,"state":"active","ping":49},{"user_id":657,"name":"MrMedic","steam_id":76561199239610052,"connected_time":1048000000000,"state":"active","ping":84},{"user_id":561,"name":"Bones","steam_id":76561198065081225,"connected_time":6677000000000,"state":"active","ping":41},{"user_id":565,"name":"LarsInABox","steam_id":76561198028329262,"connected_time":6301000000000,"state":"active","ping":75},{"user_id":660,"name":"Newax","steam_id":76561198020758511,"connected_time":477000000000,"state":"active","ping":74},{"user_id":668,"name":"Windows Vista Cruiser","steam_id":76561198064102233,"connected_time":233000000000,"state":"active","ping":67},{"user_id":663,"name":"Dondonz","steam_id":76561198111407893,"connected_time":356000000000,"state":"active","ping":55},{"user_id":654,"name":"rebooted","steam_id":76561198295414098,"connected_time":1327000000000,"state":"active","ping":67},{"user_id":672,"name":"Jar","steam_id":76561198156384007,"connected_time":116000000000,"state":"active","ping":51},{"user_id":659,"name":"Daginberth","steam_id":76561198043811437,"connected_time":508000000000,"state":"active","ping":81},{"user_id":664,"name":"Graceful Jabberwocky","steam_id":76561199013504849,"connected_time":313000000000,"state":"active","ping":53},{"user_id":665,"name":"Maranhadas","steam_id":76561198152856761,"connected_time":294000000000,"state":"active","ping":151},{"user_id":608,"name":"Festdoktor","steam_id":76561198058159271,"connected_time":3315000000000,"state":"active","ping":66},{"user_id":666,"name":"[GER] Catman","steam_id":76561198105028151,"connected_time":264000000000,"state":"active","ping":55},{"user_id":667,"name":"Videogamer","steam_id":76561198106012909,"connected_time":261000000000,"state":"active","ping":75},{"user_id":669,"name":"apple","steam_id":76561198116932635,"connected_time":214000000000,"state":"active","ping":31},{"user_id":647,"name":"Senator Armstrong","steam_id":76561198818623690,"connected_time":1862000000000,"state":"active","ping":48},{"user_id":670,"name":"Axter","steam_id":76561198118747192,"connected_time":211000000000,"state":"active","ping":79},{"user_id":566,"name":"Serton‚ôù","steam_id":76561198011061126,"connected_time":6155000000000,"state":"active","ping":80},{"user_id":645,"name":"ghost","steam_id":76561198189940229,"connected_time":1938000000000,"state":"active","ping":60},{"user_id":653,"name":"Ela?","steam_id":76561198382598509,"connected_time":1577000000000,"state":"active","ping":67}]},{"server_id":114,"name":"Uncletopia | London | 2 | All Maps","name_short":"lon-2","host":"lon-1.uk.uncletopia.com","port":27025,"enabled":true,"region":"eu","cc":"gb","latitude":51.509865,"longitude":-0.118092,"reserved":0,"last_update":"0001-01-01T00:00:00Z","name_a2s":"Uncletopia | London | 2 | All Maps","protocol":17,"map":"koth_suijin","folder":"tf","game":"Team Fortress","app_id":440,"player_count":24,"max_players":24,"Bots":0,"server_type":"Dedicated","server_os":"Linux","password":true,"vac":true,"version":"7723704","steam_id":85568392924470941,"keywords":["cp","nocrits","nodmgspread","uncletopia"],"game_id":440,"stv_port":27026,"stv_name":"Uncletopia | London | 2 | All Maps | STV","players":[{"user_id":436,"name":"Jingleboob's 1# Elf","steam_id":76561198067204908,"connected_time":2823000000000,"state":"active","ping":56},{"user_id":455,"name":"ballfondler fan club","steam_id":76561198163244605,"connected_time":561000000000,"state":"active","ping":78},{"user_id":467,"name":"steve","steam_id":76561198170409402,"connected_time":190000000000,"state":"active","ping":67},{"user_id":416,"name":"bouefie","steam_id":76561198045347066,"connected_time":3235000000000,"state":"active","ping":61},{"user_id":448,"name":"Boil em mash em","steam_id":76561198026508026,"connected_time":989000000000,"state":"active","ping":60},{"user_id":459,"name":"Unreal","steam_id":76561198996541848,"connected_time":472000000000,"state":"active","ping":47},{"user_id":418,"name":"bio\"boner killer\"fun","steam_id":76561198170609049,"connected_time":3176000000000,"state":"active","ping":60},{"user_id":433,"name":"Ecton","steam_id":76561198025103720,"connected_time":2916000000000,"state":"active","ping":54},{"user_id":457,"name":"DarthPaul8181","steam_id":76561198373050455,"connected_time":531000000000,"state":"active","ping":44},{"user_id":449,"name":"Hey, I¬¥m Andy!","steam_id":76561198060337777,"connected_time":975000000000,"state":"active","ping":77},{"user_id":456,"name":"professional yellow man","steam_id":76561198060200599,"connected_time":546000000000,"state":"active","ping":105},{"user_id":458,"name":"PASTAMANIA!","steam_id":76561197967858558,"connected_time":526000000000,"state":"active","ping":43},{"user_id":460,"name":"lofi hip hop beats","steam_id":76561198348048790,"connected_time":462000000000,"state":"active","ping":57},{"user_id":461,"name":"Swo is me","steam_id":76561198044031857,"connected_time":446000000000,"state":"active","ping":61},{"user_id":462,"name":"spud Johnson (fake)","steam_id":76561199380974466,"connected_time":427000000000,"state":"active","ping":87},{"user_id":444,"name":"del2o","steam_id":76561199072601822,"connected_time":1592000000000,"state":"active","ping":129},{"user_id":463,"name":"Caramel","steam_id":76561198021214844,"connected_time":381000000000,"state":"active","ping":44},{"user_id":451,"name":"tob:ias","steam_id":76561198832146626,"connected_time":926000000000,"state":"active","ping":47},{"user_id":426,"name":"jingleboob","steam_id":76561198097507847,"connected_time":3045000000000,"state":"active","ping":86},{"user_id":452,"name":"dnl","steam_id":76561198074156929,"connected_time":925000000000,"state":"active","ping":76},{"user_id":470,"name":"killerdiam","steam_id":76561198806422317,"connected_time":160000000000,"state":"active","ping":47},{"user_id":464,"name":"Em","steam_id":76561198302598614,"connected_time":331000000000,"state":"active","ping":59},{"user_id":471,"name":"Dark Lord","steam_id":76561198047359132,"connected_time":48000000000,"state":"active","ping":75},{"user_id":469,"name":"Typical","steam_id":76561199009805172,"connected_time":168000000000,"state":"active","ping":96}]},{"server_id":320,"name":"Uncletopia | London | 3 | All Maps","name_short":"lon-3","host":"lon-1.uk.uncletopia.com","port":27035,"enabled":true,"region":"eu","cc":"gb","latitude":51.509865,"longitude":-0.118092,"reserved":0,"last_update":"0001-01-01T00:00:00Z","name_a2s":"Uncletopia | London | 3 | All Maps","protocol":17,"map":"cp_steel","folder":"tf","game":"Team Fortress","app_id":440,"player_count":24,"max_players":24,"Bots":0,"server_type":"Dedicated","server_os":"Linux","password":true,"vac":true,"version":"7723704","steam_id":85568392924510192,"keywords":["cp","nocrits","nodmgspread","uncletopia"],"game_id":440,"stv_port":27036,"stv_name":"Uncletopia | London | 3 | All Maps | STV","players":[{"user_id":368,"name":"seishiliar","steam_id":76561198355587569,"connected_time":3262000000000,"state":"active","ping":119},{"user_id":386,"name":"sHIFTINGvORTEX","steam_id":76561198231648332,"connected_time":2061000000000,"state":"active","ping":55},{"user_id":398,"name":"Bulldozer","steam_id":76561199095392480,"connected_time":863000000000,"state":"active","ping":116},{"user_id":377,"name":"CAMON ENGELAND","steam_id":76561198054301125,"connected_time":2777000000000,"state":"active","ping":87},{"user_id":405,"name":"stonebum","steam_id":76561198057004606,"connected_time":541000000000,"state":"active","ping":53},{"user_id":399,"name":"Svilar","steam_id":76561198828348612,"connected_time":756000000000,"state":"active","ping":50},{"user_id":326,"name":"Nexosert","steam_id":76561198941142018,"connected_time":7034000000000,"state":"active","ping":149},{"user_id":400,"name":"Perci","steam_id":76561198097789669,"connected_time":701000000000,"state":"active","ping":71},{"user_id":401,"name":"john fluidmasterballwasher doe","steam_id":76561199006462039,"connected_time":670000000000,"state":"active","ping":64},{"user_id":338,"name":"YILK","steam_id":76561198077913307,"connected_time":6174000000000,"state":"active","ping":45},{"user_id":395,"name":"Bigson","steam_id":76561198114214362,"connected_time":1190000000000,"state":"active","ping":51},{"user_id":388,"name":"‚òØ‚ôî‚ûäTAP Jesus‚Ñ¢‚úû‚ôî","steam_id":76561198829230811,"connected_time":1977000000000,"state":"active","ping":69},{"user_id":371,"name":"Chocopenguin","steam_id":76561198247470284,"connected_time":3205000000000,"state":"active","ping":63},{"user_id":393,"name":"wooperfan","steam_id":76561198081843086,"connected_time":1368000000000,"state":"active","ping":149},{"user_id":392,"name":"uncle turd","steam_id":76561198022169689,"connected_time":1812000000000,"state":"active","ping":64},{"user_id":406,"name":"wee nut","steam_id":76561198083288197,"connected_time":380000000000,"state":"active","ping":57},{"user_id":403,"name":"Tjoene","steam_id":76561198015910481,"connected_time":589000000000,"state":"active","ping":75},{"user_id":397,"name":"EwantheEwok","steam_id":76561198074772635,"connected_time":1073000000000,"state":"active","ping":60},{"user_id":384,"name":"Sense #protecttradition","steam_id":76561199061055364,"connected_time":2244000000000,"state":"active","ping":60},{"user_id":375,"name":"The Funny Cat-Heaby","steam_id":76561198439978112,"connected_time":2908000000000,"state":"active","ping":98},{"user_id":381,"name":"NOOT_NOOT_TOASTER_SUIT","steam_id":76561198319204182,"connected_time":2509000000000,"state":"active","ping":42},{"user_id":404,"name":"SaltyCupcakes","steam_id":76561198256386417,"connected_time":589000000000,"state":"active","ping":44},{"user_id":391,"name":"heisenburger","steam_id":76561198284589853,"connected_time":1961000000000,"state":"active","ping":89},{"user_id":341,"name":"Nassu","steam_id":76561198147367577,"connected_time":6057000000000,"state":"active","ping":161}]},{"server_id":321,"name":"Uncletopia | London | 4 | All Maps","name_short":"lon-4","host":"lon-1.uk.uncletopia.com","port":27045,"enabled":true,"region":"eu","cc":"gb","latitude":51.509865,"longitude":-0.118092,"reserved":0,"last_update":"0001-01-01T00:00:00Z","name_a2s":"Uncletopia | London | 4 | All Maps","protocol":17,"map":"pl_barnblitz","folder":"tf","game":"Team Fortress","app_id":440,"player_count":24,"max_players":24,"Bots":0,"server_type":"Dedicated","server_os":"Linux","password":true,"vac":true,"version":"7723704","steam_id":85568392924510193,"keywords":["nocrits","nodmgspread","payload","uncletopia"],"game_id":440,"stv_port":27046,"stv_name":"Uncletopia | London | 4 | All Maps | STV","players":[{"user_id":140,"name":"Equinox","steam_id":76561199055592635,"connected_time":742000000000,"state":"active","ping":50},{"user_id":132,"name":"wolfgang","steam_id":76561199111818670,"connected_time":1493000000000,"state":"active","ping":97},{"user_id":84,"name":"Baconcat","steam_id":76561198079354676,"connected_time":3691000000000,"state":"active","ping":110},{"user_id":20,"name":"Zigguski","steam_id":76561198022990016,"connected_time":7103000000000,"state":"active","ping":44},{"user_id":149,"name":"Krabs","steam_id":76561198161679477,"connected_time":125000000000,"state":"active","ping":44},{"user_id":150,"name":"Lightsynth","steam_id":76561198057361065,"connected_time":109000000000,"state":"active","ping":109},{"user_id":154,"name":"zek","steam_id":76561198862763731,"connected_time":56000000000,"state":"active","ping":78},{"user_id":130,"name":"buddy","steam_id":76561197988733568,"connected_time":1654000000000,"state":"active","ping":58},{"user_id":131,"name":"still the best 1973 #savetf2","steam_id":76561199221139822,"connected_time":1650000000000,"state":"active","ping":99},{"user_id":87,"name":"Tryrn","steam_id":76561198075487436,"connected_time":3624000000000,"state":"active","ping":82},{"user_id":126,"name":"Miros10","steam_id":76561198196667978,"connected_time":1804000000000,"state":"active","ping":63},{"user_id":98,"name":"Atomic homo","steam_id":76561198058944826,"connected_time":2605000000000,"state":"active","ping":56},{"user_id":102,"name":"WomenBeardLike","steam_id":76561198390184314,"connected_time":2512000000000,"state":"active","ping":56},{"user_id":151,"name":"BigManlyMan123","steam_id":76561198051369028,"connected_time":87000000000,"state":"active","ping":47},{"user_id":152,"name":"PotatoeChisps","steam_id":76561198142556383,"connected_time":83000000000,"state":"active","ping":169},{"user_id":142,"name":"SpyCrab  Erik Twice","steam_id":76561198009710309,"connected_time":741000000000,"state":"active","ping":53},{"user_id":138,"name":"|WS| Don't_Taze_Me_Bro","steam_id":76561198043289495,"connected_time":963000000000,"state":"active","ping":146},{"user_id":146,"name":"Heller","steam_id":76561198033694102,"connected_time":318000000000,"state":"active","ping":72},{"user_id":127,"name":"kapsel","steam_id":76561198126564423,"connected_time":1749000000000,"state":"active","ping":67},{"user_id":148,"name":"MS","steam_id":76561198037560108,"connected_time":148000000000,"state":"active","ping":32},{"user_id":147,"name":"BrownBreadMan","steam_id":76561199092834214,"connected_time":254000000000,"state":"active","ping":49},{"user_id":153,"name":"Festive Yuletart","steam_id":76561198023918830,"connected_time":79000000000,"state":"active","ping":45},{"user_id":91,"name":"-rikeOo-","steam_id":76561198303995379,"connected_time":3546000000000,"state":"active","ping":79},{"user_id":135,"name":"garthag","steam_id":76561198042039318,"connected_time":1423000000000,"state":"active","ping":40}]},{"server_id":21,"name":"Uncletopia | London | 5 | All Maps","name_short":"lon-5","host":"lon-1.uk.uncletopia.com","port":27055,"enabled":true,"region":"eu","cc":"gb","latitude":51.509865,"longitude":-0.118092,"reserved":0,"last_update":"0001-01-01T00:00:00Z","name_a2s":"Uncletopia | London | 5 | All Maps","protocol":17,"map":"cp_dustbowl","folder":"tf","game":"Team Fortress","app_id":440,"player_count":24,"max_players":24,"Bots":0,"server_type":"Dedicated","server_os":"Linux","password":true,"vac":true,"version":"7723704","steam_id":85568392924742829,"keywords":["cp","nocrits","nodmgspread","uncletopia"],"game_id":440,"stv_port":27056,"stv_name":"Uncletopia | London | 5 | All Maps | STV","players":[{"user_id":170,"name":"YS üë∫","steam_id":76561198040128985,"connected_time":2137000000000,"state":"active","ping":59},{"user_id":160,"name":"Citrus","steam_id":76561198090650837,"connected_time":3301000000000,"state":"active","ping":50},{"user_id":132,"name":"dairy","steam_id":76561198117033273,"connected_time":4403000000000,"state":"active","ping":60},{"user_id":161,"name":"raccoon toddler","steam_id":76561198015876799,"connected_time":3181000000000,"state":"active","ping":68},{"user_id":138,"name":"wombly bombly :3","steam_id":76561198010662796,"connected_time":4071000000000,"state":"active","ping":43},{"user_id":188,"name":"Thesis","steam_id":76561199308784371,"connected_time":525000000000,"state":"active","ping":52},{"user_id":85,"name":"wombatty","steam_id":76561198046873337,"connected_time":8753000000000,"state":"active","ping":45},{"user_id":185,"name":"Nedge","steam_id":76561197963549701,"connected_time":939000000000,"state":"active","ping":45},{"user_id":162,"name":"SpaceGoat","steam_id":76561198091774304,"connected_time":3079000000000,"state":"active","ping":48},{"user_id":186,"name":"Tamakeri","steam_id":76561198261676534,"connected_time":891000000000,"state":"active","ping":51},{"user_id":194,"name":"ev1lboyo","steam_id":76561199199499453,"connected_time":255000000000,"state":"active","ping":83},{"user_id":144,"name":"wombat","steam_id":76561198076219289,"connected_time":3790000000000,"state":"active","ping":59},{"user_id":190,"name":"Gramma!","steam_id":76561198340989175,"connected_time":373000000000,"state":"active","ping":161},{"user_id":191,"name":"SaiyaBoy","steam_id":76561197995674205,"connected_time":320000000000,"state":"active","ping":80},{"user_id":192,"name":"sock","steam_id":76561199117597830,"connected_time":316000000000,"state":"active","ping":121},{"user_id":195,"name":"FireElia112","steam_id":76561198399943343,"connected_time":254000000000,"state":"active","ping":54},{"user_id":187,"name":"Frazzles","steam_id":76561199228009586,"connected_time":690000000000,"state":"active","ping":51},{"user_id":183,"name":"i am bread","steam_id":76561199180277321,"connected_time":1214000000000,"state":"active","ping":53},{"user_id":198,"name":"bAdmon","steam_id":76561197961785793,"connected_time":142000000000,"state":"active","ping":59},{"user_id":196,"name":"FemKastely","steam_id":76561198164079439,"connected_time":198000000000,"state":"active","ping":84},{"user_id":181,"name":"Smissmin","steam_id":76561198005342133,"connected_time":1329000000000,"state":"active","ping":42},{"user_id":197,"name":"Baconater","steam_id":76561199002315210,"connected_time":163000000000,"state":"active","ping":38},{"user_id":176,"name":"Narvhal√∏","steam_id":76561198147495474,"connected_time":1835000000000,"state":"active","ping":39},{"user_id":184,"name":"Egtu","steam_id":76561198013757235,"connected_time":1039000000000,"state":"active","ping":75}]},{"server_id":22,"name":"Uncletopia | London | 6 | All Maps","name_short":"lon-6","host":"lon-1.uk.uncletopia.com","port":27065,"enabled":true,"region":"eu","cc":"gb","latitude":51.509865,"longitude":-0.118092,"reserved":0,"last_update":"0001-01-01T00:00:00Z","name_a2s":"Uncletopia | London | 6 | All Maps","protocol":17,"map":"pl_barnblitz","folder":"tf","game":"Team Fortress","app_id":440,"player_count":0,"max_players":24,"Bots":0,"server_type":"Dedicated","server_os":"Linux","password":true,"vac":true,"version":"7723704","steam_id":85568392924742830,"keywords":["nocrits","nodmgspread","payload","uncletopia"],"game_id":440,"stv_port":27066,"stv_name":"Uncletopia | London | 6 | All Maps | STV","players":null},{"server_id":40,"name":"Uncletopia | London | 7 | No Payload","name_short":"lon-7","host":"lon-1.uk.uncletopia.com","port":27075,"enabled":true,"region":"eu","cc":"gb","latitude":51.509865,"longitude":-0.118092,"reserved":0,"last_update":"0001-01-01T00:00:00Z","name_a2s":"Uncletopia | London | 7 | No Payload","protocol":17,"map":"plr_nightfall_final","folder":"tf","game":"Team Fortress","app_id":440,"player_count":0,"max_players":24,"Bots":0,"server_type":"Dedicated","server_os":"Linux","password":true,"vac":true,"version":"7723704","steam_id":85568392924964314,"keywords":["nocrits","nodmgspread","payload","uncletopia"],"game_id":440,"stv_port":27076,"stv_name":"Uncletopia | London | 7 | No Payload | STV","players":null},{"server_id":41,"name":"Uncletopia | London | 8 | Community","name_short":"lon-8","host":"lon-1.uk.uncletopia.com","port":27085,"enabled":true,"region":"eu","cc":"gb","latitude":51.509865,"longitude":-0.118092,"reserved":0,"last_update":"0001-01-01T00:00:00Z","name_a2s":"Uncletopia | London | 8 | Community","protocol":17,"map":"koth_highpass","folder":"tf","game":"Team Fortress","app_id":440,"player_count":0,"max_players":24,"Bots":0,"server_type":"Dedicated","server_os":"Linux","password":true,"vac":true,"version":"7723704","steam_id":85568392924964315,"keywords":["cp","nocrits","nodmgspread","uncletopia"],"game_id":440,"stv_port":27086,"stv_name":"Uncletopia | London | 8 | Community | STV","players":null},{"server_id":300,"name":"Uncletopia | Montr√©al | 1 | All Maps","name_short":"mtl-1","host":"mtl-1.ca.uncletopia.com","port":27015,"enabled":true,"region":"us-east","cc":"ca","latitude":45.50889,"longitude":-73.56167,"reserved":0,"last_update":"0001-01-01T00:00:00Z","name_a2s":"Uncletopia | Montr√©al | 1 | All Maps","protocol":17,"map":"cp_mountainlab","folder":"tf","game":"Team Fortress","app_id":440,"player_count":0,"max_players":24,"Bots":0,"server_type":"Dedicated","server_os":"Linux","password":true,"vac":true,"version":"7723704","steam_id":85568392924500087,"keywords":["cp","nocrits","nodmgspread","uncletopia"],"game_id":440,"stv_port":27016,"stv_name":"Uncletopia | Montr√©al | 1 | All Maps | STV","players":null},{"server_id":301,"name":"Uncletopia | Montr√©al | 2 | All Maps","name_short":"mtl-2","host":"mtl-1.ca.uncletopia.com","port":27025,"enabled":true,"region":"us-east","cc":"ca","latitude":45.50889,"longitude":-73.56167,"reserved":0,"last_update":"0001-01-01T00:00:00Z","name_a2s":"Uncletopia | Montr√©al | 2 | All Maps","protocol":17,"map":"cp_process_final","folder":"tf","game":"Team Fortress","app_id":440,"player_count":0,"max_players":24,"Bots":0,"server_type":"Dedicated","server_os":"Linux","password":true,"vac":true,"version":"7723704","steam_id":85568392924500088,"keywords":["cp","nocrits","nodmgspread","uncletopia"],"game_id":440,"stv_port":27026,"stv_name":"Uncletopia | Montr√©al | 2 | All Maps | STV","players":null},{"server_id":302,"name":"Uncletopia | Montr√©al | 3 | All Maps","name_short":"mtl-3","host":"mtl-1.ca.uncletopia.com","port":27035,"enabled":true,"region":"us-east","cc":"ca","latitude":45.50889,"longitude":-73.56167,"reserved":0,"last_update":"0001-01-01T00:00:00Z","name_a2s":"Uncletopia | Montr√©al | 3 | All Maps","protocol":17,"map":"pl_barnblitz","folder":"tf","game":"Team Fortress","app_id":440,"player_count":0,"max_players":24,"Bots":0,"server_type":"Dedicated","server_os":"Linux","password":true,"vac":true,"version":"7723704","steam_id":85568392924500089,"keywords":["nocrits","nodmgspread","payload","uncletopia"],"game_id":440,"stv_port":27036,"stv_name":"Uncletopia | Montr√©al | 3 | All Maps | STV","players":null},{"server_id":303,"name":"Uncletopia | Montr√©al | 4 | No Payload","name_short":"mtl-4","host":"mtl-1.ca.uncletopia.com","port":27045,"enabled":true,"region":"us-east","cc":"ca","latitude":45.50889,"longitude":-73.56167,"reserved":0,"last_update":"0001-01-01T00:00:00Z","name_a2s":"Uncletopia | Montr√©al | 4 | No Payload","protocol":17,"map":"koth_cascade","folder":"tf","game":"Team Fortress","app_id":440,"player_count":0,"max_players":24,"Bots":0,"server_type":"Dedicated","server_os":"Linux","password":true,"vac":true,"version":"7723704","steam_id":85568392924500090,"keywords":["cp","nocrits","nodmgspread","uncletopia"],"game_id":440,"stv_port":27046,"stv_name":"Uncletopia | Montr√©al | 4 | No Payload | STV","players":null},{"server_id":13,"name":"Uncletopia | New York City | 1 | All Maps","name_short":"nyc-1","host":"nyc-1.us.uncletopia.com","port":27015,"enabled":true,"region":"us-east","cc":"us","latitude":40.73061,"longitude":-73.93524,"reserved":0,"last_update":"0001-01-01T00:00:00Z","name_a2s":"Uncletopia | New York City | 1 | All Maps","protocol":17,"map":"pl_upward","folder":"tf","game":"Team Fortress","app_id":440,"player_count":0,"max_players":24,"Bots":0,"server_type":"Dedicated","server_os":"Linux","password":true,"vac":true,"version":"7723704","steam_id":85568392924469993,"keywords":["nocrits","nodmgspread","payload","uncletopia"],"game_id":440,"stv_port":27016,"stv_name":"Uncletopia | New York City | 1 | All Maps | STV","players":null},{"server_id":14,"name":"Uncletopia | New York City | 2 | All Maps","name_short":"nyc-2","host":"nyc-1.us.uncletopia.com","port":27025,"enabled":true,"region":"us-east","cc":"us","latitude":40.73061,"longitude":-73.93524,"reserved":0,"last_update":"0001-01-01T00:00:00Z","name_a2s":"Uncletopia | New York City | 2 | All Maps","protocol":17,"map":"pl_barnblitz","folder":"tf","game":"Team Fortress","app_id":440,"player_count":0,"max_players":24,"Bots":0,"server_type":"Dedicated","server_os":"Linux","password":true,"vac":true,"version":"7723704","steam_id":85568392924469994,"keywords":["nocrits","nodmgspread","payload","uncletopia"],"game_id":440,"stv_port":27026,"stv_name":"Uncletopia | New York City | 2 | All Maps | STV","players":null},{"server_id":15,"name":"Uncletopia | New York City | 3 | Stopwatch Beta","name_short":"nyc-3","host":"nyc-1.us.uncletopia.com","port":27035,"enabled":true,"region":"us-east","cc":"us","latitude":40.73061,"longitude":-73.93524,"reserved":0,"last_update":"0001-01-01T00:00:00Z","name_a2s":"Uncletopia | New York City | 3 | Stopwatch Beta","protocol":17,"map":"cp_process_final","folder":"tf","game":"Team Fortress","app_id":440,"player_count":0,"max_players":24,"Bots":0,"server_type":"Dedicated","server_os":"Linux","password":true,"vac":true,"version":"7723704","steam_id":85568392924742820,"keywords":["cp","nocrits","nodmgspread","uncletopia"],"game_id":440,"stv_port":27036,"stv_name":"Uncletopia | New York City | 3 | Stopwatch Beta | STV","players":null},{"server_id":16,"name":"Uncletopia | New York City | 4 | Community","name_short":"nyc-4","host":"nyc-1.us.uncletopia.com","port":27045,"enabled":true,"region":"us-east","cc":"us","latitude":40.73061,"longitude":-73.93524,"reserved":0,"last_update":"0001-01-01T00:00:00Z","name_a2s":"Uncletopia | New York City | 4 | Community","protocol":17,"map":"workshop/cp_caldera_rc2.ugc2834196889","folder":"tf","game":"Team Fortress","app_id":440,"player_count":0,"max_players":24,"Bots":0,"server_type":"Dedicated","server_os":"Linux","password":true,"vac":true,"version":"7723704","steam_id":85568392924742821,"keywords":["cp","nocrits","nodmgspread","uncletopia"],"game_id":440,"stv_port":27046,"stv_name":"Uncletopia | New York City | 4 | Community | STV","players":null},{"server_id":142,"name":"Uncletopia | S√£o Paulo | 1 | All Maps","name_short":"sao-1","host":"sao-1.br.uncletopia.com","port":27015,"enabled":true,"region":"sa","cc":"br","latitude":-23.533773,"longitude":-46.62529,"reserved":0,"last_update":"0001-01-01T00:00:00Z","name_a2s":"Uncletopia | S√£o Paulo | 1 | All Maps","protocol":17,"map":"koth_cascade","folder":"tf","game":"Team Fortress","app_id":440,"player_count":0,"max_players":24,"Bots":0,"server_type":"Dedicated","server_os":"Linux","password":true,"vac":true,"version":"7723704","steam_id":85568392924469996,"keywords":["cp","nocrits","nodmgspread","uncletopia"],"game_id":440,"stv_port":27016,"stv_name":"Uncletopia | S√£o Paulo | 1 | All Maps | STV","players":null},{"server_id":143,"name":"Uncletopia | S√£o Paulo | 2 | All Maps","name_short":"sao-2","host":"sao-2.br.uncletopia.com","port":27015,"enabled":true,"region":"sa","cc":"br","latitude":-23.533773,"longitude":-46.62529,"reserved":0,"last_update":"0001-01-01T00:00:00Z","name_a2s":"Uncletopia | S√£o Paulo | 2 | All Maps","protocol":17,"map":"koth_lakeside_final","folder":"tf","game":"Team Fortress","app_id":440,"player_count":0,"max_players":24,"Bots":0,"server_type":"Dedicated","server_os":"Linux","password":true,"vac":true,"version":"7723704","steam_id":85568392924485349,"keywords":["cp","nocrits","nodmgspread","uncletopia"],"game_id":440,"stv_port":27016,"stv_name":"Uncletopia | S√£o Paulo | 2 | All Maps | STV","players":null},{"server_id":7,"name":"Uncletopia | Seattle | 1 | All Maps","name_short":"sea-1","host":"sea-1.us.uncletopia.com","port":27015,"enabled":true,"region":"us-west","cc":"us","latitude":47.608013,"longitude":-122.33517,"reserved":0,"last_update":"0001-01-01T00:00:00Z","name_a2s":"Uncletopia | Seattle | 1 | All Maps","protocol":17,"map":"koth_cascade","folder":"tf","game":"Team Fortress","app_id":440,"player_count":0,"max_players":24,"Bots":0,"server_type":"Dedicated","server_os":"Linux","password":true,"vac":true,"version":"7723704","steam_id":85568392924469997,"keywords":["cp","nocrits","nodmgspread","uncletopia"],"game_id":440,"stv_port":27016,"stv_name":"Uncletopia | Seattle | 1 | All Maps | STV","players":null},{"server_id":119,"name":"Uncletopia | Seattle | 2 | All Maps","name_short":"sea-2","host":"sea-1.us.uncletopia.com","port":27025,"enabled":true,"region":"us-west","cc":"us","latitude":47.608013,"longitude":-122.33517,"reserved":0,"last_update":"0001-01-01T00:00:00Z","name_a2s":"Uncletopia | Seattle | 2 | All Maps","protocol":17,"map":"pl_pier","folder":"tf","game":"Team Fortress","app_id":440,"player_count":0,"max_players":24,"Bots":0,"server_type":"Dedicated","server_os":"Linux","password":true,"vac":true,"version":"7723704","steam_id":85568392924469998,"keywords":["nocrits","nodmgspread","payload","uncletopia"],"game_id":440,"stv_port":27026,"stv_name":"Uncletopia | Seattle | 2 | All Maps | STV","players":null},{"server_id":406,"name":"Uncletopia | Seattle | 3 | Stopwatch Beta","name_short":"sea-3","host":"sea-1.us.uncletopia.com","port":27035,"enabled":true,"region":"us-west","cc":"us","latitude":47.608013,"longitude":-122.33517,"reserved":0,"last_update":"0001-01-01T00:00:00Z","name_a2s":"Uncletopia | Seattle | 3 | Stopwatch Beta","protocol":17,"map":"cp_altitude","folder":"tf","game":"Team Fortress","app_id":440,"player_count":0,"max_players":24,"Bots":0,"server_type":"Dedicated","server_os":"Linux","password":true,"vac":false,"version":"7723704","steam_id":0,"keywords":["cp","nocrits","nodmgspread","uncletopia"],"game_id":440,"stv_port":27036,"stv_name":"Uncletopia | Seattle | 3 | Stopwatch Beta | STV","players":null},{"server_id":17,"name":"Uncletopia | San Francisco | 1 | All Maps","name_short":"sfo-1","host":"sfo-1.us.uncletopia.com","port":27015,"enabled":true,"region":"us-west","cc":"us","latitude":37.77397,"longitude":-122.4313,"reserved":0,"last_update":"0001-01-01T00:00:00Z","name_a2s":"Uncletopia | San Francisco | 1 | All Maps","protocol":17,"map":"cp_sunshine","folder":"tf","game":"Team Fortress","app_id":440,"player_count":0,"max_players":24,"Bots":0,"server_type":"Dedicated","server_os":"Linux","password":true,"vac":true,"version":"7723704","steam_id":85568392924469999,"keywords":["cp","nocrits","nodmgspread","uncletopia"],"game_id":440,"stv_port":27016,"stv_name":"Uncletopia | San Francisco | 1 | All Maps | STV","players":null},{"server_id":18,"name":"Uncletopia | San Francisco | 2 | All Maps","name_short":"sfo-2","host":"sfo-1.us.uncletopia.com","port":27025,"enabled":true,"region":"us-west","cc":"us","latitude":37.77397,"longitude":-122.4313,"reserved":0,"last_update":"0001-01-01T00:00:00Z","name_a2s":"Uncletopia | San Francisco | 2 | All Maps","protocol":17,"map":"pl_borneo","folder":"tf","game":"Team Fortress","app_id":440,"player_count":0,"max_players":24,"Bots":0,"server_type":"Dedicated","server_os":"Linux","password":true,"vac":true,"version":"7723704","steam_id":85568392924470000,"keywords":["nocrits","nodmgspread","payload","uncletopia"],"game_id":440,"stv_port":27026,"stv_name":"Uncletopia | San Francisco | 2 | All Maps | STV","players":null},{"server_id":19,"name":"Uncletopia | San Francisco | 3 | Stopwatch Beta","name_short":"sfo-3","host":"sfo-1.us.uncletopia.com","port":27035,"enabled":true,"region":"us-west","cc":"us","latitude":37.77397,"longitude":-122.4313,"reserved":0,"last_update":"0001-01-01T00:00:00Z","name_a2s":"Uncletopia | San Francisco | 3 | Stopwatch Beta","protocol":17,"map":"pl_pier","folder":"tf","game":"Team Fortress","app_id":440,"player_count":0,"max_players":24,"Bots":0,"server_type":"Dedicated","server_os":"Linux","password":true,"vac":true,"version":"7723704","steam_id":85568392924742824,"keywords":["nocrits","nodmgspread","payload","uncletopia"],"game_id":440,"stv_port":27036,"stv_name":"Uncletopia | San Francisco | 3 | Stopwatch Beta | STV","players":null},{"server_id":20,"name":"Uncletopia | San Francisco | 4 | Community","name_short":"sfo-4","host":"sfo-1.us.uncletopia.com","port":27045,"enabled":true,"region":"us-west","cc":"us","latitude":37.77397,"longitude":-122.4313,"reserved":0,"last_update":"0001-01-01T00:00:00Z","name_a2s":"Uncletopia | San Francisco | 4 | Community","protocol":17,"map":"koth_cascade","folder":"tf","game":"Team Fortress","app_id":440,"player_count":0,"max_players":24,"Bots":0,"server_type":"Dedicated","server_os":"Linux","password":true,"vac":true,"version":"7723704","steam_id":85568392924742826,"keywords":["cp","nocrits","nodmgspread","uncletopia"],"game_id":440,"stv_port":27046,"stv_name":"Uncletopia | San Francisco | 4 | Community | STV","players":null},{"server_id":141,"name":"Uncletopia | Sydney | 1 | All Maps","name_short":"syd-1","host":"syd-1.au.uncletopia.com","port":27015,"enabled":true,"region":"au","cc":"au","latitude":-33.865143,"longitude":151.2099,"reserved":0,"last_update":"0001-01-01T00:00:00Z","name_a2s":"Uncletopia | Sydney | 1 | All Maps","protocol":17,"map":"koth_lakeside_final","folder":"tf","game":"Team Fortress","app_id":440,"player_count":0,"max_players":24,"Bots":0,"server_type":"Dedicated","server_os":"Linux","password":true,"vac":true,"version":"7723704","steam_id":85568392924470001,"keywords":["cp","nocrits","nodmgspread","uncletopia"],"game_id":440,"stv_port":27016,"stv_name":"Uncletopia | Sydney | 1 | All Maps | STV","players":null},{"server_id":123,"name":"Uncletopia | Sydney | 2 | All Maps","name_short":"syd-2","host":"syd-1.au.uncletopia.com","port":27025,"enabled":true,"region":"au","cc":"au","latitude":-33.865143,"longitude":151.2099,"reserved":0,"last_update":"0001-01-01T00:00:00Z","name_a2s":"Uncletopia | Sydney | 2 | All Maps","protocol":17,"map":"pl_upward","folder":"tf","game":"Team Fortress","app_id":440,"player_count":0,"max_players":24,"Bots":0,"server_type":"Dedicated","server_os":"Linux","password":true,"vac":true,"version":"7723704","steam_id":85568392924470002,"keywords":["nocrits","nodmgspread","payload","uncletopia"],"game_id":440,"stv_port":27026,"stv_name":"Uncletopia | Sydney | 2 | All Maps | STV","players":null},{"server_id":395,"name":"Uncletopia | Sydney | 3 | All Maps","name_short":"syd-3","host":"syd-1.au.uncletopia.com","port":27035,"enabled":true,"region":"au","cc":"au","latitude":-33.865143,"longitude":151.2099,"reserved":0,"last_update":"0001-01-01T00:00:00Z","name_a2s":"Uncletopia | Sydney | 3 | All Maps","protocol":17,"map":"cp_dustbowl","folder":"tf","game":"Team Fortress","app_id":440,"player_count":0,"max_players":24,"Bots":0,"server_type":"Dedicated","server_os":"Linux","password":true,"vac":true,"version":"7723704","steam_id":85568392925194467,"keywords":["cp","nocrits","nodmgspread","uncletopia"],"game_id":440,"stv_port":27036,"stv_name":"Uncletopia | Sydney | 3 | All Maps | STV","players":null},{"server_id":396,"name":"Uncletopia | Sydney | 4 | All Maps","name_short":"syd-4","host":"syd-1.au.uncletopia.com","port":27045,"enabled":true,"region":"au","cc":"au","latitude":-33.865143,"longitude":151.2099,"reserved":0,"last_update":"0001-01-01T00:00:00Z","name_a2s":"Uncletopia | Sydney | 4 | All Maps","protocol":17,"map":"koth_suijin","folder":"tf","game":"Team Fortress","app_id":440,"player_count":0,"max_players":24,"Bots":0,"server_type":"Dedicated","server_os":"Linux","password":true,"vac":true,"version":"7723704","steam_id":85568392925397958,"keywords":["cp","nocrits","nodmgspread","uncletopia"],"game_id":440,"stv_port":27046,"stv_name":"Uncletopia | Sydney | 4 | All Maps | STV","players":null},{"server_id":58,"name":"Uncletopia | Sydney | 5 | Stopwatch Beta","name_short":"syd-5","host":"syd-1.au.uncletopia.com","port":27055,"enabled":true,"region":"au","cc":"au","latitude":-33.865143,"longitude":151.2099,"reserved":0,"last_update":"0001-01-01T00:00:00Z","name_a2s":"Uncletopia | Sydney | 5 | Stopwatch Beta","protocol":17,"map":"cp_altitude","folder":"tf","game":"Team Fortress","app_id":440,"player_count":0,"max_players":24,"Bots":0,"server_type":"Dedicated","server_os":"Linux","password":true,"vac":true,"version":"7723704","steam_id":85568392925397959,"keywords":["cp","nocrits","nodmgspread","uncletopia"],"game_id":440,"stv_port":27056,"stv_name":"Uncletopia | Sydney | 5 | Stopwatch Beta | STV","players":null},{"server_id":59,"name":"Uncletopia | Sydney | 6 | Community","name_short":"syd-6","host":"syd-1.au.uncletopia.com","port":27065,"enabled":true,"region":"au","cc":"au","latitude":-33.865143,"longitude":151.2099,"reserved":0,"last_update":"0001-01-01T00:00:00Z","name_a2s":"Uncletopia | Sydney | 6 | Community","protocol":17,"map":"workshop/pl_fifthcurve_rc1.ugc648227046","folder":"tf","game":"Team Fortress","app_id":440,"player_count":0,"max_players":24,"Bots":0,"server_type":"Dedicated","server_os":"Linux","password":true,"vac":true,"version":"7723704","steam_id":85568392925397960,"keywords":["nocrits","nodmgspread","payload","uncletopia"],"game_id":440,"stv_port":27066,"stv_name":"Uncletopia | Sydney | 6 | Community | STV","players":null},{"server_id":49,"name":"Uncletopia | Warsaw | 1 | All Maps","name_short":"waw-1","host":"waw-1.pl.uncletopia.com","port":27015,"enabled":true,"region":"eu","cc":"pl","latitude":52.2297,"longitude":21.017532,"reserved":0,"last_update":"0001-01-01T00:00:00Z","name_a2s":"Uncletopia | Warsaw | 1 | All Maps","protocol":17,"map":"cp_altitude","folder":"tf","game":"Team Fortress","app_id":440,"player_count":0,"max_players":24,"Bots":0,"server_type":"Dedicated","server_os":"Linux","password":true,"vac":true,"version":"7723704","steam_id":85568392925397850,"keywords":["cp","nocrits","nodmgspread","uncletopia"],"game_id":440,"stv_port":27016,"stv_name":"Uncletopia | Warsaw | 1 | All Maps | STV","players":null},{"server_id":50,"name":"Uncletopia | Warsaw | 2 | All Maps","name_short":"waw-2","host":"waw-1.pl.uncletopia.com","port":27025,"enabled":true,"region":"eu","cc":"pl","latitude":52.2297,"longitude":21.017532,"reserved":0,"last_update":"0001-01-01T00:00:00Z","name_a2s":"Uncletopia | Warsaw | 2 | All Maps","protocol":17,"map":"pl_barnblitz","folder":"tf","game":"Team Fortress","app_id":440,"player_count":0,"max_players":24,"Bots":0,"server_type":"Dedicated","server_os":"Linux","password":true,"vac":true,"version":"7723704","steam_id":85568392925397851,"keywords":["nocrits","nodmgspread","payload","uncletopia"],"game_id":440,"stv_port":27026,"stv_name":"Uncletopia | Warsaw | 2 | All Maps | STV","players":null},{"server_id":51,"name":"Uncletopia | Warsaw | 3 | All Maps","name_short":"waw-3","host":"waw-1.pl.uncletopia.com","port":27035,"enabled":true,"region":"eu","cc":"pl","latitude":52.2297,"longitude":21.017532,"reserved":0,"last_update":"0001-01-01T00:00:00Z","name_a2s":"Uncletopia | Warsaw | 3 | All Maps","protocol":17,"map":"koth_viaduct","folder":"tf","game":"Team Fortress","app_id":440,"player_count":0,"max_players":24,"Bots":0,"server_type":"Dedicated","server_os":"Linux","password":true,"vac":true,"version":"7723704","steam_id":85568392925397852,"keywords":["cp","nocrits","nodmgspread","uncletopia"],"game_id":440,"stv_port":27036,"stv_name":"Uncletopia | Warsaw | 3 | All Maps | STV","players":null},{"server_id":52,"name":"Uncletopia | Warsaw | 4 | All Maps","name_short":"waw-4","host":"waw-1.pl.uncletopia.com","port":27045,"enabled":true,"region":"eu","cc":"pl","latitude":52.2297,"longitude":21.017532,"reserved":0,"last_update":"0001-01-01T00:00:00Z","name_a2s":"Uncletopia | Warsaw | 4 | All Maps","protocol":17,"map":"pl_snowycoast","folder":"tf","game":"Team Fortress","app_id":440,"player_count":0,"max_players":24,"Bots":0,"server_type":"Dedicated","server_os":"Linux","password":true,"vac":true,"version":"7723704","steam_id":85568392925397853,"keywords":["nocrits","nodmgspread","payload","uncletopia"],"game_id":440,"stv_port":27046,"stv_name":"Uncletopia | Warsaw | 4 | All Maps | STV","players":null},{"server_id":53,"name":"Uncletopia | Warsaw | 5 | Stopwatch Beta","name_short":"waw-5","host":"waw-1.pl.uncletopia.com","port":27055,"enabled":true,"region":"eu","cc":"pl","latitude":52.2297,"longitude":21.017532,"reserved":0,"last_update":"0001-01-01T00:00:00Z","name_a2s":"Uncletopia | Warsaw | 5 | Stopwatch Beta","protocol":17,"map":"cp_sunshine","folder":"tf","game":"Team Fortress","app_id":440,"player_count":0,"max_players":24,"Bots":0,"server_type":"Dedicated","server_os":"Linux","password":true,"vac":true,"version":"7723704","steam_id":85568392925397854,"keywords":["cp","nocrits","nodmgspread","uncletopia"],"game_id":440,"stv_port":27056,"stv_name":"Uncletopia | Warsaw | 5 | Stopwatch Beta | STV","players":null},{"server_id":54,"name":"Uncletopia | Warsaw | 6 | Community","name_short":"waw-6","host":"waw-1.pl.uncletopia.com","port":27065,"enabled":true,"region":"eu","cc":"pl","latitude":52.2297,"longitude":21.017532,"reserved":0,"last_update":"0001-01-01T00:00:00Z","name_a2s":"Uncletopia | Warsaw | 6 | Community","protocol":17,"map":"workshop/koth_synthetic_rc6a.ugc1549817316","folder":"tf","game":"Team Fortress","app_id":440,"player_count":0,"max_players":24,"Bots":0,"server_type":"Dedicated","server_os":"Linux","password":true,"vac":true,"version":"7723704","steam_id":85568392925397856,"keywords":["cp","nocrits","nodmgspread","uncletopia"],"game_id":440,"stv_port":27066,"stv_name":"Uncletopia | Warsaw | 6 | Community | STV","players":null}]}