{"status":true,"message":"","result":[{"server_id":9,"name":"Uncletopia | Atlanta | 1 | All Maps","name_short":"atl-1","host":"atl-1.us.uncletopia.com","port":27015,"enabled":true,"region":"us-east","cc":"us","latitude":33.753746,"longitude":-84.38633,"reserved":0,"last_update":"0001-01-01T00:00:00Z","name_a2s":"Uncletopia | Atlanta | 1 | All Maps","protocol":17,"map":"cp_dustbowl","folder":"tf","game":"Team Fortress","app_id":440,"player_count":24,"max_players":24,"Bots":0,"server_type":"Dedicated","server_os":"Linux","password":true,"vac":true,"version":"7742253","steam_id":85568392924469982,"keywords":["cp","nocrits","nodmgspread","uncletopia"],"game_id":440,"stv_port":27016,"stv_name":"Uncletopia | Atlanta | 1 | All Maps | STV","players":[{"user_id":760,"name":"Hertz","steam_id":76561198245322982,"connected_time":1899000000000,"state":"active","ping":37},{"user_id":765,"name":"MOTORTREND TRUCK OF THE YEAR","steam_id":76561198077654131,"connected_time":1640000000000,"state":"active","ping":74},{"user_id":752,"name":"ATL6 Le4n!!!","steam_id":76561198045522596,"connected_time":2050000000000,"state":"active","ping":70},{"user_id":773,"name":"supcupman","steam_id":76561198051513866,"connected_time":896000000000,"state":"active","ping":119},{"user_id":780,"name":"NeoN™","steam_id":76561198117608366,"connected_time":403000000000,"state":"active","ping":109},{"user_id":769,"name":"festive pork trooper","steam_id":76561198150327877,"connected_time":1100000000000,"state":"active","ping":41},{"user_id":656,"name":"ATL1 | eish","steam_id":76561198089463603,"connected_time":8566000000000,"state":"active","ping":121},{"user_id":764,"name":"skidzz","steam_id":76561198257068611,"connected_time":1668000000000,"state":"active","ping":74},{"user_id":774,"name":"IPaige","steam_id":76561198271967211,"connected_time":862000000000,"state":"active","ping":81},{"user_id":726,"name":"Limbo_Darkness","steam_id":76561198127411819,"connected_time":3255000000000,"state":"active","ping":65},{"user_id":753,"name":"Nostrildamus","steam_id":76561198056647457,"connected_time":2049000000000,"state":"active","ping":62},{"user_id":779,"name":"Piogre","steam_id":76561198006182258,"connected_time":422000000000,"state":"active","ping":68},{"user_id":778,"name":"SoyFlavouredPepsi★","steam_id":76561198119505880,"connected_time":467000000000,"state":"active","ping":68},{"user_id":781,"name":"joethefool","steam_id":76561199015436319,"connected_time":402000000000,"state":"active","ping":80},{"user_id":751,"name":"DON QUIXOTE","steam_id":76561198091111592,"connected_time":2084000000000,"state":"active","ping":54},{"user_id":768,"name":"Veilos","steam_id":76561198071897172,"connected_time":1376000000000,"state":"active","ping":78},{"user_id":757,"name":"dumont","steam_id":76561198049564416,"connected_time":2009000000000,"state":"active","ping":65},{"user_id":782,"name":"Dick Dastardly Richard","steam_id":76561198115451034,"connected_time":364000000000,"state":"active","ping":61},{"user_id":758,"name":"Thilo","steam_id":76561197987278784,"connected_time":2008000000000,"state":"active","ping":82},{"user_id":711,"name":"shaderoses","steam_id":76561198070800500,"connected_time":5589000000000,"state":"active","ping":67},{"user_id":767,"name":"Shame","steam_id":76561198100490994,"connected_time":1622000000000,"state":"active","ping":75},{"user_id":749,"name":"Minerkid2004","steam_id":76561198044262827,"connected_time":2201000000000,"state":"active","ping":105},{"user_id":682,"name":"schizo","steam_id":76561198016121536,"connected_time":6079000000000,"state":"active","ping":87}]},{"server_id":400,"name":"Uncletopia | Atlanta | 3 | Stopwatch Beta","name_short":"atl-3","host":"atl-1.us.uncletopia.com","port":27035,"enabled":true,"region":"us-east","cc":"us","latitude":33.753746,"longitude":-84.38633,"reserved":0,"last_update":"0001-01-01T00:00:00Z","name_a2s":"Uncletopia | Atlanta | 3 | Stopwatch Beta","protocol":17,"map":"pl_upward","folder":"tf","game":"Team Fortress","app_id":440,"player_count":23,"max_players":24,"Bots":0,"server_type":"Dedicated","server_os":"Linux","password":true,"vac":true,"version":"7742253","steam_id":85568392924515187,"keywords":["nocrits","nodmgspread","payload","uncletopia"],"game_id":440,"stv_port":27036,"stv_name":"Uncletopia | Atlanta | 3 | Stopwatch Beta | STV","players":[{"user_id":114,"name":"Triple Lizard","steam_id":76561198188459654,"connected_time":95000000000,"state":"active","ping":61},{"user_id":103,"name":"Bob the third","steam_id":76561199065952537,"connected_time":325000000000,"state":"active","ping":92},{"user_id":71,"name":"CrowbarCat","steam_id":76561198197755101,"connected_time":1108000000000,"state":"active","ping":78},{"user_id":90,"name":"UNIT 220","steam_id":76561198042243497,"connected_time":543000000000,"state":"active","ping":74},{"user_id":47,"name":"Zoombini16","steam_id":76561198324428992,"connected_time":2506000000000,"state":"active","ping":67},{"user_id":56,"name":"beethan","steam_id":76561198148199120,"connected_time":2093000000000,"state":"active","ping":77},{"user_id":91,"name":"Memed2Much","steam_id":76561199032248010,"connected_time":513000000000,"state":"active","ping":73},{"user_id":92,"name":"Mr Doctor","steam_id":76561199014497193,"connected_time":494000000000,"state":"active","ping":56},{"user_id":115,"name":"[chef] iron","steam_id":76561197970888616,"connected_time":67000000000,"state":"active","ping":66},{"user_id":72,"name":"kt","steam_id":76561198946374858,"connected_time":1048000000000,"state":"active","ping":80},{"user_id":78,"name":"puppygirl gaming","steam_id":76561198044363630,"connected_time":840000000000,"state":"active","ping":59},{"user_id":52,"name":"LitlToast","steam_id":76561198353473171,"connected_time":2270000000000,"state":"active","ping":81},{"user_id":100,"name":"Shrimpy Gumbo","steam_id":76561198371079378,"connected_time":370000000000,"state":"active","ping":94},{"user_id":88,"name":"kametro4","steam_id":76561198835430429,"connected_time":609000000000,"state":"active","ping":103},{"user_id":64,"name":"AquaBlaze","steam_id":76561199246804975,"connected_time":1512000000000,"state":"active","ping":67},{"user_id":112,"name":"V@st0@L0rd333","steam_id":76561198100942212,"connected_time":172000000000,"state":"active","ping":64},{"user_id":107,"name":"Finger Lickin' Good","steam_id":76561198050406465,"connected_time":300000000000,"state":"active","ping":97},{"user_id":81,"name":"jifsdessert","steam_id":76561199417980510,"connected_time":796000000000,"state":"active","ping":79},{"user_id":97,"name":"Depression Generator","steam_id":76561199027576969,"connected_time":451000000000,"state":"active","ping":141},{"user_id":83,"name":"Mike Ehrmantraut","steam_id":76561198082446459,"connected_time":765000000000,"state":"active","ping":67},{"user_id":111,"name":"Cassini","steam_id":76561198318526294,"connected_time":202000000000,"state":"active","ping":46},{"user_id":101,"name":"ImTheWolf","steam_id":76561198371710064,"connected_time":362000000000,"state":"active","ping":85},{"user_id":109,"name":"victordead121","steam_id":76561199180843121,"connected_time":252000000000,"state":"active","ping":113}]},{"server_id":401,"name":"Uncletopia | Atlanta | 4 | No Payload","name_short":"atl-4","host":"atl-1.us.uncletopia.com","port":27045,"enabled":true,"region":"us-east","cc":"us","latitude":33.753746,"longitude":-84.38633,"reserved":0,"last_update":"0001-01-01T00:00:00Z","name_a2s":"Uncletopia | Atlanta | 4 | No Payload","protocol":17,"map":"pl_pier","folder":"tf","game":"Team Fortress","app_id":440,"player_count":0,"max_players":24,"Bots":0,"server_type":"Dedicated","server_os":"Linux","password":true,"vac":true,"version":"7723704","steam_id":85568392924515188,"keywords":["nocrits","nodmgspread","payload","uncletopia"],"game_id":440,"stv_port":27046,"stv_name":"Uncletopia | Atlanta | 4 | No Payload | STV","players":null},{"server_id":2,"name":"Uncletopia | Chicago | 1 | All Maps","name_short":"chi-1","host":"chi-1.us.uncletopia.com","port":27015,"enabled":true,"region":"us-central","cc":"us","latitude":41.881832,"longitude":-87.62318,"reserved":0,"last_update":"0001-01-01T00:00:00Z","name_a2s":"Uncletopia | Chicago | 1 | All Maps","protocol":17,"map":"pl_swiftwater_final1","folder":"tf","game":"Team Fortress","app_id":440,"player_count":24,"max_players":24,"Bots":0,"server_type":"Dedicated","server_os":"Linux","password":true,"vac":true,"version":"7742253","steam_id":85568392924469984,"keywords":["nocrits","nodmgspread","payload","uncletopia"],"game_id":440,"stv_port":27016,"stv_name":"Uncletopia | Chicago | 1 | All Maps | STV","players":[{"user_id":595,"name":"You´re shit.","steam_id":76561198254030118,"connected_time":4169000000000,"state":"active","ping":159},{"user_id":596,"name":"DenDa","steam_id":76561198321944154,"connected_time":4169000000000,"state":"active","ping":51},{"user_id":637,"name":"Acid-talon","steam_id":76561198039545578,"connected_time":792000000000,"state":"active","ping":71},{"user_id":630,"name":"otto","steam_id":76561198029585065,"connected_time":838000000000,"state":"active","ping":52},{"user_id":591,"name":"Piyono","steam_id":76561197962188504,"connected_time":4564000000000,"state":"active","ping":66},{"user_id":612,"name":"Open Mailbox","steam_id":76561198051933580,"connected_time":2622000000000,"state":"active","ping":83},{"user_id":633,"name":"CAdaverOusPRophet","steam_id":76561198045304110,"connected_time":823000000000,"state":"active","ping":48},{"user_id":622,"name":"DuckKey","steam_id":76561198904477889,"connected_time":2281000000000,"state":"active","ping":64},{"user_id":634,"name":"Thundermonkey (SMOKE)","steam_id":76561198017631728,"connected_time":821000000000,"state":"active","ping":67},{"user_id":592,"name":"gaming elliptical","steam_id":76561198013456569,"connected_time":4247000000000,"state":"active","ping":51},{"user_id":631,"name":"The aboveground man","steam_id":76561199028686952,"connected_time":838000000000,"state":"active","ping":119},{"user_id":605,"name":"Gordan Timlothle","steam_id":76561198272013678,"connected_time":2797000000000,"state":"active","ping":63},{"user_id":638,"name":"Room","steam_id":76561199174579733,"connected_time":713000000000,"state":"active","ping":83},{"user_id":616,"name":"sammy","steam_id":76561199001307670,"connected_time":2572000000000,"state":"active","ping":98},{"user_id":613,"name":"T.w² | Sliced Bread","steam_id":76561198128489595,"connected_time":2620000000000,"state":"active","ping":73},{"user_id":626,"name":"Mixomin","steam_id":76561198295061570,"connected_time":849000000000,"state":"active","ping":62},{"user_id":639,"name":"Ye ( I Love Caulk ) West","steam_id":76561198068830312,"connected_time":493000000000,"state":"active","ping":40},{"user_id":615,"name":"AJSM","steam_id":76561198036852424,"connected_time":2581000000000,"state":"active","ping":53},{"user_id":636,"name":"Owen","steam_id":76561198025446908,"connected_time":811000000000,"state":"active","ping":69},{"user_id":618,"name":"Aristotle Voulton","steam_id":76561198100174923,"connected_time":2565000000000,"state":"active","ping":56},{"user_id":624,"name":"Julia","steam_id":76561198175727790,"connected_time":1976000000000,"state":"active","ping":104},{"user_id":619,"name":"kpylo","steam_id":76561199011185438,"connected_time":2565000000000,"state":"active","ping":48},{"user_id":628,"name":"Gabinator32","steam_id":76561198872467183,"connected_time":844000000000,"state":"active","ping":50},{"user_id":629,"name":"Sone","steam_id":76561198069601032,"connected_time":844000000000,"state":"active","ping":79}]},{"server_id":106,"name":"Uncletopia | Chicago | 2 | All Maps","name_short":"chi-2","host":"chi-1.us.uncletopia.com","port":27025,"enabled":true,"region":"us-central","cc":"us","latitude":41.881832,"longitude":-87.62318,"reserved":0,"last_update":"0001-01-01T00:00:00Z","name_a2s":"Uncletopia | Chicago | 2 | All Maps","protocol":17,"map":"pl_wutville_event","folder":"tf","game":"Team Fortress","app_id":440,"player_count":18,"max_players":24,"Bots":0,"server_type":"Dedicated","server_os":"Linux","password":true,"vac":true,"version":"7742253","steam_id":85568392924469985,"keywords":["nocrits","nodmgspread","payload","uncletopia"],"game_id":440,"stv_port":27026,"stv_name":"Uncletopia | Chicago | 2 | All Maps | STV","players":[{"user_id":398,"name":"Paleo","steam_id":76561198053493855,"connected_time":2667000000000,"state":"active","ping":51},{"user_id":383,"name":"Kiminator99","steam_id":76561198298945680,"connected_time":3752000000000,"state":"active","ping":76},{"user_id":380,"name":"Gingoguy","steam_id":76561198088931297,"connected_time":3923000000000,"state":"active","ping":65},{"user_id":382,"name":"GinTheAlcoholicBeverage","steam_id":76561198020478634,"connected_time":3764000000000,"state":"active","ping":77},{"user_id":427,"name":"Crocalor","steam_id":76561198219859711,"connected_time":315000000000,"state":"active","ping":81},{"user_id":412,"name":"Oh, it's Zach","steam_id":76561198103309672,"connected_time":1387000000000,"state":"active","ping":54},{"user_id":421,"name":"♦♣Quadric♥♠","steam_id":76561198061003853,"connected_time":1065000000000,"state":"active","ping":59},{"user_id":399,"name":"HAT-WEARING™ Maggot Gamer Cat","steam_id":76561197973992705,"connected_time":2636000000000,"state":"active","ping":96},{"user_id":402,"name":"i suffer from ligma","steam_id":76561199158496518,"connected_time":1948000000000,"state":"active","ping":78},{"user_id":422,"name":"Crazy❀","steam_id":76561198160590966,"connected_time":981000000000,"state":"active","ping":75},{"user_id":386,"name":"Piechu","steam_id":76561198116275075,"connected_time":3672000000000,"state":"active","ping":63},{"user_id":428,"name":"capitalx100","steam_id":76561198216126919,"connected_time":299000000000,"state":"active","ping":64},{"user_id":336,"name":"Ace Chromatica","steam_id":76561198042211131,"connected_time":7031000000000,"state":"active","ping":50},{"user_id":396,"name":"shalankawanak","steam_id":76561198987719376,"connected_time":3081000000000,"state":"active","ping":48},{"user_id":425,"name":"c0wb0y","steam_id":76561199076182855,"connected_time":897000000000,"state":"active","ping":86},{"user_id":403,"name":"walito12","steam_id":76561198244902626,"connected_time":1743000000000,"state":"active","ping":106},{"user_id":366,"name":"The Grinch Lyncher","steam_id":76561198081617990,"connected_time":5217000000000,"state":"active","ping":109},{"user_id":390,"name":"Ok then","steam_id":76561198891914787,"connected_time":3638000000000,"state":"active","ping":113}]},{"server_id":402,"name":"Uncletopia | Chicago | 3 | All Maps","name_short":"chi-3","host":"chi-1.us.uncletopia.com","port":27035,"enabled":true,"region":"us-central","cc":"us","latitude":41.881832,"longitude":-87.62318,"reserved":0,"last_update":"0001-01-01T00:00:00Z","name_a2s":"Uncletopia | Chicago | 3 | All Maps","protocol":17,"map":"pl_barnblitz","folder":"tf","game":"Team Fortress","app_id":440,"player_count":24,"max_players":24,"Bots":0,"server_type":"Dedicated","server_os":"Linux","password":true,"vac":true,"version":"7742253","steam_id":85568392924515191,"keywords":["nocrits","nodmgspread","payload","uncletopia"],"game_id":440,"stv_port":27036,"stv_name":"Uncletopia | Chicago | 3 | All Maps | STV","players":[{"user_id":718,"name":"b3afy","steam_id":76561198084208649,"connected_time":3754000000000,"state":"active","ping":90},{"user_id":737,"name":"Ze_Über_Nerd","steam_id":76561198091148675,"connected_time":2852000000000,"state":"active","ping":71},{"user_id":720,"name":"comet sooicidy","steam_id":76561198025173479,"connected_time":3745000000000,"state":"active","ping":87},{"user_id":748,"name":"Rex","steam_id":76561198138365053,"connected_time":1285000000000,"state":"active","ping":127},{"user_id":700,"name":"RibRubz","steam_id":76561199024487700,"connected_time":5110000000000,"state":"active","ping":104},{"user_id":741,"name":"Cooldude_15","steam_id":76561198346713382,"connected_time":2157000000000,"state":"active","ping":51},{"user_id":751,"name":"hej","steam_id":76561197996366940,"connected_time":321000000000,"state":"active","ping":75},{"user_id":715,"name":"Shwa","steam_id":76561198122613101,"connected_time":4405000000000,"state":"active","ping":77},{"user_id":740,"name":"Mattron1","steam_id":76561198012270524,"connected_time":2822000000000,"state":"active","ping":65},{"user_id":725,"name":"Walter White","steam_id":76561198870018009,"connected_time":3636000000000,"state":"active","ping":62},{"user_id":750,"name":"Raniel Dicciardo","steam_id":76561198053859538,"connected_time":868000000000,"state":"active","ping":71},{"user_id":685,"name":"Doc Romie","steam_id":76561198953778878,"connected_time":6389000000000,"state":"active","ping":51},{"user_id":713,"name":"little hog","steam_id":76561199230929836,"connected_time":4556000000000,"state":"active","ping":97},{"user_id":745,"name":"MoonWolf","steam_id":76561198095735033,"connected_time":1946000000000,"state":"active","ping":88},{"user_id":747,"name":"A Puppy","steam_id":76561198828184456,"connected_time":1327000000000,"state":"active","ping":58},{"user_id":752,"name":"POWER IN MISERY","steam_id":76561198032008701,"connected_time":282000000000,"state":"active","ping":60},{"user_id":753,"name":"Fish","steam_id":76561198986516474,"connected_time":274000000000,"state":"active","ping":90},{"user_id":749,"name":"Calypso","steam_id":76561198082939544,"connected_time":1202000000000,"state":"active","ping":84},{"user_id":680,"name":"+","steam_id":76561198262422184,"connected_time":6634000000000,"state":"active","ping":71},{"user_id":712,"name":"J3SUS","steam_id":76561198368965383,"connected_time":4586000000000,"state":"active","ping":70},{"user_id":754,"name":"ApertureCity","steam_id":76561198004153607,"connected_time":268000000000,"state":"active","ping":80},{"user_id":731,"name":"Cliff Gremlin","steam_id":76561198409907417,"connected_time":3269000000000,"state":"active","ping":114},{"user_id":714,"name":"GIGANTIC HOG","steam_id":76561198079923652,"connected_time":4551000000000,"state":"active","ping":88},{"user_id":755,"name":"Uninstall your liver","steam_id":76561198062791227,"connected_time":260000000000,"state":"active","ping":75}]},{"server_id":403,"name":"Uncletopia | Chicago | 4 | All Maps","name_short":"chi-4","host":"chi-1.us.uncletopia.com","port":27045,"enabled":true,"region":"us-central","cc":"us","latitude":41.881832,"longitude":-87.62318,"reserved":0,"last_update":"0001-01-01T00:00:00Z","name_a2s":"Uncletopia | Chicago | 4 | All Maps","protocol":17,"map":"pl_frontier_final","folder":"tf","game":"Team Fortress","app_id":440,"player_count":24,"max_players":24,"Bots":0,"server_type":"Dedicated","server_os":"Linux","password":true,"vac":true,"version":"7742253","steam_id":85568392924515193,"keywords":["nocrits","nodmgspread","payload","uncletopia"],"game_id":440,"stv_port":27046,"stv_name":"Uncletopia | Chicago | 4 | All Maps | STV","players":[{"user_id":310,"name":"chirp","steam_id":76561198109916563,"connected_time":233000000000,"state":"active","ping":66},{"user_id":194,"name":"[TA] Octogone","steam_id":76561198307655790,"connected_time":4585000000000,"state":"active","ping":59},{"user_id":225,"name":"Warpy","steam_id":76561198055852599,"connected_time":3727000000000,"state":"active","ping":91},{"user_id":213,"name":"Ka Xin Yu","steam_id":76561198057116531,"connected_time":4019000000000,"state":"active","ping":60},{"user_id":188,"name":"Aegis","steam_id":76561198272052750,"connected_time":5118000000000,"state":"active","ping":83},{"user_id":248,"name":"1920","steam_id":76561198111669774,"connected_time":3006000000000,"state":"active","ping":53},{"user_id":218,"name":"Burf","steam_id":76561198019341161,"connected_time":3889000000000,"state":"active","ping":59},{"user_id":47,"name":"gyroFSnoob","steam_id":76561198158404683,"connected_time":12864000000000,"state":"active","ping":80},{"user_id":300,"name":"derdds","steam_id":76561198034339940,"connected_time":1410000000000,"state":"active","ping":58},{"user_id":311,"name":"OneFestiveCorvid","steam_id":76561199012953221,"connected_time":51000000000,"state":"spawning","ping":82},{"user_id":198,"name":"HavocGDI","steam_id":76561199388371914,"connected_time":4572000000000,"state":"active","ping":112},{"user_id":304,"name":"MadeIn2005","steam_id":76561198186929317,"connected_time":1389000000000,"state":"active","ping":96},{"user_id":301,"name":"MantisTobboggan","steam_id":76561197969447887,"connected_time":1405000000000,"state":"active","ping":135},{"user_id":220,"name":"bobby peanstalk","steam_id":76561198040495463,"connected_time":3842000000000,"state":"active","ping":67},{"user_id":312,"name":"fregaropa","steam_id":76561198150806166,"connected_time":45000000000,"state":"spawning","ping":217},{"user_id":309,"name":"Lawnmower","steam_id":76561198186680197,"connected_time":498000000000,"state":"active","ping":103},{"user_id":207,"name":"Zodyxajon","steam_id":76561198165561581,"connected_time":4310000000000,"state":"active","ping":74},{"user_id":302,"name":"Pennis the Menace","steam_id":76561198254878037,"connected_time":1397000000000,"state":"active","ping":61},{"user_id":308,"name":"ethan","steam_id":76561198132637556,"connected_time":905000000000,"state":"active","ping":69},{"user_id":306,"name":"EvilMrPotoo ｡◕‿◕｡","steam_id":76561198012566870,"connected_time":1088000000000,"state":"active","ping":57},{"user_id":276,"name":"❤ Ashley ❤","steam_id":76561198056428303,"connected_time":2076000000000,"state":"active","ping":104},{"user_id":235,"name":"FishNachoz","steam_id":76561198026519426,"connected_time":3487000000000,"state":"active","ping":147},{"user_id":200,"name":"kvn","steam_id":76561198012796388,"connected_time":4552000000000,"state":"active","ping":73},{"user_id":297,"name":"weslerrr","steam_id":76561198292480110,"connected_time":1487000000000,"state":"active","ping":64}]},{"server_id":36,"name":"Uncletopia | Chicago | 5 | All Maps","name_short":"chi-5","host":"chi-2.us.uncletopia.com","port":27015,"enabled":true,"region":"us-central","cc":"us","latitude":41.881832,"longitude":-87.62318,"reserved":0,"last_update":"0001-01-01T00:00:00Z","name_a2s":"Uncletopia | Chicago | 5 | All Maps","protocol":17,"map":"pl_badwater","folder":"tf","game":"Team Fortress","app_id":440,"player_count":25,"max_players":24,"Bots":0,"server_type":"Dedicated","server_os":"Linux","password":true,"vac":true,"version":"7742253","steam_id":85568392924866362,"keywords":["nocrits","nodmgspread","payload","uncletopia"],"game_id":440,"stv_port":27016,"stv_name":"Uncletopia | Chicago | 5 | All Maps | STV","players":[{"user_id":221,"name":"tobrehto","steam_id":76561198097544038,"connected_time":2699000000000,"state":"active","ping":90},{"user_id":186,"name":"Metic","steam_id":76561198047294521,"connected_time":4884000000000,"state":"active","ping":73},{"user_id":214,"name":"Merry Matches_","steam_id":76561198048925904,"connected_time":3169000000000,"state":"active","ping":112},{"user_id":194,"name":"Aster","steam_id":76561198037920420,"connected_time":4256000000000,"state":"active","ping":93},{"user_id":230,"name":"obbeymaster19","steam_id":76561199197244143,"connected_time":2081000000000,"state":"active","ping":91},{"user_id":205,"name":"Infineable","steam_id":76561198358100698,"connected_time":3611000000000,"state":"active","ping":62},{"user_id":275,"name":"Porkchop","steam_id":76561198047654421,"connected_time":128000000000,"state":"active","ping":92},{"user_id":280,"name":"CreeperCatBengal","steam_id":76561198213193221,"connected_time":38000000000,"state":"spawning","ping":69},{"user_id":207,"name":"DC19","steam_id":76561199161705225,"connected_time":3498000000000,"state":"active","ping":67},{"user_id":208,"name":"nebby","steam_id":76561197990815274,"connected_time":3463000000000,"state":"active","ping":47},{"user_id":256,"name":"TVKill3r ϘώϘ","steam_id":76561198026433199,"connected_time":594000000000,"state":"active","ping":85},{"user_id":227,"name":"Ford Truck Gaming","steam_id":76561199042674833,"connected_time":2373000000000,"state":"active","ping":81},{"user_id":228,"name":"Dio Brando","steam_id":76561198321485249,"connected_time":2337000000000,"state":"active","ping":46},{"user_id":247,"name":"Elias","steam_id":76561198031295139,"connected_time":1472000000000,"state":"active","ping":98},{"user_id":215,"name":"honked off the bobo","steam_id":76561198123287268,"connected_time":3165000000000,"state":"active","ping":46},{"user_id":236,"name":"Michaelpc1","steam_id":76561198088365519,"connected_time":1783000000000,"state":"active","ping":81},{"user_id":229,"name":"Money Collector","steam_id":76561198046249467,"connected_time":2290000000000,"state":"active","ping":52},{"user_id":259,"name":"Branos","steam_id":76561198396414319,"connected_time":522000000000,"state":"active","ping":105},{"user_id":253,"name":"snakewater salesman","steam_id":76561198167207112,"connected_time":701000000000,"state":"active","ping":75},{"user_id":217,"name":"The_wolfman111","steam_id":76561198880434275,"connected_time":3129000000000,"state":"active","ping":56},{"user_id":271,"name":"The Chimp","steam_id":76561199013458732,"connected_time":193000000000,"state":"active","ping":64},{"user_id":276,"name":"Fumohuxi Viriphyto","steam_id":76561198369395636,"connected_time":113000000000,"state":"active","ping":89},{"user_id":250,"name":"nucket","steam_id":76561198028658527,"connected_time":1425000000000,"state":"active","ping":104},{"user_id":172,"name":"Mystic Knight","steam_id":76561198042035621,"connected_time":5981000000000,"state":"active","ping":82},{"user_id":267,"name":"Stapler","steam_id":76561198099295077,"connected_time":323000000000,"state":"active","ping":101}]},{"server_id":37,"name":"Uncletopia | Chicago | 6 | All Maps","name_short":"chi-6","host":"chi-2.us.uncletopia.com","port":27025,"enabled":true,"region":"us-central","cc":"us","latitude":41.881832,"longitude":-87.62318,"reserved":0,"last_update":"0001-01-01T00:00:00Z","name_a2s":"Uncletopia | Chicago | 6 | All Maps","protocol":17,"map":"cp_dustbowl","folder":"tf","game":"Team Fortress","app_id":440,"player_count":24,"max_players":24,"Bots":0,"server_type":"Dedicated","server_os":"Linux","password":true,"vac":true,"version":"7742253","steam_id":85568392924866363,"keywords":["cp","nocrits","nodmgspread","uncletopia"],"game_id":440,"stv_port":27026,"stv_name":"Uncletopia | Chicago | 6 | All Maps | STV","players":[{"user_id":284,"name":"Dr Purple Stein","steam_id":76561198061179181,"connected_time":732000000000,"state":"active","ping":139},{"user_id":212,"name":"Tsuchinoko","steam_id":76561198083175190,"connected_time":5335000000000,"state":"active","ping":47},{"user_id":248,"name":"Red Heavy The Sandwich Slayer","steam_id":76561199187226776,"connected_time":3163000000000,"state":"active","ping":76},{"user_id":275,"name":"Lilac Lulamoon","steam_id":76561198111402757,"connected_time":1732000000000,"state":"active","ping":71},{"user_id":283,"name":"Mak","steam_id":76561198089197922,"connected_time":844000000000,"state":"active","ping":105},{"user_id":268,"name":"Esue Ijae","steam_id":76561199268519057,"connected_time":2297000000000,"state":"active","ping":100},{"user_id":250,"name":"Tako","steam_id":76561199264073138,"connected_time":3082000000000,"state":"active","ping":85},{"user_id":285,"name":"surrender to the void","steam_id":76561198055494039,"connected_time":315000000000,"state":"active","ping":68},{"user_id":272,"name":"AshAwesome35","steam_id":76561199104557921,"connected_time":1777000000000,"state":"active","ping":82},{"user_id":289,"name":"crispy.lego10","steam_id":76561199453679719,"connected_time":181000000000,"state":"active","ping":122},{"user_id":287,"name":"SimplySammy","steam_id":76561197982256946,"connected_time":298000000000,"state":"active","ping":76},{"user_id":265,"name":"★✞VłPΣЯ★łłJDR✞★","steam_id":76561198039623425,"connected_time":2438000000000,"state":"active","ping":53},{"user_id":236,"name":"corrupted spy","steam_id":76561198018689620,"connected_time":3829000000000,"state":"active","ping":116},{"user_id":282,"name":"AverageGloop","steam_id":76561198243395378,"connected_time":1168000000000,"state":"active","ping":61},{"user_id":274,"name":"matchstick","steam_id":76561198190100027,"connected_time":1736000000000,"state":"active","ping":63},{"user_id":276,"name":"JaegerB4","steam_id":76561199225138429,"connected_time":1653000000000,"state":"active","ping":72},{"user_id":290,"name":"Festive ☤Medic Jesus†","steam_id":76561197967470975,"connected_time":64000000000,"state":"active","ping":72},{"user_id":230,"name":"ObiWonJacobi","steam_id":76561198041921071,"connected_time":4005000000000,"state":"active","ping":101},{"user_id":277,"name":"g money","steam_id":76561198045989782,"connected_time":1612000000000,"state":"active","ping":58},{"user_id":278,"name":"Hobocop","steam_id":76561198076321907,"connected_time":1611000000000,"state":"active","ping":84},{"user_id":231,"name":"Piper","steam_id":76561198059054032,"connected_time":3998000000000,"state":"active","ping":102},{"user_id":269,"name":"Morefun8","steam_id":76561198274524278,"connected_time":2237000000000,"state":"active","ping":60},{"user_id":235,"name":"Walter Malone","steam_id":76561198078661356,"connected_time":3893000000000,"state":"active","ping":84},{"user_id":288,"name":"Knightking309","steam_id":76561199076546834,"connected_time":278000000000,"state":"active","ping":128}]},{"server_id":38,"name":"Uncletopia | Chicago | 7 | Stopwatch Beta","name_short":"chi-7","host":"chi-2.us.uncletopia.com","port":27035,"enabled":true,"region":"us-central","cc":"us","latitude":41.881832,"longitude":-87.62318,"reserved":0,"last_update":"0001-01-01T00:00:00Z","name_a2s":"Uncletopia | Chicago | 7 | Stopwatch Beta","protocol":17,"map":"workshop/koth_bagel_rc5.ugc2514036946","folder":"tf","game":"Team Fortress","app_id":440,"player_count":0,"max_players":24,"Bots":0,"server_type":"Dedicated","server_os":"Linux","password":true,"vac":true,"version":"7742253","steam_id":85568392924866364,"keywords":["cp","nocrits","nodmgspread","uncletopia"],"game_id":440,"stv_port":27036,"stv_name":"Uncletopia | Chicago | 7 | Stopwatch Beta | STV","players":null},{"server_id":39,"name":"Uncletopia | Chicago | 8 | Community","name_short":"chi-8","host":"chi-2.us.uncletopia.com","port":27045,"enabled":true,"region":"us-central","cc":"us","latitude":41.881832,"longitude":-87.62318,"reserved":0,"last_update":"0001-01-01T00:00:00Z","name_a2s":"Uncletopia | Chicago | 8 | Community","protocol":17,"map":"workshop/cp_logjam_rc12.ugc454812035","folder":"tf","game":"Team Fortress","app_id":440,"player_count":23,"max_players":24,"Bots":0,"server_type":"Dedicated","server_os":"Linux","password":true,"vac":true,"version":"7742253","steam_id":85568392924866365,"keywords":["cp","nocrits","nodmgspread","uncletopia"],"game_id":440,"stv_port":27046,"stv_name":"Uncletopia | Chicago | 8 | Community | STV","players":[{"user_id":90,"name":"PTSleepyHead","steam_id":76561198037748705,"connected_time":1114000000000,"state":"active","ping":104},{"user_id":91,"name":"Rick :3","steam_id":76561198110061539,"connected_time":1106000000000,"state":"active","ping":45},{"user_id":89,"name":"5-MeO-DMT","steam_id":76561198089527768,"connected_time":1193000000000,"state":"active","ping":87},{"user_id":86,"name":"The Juicer","steam_id":76561198027247542,"connected_time":1565000000000,"state":"active","ping":71},{"user_id":27,"name":"Froyo DING DONG","steam_id":76561198379421700,"connected_time":6357000000000,"state":"active","ping":75},{"user_id":101,"name":"Spectre","steam_id":76561198025652246,"connected_time":151000000000,"state":"active","ping":59},{"user_id":60,"name":"DenverDSnail","steam_id":76561198182543578,"connected_time":3898000000000,"state":"active","ping":72},{"user_id":29,"name":"desktop","steam_id":76561198161385366,"connected_time":6338000000000,"state":"active","ping":74},{"user_id":97,"name":"JesterJasper","steam_id":76561198025338925,"connected_time":544000000000,"state":"active","ping":91},{"user_id":98,"name":"Zelumie","steam_id":76561198147335801,"connected_time":249000000000,"state":"active","ping":56},{"user_id":99,"name":"Nuen","steam_id":76561198936096111,"connected_time":230000000000,"state":"active","ping":53},{"user_id":96,"name":"Vuoren","steam_id":76561198129227608,"connected_time":768000000000,"state":"active","ping":59},{"user_id":36,"name":"Ranger","steam_id":76561199048628904,"connected_time":5794000000000,"state":"active","ping":94},{"user_id":79,"name":"Smet19","steam_id":76561198118455606,"connected_time":2410000000000,"state":"active","ping":60},{"user_id":50,"name":"Stampdawg","steam_id":76561198050500060,"connected_time":4332000000000,"state":"active","ping":83},{"user_id":62,"name":"Batteryboi53","steam_id":76561198427304518,"connected_time":3828000000000,"state":"active","ping":82},{"user_id":58,"name":"Dug","steam_id":76561198017691029,"connected_time":4071000000000,"state":"active","ping":50},{"user_id":100,"name":"Dr. Drive07","steam_id":76561199285435663,"connected_time":195000000000,"state":"active","ping":71},{"user_id":85,"name":"LolJr45567","steam_id":76561199137932393,"connected_time":1722000000000,"state":"active","ping":105},{"user_id":95,"name":"Walter Frisbee","steam_id":76561198123553989,"connected_time":960000000000,"state":"active","ping":52},{"user_id":103,"name":"brian emo","steam_id":76561198109901138,"connected_time":129000000000,"state":"active","ping":75},{"user_id":81,"name":"Riske","steam_id":76561198115840568,"connected_time":2327000000000,"state":"active","ping":74},{"user_id":74,"name":"japanese cowboy","steam_id":76561198072105269,"connected_time":3403000000000,"state":"active","ping":60}]},{"server_id":8,"name":"Uncletopia | Dallas | 1 | All Maps","name_short":"dal-1","host":"dal-1.us.uncletopia.com","port":27015,"enabled":true,"region":"us-central","cc":"us","latitude":32.779167,"longitude":-96.80889,"reserved":0,"last_update":"0001-01-01T00:00:00Z","name_a2s":"Uncletopia | Dallas | 1 | All Maps","protocol":17,"map":"cp_well","folder":"tf","game":"Team Fortress","app_id":440,"player_count":24,"max_players":24,"Bots":0,"server_type":"Dedicated","server_os":"Linux","password":true,"vac":true,"version":"7742253","steam_id":85568392924469986,"keywords":["cp","nocrits","nodmgspread","uncletopia"],"game_id":440,"stv_port":27016,"stv_name":"Uncletopia | Dallas | 1 | All Maps | STV","players":[{"user_id":743,"name":"The Robot Menace","steam_id":76561198043390413,"connected_time":1378000000000,"state":"active","ping":58},{"user_id":649,"name":"Akrin","steam_id":76561199254804349,"connected_time":9732000000000,"state":"active","ping":80},{"user_id":760,"name":"Communist Party of Wutville","steam_id":76561198844003641,"connected_time":626000000000,"state":"active","ping":76},{"user_id":765,"name":"Jolly evil little man","steam_id":76561198311053471,"connected_time":255000000000,"state":"active","ping":47},{"user_id":741,"name":"leopardo123atl","steam_id":76561198872648238,"connected_time":1522000000000,"state":"active","ping":78},{"user_id":749,"name":"Goury","steam_id":76561198133999959,"connected_time":1288000000000,"state":"active","ping":105},{"user_id":702,"name":"Rat Smacker","steam_id":76561199090197628,"connected_time":5016000000000,"state":"active","ping":50},{"user_id":748,"name":"Clarence","steam_id":76561198094319173,"connected_time":1298000000000,"state":"active","ping":103},{"user_id":742,"name":"Jamendithas","steam_id":76561198119537716,"connected_time":1404000000000,"state":"active","ping":88},{"user_id":761,"name":"SapphireSundew [Lotus]","steam_id":76561198040904890,"connected_time":465000000000,"state":"active","ping":95},{"user_id":724,"name":"GLG MUTT","steam_id":76561198147785541,"connected_time":3007000000000,"state":"active","ping":49},{"user_id":753,"name":"happy man!!! :D!!!!","steam_id":76561198128468316,"connected_time":1181000000000,"state":"active","ping":62},{"user_id":756,"name":"One Last Job","steam_id":76561198017907737,"connected_time":834000000000,"state":"active","ping":75},{"user_id":746,"name":"Nodspine","steam_id":76561198253579994,"connected_time":1322000000000,"state":"active","ping":134},{"user_id":695,"name":"QuoteMarks","steam_id":76561198255619852,"connected_time":5842000000000,"state":"active","ping":64},{"user_id":725,"name":"GLG.Liz","steam_id":76561198021957956,"connected_time":2998000000000,"state":"active","ping":45},{"user_id":740,"name":"I kill people (december 25th)","steam_id":76561198075465957,"connected_time":1604000000000,"state":"active","ping":61},{"user_id":762,"name":"Bobbn","steam_id":76561198876124683,"connected_time":463000000000,"state":"active","ping":86},{"user_id":662,"name":"A Gamer [F2P]","steam_id":76561198138712892,"connected_time":9060000000000,"state":"active","ping":46},{"user_id":751,"name":"Octovaitor","steam_id":76561198004658451,"connected_time":1276000000000,"state":"active","ping":75},{"user_id":727,"name":"santas.secret.sauce","steam_id":76561198042464635,"connected_time":2968000000000,"state":"active","ping":60},{"user_id":754,"name":"uncle walter white","steam_id":76561199143773774,"connected_time":1157000000000,"state":"active","ping":69},{"user_id":763,"name":"Samblueeyes15","steam_id":76561198952464155,"connected_time":295000000000,"state":"active","ping":63},{"user_id":759,"name":"DeckofDragons","steam_id":76561198057398213,"connected_time":708000000000,"state":"active","ping":67}]},{"server_id":108,"name":"Uncletopia | Dallas | 2 | All Maps","name_short":"dal-2","host":"dal-1.us.uncletopia.com","port":27025,"enabled":true,"region":"us-central","cc":"us","latitude":32.779167,"longitude":-96.80889,"reserved":0,"last_update":"0001-01-01T00:00:00Z","name_a2s":"Uncletopia | Dallas | 2 | All Maps","protocol":17,"map":"pl_thundermountain","folder":"tf","game":"Team Fortress","app_id":440,"player_count":24,"max_players":24,"Bots":0,"server_type":"Dedicated","server_os":"Linux","password":true,"vac":true,"version":"7742253","steam_id":85568392924469988,"keywords":["nocrits","nodmgspread","payload","uncletopia"],"game_id":440,"stv_port":27026,"stv_name":"Uncletopia | Dallas | 2 | All Maps | STV","players":[{"user_id":518,"name":"Kritzon Treatz","steam_id":76561198880665077,"connected_time":1329000000000,"state":"active","ping":70},{"user_id":308,"name":"Boasta' Berry","steam_id":76561198029015179,"connected_time":20098000000000,"state":"active","ping":115},{"user_id":503,"name":"Michelle Obama","steam_id":76561198355754259,"connected_time":2628000000000,"state":"active","ping":91},{"user_id":455,"name":"twitch.tv/HelloAnon_","steam_id":76561198109740776,"connected_time":8748000000000,"state":"active","ping":91},{"user_id":517,"name":"a gay cartoon","steam_id":76561198035332703,"connected_time":1628000000000,"state":"active","ping":46},{"user_id":519,"name":"the mind goblin","steam_id":76561198238592900,"connected_time":1303000000000,"state":"active","ping":114},{"user_id":520,"name":"jello","steam_id":76561198094320477,"connected_time":1298000000000,"state":"active","ping":65},{"user_id":521,"name":"RIP YOUR SKIN OFF","steam_id":76561199007459791,"connected_time":1276000000000,"state":"active","ping":94},{"user_id":516,"name":"big man, bigger plan","steam_id":76561199064758232,"connected_time":1932000000000,"state":"active","ping":54},{"user_id":530,"name":"Arcana","steam_id":76561198120924164,"connected_time":396000000000,"state":"active","ping":65},{"user_id":515,"name":"Lane","steam_id":76561197965828506,"connected_time":2119000000000,"state":"active","ping":53},{"user_id":506,"name":"Steve","steam_id":76561199144640325,"connected_time":2557000000000,"state":"active","ping":63},{"user_id":496,"name":"Optimore","steam_id":76561198047662990,"connected_time":4615000000000,"state":"active","ping":77},{"user_id":507,"name":"My controller broke","steam_id":76561198157280577,"connected_time":2543000000000,"state":"active","ping":44},{"user_id":525,"name":"Lord Scrubling","steam_id":76561198263744445,"connected_time":1245000000000,"state":"active","ping":50},{"user_id":523,"name":"I-die-often","steam_id":76561197996780327,"connected_time":1266000000000,"state":"active","ping":83},{"user_id":484,"name":"FG7","steam_id":76561198381197197,"connected_time":6300000000000,"state":"active","ping":105},{"user_id":526,"name":"Christmas Cretin","steam_id":76561198149063013,"connected_time":1244000000000,"state":"active","ping":46},{"user_id":481,"name":"lamar","steam_id":76561198818620540,"connected_time":6595000000000,"state":"active","ping":148},{"user_id":510,"name":"ssother","steam_id":76561198082594893,"connected_time":2369000000000,"state":"active","ping":88},{"user_id":527,"name":"ocky","steam_id":76561198313049944,"connected_time":1244000000000,"state":"active","ping":88},{"user_id":445,"name":"[LINUX] F2P=S*(M/B)+H || Spy!","steam_id":76561198093538786,"connected_time":9427000000000,"state":"active","ping":45},{"user_id":487,"name":"Drakon","steam_id":76561198078210822,"connected_time":5779000000000,"state":"active","ping":93},{"user_id":528,"name":"invb","steam_id":76561197998263914,"connected_time":1242000000000,"state":"active","ping":89}]},{"server_id":5,"name":"Uncletopia | Frankfurt | 1 | All Maps","name_short":"frk-1","host":"frk-1.de.uncletopia.com","port":27015,"enabled":true,"region":"eu","cc":"de","latitude":50.110924,"longitude":8.682127,"reserved":0,"last_update":"0001-01-01T00:00:00Z","name_a2s":"Uncletopia | Frankfurt | 1 | All Maps","protocol":17,"map":"cp_dustbowl","folder":"tf","game":"Team Fortress","app_id":440,"player_count":0,"max_players":24,"Bots":0,"server_type":"Dedicated","server_os":"Linux","password":true,"vac":true,"version":"7742253","steam_id":85568392924469989,"keywords":["cp","nocrits","nodmgspread","uncletopia"],"game_id":440,"stv_port":27016,"stv_name":"Uncletopia | Frankfurt | 1 | All Maps | STV","players":null},{"server_id":110,"name":"Uncletopia | Frankfurt | 2 | All Maps","name_short":"frk-2","host":"frk-1.de.uncletopia.com","port":27025,"enabled":true,"region":"eu","cc":"de","latitude":50.110924,"longitude":8.682127,"reserved":0,"last_update":"0001-01-01T00:00:00Z","name_a2s":"Uncletopia | Frankfurt | 2 | All Maps","protocol":17,"map":"pl_snowycoast","folder":"tf","game":"Team Fortress","app_id":440,"player_count":0,"max_players":24,"Bots":0,"server_type":"Dedicated","server_os":"Linux","password":true,"vac":true,"version":"7742253","steam_id":85568392924469990,"keywords":["nocrits","nodmgspread","payload","uncletopia"],"game_id":440,"stv_port":27026,"stv_name":"Uncletopia | Frankfurt | 2 | All Maps | STV","players":null},{"server_id":308,"name":"Uncletopia | Frankfurt | 3 | All Maps","name_short":"frk-3","host":"frk-1.de.uncletopia.com","port":27035,"enabled":true,"region":"eu","cc":"de","latitude":50.110924,"longitude":8.682127,"reserved":0,"last_update":"0001-01-01T00:00:00Z","name_a2s":"Uncletopia | Frankfurt | 3 | All Maps","protocol":17,"map":"pl_borneo","folder":"tf","game":"Team Fortress","app_id":440,"player_count":0,"max_players":24,"Bots":0,"server_type":"Dedicated","server_os":"Linux","password":true,"vac":true,"version":"7742253","steam_id":85568392924504274,"keywords":["nocrits","nodmgspread","payload","uncletopia"],"game_id":440,"stv_port":27036,"stv_name":"Uncletopia | Frankfurt | 3 | All Maps | STV","players":null},{"server_id":309,"name":"Uncletopia | Frankfurt | 4 | All Maps","name_short":"frk-4","host":"frk-1.de.uncletopia.com","port":27045,"enabled":true,"region":"eu","cc":"de","latitude":50.110924,"longitude":8.682127,"reserved":0,"last_update":"0001-01-01T00:00:00Z","name_a2s":"Uncletopia | Frankfurt | 4 | All Maps","protocol":17,"map":"koth_lakeside_final","folder":"tf","game":"Team Fortress","app_id":440,"player_count":0,"max_players":24,"Bots":0,"server_type":"Dedicated","server_os":"Linux","password":true,"vac":true,"version":"7742253","steam_id":85568392924504275,"keywords":["cp","nocrits","nodmgspread","uncletopia"],"game_id":440,"stv_port":27046,"stv_name":"Uncletopia | Frankfurt | 4 | All Maps | STV","players":null},{"server_id":310,"name":"Uncletopia | Frankfurt | 5 | All Maps","name_short":"frk-5","host":"frk-1.de.uncletopia.com","port":27055,"enabled":true,"region":"eu","cc":"de","latitude":50.110924,"longitude":8.682127,"reserved":0,"last_update":"0001-01-01T00:00:00Z","name_a2s":"Uncletopia | Frankfurt | 5 | All Maps","protocol":17,"map":"cp_dustbowl","folder":"tf","game":"Team Fortress","app_id":440,"player_count":0,"max_players":24,"Bots":0,"server_type":"Dedicated","server_os":"Linux","password":true,"vac":true,"version":"7742253","steam_id":85568392924504277,"keywords":["cp","nocrits","nodmgspread","uncletopia"],"game_id":440,"stv_port":27056,"stv_name":"Uncletopia | Frankfurt | 5 | All Maps | STV","players":null},{"server_id":311,"name":"Uncletopia | Frankfurt | 6 | All Maps","name_short":"frk-6","host":"frk-1.de.uncletopia.com","port":27065,"enabled":true,"region":"eu","cc":"de","latitude":50.110924,"longitude":8.682127,"reserved":0,"last_update":"0001-01-01T00:00:00Z","name_a2s":"Uncletopia | Frankfurt | 6 | All Maps","protocol":17,"map":"koth_viaduct","folder":"tf","game":"Team Fortress","app_id":440,"player_count":0,"max_players":24,"Bots":0,"server_type":"Dedicated","server_os":"Linux","password":true,"vac":true,"version":"7742253","steam_id":85568392924504278,"keywords":["cp","nocrits","nodmgspread","uncletopia"],"game_id":440,"stv_port":27066,"stv_name":"Uncletopia | Frankfurt | 6 | All Maps | STV","players":null},{"server_id":23,"name":"Uncletopia | Frankfurt | 7 | Stopwatch Beta","name_short":"frk-7","host":"frk-1.de.uncletopia.com","port":27075,"enabled":true,"region":"eu","cc":"de","latitude":50.110924,"longitude":8.682127,"reserved":0,"last_update":"0001-01-01T00:00:00Z","name_a2s":"Uncletopia | Frankfurt | 7 | Stopwatch Beta","protocol":17,"map":"koth_lakeside_final","folder":"tf","game":"Team Fortress","app_id":440,"player_count":0,"max_players":24,"Bots":0,"server_type":"Dedicated","server_os":"Linux","password":true,"vac":true,"version":"7742253","steam_id":85568392924742827,"keywords":["cp","nocrits","nodmgspread","uncletopia"],"game_id":440,"stv_port":27076,"stv_name":"Uncletopia | Frankfurt | 7 | Stopwatch Beta | STV","players":null},{"server_id":24,"name":"Uncletopia | Frankfurt | 8 | Community","name_short":"frk-8","host":"frk-1.de.uncletopia.com","port":27085,"enabled":true,"region":"eu","cc":"de","latitude":50.110924,"longitude":8.682127,"reserved":0,"last_update":"0001-01-01T00:00:00Z","name_a2s":"Uncletopia | Frankfurt | 8 | Community","protocol":17,"map":"workshop/koth_slaughter_rc1.ugc1712845210","folder":"tf","game":"Team Fortress","app_id":440,"player_count":0,"max_players":24,"Bots":0,"server_type":"Dedicated","server_os":"Linux","password":true,"vac":true,"version":"7742253","steam_id":85568392924742828,"keywords":["cp","nocrits","nodmgspread","uncletopia"],"game_id":440,"stv_port":27086,"stv_name":"Uncletopia | Frankfurt | 8 | Community | STV","players":null},{"server_id":202,"name":"Uncletopia | Hong Kong | 1 | All Maps","name_short":"hgk-1","host":"hgk-1.hk.uncletopia.com","port":27015,"enabled":true,"region":"asia","cc":"hk","latitude":22.302711,"longitude":114.177216,"reserved":0,"last_update":"0001-01-01T00:00:00Z","name_a2s":"Uncletopia | Hong Kong | 1 | All Maps","protocol":17,"map":"koth_harvest_final","folder":"tf","game":"Team Fortress","app_id":440,"player_count":24,"max_players":24,"Bots":0,"server_type":"Dedicated","server_os":"Linux","password":true,"vac":true,"version":"7742253","steam_id":85568392924494504,"keywords":["cp","nocrits","nodmgspread","uncletopia"],"game_id":440,"stv_port":27016,"stv_name":"Uncletopia | Hong Kong | 1 | All Maps | STV","players":[{"user_id":31,"name":"Puppycorn","steam_id":76561198384164542,"connected_time":1676000000000,"state":"active","ping":84},{"user_id":13,"name":"3wfFbdrjEze5d2G","steam_id":76561198435900451,"connected_time":4124000000000,"state":"active","ping":67},{"user_id":28,"name":"薄荷猫轰轰","steam_id":76561198094558846,"connected_time":2630000000000,"state":"active","ping":48},{"user_id":15,"name":"TomProPlayer","steam_id":76561199223292521,"connected_time":3743000000000,"state":"active","ping":62},{"user_id":17,"name":"変態の神","steam_id":76561199017344476,"connected_time":3585000000000,"state":"active","ping":107},{"user_id":42,"name":"neth","steam_id":76561198217995369,"connected_time":980000000000,"state":"active","ping":72},{"user_id":23,"name":"CRépuscule","steam_id":76561199379223866,"connected_time":3176000000000,"state":"active","ping":61},{"user_id":58,"name":"lillalune","steam_id":76561198230213828,"connected_time":242000000000,"state":"active","ping":61},{"user_id":60,"name":"a calm and reasonable person","steam_id":76561198165224788,"connected_time":13000000000,"state":"active","ping":88},{"user_id":43,"name":"BAKABAZOOKA","steam_id":76561198061628689,"connected_time":819000000000,"state":"active","ping":58},{"user_id":34,"name":"khin","steam_id":76561199232783156,"connected_time":1597000000000,"state":"active","ping":62},{"user_id":36,"name":"PLAYDOE","steam_id":76561199238874794,"connected_time":1572000000000,"state":"active","ping":75},{"user_id":37,"name":"Degenerate and Deranged","steam_id":76561198403808601,"connected_time":1511000000000,"state":"active","ping":79},{"user_id":38,"name":"I am BOX","steam_id":76561198845309411,"connected_time":1380000000000,"state":"active","ping":89},{"user_id":39,"name":"Hallelujah","steam_id":76561199024326941,"connected_time":1283000000000,"state":"active","ping":67},{"user_id":40,"name":"Milk❤ (most loved guy in ut)","steam_id":76561198163911560,"connected_time":1278000000000,"state":"active","ping":110},{"user_id":44,"name":"Telekhine","steam_id":76561198387120618,"connected_time":758000000000,"state":"active","ping":55},{"user_id":45,"name":"Volitl","steam_id":76561198356961555,"connected_time":740000000000,"state":"active","ping":73},{"user_id":46,"name":"Catalystic","steam_id":76561198086923689,"connected_time":723000000000,"state":"active","ping":79},{"user_id":47,"name":"Nephew Nate","steam_id":76561199137872034,"connected_time":704000000000,"state":"active","ping":107},{"user_id":59,"name":"NoPickles?","steam_id":76561199121861959,"connected_time":170000000000,"state":"active","ping":63},{"user_id":56,"name":"noyoiu","steam_id":76561199000019412,"connected_time":286000000000,"state":"active","ping":99},{"user_id":53,"name":"brizzard","steam_id":76561198048438653,"connected_time":373000000000,"state":"active","ping":52},{"user_id":57,"name":"F2PJJ_11037☺","steam_id":76561199152956168,"connected_time":281000000000,"state":"active","ping":94}]},{"server_id":1,"name":"Uncletopia | Los Angeles | 1 | All Maps","name_short":"lax-1","host":"lax-1.us.uncletopia.com","port":27015,"enabled":true,"region":"us-west","cc":"us","latitude":33.94279,"longitude":-118.41004,"reserved":0,"last_update":"0001-01-01T00:00:00Z","name_a2s":"Uncletopia | Los Angeles | 1 | All Maps","protocol":17,"map":"cp_powerhouse","folder":"tf","game":"Team Fortress","app_id":440,"player_count":25,"max_players":24,"Bots":0,"server_type":"Dedicated","server_os":"Linux","password":true,"vac":true,"version":"7742253","steam_id":85568392924469991,"keywords":["cp","nocrits","nodmgspread","uncletopia"],"game_id":440,"stv_port":27016,"stv_name":"Uncletopia | Los Angeles | 1 | All Maps | STV","players":[{"user_id":224,"name":"fortzei","steam_id":76561198210920541,"connected_time":3041000000000,"state":"connecting","ping":64},{"user_id":217,"name":"Brand0fet","steam_id":76561198187996103,"connected_time":3300000000000,"state":"connecting","ping":121},{"user_id":227,"name":"WalkinMan","steam_id":76561198047941142,"connected_time":2681000000000,"state":"connecting","ping":55},{"user_id":249,"name":"Nugakku","steam_id":76561198082346219,"connected_time":645000000000,"state":"connecting","ping":68},{"user_id":255,"name":"c49aa4","steam_id":76561199099537250,"connected_time":579000000000,"state":"connecting","ping":66},{"user_id":183,"name":"festive jester","steam_id":76561198079609974,"connected_time":6742000000000,"state":"connecting","ping":62},{"user_id":262,"name":"Schnitz","steam_id":76561198265484253,"connected_time":28000000000,"state":"connecting","ping":57},{"user_id":257,"name":"VicLoL","steam_id":76561198045580784,"connected_time":492000000000,"state":"connecting","ping":63},{"user_id":263,"name":"Red's Furniture Gallery","steam_id":76561198334059206,"connected_time":27000000000,"state":"connecting","ping":72},{"user_id":223,"name":"Final_MarioXD","steam_id":76561199184862419,"connected_time":3073000000000,"state":"connecting","ping":117},{"user_id":251,"name":"Micah","steam_id":76561198006837982,"connected_time":618000000000,"state":"connecting","ping":99},{"user_id":264,"name":"just leo","steam_id":76561198094491158,"connected_time":14000000000,"state":"connecting","ping":86},{"user_id":245,"name":"Kylar","steam_id":76561198196979431,"connected_time":850000000000,"state":"spawning","ping":62},{"user_id":146,"name":"Genius Meme","steam_id":76561198162911254,"connected_time":9728000000000,"state":"connecting","ping":88},{"user_id":246,"name":"Sky","steam_id":76561198838397667,"connected_time":814000000000,"state":"connecting","ping":125},{"user_id":147,"name":"NGsterson","steam_id":76561198162108154,"connected_time":9723000000000,"state":"connecting","ping":92},{"user_id":258,"name":"Seriously Bruh","steam_id":76561198070408485,"connected_time":452000000000,"state":"connecting","ping":120},{"user_id":247,"name":"fulices","steam_id":76561198420163702,"connected_time":801000000000,"state":"spawning","ping":45},{"user_id":253,"name":"Ryver","steam_id":76561199082197266,"connected_time":599000000000,"state":"connecting","ping":129},{"user_id":123,"name":"Moonflower ✦","steam_id":76561198191782483,"connected_time":10988000000000,"state":"connecting","ping":79},{"user_id":254,"name":"FiddyFoMike","steam_id":76561198057072581,"connected_time":584000000000,"state":"spawning","ping":64},{"user_id":235,"name":"Utopioid","steam_id":76561198077021580,"connected_time":2487000000000,"state":"connecting","ping":215},{"user_id":256,"name":"jawnymac","steam_id":76561198179529599,"connected_time":514000000000,"state":"connecting","ping":83},{"user_id":265,"name":"StrikcZ 父","steam_id":76561198976507691,"connected_time":3000000000,"state":"connecting","ping":89},{"user_id":242,"name":"hedroN","steam_id":76561198175864490,"connected_time":1012000000000,"state":"connecting","ping":114}]},{"server_id":112,"name":"Uncletopia | Los Angeles | 2 | All Maps","name_short":"lax-2","host":"lax-1.us.uncletopia.com","port":27025,"enabled":true,"region":"us-west","cc":"us","latitude":33.94279,"longitude":-118.41004,"reserved":0,"last_update":"0001-01-01T00:00:00Z","name_a2s":"Uncletopia | Los Angeles | 2 | All Maps","protocol":17,"map":"pl_wutville_event","folder":"tf","game":"Team Fortress","app_id":440,"player_count":23,"max_players":24,"Bots":0,"server_type":"Dedicated","server_os":"Linux","password":true,"vac":true,"version":"7742253","steam_id":85568392924469992,"keywords":["nocrits","nodmgspread","payload","uncletopia"],"game_id":440,"stv_port":27026,"stv_name":"Uncletopia | Los Angeles | 2 | All Maps | STV","players":[{"user_id":44,"name":"FueledByLazyness","steam_id":76561198214329600,"connected_time":2009000000000,"state":"active","ping":114},{"user_id":43,"name":"The_Pacific_gamer","steam_id":76561198089491446,"connected_time":2018000000000,"state":"active","ping":76},{"user_id":23,"name":"Carolina","steam_id":76561198007622829,"connected_time":3589000000000,"state":"active","ping":91},{"user_id":36,"name":"please be happy","steam_id":76561198864941566,"connected_time":2943000000000,"state":"active","ping":110},{"user_id":25,"name":"1998 Kia Sportage","steam_id":76561198084488577,"connected_time":3573000000000,"state":"active","ping":118},{"user_id":79,"name":"master_minion","steam_id":76561198170693990,"connected_time":771000000000,"state":"active","ping":57},{"user_id":27,"name":"EarthBoundGiygas","steam_id":76561198024595022,"connected_time":3571000000000,"state":"active","ping":98},{"user_id":45,"name":"IDrinkCoffee","steam_id":76561198196987279,"connected_time":1994000000000,"state":"active","ping":73},{"user_id":46,"name":"Tohru Adachi","steam_id":76561198302118756,"connected_time":1990000000000,"state":"active","ping":57},{"user_id":31,"name":"Atrix","steam_id":76561198084930312,"connected_time":3472000000000,"state":"active","ping":49},{"user_id":47,"name":"Mr.Pan","steam_id":76561198069030613,"connected_time":1926000000000,"state":"active","ping":79},{"user_id":48,"name":"name420","steam_id":76561198129374525,"connected_time":1925000000000,"state":"active","ping":103},{"user_id":49,"name":"spaz_addict","steam_id":76561198084288186,"connected_time":1918000000000,"state":"active","ping":105},{"user_id":50,"name":"zip it gungus","steam_id":76561198077272494,"connected_time":1912000000000,"state":"active","ping":99},{"user_id":52,"name":"Chillin Turt","steam_id":76561198025796849,"connected_time":1902000000000,"state":"active","ping":102},{"user_id":53,"name":"Wind Fucker","steam_id":76561198275362375,"connected_time":1808000000000,"state":"active","ping":55},{"user_id":80,"name":"Cute Gatito","steam_id":76561198351147780,"connected_time":743000000000,"state":"active","ping":50},{"user_id":55,"name":"GumZie","steam_id":76561198202584223,"connected_time":1710000000000,"state":"active","ping":44},{"user_id":77,"name":"Maid 'n' China","steam_id":76561198423392976,"connected_time":1002000000000,"state":"active","ping":50},{"user_id":60,"name":"New Gaming Chair","steam_id":76561198418288939,"connected_time":1532000000000,"state":"active","ping":63},{"user_id":62,"name":"Addy \u003c3","steam_id":76561198045819723,"connected_time":1509000000000,"state":"active","ping":125},{"user_id":85,"name":"LivingLikeLarry","steam_id":76561198817712958,"connected_time":482000000000,"state":"active","ping":129},{"user_id":94,"name":"guy","steam_id":76561198196443262,"connected_time":277000000000,"state":"active","ping":71}]},{"server_id":324,"name":"Uncletopia | Los Angeles | 3 | All Maps","name_short":"lax-3","host":"lax-1.us.uncletopia.com","port":27035,"enabled":true,"region":"us-west","cc":"us","latitude":33.94279,"longitude":-118.41004,"reserved":0,"last_update":"0001-01-01T00:00:00Z","name_a2s":"Uncletopia | Los Angeles | 3 | All Maps","protocol":17,"map":"koth_highpass","folder":"tf","game":"Team Fortress","app_id":440,"player_count":0,"max_players":24,"Bots":0,"server_type":"Dedicated","server_os":"Linux","password":true,"vac":true,"version":"7742253","steam_id":85568392924510198,"keywords":["cp","nocrits","nodmgspread","uncletopia"],"game_id":440,"stv_port":27036,"stv_name":"Uncletopia | Los Angeles | 3 | All Maps | STV","players":null},{"server_id":25,"name":"Uncletopia | Los Angeles | 4 | Stopwatch Beta","name_short":"lax-4","host":"lax-1.us.uncletopia.com","port":27045,"enabled":true,"region":"us-west","cc":"us","latitude":33.94279,"longitude":-118.41004,"reserved":0,"last_update":"0001-01-01T00:00:00Z","name_a2s":"Uncletopia | Los Angeles | 4 | Stopwatch Beta","protocol":17,"map":"cp_process_final","folder":"tf","game":"Team Fortress","app_id":440,"player_count":0,"max_players":24,"Bots":0,"server_type":"Dedicated","server_os":"Linux","password":true,"vac":true,"version":"7742253","steam_id":85568392924510199,"keywords":["cp","nocrits","nodmgspread","uncletopia"],"game_id":440,"stv_port":27046,"stv_name":"Uncletopia | Los Angeles | 4 | Stopwatch Beta | STV","players":null},{"server_id":11,"name":"Uncletopia | London | 1 | All Maps","name_short":"lon-1","host":"lon-1.uk.uncletopia.com","port":27015,"enabled":true,"region":"eu","cc":"gb","latitude":51.509865,"longitude":-0.118092,"reserved":0,"last_update":"0001-01-01T00:00:00Z","name_a2s":"Uncletopia | London | 1 | All Maps","protocol":17,"map":"pl_pier","folder":"tf","game":"Team Fortress","app_id":440,"player_count":0,"max_players":24,"Bots":0,"server_type":"Dedicated","server_os":"Linux","password":true,"vac":true,"version":"7742253","steam_id":85568392924367362,"keywords":["nocrits","nodmgspread","payload","uncletopia"],"game_id":440,"stv_port":27016,"stv_name":"Uncletopia | London | 1 | All Maps | STV","players":null},{"server_id":114,"name":"Uncletopia | London | 2 | All Maps","name_short":"lon-2","host":"lon-1.uk.uncletopia.com","port":27025,"enabled":true,"region":"eu","cc":"gb","latitude":51.509865,"longitude":-0.118092,"reserved":0,"last_update":"0001-01-01T00:00:00Z","name_a2s":"Uncletopia | London | 2 | All Maps","protocol":17,"map":"cp_altitude","folder":"tf","game":"Team Fortress","app_id":440,"player_count":0,"max_players":24,"Bots":0,"server_type":"Dedicated","server_os":"Linux","password":true,"vac":true,"version":"7742253","steam_id":85568392924470941,"keywords":["cp","nocrits","nodmgspread","uncletopia"],"game_id":440,"stv_port":27026,"stv_name":"Uncletopia | London | 2 | All Maps | STV","players":null},{"server_id":320,"name":"Uncletopia | London | 3 | All Maps","name_short":"lon-3","host":"lon-1.uk.uncletopia.com","port":27035,"enabled":true,"region":"eu","cc":"gb","latitude":51.509865,"longitude":-0.118092,"reserved":0,"last_update":"0001-01-01T00:00:00Z","name_a2s":"Uncletopia | London | 3 | All Maps","protocol":17,"map":"pl_swiftwater_final1","folder":"tf","game":"Team Fortress","app_id":440,"player_count":0,"max_players":24,"Bots":0,"server_type":"Dedicated","server_os":"Linux","password":true,"vac":true,"version":"7742253","steam_id":85568392924510192,"keywords":["nocrits","nodmgspread","payload","uncletopia"],"game_id":440,"stv_port":27036,"stv_name":"Uncletopia | London | 3 | All Maps | STV","players":null},{"server_id":321,"name":"Uncletopia | London | 4 | All Maps","name_short":"lon-4","host":"lon-1.uk.uncletopia.com","port":27045,"enabled":true,"region":"eu","cc":"gb","latitude":51.509865,"longitude":-0.118092,"reserved":0,"last_update":"0001-01-01T00:00:00Z","name_a2s":"Uncletopia | London | 4 | All Maps","protocol":17,"map":"cp_steel","folder":"tf","game":"Team Fortress","app_id":440,"player_count":24,"max_players":24,"Bots":0,"server_type":"Dedicated","server_os":"Linux","password":true,"vac":true,"version":"7742253","steam_id":85568392924510193,"keywords":["cp","nocrits","nodmgspread","uncletopia"],"game_id":440,"stv_port":27046,"stv_name":"Uncletopia | London | 4 | All Maps | STV","players":[{"user_id":875,"name":"juicymangoes","steam_id":76561198131670413,"connected_time":1080000000000,"state":"active","ping":66},{"user_id":871,"name":"R A S M U S","steam_id":76561198279799226,"connected_time":1245000000000,"state":"active","ping":64},{"user_id":794,"name":"Luigi Gaming (real and official","steam_id":76561198082502910,"connected_time":7331000000000,"state":"active","ping":60},{"user_id":886,"name":"gory","steam_id":76561199127523368,"connected_time":84000000000,"state":"active","ping":46},{"user_id":872,"name":"Julez","steam_id":76561198045505082,"connected_time":1244000000000,"state":"active","ping":75},{"user_id":870,"name":"happy hole-idays","steam_id":76561199095366133,"connected_time":1344000000000,"state":"active","ping":54},{"user_id":819,"name":"the high amby spy","steam_id":76561198212488780,"connected_time":4917000000000,"state":"active","ping":75},{"user_id":809,"name":"Borat","steam_id":76561198122226417,"connected_time":6483000000000,"state":"active","ping":40},{"user_id":490,"name":"Grey","steam_id":76561198187190267,"connected_time":30572000000000,"state":"active","ping":45},{"user_id":876,"name":"The Minister of Party City","steam_id":76561199219790713,"connected_time":1079000000000,"state":"active","ping":137},{"user_id":879,"name":"Love And Tolerance","steam_id":76561197969381880,"connected_time":986000000000,"state":"active","ping":78},{"user_id":878,"name":"SPAH","steam_id":76561199195985387,"connected_time":1062000000000,"state":"active","ping":94},{"user_id":839,"name":"nothing to smile about","steam_id":76561199062586342,"connected_time":3374000000000,"state":"active","ping":66},{"user_id":884,"name":"Chilchang Billing","steam_id":76561197993300020,"connected_time":443000000000,"state":"active","ping":70},{"user_id":835,"name":"Tsuruko","steam_id":76561198063618114,"connected_time":3659000000000,"state":"active","ping":68},{"user_id":858,"name":"тукку ирма","steam_id":76561197998715016,"connected_time":2359000000000,"state":"active","ping":64},{"user_id":836,"name":"Mafour","steam_id":76561197994581337,"connected_time":3655000000000,"state":"active","ping":97},{"user_id":873,"name":"Julmuri","steam_id":76561198284843949,"connected_time":1241000000000,"state":"active","ping":90},{"user_id":885,"name":"FeminineAtom","steam_id":76561198311208470,"connected_time":432000000000,"state":"active","ping":60},{"user_id":882,"name":"Milk","steam_id":76561198125876588,"connected_time":925000000000,"state":"active","ping":42},{"user_id":851,"name":"sorry ur cis feel better soon","steam_id":76561198037217248,"connected_time":2745000000000,"state":"active","ping":49},{"user_id":863,"name":"Deva Path","steam_id":76561198085763542,"connected_time":2005000000000,"state":"active","ping":79},{"user_id":867,"name":"Qwerty","steam_id":76561198023525894,"connected_time":1920000000000,"state":"active","ping":93},{"user_id":847,"name":"brique","steam_id":76561199103944229,"connected_time":2964000000000,"state":"active","ping":77}]},{"server_id":21,"name":"Uncletopia | London | 5 | All Maps","name_short":"lon-5","host":"lon-1.uk.uncletopia.com","port":27055,"enabled":true,"region":"eu","cc":"gb","latitude":51.509865,"longitude":-0.118092,"reserved":0,"last_update":"0001-01-01T00:00:00Z","name_a2s":"Uncletopia | London | 5 | All Maps","protocol":17,"map":"koth_cascade","folder":"tf","game":"Team Fortress","app_id":440,"player_count":0,"max_players":24,"Bots":0,"server_type":"Dedicated","server_os":"Linux","password":true,"vac":true,"version":"7742253","steam_id":85568392924742829,"keywords":["cp","nocrits","nodmgspread","uncletopia"],"game_id":440,"stv_port":27056,"stv_name":"Uncletopia | London | 5 | All Maps | STV","players":null},{"server_id":22,"name":"Uncletopia | London | 6 | All Maps","name_short":"lon-6","host":"lon-1.uk.uncletopia.com","port":27065,"enabled":true,"region":"eu","cc":"gb","latitude":51.509865,"longitude":-0.118092,"reserved":0,"last_update":"0001-01-01T00:00:00Z","name_a2s":"Uncletopia | London | 6 | All Maps","protocol":17,"map":"koth_highpass","folder":"tf","game":"Team Fortress","app_id":440,"player_count":0,"max_players":24,"Bots":0,"server_type":"Dedicated","server_os":"Linux","password":true,"vac":true,"version":"7742253","steam_id":85568392924742830,"keywords":["cp","nocrits","nodmgspread","uncletopia"],"game_id":440,"stv_port":27066,"stv_name":"Uncletopia | London | 6 | All Maps | STV","players":null},{"server_id":40,"name":"Uncletopia | London | 7 | No Payload","name_short":"lon-7","host":"lon-1.uk.uncletopia.com","port":27075,"enabled":true,"region":"eu","cc":"gb","latitude":51.509865,"longitude":-0.118092,"reserved":0,"last_update":"0001-01-01T00:00:00Z","name_a2s":"Uncletopia | London | 7 | No Payload","protocol":17,"map":"plr_hightower","folder":"tf","game":"Team Fortress","app_id":440,"player_count":0,"max_players":24,"Bots":0,"server_type":"Dedicated","server_os":"Linux","password":true,"vac":true,"version":"7742253","steam_id":85568392924964314,"keywords":["nocrits","nodmgspread","payload","uncletopia"],"game_id":440,"stv_port":27076,"stv_name":"Uncletopia | London | 7 | No Payload | STV","players":null},{"server_id":41,"name":"Uncletopia | London | 8 | Community","name_short":"lon-8","host":"lon-1.uk.uncletopia.com","port":27085,"enabled":true,"region":"eu","cc":"gb","latitude":51.509865,"longitude":-0.118092,"reserved":0,"last_update":"0001-01-01T00:00:00Z","name_a2s":"Uncletopia | London | 8 | Community","protocol":17,"map":"workshop/koth_ramjam_v2_b2.ugc2865676487","folder":"tf","game":"Team Fortress","app_id":440,"player_count":0,"max_players":24,"Bots":0,"server_type":"Dedicated","server_os":"Linux","password":true,"vac":true,"version":"7742253","steam_id":85568392924964315,"keywords":["cp","nocrits","nodmgspread","uncletopia"],"game_id":440,"stv_port":27086,"stv_name":"Uncletopia | London | 8 | Community | STV","players":null},{"server_id":300,"name":"Uncletopia | Montréal | 1 | All Maps","name_short":"mtl-1","host":"mtl-1.ca.uncletopia.com","port":27015,"enabled":true,"region":"us-east","cc":"ca","latitude":45.50889,"longitude":-73.56167,"reserved":0,"last_update":"0001-01-01T00:00:00Z","name_a2s":"Uncletopia | Montréal | 1 | All Maps","protocol":17,"map":"koth_viaduct","folder":"tf","game":"Team Fortress","app_id":440,"player_count":0,"max_players":24,"Bots":0,"server_type":"Dedicated","server_os":"Linux","password":true,"vac":true,"version":"7742253","steam_id":85568392924500087,"keywords":["cp","nocrits","nodmgspread","uncletopia"],"game_id":440,"stv_port":27016,"stv_name":"Uncletopia | Montréal | 1 | All Maps | STV","players":null},{"server_id":301,"name":"Uncletopia | Montréal | 2 | All Maps","name_short":"mtl-2","host":"mtl-1.ca.uncletopia.com","port":27025,"enabled":true,"region":"us-east","cc":"ca","latitude":45.50889,"longitude":-73.56167,"reserved":0,"last_update":"0001-01-01T00:00:00Z","name_a2s":"Uncletopia | Montréal | 2 | All Maps","protocol":17,"map":"pl_borneo","folder":"tf","game":"Team Fortress","app_id":440,"player_count":0,"max_players":24,"Bots":0,"server_type":"Dedicated","server_os":"Linux","password":true,"vac":true,"version":"7742253","steam_id":85568392924500088,"keywords":["nocrits","nodmgspread","payload","uncletopia"],"game_id":440,"stv_port":27026,"stv_name":"Uncletopia | Montréal | 2 | All Maps | STV","players":null},{"server_id":302,"name":"Uncletopia | Montréal | 3 | All Maps","name_short":"mtl-3","host":"mtl-1.ca.uncletopia.com","port":27035,"enabled":true,"region":"us-east","cc":"ca","latitude":45.50889,"longitude":-73.56167,"reserved":0,"last_update":"0001-01-01T00:00:00Z","name_a2s":"Uncletopia | Montréal | 3 | All Maps","protocol":17,"map":"pl_upward","folder":"tf","game":"Team Fortress","app_id":440,"player_count":0,"max_players":24,"Bots":0,"server_type":"Dedicated","server_os":"Linux","password":true,"vac":true,"version":"7742253","steam_id":85568392924500089,"keywords":["nocrits","nodmgspread","payload","uncletopia"],"game_id":440,"stv_port":27036,"stv_name":"Uncletopia | Montréal | 3 | All Maps | STV","players":null},{"server_id":303,"name":"Uncletopia | Montréal | 4 | No Payload","name_short":"mtl-4","host":"mtl-1.ca.uncletopia.com","port":27045,"enabled":true,"region":"us-east","cc":"ca","latitude":45.50889,"longitude":-73.56167,"reserved":0,"last_update":"0001-01-01T00:00:00Z","name_a2s":"Uncletopia | Montréal | 4 | No Payload","protocol":17,"map":"koth_highpass","folder":"tf","game":"Team Fortress","app_id":440,"player_count":0,"max_players":24,"Bots":0,"server_type":"Dedicated","server_os":"Linux","password":true,"vac":true,"version":"7742253","steam_id":85568392924500090,"keywords":["cp","nocrits","nodmgspread","uncletopia"],"game_id":440,"stv_port":27046,"stv_name":"Uncletopia | Montréal | 4 | No Payload | STV","players":null},{"server_id":13,"name":"Uncletopia | New York City | 1 | All Maps","name_short":"nyc-1","host":"nyc-1.us.uncletopia.com","port":27015,"enabled":true,"region":"us-east","cc":"us","latitude":40.73061,"longitude":-73.93524,"reserved":0,"last_update":"0001-01-01T00:00:00Z","name_a2s":"Uncletopia | New York City | 1 | All Maps","protocol":17,"map":"cp_dustbowl","folder":"tf","game":"Team Fortress","app_id":440,"player_count":24,"max_players":24,"Bots":0,"server_type":"Dedicated","server_os":"Linux","password":true,"vac":true,"version":"7742253","steam_id":85568392924469993,"keywords":["cp","nocrits","nodmgspread","uncletopia"],"game_id":440,"stv_port":27016,"stv_name":"Uncletopia | New York City | 1 | All Maps | STV","players":[{"user_id":602,"name":"Uncle Majic the Hip Hop Magicia","steam_id":76561198107924303,"connected_time":283000000000,"state":"active","ping":49},{"user_id":580,"name":"E","steam_id":76561198108550445,"connected_time":1772000000000,"state":"active","ping":49},{"user_id":548,"name":"Xavibite","steam_id":76561198209380493,"connected_time":4640000000000,"state":"active","ping":45},{"user_id":605,"name":"Goggles","steam_id":76561199230161090,"connected_time":170000000000,"state":"active","ping":46},{"user_id":570,"name":"Phillip Jeffries","steam_id":76561198064052174,"connected_time":3095000000000,"state":"active","ping":55},{"user_id":566,"name":"Ballin \u0026 Can't Get Up","steam_id":76561198047394013,"connected_time":3353000000000,"state":"active","ping":61},{"user_id":586,"name":"Silly Scientist","steam_id":76561199199886079,"connected_time":1498000000000,"state":"active","ping":38},{"user_id":599,"name":"SomeFlamingo","steam_id":76561198869299841,"connected_time":833000000000,"state":"active","ping":51},{"user_id":603,"name":"e0e0","steam_id":76561198293839750,"connected_time":206000000000,"state":"active","ping":44},{"user_id":560,"name":"cop disliker","steam_id":76561198026297963,"connected_time":3911000000000,"state":"active","ping":50},{"user_id":604,"name":"AjProductions","steam_id":76561198217950125,"connected_time":181000000000,"state":"active","ping":121},{"user_id":553,"name":"Yuzu","steam_id":76561198417913035,"connected_time":4087000000000,"state":"active","ping":64},{"user_id":563,"name":"Nico","steam_id":76561198125701869,"connected_time":3787000000000,"state":"active","ping":51},{"user_id":581,"name":"hoots","steam_id":76561198015609525,"connected_time":1716000000000,"state":"active","ping":52},{"user_id":537,"name":"Stormartillery","steam_id":76561198408982577,"connected_time":5930000000000,"state":"active","ping":57},{"user_id":593,"name":"Bio Dome With Pauly Shore","steam_id":76561197987482919,"connected_time":1123000000000,"state":"active","ping":45},{"user_id":562,"name":"Fawful's Minion","steam_id":76561198090120779,"connected_time":3897000000000,"state":"active","ping":135},{"user_id":538,"name":"Bee_Pirate","steam_id":76561199000599111,"connected_time":5925000000000,"state":"active","ping":58},{"user_id":607,"name":"Laelaps","steam_id":76561198100061416,"connected_time":98000000000,"state":"active","ping":55},{"user_id":527,"name":"the deadliest pyroshark","steam_id":76561198374227766,"connected_time":6427000000000,"state":"active","ping":50},{"user_id":573,"name":"PizzaPasta","steam_id":76561199125109082,"connected_time":3036000000000,"state":"active","ping":63},{"user_id":600,"name":"WhiskyTangoFoxy","steam_id":76561197994843275,"connected_time":824000000000,"state":"active","ping":97},{"user_id":612,"name":"2fort lesbian","steam_id":76561198055490517,"connected_time":17000000000,"state":"active","ping":54},{"user_id":610,"name":"ikyosan","steam_id":76561198126760743,"connected_time":62000000000,"state":"active","ping":90}]},{"server_id":14,"name":"Uncletopia | New York City | 2 | All Maps","name_short":"nyc-2","host":"nyc-1.us.uncletopia.com","port":27025,"enabled":true,"region":"us-east","cc":"us","latitude":40.73061,"longitude":-73.93524,"reserved":0,"last_update":"0001-01-01T00:00:00Z","name_a2s":"Uncletopia | New York City | 2 | All Maps","protocol":17,"map":"cp_altitude","folder":"tf","game":"Team Fortress","app_id":440,"player_count":21,"max_players":24,"Bots":0,"server_type":"Dedicated","server_os":"Linux","password":true,"vac":true,"version":"7742253","steam_id":85568392924469994,"keywords":["cp","nocrits","nodmgspread","uncletopia"],"game_id":440,"stv_port":27026,"stv_name":"Uncletopia | New York City | 2 | All Maps | STV","players":[{"user_id":482,"name":"WhoIsFrosty","steam_id":76561198880588117,"connected_time":5541000000000,"state":"active","ping":82},{"user_id":534,"name":"WitheringLeo","steam_id":76561198046722918,"connected_time":801000000000,"state":"active","ping":51},{"user_id":467,"name":"Lumpy","steam_id":76561198058840585,"connected_time":6979000000000,"state":"active","ping":44},{"user_id":494,"name":"Crimmas","steam_id":76561198129326627,"connected_time":3839000000000,"state":"active","ping":60},{"user_id":535,"name":"OpalRosie","steam_id":76561199018527885,"connected_time":772000000000,"state":"active","ping":84},{"user_id":455,"name":"SuperJagops","steam_id":76561198034689716,"connected_time":8193000000000,"state":"active","ping":47},{"user_id":516,"name":"Parth Makeo","steam_id":76561198002516581,"connected_time":1971000000000,"state":"active","ping":46},{"user_id":517,"name":"athletesfoot","steam_id":76561197997331867,"connected_time":1770000000000,"state":"active","ping":35},{"user_id":518,"name":"Wetman","steam_id":76561197998443325,"connected_time":1728000000000,"state":"active","ping":207},{"user_id":536,"name":"Ferguson","steam_id":76561198121349387,"connected_time":769000000000,"state":"active","ping":75},{"user_id":511,"name":"bANji","steam_id":76561198108898161,"connected_time":2669000000000,"state":"active","ping":133},{"user_id":524,"name":"Hopeless Egg","steam_id":76561199022530317,"connected_time":1540000000000,"state":"active","ping":57},{"user_id":533,"name":"Doost44","steam_id":76561198115785902,"connected_time":835000000000,"state":"active","ping":75},{"user_id":537,"name":"Snazzi","steam_id":76561198085208276,"connected_time":737000000000,"state":"active","ping":76},{"user_id":445,"name":"ThrownMoney1758","steam_id":76561199382597407,"connected_time":9160000000000,"state":"active","ping":79},{"user_id":497,"name":"Tuxaton","steam_id":76561198067655189,"connected_time":3734000000000,"state":"active","ping":190},{"user_id":522,"name":"burial","steam_id":76561198069431694,"connected_time":1604000000000,"state":"active","ping":66},{"user_id":434,"name":"DarthSpaghettus","steam_id":76561198834548542,"connected_time":9981000000000,"state":"active","ping":89},{"user_id":480,"name":"quatelhelix","steam_id":76561198066708113,"connected_time":6020000000000,"state":"active","ping":82},{"user_id":527,"name":"Mr. Squidward","steam_id":76561198103821671,"connected_time":1462000000000,"state":"active","ping":50},{"user_id":531,"name":"JelaniCruz","steam_id":76561198058517173,"connected_time":949000000000,"state":"active","ping":39}]},{"server_id":15,"name":"Uncletopia | New York City | 3 | Stopwatch Beta","name_short":"nyc-3","host":"nyc-1.us.uncletopia.com","port":27035,"enabled":true,"region":"us-east","cc":"us","latitude":40.73061,"longitude":-73.93524,"reserved":0,"last_update":"0001-01-01T00:00:00Z","name_a2s":"Uncletopia | New York City | 3 | Stopwatch Beta","protocol":17,"map":"workshop/koth_bagel_rc5.ugc2514036946","folder":"tf","game":"Team Fortress","app_id":440,"player_count":0,"max_players":24,"Bots":0,"server_type":"Dedicated","server_os":"Linux","password":true,"vac":true,"version":"7742253","steam_id":85568392924742820,"keywords":["cp","nocrits","nodmgspread","uncletopia"],"game_id":440,"stv_port":27036,"stv_name":"Uncletopia | New York City | 3 | Stopwatch Beta | STV","players":null},{"server_id":16,"name":"Uncletopia | New York City | 4 | Community","name_short":"nyc-4","host":"nyc-1.us.uncletopia.com","port":27045,"enabled":true,"region":"us-east","cc":"us","latitude":40.73061,"longitude":-73.93524,"reserved":0,"last_update":"0001-01-01T00:00:00Z","name_a2s":"Uncletopia | New York City | 4 | Community","protocol":17,"map":"workshop/rd_asteroid_redux_rc9.ugc2154902912","folder":"tf","game":"Team Fortress","app_id":440,"player_count":0,"max_players":24,"Bots":0,"server_type":"Dedicated","server_os":"Linux","password":true,"vac":true,"version":"7742253","steam_id":85568392924742821,"keywords":["beta","nocrits","nodmgspread","rd","uncletopia"],"game_id":440,"stv_port":27046,"stv_name":"Uncletopia | New York City | 4 | Community | STV","players":null},{"server_id":142,"name":"Uncletopia | São Paulo | 1 | All Maps","name_short":"sao-1","host":"sao-1.br.uncletopia.com","port":27015,"enabled":true,"region":"sa","cc":"br","latitude":-23.533773,"longitude":-46.62529,"reserved":0,"last_update":"0001-01-01T00:00:00Z","name_a2s":"Uncletopia | São Paulo | 1 | All Maps","protocol":17,"map":"cp_dustbowl","folder":"tf","game":"Team Fortress","app_id":440,"player_count":0,"max_players":24,"Bots":0,"server_type":"Dedicated","server_os":"Linux","password":true,"vac":true,"version":"7742253","steam_id":85568392924469996,"keywords":["cp","nocrits","nodmgspread","uncletopia"],"game_id":440,"stv_port":27016,"stv_name":"Uncletopia | São Paulo | 1 | All Maps | STV","players":null},{"server_id":143,"name":"Uncletopia | São Paulo | 2 | All Maps","name_short":"sao-2","host":"sao-2.br.uncletopia.com","port":27015,"enabled":true,"region":"sa","cc":"br","latitude":-23.533773,"longitude":-46.62529,"reserved":0,"last_update":"0001-01-01T00:00:00Z","name_a2s":"Uncletopia | São Paulo | 2 | All Maps","protocol":17,"map":"koth_lakeside_final","folder":"tf","game":"Team Fortress","app_id":440,"player_count":0,"max_players":24,"Bots":0,"server_type":"Dedicated","server_os":"Linux","password":true,"vac":true,"version":"7742253","steam_id":85568392924485349,"keywords":["cp","nocrits","nodmgspread","uncletopia"],"game_id":440,"stv_port":27016,"stv_name":"Uncletopia | São Paulo | 2 | All Maps | STV","players":null},{"server_id":7,"name":"Uncletopia | Seattle | 1 | All Maps","name_short":"sea-1","host":"sea-1.us.uncletopia.com","port":27015,"enabled":true,"region":"us-west","cc":"us","latitude":47.608013,"longitude":-122.33517,"reserved":0,"last_update":"0001-01-01T00:00:00Z","name_a2s":"Uncletopia | Seattle | 1 | All Maps","protocol":17,"map":"cp_steel","folder":"tf","game":"Team Fortress","app_id":440,"player_count":23,"max_players":24,"Bots":0,"server_type":"Dedicated","server_os":"Linux","password":true,"vac":true,"version":"7742253","steam_id":85568392924469997,"keywords":["cp","nocrits","nodmgspread","uncletopia"],"game_id":440,"stv_port":27016,"stv_name":"Uncletopia | Seattle | 1 | All Maps | STV","players":[{"user_id":116,"name":"tconnors1976","steam_id":76561198840033336,"connected_time":2191000000000,"state":"active","ping":50},{"user_id":126,"name":"Mignyanne :3","steam_id":76561198048754056,"connected_time":1645000000000,"state":"active","ping":72},{"user_id":131,"name":"jungus","steam_id":76561198129862008,"connected_time":584000000000,"state":"active","ping":76},{"user_id":6,"name":"DarthJiggles","steam_id":76561198088383875,"connected_time":9147000000000,"state":"active","ping":63},{"user_id":101,"name":"machomelon","steam_id":76561198043683564,"connected_time":3622000000000,"state":"active","ping":63},{"user_id":120,"name":"Shrimps","steam_id":76561198983016709,"connected_time":1893000000000,"state":"active","ping":60},{"user_id":117,"name":"Syn_Contamino5311","steam_id":76561199454661432,"connected_time":2044000000000,"state":"active","ping":61},{"user_id":122,"name":"TRB543inBC","steam_id":76561198415399501,"connected_time":1868000000000,"state":"active","ping":56},{"user_id":106,"name":"corndoglio","steam_id":76561198101366793,"connected_time":3051000000000,"state":"active","ping":45},{"user_id":38,"name":"Sniff","steam_id":76561198010270922,"connected_time":7747000000000,"state":"active","ping":44},{"user_id":133,"name":"MCman","steam_id":76561198412110305,"connected_time":203000000000,"state":"active","ping":79},{"user_id":124,"name":"UnlimitedRune","steam_id":76561199170761237,"connected_time":1826000000000,"state":"active","ping":107},{"user_id":137,"name":"survivalist bubbie","steam_id":76561198860460013,"connected_time":41000000000,"state":"active","ping":93},{"user_id":114,"name":"Fire_box41238","steam_id":76561199185673650,"connected_time":2222000000000,"state":"active","ping":49},{"user_id":118,"name":"Furry Femboy Hooters","steam_id":76561198097745857,"connected_time":1902000000000,"state":"active","ping":76},{"user_id":132,"name":"BigGoose","steam_id":76561198833281392,"connected_time":367000000000,"state":"active","ping":94},{"user_id":102,"name":"Tabby","steam_id":76561199043429385,"connected_time":3601000000000,"state":"active","ping":133},{"user_id":109,"name":"rat gets the cheese","steam_id":76561198031234032,"connected_time":2652000000000,"state":"active","ping":107},{"user_id":138,"name":"Big ol' Willy Gaming","steam_id":76561198048545731,"connected_time":41000000000,"state":"active","ping":77},{"user_id":108,"name":"zoo-music girl","steam_id":76561198325306660,"connected_time":2775000000000,"state":"active","ping":53},{"user_id":136,"name":"jiji","steam_id":76561198298140571,"connected_time":163000000000,"state":"active","ping":86},{"user_id":130,"name":"Korey","steam_id":76561198210734407,"connected_time":678000000000,"state":"active","ping":114},{"user_id":121,"name":"Aardappel","steam_id":76561198030894676,"connected_time":1890000000000,"state":"active","ping":72}]},{"server_id":119,"name":"Uncletopia | Seattle | 2 | All Maps","name_short":"sea-2","host":"sea-1.us.uncletopia.com","port":27025,"enabled":true,"region":"us-west","cc":"us","latitude":47.608013,"longitude":-122.33517,"reserved":0,"last_update":"0001-01-01T00:00:00Z","name_a2s":"Uncletopia | Seattle | 2 | All Maps","protocol":17,"map":"koth_viaduct","folder":"tf","game":"Team Fortress","app_id":440,"player_count":24,"max_players":24,"Bots":0,"server_type":"Dedicated","server_os":"Linux","password":true,"vac":true,"version":"7742253","steam_id":85568392924469998,"keywords":["cp","nocrits","nodmgspread","uncletopia"],"game_id":440,"stv_port":27026,"stv_name":"Uncletopia | Seattle | 2 | All Maps | STV","players":[{"user_id":116,"name":"oo","steam_id":76561198119626492,"connected_time":2745000000000,"state":"active","ping":96},{"user_id":84,"name":"chloé","steam_id":76561198858926895,"connected_time":4361000000000,"state":"active","ping":39},{"user_id":109,"name":"Raccoon","steam_id":76561198978422268,"connected_time":3224000000000,"state":"active","ping":180},{"user_id":118,"name":"Ridley","steam_id":76561198846891176,"connected_time":2333000000000,"state":"active","ping":66},{"user_id":128,"name":"selvhat","steam_id":76561198114225509,"connected_time":1292000000000,"state":"active","ping":76},{"user_id":129,"name":"Muad'dibMcFly (Lon)","steam_id":76561197990183357,"connected_time":1261000000000,"state":"active","ping":37},{"user_id":114,"name":"Joyous Jenny","steam_id":76561198127998866,"connected_time":2829000000000,"state":"active","ping":138},{"user_id":132,"name":"am","steam_id":76561198345528370,"connected_time":1177000000000,"state":"active","ping":56},{"user_id":99,"name":"la loveiathenne","steam_id":76561198046394237,"connected_time":3709000000000,"state":"active","ping":57},{"user_id":120,"name":"Cactus Josh","steam_id":76561198140253855,"connected_time":2189000000000,"state":"active","ping":52},{"user_id":111,"name":"Harold","steam_id":76561198057317770,"connected_time":3069000000000,"state":"active","ping":61},{"user_id":112,"name":"Rodent","steam_id":76561198033801957,"connected_time":3045000000000,"state":"active","ping":53},{"user_id":83,"name":"ROGUE-PLANET","steam_id":76561198116023052,"connected_time":4401000000000,"state":"active","ping":75},{"user_id":133,"name":"Boltzmann","steam_id":76561198100504544,"connected_time":1131000000000,"state":"active","ping":48},{"user_id":137,"name":"Crextology","steam_id":76561199122236673,"connected_time":498000000000,"state":"active","ping":62},{"user_id":141,"name":"Stuff Gremlin","steam_id":76561198011675372,"connected_time":62000000000,"state":"active","ping":52},{"user_id":110,"name":"the dingler man","steam_id":76561199099203623,"connected_time":3199000000000,"state":"active","ping":97},{"user_id":139,"name":"Grill Skills","steam_id":76561198053575147,"connected_time":403000000000,"state":"active","ping":61},{"user_id":142,"name":"Popeyes Employee","steam_id":76561198157341489,"connected_time":62000000000,"state":"active","ping":88},{"user_id":89,"name":"Dreamland","steam_id":76561198185490075,"connected_time":4307000000000,"state":"active","ping":112},{"user_id":119,"name":"exephur","steam_id":76561198135763234,"connected_time":2252000000000,"state":"active","ping":60},{"user_id":122,"name":"General Fisticuffs","steam_id":76561198255721392,"connected_time":1919000000000,"state":"active","ping":114},{"user_id":92,"name":"Elite_Friendly","steam_id":76561198819972127,"connected_time":4148000000000,"state":"active","ping":61},{"user_id":127,"name":"SuperFresh","steam_id":76561198200723198,"connected_time":1320000000000,"state":"active","ping":88}]},{"server_id":406,"name":"Uncletopia | Seattle | 3 | Stopwatch Beta","name_short":"sea-3","host":"sea-1.us.uncletopia.com","port":27035,"enabled":true,"region":"us-west","cc":"us","latitude":47.608013,"longitude":-122.33517,"reserved":0,"last_update":"0001-01-01T00:00:00Z","name_a2s":"Uncletopia | Seattle | 3 | Stopwatch Beta","protocol":17,"map":"workshop/koth_clearcut_b15.ugc2107050255","folder":"tf","game":"Team Fortress","app_id":440,"player_count":0,"max_players":24,"Bots":0,"server_type":"Dedicated","server_os":"Linux","password":true,"vac":true,"version":"7742253","steam_id":85568392924515217,"keywords":["cp","nocrits","nodmgspread","uncletopia"],"game_id":440,"stv_port":27036,"stv_name":"Uncletopia | Seattle | 3 | Stopwatch Beta | STV","players":null},{"server_id":17,"name":"Uncletopia | San Francisco | 1 | All Maps","name_short":"sfo-1","host":"sfo-1.us.uncletopia.com","port":27015,"enabled":true,"region":"us-west","cc":"us","latitude":37.77397,"longitude":-122.4313,"reserved":0,"last_update":"0001-01-01T00:00:00Z","name_a2s":"Uncletopia | San Francisco | 1 | All Maps","protocol":17,"map":"koth_lakeside_final","folder":"tf","game":"Team Fortress","app_id":440,"player_count":2,"max_players":24,"Bots":0,"server_type":"Dedicated","server_os":"Linux","password":true,"vac":true,"version":"7742253","steam_id":85568392924469999,"keywords":["cp","nocrits","nodmgspread","uncletopia"],"game_id":440,"stv_port":27016,"stv_name":"Uncletopia | San Francisco | 1 | All Maps | STV","players":[{"user_id":26,"name":"MisterT","steam_id":76561198079868873,"connected_time":71000000000,"state":"active","ping":49},{"user_id":27,"name":"IkermlgYT","steam_id":76561199061497635,"connected_time":63000000000,"state":"active","ping":94}]},{"server_id":18,"name":"Uncletopia | San Francisco | 2 | All Maps","name_short":"sfo-2","host":"sfo-1.us.uncletopia.com","port":27025,"enabled":true,"region":"us-west","cc":"us","latitude":37.77397,"longitude":-122.4313,"reserved":0,"last_update":"0001-01-01T00:00:00Z","name_a2s":"Uncletopia | San Francisco | 2 | All Maps","protocol":17,"map":"koth_cascade","folder":"tf","game":"Team Fortress","app_id":440,"player_count":0,"max_players":24,"Bots":0,"server_type":"Dedicated","server_os":"Linux","password":true,"vac":true,"version":"7742253","steam_id":85568392924470000,"keywords":["cp","nocrits","nodmgspread","uncletopia"],"game_id":440,"stv_port":27026,"stv_name":"Uncletopia | San Francisco | 2 | All Maps | STV","players":null},{"server_id":19,"name":"Uncletopia | San Francisco | 3 | Stopwatch Beta","name_short":"sfo-3","host":"sfo-1.us.uncletopia.com","port":27035,"enabled":true,"region":"us-west","cc":"us","latitude":37.77397,"longitude":-122.4313,"reserved":0,"last_update":"0001-01-01T00:00:00Z","name_a2s":"Uncletopia | San Francisco | 3 | Stopwatch Beta","protocol":17,"map":"cp_snakewater_final1","folder":"tf","game":"Team Fortress","app_id":440,"player_count":0,"max_players":24,"Bots":0,"server_type":"Dedicated","server_os":"Linux","password":true,"vac":true,"version":"7742253","steam_id":85568392924742824,"keywords":["cp","nocrits","nodmgspread","uncletopia"],"game_id":440,"stv_port":27036,"stv_name":"Uncletopia | San Francisco | 3 | Stopwatch Beta | STV","players":null},{"server_id":20,"name":"Uncletopia | San Francisco | 4 | Community","name_short":"sfo-4","host":"sfo-1.us.uncletopia.com","port":27045,"enabled":true,"region":"us-west","cc":"us","latitude":37.77397,"longitude":-122.4313,"reserved":0,"last_update":"0001-01-01T00:00:00Z","name_a2s":"Uncletopia | San Francisco | 4 | Community","protocol":17,"map":"workshop/koth_product_final.ugc454272353","folder":"tf","game":"Team Fortress","app_id":440,"player_count":0,"max_players":24,"Bots":0,"server_type":"Dedicated","server_os":"Linux","password":true,"vac":true,"version":"7742253","steam_id":85568392924742826,"keywords":["cp","nocrits","nodmgspread","uncletopia"],"game_id":440,"stv_port":27046,"stv_name":"Uncletopia | San Francisco | 4 | Community | STV","players":null},{"server_id":141,"name":"Uncletopia | Sydney | 1 | All Maps","name_short":"syd-1","host":"syd-1.au.uncletopia.com","port":27015,"enabled":true,"region":"au","cc":"au","latitude":-33.865143,"longitude":151.2099,"reserved":0,"last_update":"0001-01-01T00:00:00Z","name_a2s":"Uncletopia | Sydney | 1 | All Maps","protocol":17,"map":"cp_dustbowl","folder":"tf","game":"Team Fortress","app_id":440,"player_count":24,"max_players":24,"Bots":0,"server_type":"Dedicated","server_os":"Linux","password":true,"vac":true,"version":"7742253","steam_id":85568392924470001,"keywords":["cp","nocrits","nodmgspread","uncletopia"],"game_id":440,"stv_port":27016,"stv_name":"Uncletopia | Sydney | 1 | All Maps | STV","players":[{"user_id":193,"name":"AIDSTheMonkey","steam_id":76561198299143146,"connected_time":2000000000,"state":"spawning","ping":45},{"user_id":169,"name":"Fruit Fly","steam_id":76561198983958959,"connected_time":1891000000000,"state":"active","ping":43},{"user_id":130,"name":"Pickled Cow","steam_id":76561198292517991,"connected_time":4951000000000,"state":"active","ping":45},{"user_id":190,"name":"crimo","steam_id":76561198273057915,"connected_time":282000000000,"state":"active","ping":44},{"user_id":107,"name":"nojnosbod11","steam_id":76561199176012151,"connected_time":7702000000000,"state":"active","ping":59},{"user_id":142,"name":"BorkerBorkia","steam_id":76561199343296734,"connected_time":3640000000000,"state":"active","ping":42},{"user_id":166,"name":"Bamooxa","steam_id":76561198067160709,"connected_time":2089000000000,"state":"active","ping":83},{"user_id":173,"name":"cimpact","steam_id":76561198452258917,"connected_time":1721000000000,"state":"active","ping":138},{"user_id":191,"name":"Skyboi","steam_id":76561199017211623,"connected_time":263000000000,"state":"active","ping":77},{"user_id":186,"name":"Turbo_dip","steam_id":76561198446508846,"connected_time":809000000000,"state":"active","ping":57},{"user_id":149,"name":"Top Ramen","steam_id":76561198028969833,"connected_time":3008000000000,"state":"active","ping":45},{"user_id":174,"name":"e   ee","steam_id":76561198044128613,"connected_time":1651000000000,"state":"active","ping":47},{"user_id":176,"name":"lofty","steam_id":76561198380588357,"connected_time":1475000000000,"state":"active","ping":60},{"user_id":177,"name":"whiteshaq","steam_id":76561198131988811,"connected_time":1314000000000,"state":"active","ping":91},{"user_id":178,"name":"monkeyman536","steam_id":76561197997717737,"connected_time":1301000000000,"state":"active","ping":171},{"user_id":187,"name":"Reedy","steam_id":76561198155994395,"connected_time":549000000000,"state":"active","ping":64},{"user_id":155,"name":"wombraider","steam_id":76561199375834537,"connected_time":2588000000000,"state":"active","ping":130},{"user_id":188,"name":"Flakey","steam_id":76561198021618682,"connected_time":543000000000,"state":"active","ping":59},{"user_id":179,"name":"chrome","steam_id":76561198865284532,"connected_time":1136000000000,"state":"active","ping":41},{"user_id":180,"name":"Meme Aids","steam_id":76561198847593053,"connected_time":1125000000000,"state":"active","ping":49},{"user_id":181,"name":"Mr.Deathclaw","steam_id":76561198025419320,"connected_time":1122000000000,"state":"active","ping":44},{"user_id":182,"name":"Mambo","steam_id":76561198063799940,"connected_time":1067000000000,"state":"active","ping":50},{"user_id":184,"name":"Dr Rags","steam_id":76561198179481430,"connected_time":1048000000000,"state":"active","ping":96},{"user_id":192,"name":"dingo","steam_id":76561198315774295,"connected_time":97000000000,"state":"active","ping":59}]},{"server_id":123,"name":"Uncletopia | Sydney | 2 | All Maps","name_short":"syd-2","host":"syd-1.au.uncletopia.com","port":27025,"enabled":true,"region":"au","cc":"au","latitude":-33.865143,"longitude":151.2099,"reserved":0,"last_update":"0001-01-01T00:00:00Z","name_a2s":"Uncletopia | Sydney | 2 | All Maps","protocol":17,"map":"pl_frontier_final","folder":"tf","game":"Team Fortress","app_id":440,"player_count":5,"max_players":24,"Bots":0,"server_type":"Dedicated","server_os":"Linux","password":true,"vac":true,"version":"7742253","steam_id":85568392924470002,"keywords":["nocrits","nodmgspread","payload","uncletopia"],"game_id":440,"stv_port":27026,"stv_name":"Uncletopia | Sydney | 2 | All Maps | STV","players":[{"user_id":44,"name":"lemur","steam_id":76561198278239170,"connected_time":52000000000,"state":"active","ping":74},{"user_id":38,"name":"Branko","steam_id":76561199262196710,"connected_time":1774000000000,"state":"active","ping":42},{"user_id":36,"name":"random.","steam_id":76561198848689967,"connected_time":2149000000000,"state":"active","ping":35},{"user_id":40,"name":"AzureFox","steam_id":76561198108179408,"connected_time":1179000000000,"state":"active","ping":101},{"user_id":43,"name":"SpillingPoint","steam_id":76561199252195387,"connected_time":749000000000,"state":"active","ping":67}]},{"server_id":395,"name":"Uncletopia | Sydney | 3 | All Maps","name_short":"syd-3","host":"syd-1.au.uncletopia.com","port":27035,"enabled":true,"region":"au","cc":"au","latitude":-33.865143,"longitude":151.2099,"reserved":0,"last_update":"0001-01-01T00:00:00Z","name_a2s":"Uncletopia | Sydney | 3 | All Maps","protocol":17,"map":"cp_dustbowl","folder":"tf","game":"Team Fortress","app_id":440,"player_count":0,"max_players":24,"Bots":0,"server_type":"Dedicated","server_os":"Linux","password":true,"vac":true,"version":"7742253","steam_id":85568392925194467,"keywords":["cp","nocrits","nodmgspread","uncletopia"],"game_id":440,"stv_port":27036,"stv_name":"Uncletopia | Sydney | 3 | All Maps | STV","players":null},{"server_id":396,"name":"Uncletopia | Sydney | 4 | All Maps","name_short":"syd-4","host":"syd-1.au.uncletopia.com","port":27045,"enabled":true,"region":"au","cc":"au","latitude":-33.865143,"longitude":151.2099,"reserved":0,"last_update":"0001-01-01T00:00:00Z","name_a2s":"Uncletopia | Sydney | 4 | All Maps","protocol":17,"map":"koth_lakeside_final","folder":"tf","game":"Team Fortress","app_id":440,"player_count":0,"max_players":24,"Bots":0,"server_type":"Dedicated","server_os":"Linux","password":true,"vac":true,"version":"7742253","steam_id":85568392925397958,"keywords":["cp","nocrits","nodmgspread","uncletopia"],"game_id":440,"stv_port":27046,"stv_name":"Uncletopia | Sydney | 4 | All Maps | STV","players":null},{"server_id":58,"name":"Uncletopia | Sydney | 5 | Stopwatch Beta","name_short":"syd-5","host":"syd-1.au.uncletopia.com","port":27055,"enabled":true,"region":"au","cc":"au","latitude":-33.865143,"longitude":151.2099,"reserved":0,"last_update":"0001-01-01T00:00:00Z","name_a2s":"Uncletopia | Sydney | 5 | Stopwatch Beta","protocol":17,"map":"cp_snakewater_final1","folder":"tf","game":"Team Fortress","app_id":440,"player_count":0,"max_players":24,"Bots":0,"server_type":"Dedicated","server_os":"Linux","password":true,"vac":true,"version":"7742253","steam_id":85568392925397959,"keywords":["cp","nocrits","nodmgspread","uncletopia"],"game_id":440,"stv_port":27056,"stv_name":"Uncletopia | Sydney | 5 | Stopwatch Beta | STV","players":null},{"server_id":59,"name":"Uncletopia | Sydney | 6 | Community","name_short":"syd-6","host":"syd-1.au.uncletopia.com","port":27065,"enabled":true,"region":"au","cc":"au","latitude":-33.865143,"longitude":151.2099,"reserved":0,"last_update":"0001-01-01T00:00:00Z","name_a2s":"Uncletopia | Sydney | 6 | Community","protocol":17,"map":"cp_snakewater_final1","folder":"tf","game":"Team Fortress","app_id":440,"player_count":0,"max_players":24,"Bots":0,"server_type":"Dedicated","server_os":"Linux","password":true,"vac":true,"version":"7742253","steam_id":85568392925397960,"keywords":["cp","nocrits","nodmgspread","uncletopia"],"game_id":440,"stv_port":27066,"stv_name":"Uncletopia | Sydney | 6 | Community | STV","players":null},{"server_id":49,"name":"Uncletopia | Warsaw | 1 | All Maps","name_short":"waw-1","host":"waw-1.pl.uncletopia.com","port":27015,"enabled":true,"region":"eu","cc":"pl","latitude":52.2297,"longitude":21.017532,"reserved":0,"last_update":"0001-01-01T00:00:00Z","name_a2s":"","protocol":0,"map":"","folder":"","game":"","app_id":0,"player_count":0,"max_players":0,"Bots":0,"server_type":"","server_os":"","password":false,"vac":false,"version":"","steam_id":0,"keywords":null,"game_id":0,"stv_port":0,"stv_name":"","players":null},{"server_id":50,"name":"Uncletopia | Warsaw | 2 | All Maps","name_short":"waw-2","host":"waw-1.pl.uncletopia.com","port":27025,"enabled":true,"region":"eu","cc":"pl","latitude":52.2297,"longitude":21.017532,"reserved":0,"last_update":"0001-01-01T00:00:00Z","name_a2s":"Uncletopia | Warsaw | 2 | All Maps","protocol":17,"map":"koth_lakeside_final","folder":"tf","game":"Team Fortress","app_id":440,"player_count":0,"max_players":24,"Bots":0,"server_type":"Dedicated","server_os":"Linux","password":true,"vac":true,"version":"7742253","steam_id":85568392925397851,"keywords":["cp","nocrits","nodmgspread","uncletopia"],"game_id":440,"stv_port":27026,"stv_name":"Uncletopia | Warsaw | 2 | All Maps | STV","players":null},{"server_id":51,"name":"Uncletopia | Warsaw | 3 | All Maps","name_short":"waw-3","host":"waw-1.pl.uncletopia.com","port":27035,"enabled":true,"region":"eu","cc":"pl","latitude":52.2297,"longitude":21.017532,"reserved":0,"last_update":"0001-01-01T00:00:00Z","name_a2s":"Uncletopia | Warsaw | 3 | All Maps","protocol":17,"map":"koth_cascade","folder":"tf","game":"Team Fortress","app_id":440,"player_count":0,"max_players":24,"Bots":0,"server_type":"Dedicated","server_os":"Linux","password":true,"vac":true,"version":"7742253","steam_id":85568392925397852,"keywords":["cp","nocrits","nodmgspread","uncletopia"],"game_id":440,"stv_port":27036,"stv_name":"Uncletopia | Warsaw | 3 | All Maps | STV","players":null},{"server_id":52,"name":"Uncletopia | Warsaw | 4 | All Maps","name_short":"waw-4","host":"waw-1.pl.uncletopia.com","port":27045,"enabled":true,"region":"eu","cc":"pl","latitude":52.2297,"longitude":21.017532,"reserved":0,"last_update":"0001-01-01T00:00:00Z","name_a2s":"Uncletopia | Warsaw | 4 | All Maps","protocol":17,"map":"koth_lakeside_final","folder":"tf","game":"Team Fortress","app_id":440,"player_count":0,"max_players":24,"Bots":0,"server_type":"Dedicated","server_os":"Linux","password":true,"vac":true,"version":"7742253","steam_id":85568392925397853,"keywords":["cp","nocrits","nodmgspread","uncletopia"],"game_id":440,"stv_port":27046,"stv_name":"Uncletopia | Warsaw | 4 | All Maps | STV","players":null},{"server_id":53,"name":"Uncletopia | Warsaw | 5 | Stopwatch Beta","name_short":"waw-5","host":"waw-1.pl.uncletopia.com","port":27055,"enabled":true,"region":"eu","cc":"pl","latitude":52.2297,"longitude":21.017532,"reserved":0,"last_update":"0001-01-01T00:00:00Z","name_a2s":"Uncletopia | Warsaw | 5 | Stopwatch Beta","protocol":17,"map":"pl_pier","folder":"tf","game":"Team Fortress","app_id":440,"player_count":0,"max_players":24,"Bots":0,"server_type":"Dedicated","server_os":"Linux","password":true,"vac":true,"version":"7742253","steam_id":85568392925397854,"keywords":["nocrits","nodmgspread","payload","uncletopia"],"game_id":440,"stv_port":27056,"stv_name":"Uncletopia | Warsaw | 5 | Stopwatch Beta | STV","players":null},{"server_id":54,"name":"Uncletopia | Warsaw | 6 | Community","name_short":"waw-6","host":"waw-1.pl.uncletopia.com","port":27065,"enabled":true,"region":"eu","cc":"pl","latitude":52.2297,"longitude":21.017532,"reserved":0,"last_update":"0001-01-01T00:00:00Z","name_a2s":"Uncletopia | Warsaw | 6 | Community","protocol":17,"map":"workshop/koth_synthetic_rc6a.ugc1549817316","folder":"tf","game":"Team Fortress","app_id":440,"player_count":0,"max_players":24,"Bots":0,"server_type":"Dedicated","server_os":"Linux","password":true,"vac":true,"version":"7742253","steam_id":85568392925397856,"keywords":["cp","nocrits","nodmgspread","uncletopia"],"game_id":440,"stv_port":27066,"stv_name":"Uncletopia | Warsaw | 6 | Community | STV","players":null}]}