{"status":true,"message":"","result":[{"server_id":9,"name":"Uncletopia | Atlanta | 1 | All Maps","name_short":"atl-1","host":"atl-1.us.uncletopia.com","port":27015,"enabled":true,"region":"us-east","cc":"us","latitude":33.753746,"longitude":-84.38633,"reserved":0,"last_update":"0001-01-01T00:00:00Z","name_a2s":"Uncletopia | Atlanta | 1 | All Maps","protocol":17,"map":"pl_pier","folder":"tf","game":"Team Fortress","app_id":440,"player_count":24,"max_players":24,"Bots":0,"server_type":"Dedicated","server_os":"Linux","password":true,"vac":true,"version":"7961495","steam_id":85568392924469982,"keywords":["nocrits","nodmgspread","payload","uncletopia"],"game_id":440,"stv_port":27016,"stv_name":"Uncletopia | Atlanta | 1 | All Maps | STV","players":[{"user_id":518,"name":"Just PYE","steam_id":76561199439622967,"connected_time":2259000000000,"state":"active","ping":74},{"user_id":361,"name":"Dr.Inkmix(femboy)","steam_id":76561198854070384,"connected_time":9725000000000,"state":"active","ping":130},{"user_id":508,"name":"CoffeeZombee","steam_id":76561198172708053,"connected_time":3275000000000,"state":"active","ping":68},{"user_id":509,"name":"Ashes!","steam_id":76561197998475441,"connected_time":3130000000000,"state":"active","ping":82},{"user_id":464,"name":"Muselk, but mexican","steam_id":76561199289676387,"connected_time":5824000000000,"state":"active","ping":71},{"user_id":495,"name":"Oxygen User","steam_id":76561199111975528,"connected_time":3762000000000,"state":"active","ping":77},{"user_id":507,"name":"Decolour","steam_id":76561199045608372,"connected_time":3328000000000,"state":"active","ping":79},{"user_id":492,"name":"The Undead Knight","steam_id":76561198010654500,"connected_time":3844000000000,"state":"active","ping":67},{"user_id":510,"name":"Sinta","steam_id":76561198098398841,"connected_time":2995000000000,"state":"active","ping":59},{"user_id":486,"name":"Heathcliff","steam_id":76561198044288534,"connected_time":3978000000000,"state":"active","ping":71},{"user_id":520,"name":"ATL1 | on my hunting trip","steam_id":76561198315341646,"connected_time":1705000000000,"state":"active","ping":73},{"user_id":521,"name":"Bogus","steam_id":76561198069735882,"connected_time":1664000000000,"state":"active","ping":54},{"user_id":514,"name":"Nalgon","steam_id":76561199014098326,"connected_time":2458000000000,"state":"active","ping":60},{"user_id":490,"name":"Cthulhu's Malewife","steam_id":76561198085888959,"connected_time":3886000000000,"state":"active","ping":47},{"user_id":532,"name":"Le4n!!!","steam_id":76561198045522596,"connected_time":177000000000,"state":"active","ping":64},{"user_id":451,"name":"nomad","steam_id":76561197998740399,"connected_time":7836000000000,"state":"active","ping":72},{"user_id":524,"name":"Ghetto Smosh Fan","steam_id":76561198097272509,"connected_time":694000000000,"state":"active","ping":36},{"user_id":528,"name":"Boneless Blithen","steam_id":76561197989955619,"connected_time":487000000000,"state":"active","ping":132},{"user_id":523,"name":"thomasdee725???","steam_id":76561199189526173,"connected_time":1445000000000,"state":"active","ping":85},{"user_id":531,"name":"Pango","steam_id":76561198069811545,"connected_time":417000000000,"state":"active","ping":44},{"user_id":527,"name":"Am Da Best","steam_id":76561198163825955,"connected_time":645000000000,"state":"active","ping":108},{"user_id":517,"name":"who ate the cheese","steam_id":76561198275408467,"connected_time":2445000000000,"state":"active","ping":56},{"user_id":488,"name":"ATL1 | to4st","steam_id":76561198981009008,"connected_time":3961000000000,"state":"active","ping":69},{"user_id":498,"name":"Artixes","steam_id":76561198379574232,"connected_time":3679000000000,"state":"active","ping":40}]},{"server_id":104,"name":"Uncletopia | Atlanta | 2 | All Maps","name_short":"atl-2","host":"atl-1.us.uncletopia.com","port":27025,"enabled":true,"region":"us-east","cc":"us","latitude":33.753746,"longitude":-84.38633,"reserved":0,"last_update":"0001-01-01T00:00:00Z","name_a2s":"Uncletopia | Atlanta | 2 | All Maps","protocol":17,"map":"pl_badwater","folder":"tf","game":"Team Fortress","app_id":440,"player_count":24,"max_players":24,"Bots":0,"server_type":"Dedicated","server_os":"Linux","password":true,"vac":true,"version":"7961495","steam_id":85568392924469983,"keywords":["nocrits","nodmgspread","payload","uncletopia"],"game_id":440,"stv_port":27026,"stv_name":"Uncletopia | Atlanta | 2 | All Maps | STV","players":[{"user_id":261,"name":"Kantamoe","steam_id":76561198046661611,"connected_time":2750000000000,"state":"active","ping":70},{"user_id":290,"name":"Strangelove","steam_id":76561198353773611,"connected_time":1018000000000,"state":"active","ping":89},{"user_id":302,"name":"5oc","steam_id":76561199196300397,"connected_time":591000000000,"state":"active","ping":103},{"user_id":237,"name":"‚ú® Rarity ‚ú®","steam_id":76561199172206856,"connected_time":3573000000000,"state":"active","ping":76},{"user_id":262,"name":"graham crackr","steam_id":76561199072720886,"connected_time":2608000000000,"state":"active","ping":84},{"user_id":301,"name":"Genetic Komodo (He/Him)","steam_id":76561198174806758,"connected_time":643000000000,"state":"active","ping":47},{"user_id":271,"name":"Gotta Move That Gear Up","steam_id":76561197993467034,"connected_time":2061000000000,"state":"active","ping":71},{"user_id":298,"name":"aversa","steam_id":76561198840460101,"connected_time":877000000000,"state":"active","ping":76},{"user_id":292,"name":"BigBubble42","steam_id":76561198136286123,"connected_time":998000000000,"state":"active","ping":48},{"user_id":299,"name":"Hephaestus lord of fire","steam_id":76561199229507963,"connected_time":768000000000,"state":"active","ping":73},{"user_id":273,"name":"sasharudzik","steam_id":76561199126617781,"connected_time":2054000000000,"state":"active","ping":90},{"user_id":294,"name":"Sagoogoo","steam_id":76561198176061614,"connected_time":972000000000,"state":"active","ping":83},{"user_id":248,"name":"lalman","steam_id":76561198196605887,"connected_time":3149000000000,"state":"active","ping":67},{"user_id":275,"name":"trackball triops","steam_id":76561198059041027,"connected_time":2016000000000,"state":"active","ping":123},{"user_id":276,"name":"psi","steam_id":76561198061497429,"connected_time":2016000000000,"state":"active","ping":65},{"user_id":295,"name":"MTGbigdog","steam_id":76561198838760637,"connected_time":950000000000,"state":"active","ping":88},{"user_id":300,"name":"Switch","steam_id":76561197982035284,"connected_time":704000000000,"state":"active","ping":70},{"user_id":304,"name":"The Bomb","steam_id":76561199018446259,"connected_time":264000000000,"state":"active","ping":98},{"user_id":303,"name":"ELP","steam_id":76561198283499063,"connected_time":518000000000,"state":"active","ping":67},{"user_id":254,"name":"T-shaped hand tool used for pry","steam_id":76561198036492913,"connected_time":3081000000000,"state":"active","ping":65},{"user_id":287,"name":"Sunshine","steam_id":76561198885528098,"connected_time":1390000000000,"state":"active","ping":76},{"user_id":305,"name":"Vector","steam_id":76561199055958107,"connected_time":178000000000,"state":"active","ping":76},{"user_id":258,"name":"Tomato","steam_id":76561197996472649,"connected_time":2984000000000,"state":"active","ping":73},{"user_id":283,"name":"Melazo Bois","steam_id":76561199031977210,"connected_time":1514000000000,"state":"active","ping":62}]},{"server_id":400,"name":"Uncletopia | Atlanta | 3 | Stopwatch","name_short":"atl-3","host":"atl-1.us.uncletopia.com","port":27035,"enabled":true,"region":"us-east","cc":"us","latitude":33.753746,"longitude":-84.38633,"reserved":0,"last_update":"0001-01-01T00:00:00Z","name_a2s":"Uncletopia | Atlanta | 3 | Stopwatch","protocol":17,"map":"pl_badwater","folder":"tf","game":"Team Fortress","app_id":440,"player_count":0,"max_players":24,"Bots":0,"server_type":"Dedicated","server_os":"Linux","password":true,"vac":true,"version":"7961495","steam_id":85568392924515187,"keywords":["nocrits","nodmgspread","payload","uncletopia"],"game_id":440,"stv_port":27036,"stv_name":"Uncletopia | Atlanta | 3 | Stopwatch | STV","players":null},{"server_id":401,"name":"Uncletopia | Atlanta | 4 | Community","name_short":"atl-4","host":"atl-1.us.uncletopia.com","port":27045,"enabled":true,"region":"us-east","cc":"us","latitude":33.753746,"longitude":-84.38633,"reserved":0,"last_update":"0001-01-01T00:00:00Z","name_a2s":"Uncletopia | Atlanta | 4 | Community","protocol":17,"map":"workshop/cp_glassworks_rc7a.ugc454118349","folder":"tf","game":"Team Fortress","app_id":440,"player_count":0,"max_players":24,"Bots":0,"server_type":"Dedicated","server_os":"Linux","password":true,"vac":true,"version":"7961495","steam_id":85568392924515188,"keywords":["cp","nocrits","nodmgspread","uncletopia"],"game_id":440,"stv_port":27046,"stv_name":"Uncletopia | Atlanta | 4 | Community | STV","players":null},{"server_id":2,"name":"Uncletopia | Chicago | 1 | All Maps","name_short":"chi-1","host":"chi-1.us.uncletopia.com","port":27015,"enabled":true,"region":"us-central","cc":"us","latitude":41.881832,"longitude":-87.62318,"reserved":0,"last_update":"0001-01-01T00:00:00Z","name_a2s":"Uncletopia | Chicago | 1 | All Maps","protocol":17,"map":"pl_frontier_final","folder":"tf","game":"Team Fortress","app_id":440,"player_count":24,"max_players":24,"Bots":0,"server_type":"Dedicated","server_os":"Linux","password":true,"vac":true,"version":"7961495","steam_id":85568392924469984,"keywords":["nocrits","nodmgspread","payload","uncletopia"],"game_id":440,"stv_port":27016,"stv_name":"Uncletopia | Chicago | 1 | All Maps | STV","players":[{"user_id":331,"name":"Jelly","steam_id":76561198110572117,"connected_time":1777000000000,"state":"active","ping":95},{"user_id":347,"name":"Raz","steam_id":76561198002426150,"connected_time":1209000000000,"state":"active","ping":72},{"user_id":356,"name":"loser","steam_id":76561198259380127,"connected_time":73000000000,"state":"active","ping":60},{"user_id":323,"name":"squart guy","steam_id":76561199411560141,"connected_time":2459000000000,"state":"active","ping":94},{"user_id":327,"name":"Scout Cuomo","steam_id":76561198345950408,"connected_time":2038000000000,"state":"active","ping":82},{"user_id":272,"name":"Killbasa","steam_id":76561198064868400,"connected_time":6144000000000,"state":"active","ping":65},{"user_id":340,"name":"lilchicky","steam_id":76561198951121530,"connected_time":1516000000000,"state":"active","ping":69},{"user_id":348,"name":"=Silver=","steam_id":76561198292307127,"connected_time":1181000000000,"state":"active","ping":91},{"user_id":321,"name":"SLaPPy- oNaSiS","steam_id":76561198009286862,"connected_time":2520000000000,"state":"active","ping":70},{"user_id":351,"name":"Baka!‚ë®‚ë®‚ë®‚ë®","steam_id":76561198152948254,"connected_time":870000000000,"state":"active","ping":65},{"user_id":335,"name":"Mer","steam_id":76561198192171041,"connected_time":1701000000000,"state":"active","ping":134},{"user_id":295,"name":"Jack House","steam_id":76561198199387729,"connected_time":4289000000000,"state":"active","ping":242},{"user_id":317,"name":"chok","steam_id":76561198242016100,"connected_time":2629000000000,"state":"active","ping":98},{"user_id":328,"name":"Adam (Cursed Confetti Creature)","steam_id":76561198317690197,"connected_time":1832000000000,"state":"active","ping":48},{"user_id":352,"name":"BL√òRG","steam_id":76561198036126673,"connected_time":552000000000,"state":"active","ping":83},{"user_id":261,"name":"THORNFIELDGAMER","steam_id":76561199087167473,"connected_time":6969000000000,"state":"active","ping":89},{"user_id":355,"name":"artichoke","steam_id":76561198980994364,"connected_time":84000000000,"state":"active","ping":91},{"user_id":324,"name":"Kilphax","steam_id":76561197993814144,"connected_time":2118000000000,"state":"active","ping":60},{"user_id":353,"name":"SlurpyTheDog","steam_id":76561198799733154,"connected_time":505000000000,"state":"active","ping":61},{"user_id":307,"name":"Aku+","steam_id":76561198813782795,"connected_time":3640000000000,"state":"active","ping":152},{"user_id":349,"name":"Timemx63","steam_id":76561198062377543,"connected_time":1021000000000,"state":"active","ping":91},{"user_id":350,"name":"Stacks63bs","steam_id":76561198067797130,"connected_time":902000000000,"state":"active","ping":68},{"user_id":354,"name":"Mega_Man23","steam_id":76561198138341391,"connected_time":487000000000,"state":"active","ping":62},{"user_id":326,"name":"Coolyo1313","steam_id":76561198158772227,"connected_time":2059000000000,"state":"active","ping":63}]},{"server_id":106,"name":"Uncletopia | Chicago | 2 | All Maps","name_short":"chi-2","host":"chi-1.us.uncletopia.com","port":27025,"enabled":true,"region":"us-central","cc":"us","latitude":41.881832,"longitude":-87.62318,"reserved":0,"last_update":"0001-01-01T00:00:00Z","name_a2s":"Uncletopia | Chicago | 2 | All Maps","protocol":17,"map":"ctf_2fort","folder":"tf","game":"Team Fortress","app_id":440,"player_count":24,"max_players":24,"Bots":0,"server_type":"Dedicated","server_os":"Linux","password":true,"vac":true,"version":"7961495","steam_id":85568392924469985,"keywords":["ctf","nocrits","nodmgspread","uncletopia"],"game_id":440,"stv_port":27026,"stv_name":"Uncletopia | Chicago | 2 | All Maps | STV","players":[{"user_id":206,"name":"Hillman","steam_id":76561198258133829,"connected_time":615000000000,"state":"active","ping":54},{"user_id":208,"name":"lesbian jolyne cujoh","steam_id":76561198988918229,"connected_time":399000000000,"state":"active","ping":87},{"user_id":209,"name":"Kiss Master","steam_id":76561198289572271,"connected_time":376000000000,"state":"active","ping":75},{"user_id":188,"name":"Cheesi","steam_id":76561199417190840,"connected_time":1531000000000,"state":"active","ping":66},{"user_id":193,"name":"Vadenair","steam_id":76561198277100433,"connected_time":1052000000000,"state":"active","ping":91},{"user_id":197,"name":"CRANJIS MCBASKETBALL","steam_id":76561198107371772,"connected_time":957000000000,"state":"active","ping":105},{"user_id":213,"name":"Mr Beast (real)","steam_id":76561198277358844,"connected_time":281000000000,"state":"active","ping":72},{"user_id":198,"name":"Aggressive Menace","steam_id":76561198249138216,"connected_time":933000000000,"state":"active","ping":77},{"user_id":212,"name":"engineer gaming","steam_id":76561199069628392,"connected_time":356000000000,"state":"active","ping":71},{"user_id":175,"name":"astrobob911","steam_id":76561199099110654,"connected_time":2705000000000,"state":"active","ping":72},{"user_id":176,"name":"Hovg9000","steam_id":76561199191556710,"connected_time":2513000000000,"state":"active","ping":86},{"user_id":191,"name":"Uncle Ron","steam_id":76561198143187766,"connected_time":1393000000000,"state":"active","ping":77},{"user_id":159,"name":"c64guy","steam_id":76561198023022744,"connected_time":3926000000000,"state":"active","ping":59},{"user_id":187,"name":"Ryu from the Streets","steam_id":76561198103183142,"connected_time":1797000000000,"state":"active","ping":161},{"user_id":128,"name":"thecal","steam_id":76561198307893384,"connected_time":5632000000000,"state":"active","ping":48},{"user_id":199,"name":"AsylumRat","steam_id":76561198014541692,"connected_time":922000000000,"state":"active","ping":65},{"user_id":210,"name":"Olympic Toe Curling","steam_id":76561198433807531,"connected_time":372000000000,"state":"active","ping":74},{"user_id":125,"name":"Castroy","steam_id":76561198108160099,"connected_time":6065000000000,"state":"active","ping":50},{"user_id":185,"name":"chrissweep","steam_id":76561198072826791,"connected_time":2050000000000,"state":"active","ping":65},{"user_id":170,"name":"Not Rook","steam_id":76561199232296380,"connected_time":2817000000000,"state":"active","ping":86},{"user_id":200,"name":"Effie","steam_id":76561198261842068,"connected_time":919000000000,"state":"active","ping":78},{"user_id":204,"name":"‚ùÄ„Ç≥„Ç≥„Ç¢„Éª‰∫¨„Çì„Åñ„Çè‚ùÄ","steam_id":76561199260771963,"connected_time":804000000000,"state":"active","ping":105},{"user_id":214,"name":"DJ_Smooth_KillaGames","steam_id":76561199051362337,"connected_time":142000000000,"state":"active","ping":95},{"user_id":211,"name":"Moofins","steam_id":76561198050291949,"connected_time":366000000000,"state":"active","ping":76}]},{"server_id":402,"name":"Uncletopia | Chicago | 3 | All Maps","name_short":"chi-3","host":"chi-1.us.uncletopia.com","port":27035,"enabled":true,"region":"us-central","cc":"us","latitude":41.881832,"longitude":-87.62318,"reserved":0,"last_update":"0001-01-01T00:00:00Z","name_a2s":"Uncletopia | Chicago | 3 | All Maps","protocol":17,"map":"pl_upward","folder":"tf","game":"Team Fortress","app_id":440,"player_count":24,"max_players":24,"Bots":0,"server_type":"Dedicated","server_os":"Linux","password":true,"vac":true,"version":"7961495","steam_id":85568392924515191,"keywords":["nocrits","nodmgspread","payload","uncletopia"],"game_id":440,"stv_port":27036,"stv_name":"Uncletopia | Chicago | 3 | All Maps | STV","players":[{"user_id":125,"name":"B R O W N","steam_id":76561198084016173,"connected_time":3685000000000,"state":"active","ping":74},{"user_id":164,"name":"Versuski","steam_id":76561198085193084,"connected_time":565000000000,"state":"active","ping":65},{"user_id":156,"name":"sweglord227","steam_id":76561198415510262,"connected_time":773000000000,"state":"active","ping":57},{"user_id":163,"name":"TrashPanda (she/her)","steam_id":76561198447864095,"connected_time":688000000000,"state":"spawning","ping":65},{"user_id":142,"name":"AlecTheNefarious","steam_id":76561198035291230,"connected_time":2213000000000,"state":"active","ping":62},{"user_id":121,"name":"Gantzero","steam_id":76561198046379464,"connected_time":3788000000000,"state":"active","ping":178},{"user_id":170,"name":"Gene Takovic","steam_id":76561198881039861,"connected_time":386000000000,"state":"active","ping":43},{"user_id":134,"name":"lanoc","steam_id":76561198055415367,"connected_time":2435000000000,"state":"active","ping":51},{"user_id":154,"name":"sheeesh","steam_id":76561198038080028,"connected_time":800000000000,"state":"active","ping":80},{"user_id":128,"name":"RyInc","steam_id":76561198874261643,"connected_time":3479000000000,"state":"active","ping":46},{"user_id":166,"name":"Cheesfist","steam_id":76561198065674398,"connected_time":498000000000,"state":"active","ping":120},{"user_id":62,"name":"Elias","steam_id":76561198106431732,"connected_time":8771000000000,"state":"active","ping":49},{"user_id":155,"name":"metalfan666","steam_id":76561198386344068,"connected_time":788000000000,"state":"active","ping":81},{"user_id":157,"name":"dr peppah chug!","steam_id":76561198068835693,"connected_time":766000000000,"state":"active","ping":93},{"user_id":176,"name":"cookiegenius2398","steam_id":76561198970759258,"connected_time":36000000000,"state":"active","ping":93},{"user_id":165,"name":"the spy from team defense fort ","steam_id":76561199112194007,"connected_time":557000000000,"state":"active","ping":519},{"user_id":150,"name":"benjamator67","steam_id":76561198209002860,"connected_time":1239000000000,"state":"active","ping":52},{"user_id":173,"name":"poopybutt420","steam_id":76561199000805315,"connected_time":49000000000,"state":"connecting","ping":92},{"user_id":158,"name":"viva la vida","steam_id":76561198072179483,"connected_time":762000000000,"state":"active","ping":118},{"user_id":167,"name":"Gen-E  TTV/geneoftf2","steam_id":76561199497800989,"connected_time":488000000000,"state":"active","ping":87},{"user_id":172,"name":"Seskova","steam_id":76561198090207032,"connected_time":310000000000,"state":"active","ping":111},{"user_id":168,"name":"The Plaid Pirate","steam_id":76561198344624703,"connected_time":420000000000,"state":"active","ping":89},{"user_id":177,"name":"I H8 U MICHAEL","steam_id":76561198143694438,"connected_time":34000000000,"state":"active","ping":62},{"user_id":175,"name":"beannmeisterr","steam_id":76561198433878719,"connected_time":47000000000,"state":"active","ping":67}]},{"server_id":403,"name":"Uncletopia | Chicago | 4 | All Maps","name_short":"chi-4","host":"chi-1.us.uncletopia.com","port":27045,"enabled":true,"region":"us-central","cc":"us","latitude":41.881832,"longitude":-87.62318,"reserved":0,"last_update":"0001-01-01T00:00:00Z","name_a2s":"Uncletopia | Chicago | 4 | All Maps","protocol":17,"map":"cp_dustbowl","folder":"tf","game":"Team Fortress","app_id":440,"player_count":24,"max_players":24,"Bots":0,"server_type":"Dedicated","server_os":"Linux","password":true,"vac":true,"version":"7961495","steam_id":85568392924515193,"keywords":["cp","nocrits","nodmgspread","uncletopia"],"game_id":440,"stv_port":27046,"stv_name":"Uncletopia | Chicago | 4 | All Maps | STV","players":[{"user_id":93,"name":"Raging Bees","steam_id":76561198156112175,"connected_time":6483000000000,"state":"active","ping":64},{"user_id":137,"name":"BigPapaBrogan","steam_id":76561199012814165,"connected_time":3706000000000,"state":"active","ping":80},{"user_id":195,"name":"frenemy","steam_id":76561198011363677,"connected_time":765000000000,"state":"active","ping":47},{"user_id":182,"name":"Steak-Pocketer","steam_id":76561198277651410,"connected_time":1037000000000,"state":"active","ping":65},{"user_id":165,"name":"Wilhelmktx","steam_id":76561198158102295,"connected_time":2017000000000,"state":"active","ping":80},{"user_id":175,"name":"whirlybird","steam_id":76561198353887173,"connected_time":1115000000000,"state":"active","ping":31},{"user_id":177,"name":"Fish Lambert","steam_id":76561198098279668,"connected_time":1079000000000,"state":"active","ping":84},{"user_id":178,"name":"scav","steam_id":76561198849202317,"connected_time":1068000000000,"state":"active","ping":108},{"user_id":179,"name":"Xx_PR3TTY_R4VE_G!R1_xX","steam_id":76561199059016425,"connected_time":1054000000000,"state":"active","ping":60},{"user_id":192,"name":"StretchySnail59","steam_id":76561198073535005,"connected_time":859000000000,"state":"active","ping":54},{"user_id":180,"name":"gourmetcatfood","steam_id":76561198025874721,"connected_time":1041000000000,"state":"active","ping":68},{"user_id":181,"name":"Scrux","steam_id":76561198129763115,"connected_time":1040000000000,"state":"active","ping":106},{"user_id":196,"name":"GibbusGod","steam_id":76561199232436690,"connected_time":685000000000,"state":"active","ping":73},{"user_id":183,"name":"PumpkinThink","steam_id":76561198393830529,"connected_time":1031000000000,"state":"active","ping":82},{"user_id":184,"name":"CJAIME01345","steam_id":76561199091599141,"connected_time":1028000000000,"state":"active","ping":131},{"user_id":185,"name":"mild mannered mystery man","steam_id":76561198072095399,"connected_time":1021000000000,"state":"active","ping":54},{"user_id":186,"name":"xXx_Eg0_d3aTh_419_xXx (ironic)","steam_id":76561198077551754,"connected_time":996000000000,"state":"active","ping":69},{"user_id":194,"name":"potato","steam_id":76561198050552558,"connected_time":792000000000,"state":"active","ping":90},{"user_id":197,"name":"HalfDead","steam_id":76561198049700226,"connected_time":630000000000,"state":"active","ping":85},{"user_id":142,"name":"SOGGY DOGGY","steam_id":76561199158847498,"connected_time":3692000000000,"state":"active","ping":105},{"user_id":189,"name":"Linus","steam_id":76561198084279797,"connected_time":972000000000,"state":"active","ping":76},{"user_id":191,"name":"IAmAProfesonal","steam_id":76561199171858953,"connected_time":923000000000,"state":"active","ping":50},{"user_id":198,"name":"Robert","steam_id":76561198133200895,"connected_time":124000000000,"state":"active","ping":60},{"user_id":167,"name":"Rhutebeer","steam_id":76561198018302761,"connected_time":1951000000000,"state":"active","ping":101}]},{"server_id":36,"name":"Uncletopia | Chicago | 5 | All Maps","name_short":"chi-5","host":"chi-2.us.uncletopia.com","port":27015,"enabled":true,"region":"us-central","cc":"us","latitude":41.881832,"longitude":-87.62318,"reserved":0,"last_update":"0001-01-01T00:00:00Z","name_a2s":"Uncletopia | Chicago | 5 | All Maps","protocol":17,"map":"koth_viaduct","folder":"tf","game":"Team Fortress","app_id":440,"player_count":0,"max_players":24,"Bots":0,"server_type":"Dedicated","server_os":"Linux","password":true,"vac":true,"version":"7961495","steam_id":85568392924866362,"keywords":["cp","nocrits","nodmgspread","uncletopia"],"game_id":440,"stv_port":27016,"stv_name":"Uncletopia | Chicago | 5 | All Maps | STV","players":null},{"server_id":37,"name":"Uncletopia | Chicago | 6 | All Maps","name_short":"chi-6","host":"chi-2.us.uncletopia.com","port":27025,"enabled":true,"region":"us-central","cc":"us","latitude":41.881832,"longitude":-87.62318,"reserved":0,"last_update":"0001-01-01T00:00:00Z","name_a2s":"Uncletopia | Chicago | 6 | All Maps","protocol":17,"map":"koth_viaduct","folder":"tf","game":"Team Fortress","app_id":440,"player_count":24,"max_players":24,"Bots":0,"server_type":"Dedicated","server_os":"Linux","password":true,"vac":true,"version":"7961495","steam_id":85568392924866363,"keywords":["cp","nocrits","nodmgspread","uncletopia"],"game_id":440,"stv_port":27026,"stv_name":"Uncletopia | Chicago | 6 | All Maps | STV","players":[{"user_id":115,"name":"Vegerot","steam_id":76561197997843710,"connected_time":1567000000000,"state":"active","ping":63},{"user_id":124,"name":"Kduck","steam_id":76561198092171095,"connected_time":1133000000000,"state":"active","ping":60},{"user_id":73,"name":"H0wlr","steam_id":76561198012332824,"connected_time":3735000000000,"state":"active","ping":61},{"user_id":113,"name":"ashsillygoober","steam_id":76561199454622997,"connected_time":1632000000000,"state":"active","ping":84},{"user_id":74,"name":"BarrowBaron","steam_id":76561198013633236,"connected_time":3691000000000,"state":"active","ping":58},{"user_id":109,"name":"Nassu","steam_id":76561198147367577,"connected_time":1795000000000,"state":"active","ping":69},{"user_id":83,"name":"dadgummit","steam_id":76561198005806915,"connected_time":3531000000000,"state":"active","ping":60},{"user_id":130,"name":"Grandpapi Yolpapi","steam_id":76561198010748612,"connected_time":283000000000,"state":"active","ping":92},{"user_id":78,"name":"the pizza","steam_id":76561198221331476,"connected_time":3565000000000,"state":"active","ping":78},{"user_id":116,"name":"Thrackerzod","steam_id":76561198130870200,"connected_time":1513000000000,"state":"active","ping":95},{"user_id":80,"name":"Firedust19","steam_id":76561198153238631,"connected_time":3555000000000,"state":"active","ping":117},{"user_id":128,"name":"Johnny Lawrence #JohnnyMaxxing","steam_id":76561199367141671,"connected_time":621000000000,"state":"active","ping":62},{"user_id":82,"name":"Creature","steam_id":76561198194585781,"connected_time":3536000000000,"state":"active","ping":107},{"user_id":87,"name":"Weed Dealer","steam_id":76561198418604400,"connected_time":3493000000000,"state":"active","ping":103},{"user_id":85,"name":"suns","steam_id":76561198079583278,"connected_time":3506000000000,"state":"active","ping":54},{"user_id":123,"name":"Download a car","steam_id":76561198027174998,"connected_time":1204000000000,"state":"active","ping":72},{"user_id":88,"name":"SkeletalBozo","steam_id":76561198137450196,"connected_time":3448000000000,"state":"active","ping":71},{"user_id":129,"name":"Goredude","steam_id":76561198041048764,"connected_time":395000000000,"state":"active","ping":61},{"user_id":126,"name":"Bishop","steam_id":76561198033860186,"connected_time":939000000000,"state":"active","ping":88},{"user_id":112,"name":"Captain Bug","steam_id":76561198137763878,"connected_time":1703000000000,"state":"active","ping":83},{"user_id":131,"name":"Soapbar","steam_id":76561198081714169,"connected_time":257000000000,"state":"active","ping":80},{"user_id":120,"name":"Hankel Tom","steam_id":76561199446367874,"connected_time":1334000000000,"state":"active","ping":46},{"user_id":117,"name":"weewa","steam_id":76561198064876090,"connected_time":1426000000000,"state":"active","ping":76},{"user_id":125,"name":"Unsalted Fry","steam_id":76561199258136693,"connected_time":993000000000,"state":"active","ping":104}]},{"server_id":38,"name":"Uncletopia | Chicago | 7 | Stopwatch","name_short":"chi-7","host":"chi-2.us.uncletopia.com","port":27035,"enabled":true,"region":"us-central","cc":"us","latitude":41.881832,"longitude":-87.62318,"reserved":0,"last_update":"0001-01-01T00:00:00Z","name_a2s":"Uncletopia | Chicago | 7 | Stopwatch","protocol":17,"map":"workshop/koth_product_final.ugc454272353","folder":"tf","game":"Team Fortress","app_id":440,"player_count":0,"max_players":24,"Bots":0,"server_type":"Dedicated","server_os":"Linux","password":true,"vac":true,"version":"7961495","steam_id":85568392924866364,"keywords":["cp","nocrits","nodmgspread","uncletopia"],"game_id":440,"stv_port":27036,"stv_name":"Uncletopia | Chicago | 7 | Stopwatch | STV","players":null},{"server_id":39,"name":"Uncletopia | Chicago | 8 | Community","name_short":"chi-8","host":"chi-2.us.uncletopia.com","port":27045,"enabled":true,"region":"us-central","cc":"us","latitude":41.881832,"longitude":-87.62318,"reserved":0,"last_update":"0001-01-01T00:00:00Z","name_a2s":"Uncletopia | Chicago | 8 | Community","protocol":17,"map":"workshop/rd_asteroid_redux_b1.ugc2154902912","folder":"tf","game":"Team Fortress","app_id":440,"player_count":0,"max_players":24,"Bots":0,"server_type":"Dedicated","server_os":"Linux","password":true,"vac":true,"version":"7961495","steam_id":85568392924866365,"keywords":["beta","nocrits","nodmgspread","rd","uncletopia"],"game_id":440,"stv_port":27046,"stv_name":"Uncletopia | Chicago | 8 | Community | STV","players":null},{"server_id":8,"name":"Uncletopia | Dallas | 1 | All Maps","name_short":"dal-1","host":"dal-1.us.uncletopia.com","port":27015,"enabled":true,"region":"us-central","cc":"us","latitude":32.779167,"longitude":-96.80889,"reserved":0,"last_update":"0001-01-01T00:00:00Z","name_a2s":"Uncletopia | Dallas | 1 | All Maps","protocol":17,"map":"pl_upward","folder":"tf","game":"Team Fortress","app_id":440,"player_count":24,"max_players":24,"Bots":0,"server_type":"Dedicated","server_os":"Linux","password":true,"vac":true,"version":"7961495","steam_id":85568392924469986,"keywords":["nocrits","nodmgspread","payload","uncletopia"],"game_id":440,"stv_port":27016,"stv_name":"Uncletopia | Dallas | 1 | All Maps | STV","players":[{"user_id":668,"name":"TheEternalFlame","steam_id":76561198170101143,"connected_time":831000000000,"state":"active","ping":86},{"user_id":633,"name":"SanitysEdge","steam_id":76561198130732813,"connected_time":3291000000000,"state":"active","ping":77},{"user_id":658,"name":"AXELORDX","steam_id":76561198136639581,"connected_time":1344000000000,"state":"active","ping":70},{"user_id":666,"name":"Conz","steam_id":76561198401205345,"connected_time":1215000000000,"state":"active","ping":60},{"user_id":678,"name":"brains","steam_id":76561198197388678,"connected_time":550000000000,"state":"active","ping":45},{"user_id":677,"name":"TobyM88","steam_id":76561198073691812,"connected_time":584000000000,"state":"active","ping":77},{"user_id":647,"name":"PowerGem3000","steam_id":76561198944644691,"connected_time":2650000000000,"state":"active","ping":178},{"user_id":610,"name":"tsz","steam_id":76561199246231090,"connected_time":4186000000000,"state":"active","ping":82},{"user_id":649,"name":"Just a Good Friend","steam_id":76561198140052403,"connected_time":2213000000000,"state":"active","ping":79},{"user_id":621,"name":"Eden","steam_id":76561198081284664,"connected_time":4011000000000,"state":"active","ping":86},{"user_id":670,"name":"wahooka","steam_id":76561197981211922,"connected_time":811000000000,"state":"active","ping":91},{"user_id":672,"name":"TheGrassMan (He/Him)","steam_id":76561198118984048,"connected_time":800000000000,"state":"active","ping":89},{"user_id":661,"name":"Astra","steam_id":76561198040217532,"connected_time":1299000000000,"state":"active","ping":64},{"user_id":679,"name":"reis","steam_id":76561199232952016,"connected_time":509000000000,"state":"active","ping":179},{"user_id":653,"name":"DiamondPug","steam_id":76561199197034266,"connected_time":1719000000000,"state":"active","ping":75},{"user_id":655,"name":"sobaka","steam_id":76561198116008934,"connected_time":1559000000000,"state":"active","ping":86},{"user_id":674,"name":"the slop","steam_id":76561198099786822,"connected_time":780000000000,"state":"active","ping":99},{"user_id":630,"name":"Spirit","steam_id":76561198861875678,"connected_time":3550000000000,"state":"active","ping":82},{"user_id":576,"name":"BooGotShot","steam_id":76561198039062270,"connected_time":6180000000000,"state":"active","ping":68},{"user_id":617,"name":"Major Woody","steam_id":76561198835541533,"connected_time":4079000000000,"state":"active","ping":58},{"user_id":638,"name":"Ya Kid Brotha","steam_id":76561199127423378,"connected_time":3242000000000,"state":"active","ping":92},{"user_id":675,"name":"Moonman327","steam_id":76561197992616059,"connected_time":758000000000,"state":"active","ping":75},{"user_id":680,"name":"Real Kenny G","steam_id":76561198360620446,"connected_time":130000000000,"state":"active","ping":89},{"user_id":665,"name":"Buckler and Broad","steam_id":76561199195104977,"connected_time":1262000000000,"state":"active","ping":93}]},{"server_id":108,"name":"Uncletopia | Dallas | 2 | All Maps","name_short":"dal-2","host":"dal-1.us.uncletopia.com","port":27025,"enabled":true,"region":"us-central","cc":"us","latitude":32.779167,"longitude":-96.80889,"reserved":0,"last_update":"0001-01-01T00:00:00Z","name_a2s":"Uncletopia | Dallas | 2 | All Maps","protocol":17,"map":"koth_harvest_final","folder":"tf","game":"Team Fortress","app_id":440,"player_count":24,"max_players":24,"Bots":0,"server_type":"Dedicated","server_os":"Linux","password":true,"vac":true,"version":"7961495","steam_id":85568392924469988,"keywords":["cp","nocrits","nodmgspread","uncletopia"],"game_id":440,"stv_port":27026,"stv_name":"Uncletopia | Dallas | 2 | All Maps | STV","players":[{"user_id":462,"name":"mkl","steam_id":76561197986401685,"connected_time":3562000000000,"state":"active","ping":57},{"user_id":506,"name":"Jerk Tryhard (roleplay)","steam_id":76561199470538309,"connected_time":1323000000000,"state":"active","ping":76},{"user_id":537,"name":"Pie","steam_id":76561198054721133,"connected_time":200000000000,"state":"active","ping":71},{"user_id":539,"name":"Mallard","steam_id":76561198825786390,"connected_time":17000000000,"state":"spawning","ping":74},{"user_id":488,"name":"Jpxfred","steam_id":76561199414783749,"connected_time":2761000000000,"state":"active","ping":89},{"user_id":538,"name":"Cypress","steam_id":76561197992487995,"connected_time":144000000000,"state":"active","ping":86},{"user_id":532,"name":"Glaceon","steam_id":76561198177715869,"connected_time":401000000000,"state":"active","ping":70},{"user_id":525,"name":"frog_pond_park","steam_id":76561198309010627,"connected_time":604000000000,"state":"active","ping":96},{"user_id":501,"name":"Decapitation Station","steam_id":76561198201796098,"connected_time":1875000000000,"state":"active","ping":80},{"user_id":508,"name":"get scrongled, idiot","steam_id":76561198115874625,"connected_time":1292000000000,"state":"active","ping":94},{"user_id":534,"name":"Fatass Hennessy Sargent","steam_id":76561198363267009,"connected_time":288000000000,"state":"active","ping":49},{"user_id":540,"name":"ok","steam_id":76561198353869378,"connected_time":7000000000,"state":"spawning","ping":101},{"user_id":503,"name":"NFL.com","steam_id":76561198113405376,"connected_time":1700000000000,"state":"active","ping":78},{"user_id":493,"name":"errant","steam_id":76561197961758410,"connected_time":2447000000000,"state":"active","ping":45},{"user_id":529,"name":"SuperNova","steam_id":76561199242677459,"connected_time":506000000000,"state":"active","ping":106},{"user_id":524,"name":"logan","steam_id":76561199202888155,"connected_time":663000000000,"state":"active","ping":129},{"user_id":535,"name":"Cacoona","steam_id":76561198272738226,"connected_time":282000000000,"state":"active","ping":113},{"user_id":475,"name":"Noire","steam_id":76561198149370109,"connected_time":3164000000000,"state":"active","ping":107},{"user_id":477,"name":"Dagoth Ur","steam_id":76561198117028805,"connected_time":3138000000000,"state":"active","ping":129},{"user_id":531,"name":"slafflow","steam_id":76561199381012350,"connected_time":432000000000,"state":"active","ping":64},{"user_id":533,"name":"Just washed","steam_id":76561199030160932,"connected_time":391000000000,"state":"active","ping":88},{"user_id":536,"name":"Joan The Kisaragi Cat","steam_id":76561199370650064,"connected_time":220000000000,"state":"active","ping":66},{"user_id":482,"name":"rat ü•≤üò∂üå´","steam_id":76561198130412963,"connected_time":3002000000000,"state":"active","ping":68},{"user_id":483,"name":"SAGE(‡§∏‡§ó‡•á*)","steam_id":76561198811114074,"connected_time":2971000000000,"state":"active","ping":62}]},{"server_id":404,"name":"Uncletopia | Dallas | 3 | All Maps","name_short":"dal-3","host":"dal-1.us.uncletopia.com","port":27035,"enabled":true,"region":"us-central","cc":"us","latitude":32.779167,"longitude":-96.80889,"reserved":0,"last_update":"0001-01-01T00:00:00Z","name_a2s":"Uncletopia | Dallas | 3 | All Maps","protocol":17,"map":"pl_barnblitz","folder":"tf","game":"Team Fortress","app_id":440,"player_count":0,"max_players":24,"Bots":0,"server_type":"Dedicated","server_os":"Linux","password":true,"vac":true,"version":"7961495","steam_id":85568392924515219,"keywords":["nocrits","nodmgspread","payload","uncletopia"],"game_id":440,"stv_port":27036,"stv_name":"Uncletopia | Dallas | 3 | All Maps | STV","players":null},{"server_id":405,"name":"Uncletopia | Dallas | 4 | Community","name_short":"dal-4","host":"dal-1.us.uncletopia.com","port":27045,"enabled":true,"region":"us-central","cc":"us","latitude":32.779167,"longitude":-96.80889,"reserved":0,"last_update":"0001-01-01T00:00:00Z","name_a2s":"Uncletopia | Dallas | 4 | Community","protocol":17,"map":"workshop/koth_ashville_final.ugc2130459942","folder":"tf","game":"Team Fortress","app_id":440,"player_count":0,"max_players":24,"Bots":0,"server_type":"Dedicated","server_os":"Linux","password":true,"vac":true,"version":"7961495","steam_id":85568392924515220,"keywords":["cp","nocrits","nodmgspread","uncletopia"],"game_id":440,"stv_port":27046,"stv_name":"Uncletopia | Dallas | 4 | Community | STV","players":null},{"server_id":5,"name":"Uncletopia | Frankfurt | 1 | All Maps","name_short":"frk-1","host":"frk-1.de.uncletopia.com","port":27015,"enabled":true,"region":"eu","cc":"de","latitude":50.110924,"longitude":8.682127,"reserved":0,"last_update":"0001-01-01T00:00:00Z","name_a2s":"Uncletopia | Frankfurt | 1 | All Maps","protocol":17,"map":"koth_lakeside_final","folder":"tf","game":"Team Fortress","app_id":440,"player_count":0,"max_players":24,"Bots":0,"server_type":"Dedicated","server_os":"Linux","password":true,"vac":true,"version":"7961495","steam_id":85568392924469989,"keywords":["cp","nocrits","nodmgspread","uncletopia"],"game_id":440,"stv_port":27016,"stv_name":"Uncletopia | Frankfurt | 1 | All Maps | STV","players":null},{"server_id":110,"name":"Uncletopia | Frankfurt | 2 | All Maps","name_short":"frk-2","host":"frk-1.de.uncletopia.com","port":27025,"enabled":true,"region":"eu","cc":"de","latitude":50.110924,"longitude":8.682127,"reserved":0,"last_update":"0001-01-01T00:00:00Z","name_a2s":"Uncletopia | Frankfurt | 2 | All Maps","protocol":17,"map":"cp_dustbowl","folder":"tf","game":"Team Fortress","app_id":440,"player_count":0,"max_players":24,"Bots":0,"server_type":"Dedicated","server_os":"Linux","password":true,"vac":true,"version":"7961495","steam_id":85568392924469990,"keywords":["cp","nocrits","nodmgspread","uncletopia"],"game_id":440,"stv_port":27026,"stv_name":"Uncletopia | Frankfurt | 2 | All Maps | STV","players":null},{"server_id":308,"name":"Uncletopia | Frankfurt | 3 | All Maps","name_short":"frk-3","host":"frk-1.de.uncletopia.com","port":27035,"enabled":true,"region":"eu","cc":"de","latitude":50.110924,"longitude":8.682127,"reserved":0,"last_update":"0001-01-01T00:00:00Z","name_a2s":"Uncletopia | Frankfurt | 3 | All Maps","protocol":17,"map":"cp_snakewater_final1","folder":"tf","game":"Team Fortress","app_id":440,"player_count":24,"max_players":24,"Bots":0,"server_type":"Dedicated","server_os":"Linux","password":true,"vac":true,"version":"7961495","steam_id":85568392924504274,"keywords":["cp","nocrits","nodmgspread","uncletopia"],"game_id":440,"stv_port":27036,"stv_name":"Uncletopia | Frankfurt | 3 | All Maps | STV","players":[{"user_id":612,"name":"Snowmotion","steam_id":76561198075022454,"connected_time":10014000000000,"state":"active","ping":57},{"user_id":732,"name":"T/5. Cernuno [16th IR]","steam_id":76561197977897110,"connected_time":1359000000000,"state":"active","ping":75},{"user_id":708,"name":"REN","steam_id":76561198000596385,"connected_time":2955000000000,"state":"active","ping":49},{"user_id":753,"name":"Croy","steam_id":76561197972552579,"connected_time":296000000000,"state":"active","ping":52},{"user_id":752,"name":"Alice in Rubberland","steam_id":76561198087328346,"connected_time":413000000000,"state":"active","ping":150},{"user_id":754,"name":"cock fucker pussy smacker","steam_id":76561198097515215,"connected_time":261000000000,"state":"active","ping":58},{"user_id":633,"name":"kingdead4","steam_id":76561198079576655,"connected_time":7805000000000,"state":"active","ping":64},{"user_id":744,"name":"my mom","steam_id":76561199225201569,"connected_time":997000000000,"state":"active","ping":131},{"user_id":737,"name":"Onions","steam_id":76561198150195195,"connected_time":1178000000000,"state":"active","ping":62},{"user_id":749,"name":"Cherry","steam_id":76561198150841824,"connected_time":578000000000,"state":"active","ping":55},{"user_id":721,"name":"Renttu","steam_id":76561197997698349,"connected_time":1907000000000,"state":"active","ping":73},{"user_id":751,"name":"tm`","steam_id":76561197993580412,"connected_time":471000000000,"state":"active","ping":54},{"user_id":723,"name":"G0ATed","steam_id":76561198075419908,"connected_time":1872000000000,"state":"active","ping":65},{"user_id":755,"name":"let me cook","steam_id":76561198010380786,"connected_time":18000000000,"state":"active","ping":59},{"user_id":727,"name":"Strachy","steam_id":76561198172219219,"connected_time":1670000000000,"state":"active","ping":71},{"user_id":739,"name":"Ushlus","steam_id":76561199225270732,"connected_time":1155000000000,"state":"active","ping":114},{"user_id":743,"name":"garfielf","steam_id":76561199482149729,"connected_time":1066000000000,"state":"active","ping":132},{"user_id":697,"name":"meriones","steam_id":76561198034234373,"connected_time":3658000000000,"state":"active","ping":56},{"user_id":717,"name":"Cosmetic brain","steam_id":76561198055936410,"connected_time":2219000000000,"state":"active","ping":88},{"user_id":740,"name":"Taower","steam_id":76561198198355926,"connected_time":1129000000000,"state":"active","ping":73},{"user_id":745,"name":"Dusteny","steam_id":76561198288403530,"connected_time":821000000000,"state":"active","ping":47},{"user_id":703,"name":"Nittugai","steam_id":76561198067366462,"connected_time":3425000000000,"state":"active","ping":60},{"user_id":741,"name":"Mr.Shpee","steam_id":76561198158701474,"connected_time":1117000000000,"state":"active","ping":75},{"user_id":750,"name":"Endi","steam_id":76561198914938199,"connected_time":557000000000,"state":"active","ping":85}]},{"server_id":309,"name":"Uncletopia | Frankfurt | 4 | All Maps","name_short":"frk-4","host":"frk-1.de.uncletopia.com","port":27045,"enabled":true,"region":"eu","cc":"de","latitude":50.110924,"longitude":8.682127,"reserved":0,"last_update":"0001-01-01T00:00:00Z","name_a2s":"Uncletopia | Frankfurt | 4 | All Maps","protocol":17,"map":"cp_process_final","folder":"tf","game":"Team Fortress","app_id":440,"player_count":0,"max_players":24,"Bots":0,"server_type":"Dedicated","server_os":"Linux","password":true,"vac":true,"version":"7961495","steam_id":85568392924504275,"keywords":["cp","nocrits","nodmgspread","uncletopia"],"game_id":440,"stv_port":27046,"stv_name":"Uncletopia | Frankfurt | 4 | All Maps | STV","players":null},{"server_id":310,"name":"Uncletopia | Frankfurt | 5 | All Maps","name_short":"frk-5","host":"frk-1.de.uncletopia.com","port":27055,"enabled":true,"region":"eu","cc":"de","latitude":50.110924,"longitude":8.682127,"reserved":0,"last_update":"0001-01-01T00:00:00Z","name_a2s":"Uncletopia | Frankfurt | 5 | All Maps","protocol":17,"map":"cp_dustbowl","folder":"tf","game":"Team Fortress","app_id":440,"player_count":0,"max_players":24,"Bots":0,"server_type":"Dedicated","server_os":"Linux","password":true,"vac":true,"version":"7961495","steam_id":85568392924504277,"keywords":["cp","nocrits","nodmgspread","uncletopia"],"game_id":440,"stv_port":27056,"stv_name":"Uncletopia | Frankfurt | 5 | All Maps | STV","players":null},{"server_id":311,"name":"Uncletopia | Frankfurt | 6 | All Maps","name_short":"frk-6","host":"frk-1.de.uncletopia.com","port":27065,"enabled":true,"region":"eu","cc":"de","latitude":50.110924,"longitude":8.682127,"reserved":0,"last_update":"0001-01-01T00:00:00Z","name_a2s":"Uncletopia | Frankfurt | 6 | All Maps","protocol":17,"map":"plr_pipeline","folder":"tf","game":"Team Fortress","app_id":440,"player_count":0,"max_players":24,"Bots":0,"server_type":"Dedicated","server_os":"Linux","password":true,"vac":true,"version":"7961495","steam_id":85568392924504278,"keywords":["nocrits","nodmgspread","payload","uncletopia"],"game_id":440,"stv_port":27066,"stv_name":"Uncletopia | Frankfurt | 6 | All Maps | STV","players":null},{"server_id":23,"name":"Uncletopia | Frankfurt | 7 | Stopwatch","name_short":"frk-7","host":"frk-1.de.uncletopia.com","port":27075,"enabled":true,"region":"eu","cc":"de","latitude":50.110924,"longitude":8.682127,"reserved":0,"last_update":"0001-01-01T00:00:00Z","name_a2s":"Uncletopia | Frankfurt | 7 | Stopwatch","protocol":17,"map":"workshop/koth_ashville_final.ugc2130459942","folder":"tf","game":"Team Fortress","app_id":440,"player_count":0,"max_players":24,"Bots":0,"server_type":"Dedicated","server_os":"Linux","password":true,"vac":true,"version":"7961495","steam_id":85568392924742827,"keywords":["cp","nocrits","nodmgspread","uncletopia"],"game_id":440,"stv_port":27076,"stv_name":"Uncletopia | Frankfurt | 7 | Stopwatch | STV","players":null},{"server_id":24,"name":"Uncletopia | Frankfurt | 8 | Community","name_short":"frk-8","host":"frk-1.de.uncletopia.com","port":27085,"enabled":true,"region":"eu","cc":"de","latitude":50.110924,"longitude":8.682127,"reserved":0,"last_update":"0001-01-01T00:00:00Z","name_a2s":"Uncletopia | Frankfurt | 8 | Community","protocol":17,"map":"workshop/rd_asteroid_redux_b1.ugc2154902912","folder":"tf","game":"Team Fortress","app_id":440,"player_count":0,"max_players":24,"Bots":0,"server_type":"Dedicated","server_os":"Linux","password":true,"vac":true,"version":"7961495","steam_id":85568392924742828,"keywords":["beta","nocrits","nodmgspread","rd","uncletopia"],"game_id":440,"stv_port":27086,"stv_name":"Uncletopia | Frankfurt | 8 | Community | STV","players":null},{"server_id":202,"name":"Uncletopia | Hong Kong | 1 | All Maps","name_short":"hgk-1","host":"hgk-1.hk.uncletopia.com","port":27015,"enabled":true,"region":"asia","cc":"hk","latitude":22.302711,"longitude":114.177216,"reserved":0,"last_update":"0001-01-01T00:00:00Z","name_a2s":"Uncletopia | Hong Kong | 1 | All Maps","protocol":17,"map":"koth_cascade","folder":"tf","game":"Team Fortress","app_id":440,"player_count":0,"max_players":24,"Bots":0,"server_type":"Dedicated","server_os":"Linux","password":true,"vac":true,"version":"7961495","steam_id":85568392924494504,"keywords":["cp","nocrits","nodmgspread","uncletopia"],"game_id":440,"stv_port":27016,"stv_name":"Uncletopia | Hong Kong | 1 | All Maps | STV","players":null},{"server_id":1,"name":"Uncletopia | Los Angeles | 1 | All Maps","name_short":"lax-1","host":"lax-1.us.uncletopia.com","port":27015,"enabled":true,"region":"us-west","cc":"us","latitude":33.94279,"longitude":-118.41004,"reserved":0,"last_update":"0001-01-01T00:00:00Z","name_a2s":"Uncletopia | Los Angeles | 1 | All Maps","protocol":17,"map":"koth_highpass","folder":"tf","game":"Team Fortress","app_id":440,"player_count":0,"max_players":24,"Bots":0,"server_type":"Dedicated","server_os":"Linux","password":true,"vac":true,"version":"7961495","steam_id":85568392924469991,"keywords":["cp","nocrits","nodmgspread","uncletopia"],"game_id":440,"stv_port":27016,"stv_name":"Uncletopia | Los Angeles | 1 | All Maps | STV","players":null},{"server_id":112,"name":"Uncletopia | Los Angeles | 2 | All Maps","name_short":"lax-2","host":"lax-1.us.uncletopia.com","port":27025,"enabled":true,"region":"us-west","cc":"us","latitude":33.94279,"longitude":-118.41004,"reserved":0,"last_update":"0001-01-01T00:00:00Z","name_a2s":"Uncletopia | Los Angeles | 2 | All Maps","protocol":17,"map":"pl_frontier_final","folder":"tf","game":"Team Fortress","app_id":440,"player_count":0,"max_players":24,"Bots":0,"server_type":"Dedicated","server_os":"Linux","password":true,"vac":true,"version":"7961495","steam_id":85568392924469992,"keywords":["nocrits","nodmgspread","payload","uncletopia"],"game_id":440,"stv_port":27026,"stv_name":"Uncletopia | Los Angeles | 2 | All Maps | STV","players":null},{"server_id":324,"name":"Uncletopia | Los Angeles | 3 | All Maps","name_short":"lax-3","host":"lax-1.us.uncletopia.com","port":27035,"enabled":true,"region":"us-west","cc":"us","latitude":33.94279,"longitude":-118.41004,"reserved":0,"last_update":"0001-01-01T00:00:00Z","name_a2s":"Uncletopia | Los Angeles | 3 | All Maps","protocol":17,"map":"cp_snakewater_final1","folder":"tf","game":"Team Fortress","app_id":440,"player_count":18,"max_players":24,"Bots":0,"server_type":"Dedicated","server_os":"Linux","password":true,"vac":true,"version":"7961495","steam_id":85568392924510198,"keywords":["cp","nocrits","nodmgspread","uncletopia"],"game_id":440,"stv_port":27036,"stv_name":"Uncletopia | Los Angeles | 3 | All Maps | STV","players":[{"user_id":39,"name":"Ralph Kramden (Slim Charles)","steam_id":76561197981687895,"connected_time":25000000000,"state":"active","ping":58},{"user_id":18,"name":"ben_camp","steam_id":76561198288640148,"connected_time":912000000000,"state":"spawning","ping":72},{"user_id":40,"name":"beans","steam_id":76561199082781884,"connected_time":21000000000,"state":"connecting","ping":60},{"user_id":34,"name":"WorkadayDelite","steam_id":76561198125890089,"connected_time":519000000000,"state":"active","ping":64},{"user_id":10,"name":"fish jesus","steam_id":76561198316610724,"connected_time":1522000000000,"state":"spawning","ping":80},{"user_id":12,"name":"M.I.R.A.I.Drive","steam_id":76561198098018436,"connected_time":1435000000000,"state":"active","ping":88},{"user_id":13,"name":"ena - d","steam_id":76561198072329335,"connected_time":1427000000000,"state":"active","ping":101},{"user_id":14,"name":"The Shrekinator","steam_id":76561198400991740,"connected_time":1334000000000,"state":"connecting","ping":285},{"user_id":15,"name":"Thequirka","steam_id":76561198968058652,"connected_time":1247000000000,"state":"active","ping":82},{"user_id":16,"name":"The King","steam_id":76561198117344758,"connected_time":1241000000000,"state":"active","ping":96},{"user_id":17,"name":"Fernando Alonso","steam_id":76561198066822788,"connected_time":1119000000000,"state":"active","ping":115},{"user_id":19,"name":"plainhead.mp4","steam_id":76561199279194356,"connected_time":888000000000,"state":"active","ping":104},{"user_id":20,"name":"McDonald","steam_id":76561199028533497,"connected_time":874000000000,"state":"spawning","ping":21},{"user_id":24,"name":"skyttle","steam_id":76561198069153352,"connected_time":744000000000,"state":"active","ping":64},{"user_id":25,"name":"Pablo","steam_id":76561199003655066,"connected_time":707000000000,"state":"active","ping":49},{"user_id":26,"name":"Rylix","steam_id":76561198136157816,"connected_time":695000000000,"state":"active","ping":46},{"user_id":27,"name":"GaminApe","steam_id":76561198044938552,"connected_time":690000000000,"state":"active","ping":62},{"user_id":36,"name":"Kermit Silver","steam_id":76561198881309719,"connected_time":389000000000,"state":"active","ping":46}]},{"server_id":25,"name":"Uncletopia | Los Angeles | 4 | Stopwatch","name_short":"lax-4","host":"lax-1.us.uncletopia.com","port":27045,"enabled":true,"region":"us-west","cc":"us","latitude":33.94279,"longitude":-118.41004,"reserved":0,"last_update":"0001-01-01T00:00:00Z","name_a2s":"Uncletopia | Los Angeles | 4 | Stopwatch","protocol":17,"map":"workshop/cp_process_f12.ugc2302948105","folder":"tf","game":"Team Fortress","app_id":440,"player_count":0,"max_players":24,"Bots":0,"server_type":"Dedicated","server_os":"Linux","password":true,"vac":true,"version":"7961495","steam_id":85568392924510199,"keywords":["cp","nocrits","nodmgspread","uncletopia"],"game_id":440,"stv_port":27046,"stv_name":"Uncletopia | Los Angeles | 4 | Stopwatch | STV","players":null},{"server_id":11,"name":"Uncletopia | London | 1 | All Maps","name_short":"lon-1","host":"lon-1.uk.uncletopia.com","port":27015,"enabled":true,"region":"eu","cc":"gb","latitude":51.509865,"longitude":-0.118092,"reserved":0,"last_update":"0001-01-01T00:00:00Z","name_a2s":"Uncletopia | London | 1 | All Maps","protocol":17,"map":"pl_badwater","folder":"tf","game":"Team Fortress","app_id":440,"player_count":24,"max_players":24,"Bots":0,"server_type":"Dedicated","server_os":"Linux","password":true,"vac":true,"version":"7961495","steam_id":85568392924367362,"keywords":["nocrits","nodmgspread","payload","uncletopia"],"game_id":440,"stv_port":27016,"stv_name":"Uncletopia | London | 1 | All Maps | STV","players":[{"user_id":1230,"name":"Landan","steam_id":76561198102048004,"connected_time":3444000000000,"state":"active","ping":75},{"user_id":1249,"name":"N4G4S4K1 1S K4RK4L1C1OUS","steam_id":76561199031772797,"connected_time":1313000000000,"state":"active","ping":159},{"user_id":1176,"name":"WOMANMANGLER3000 alice","steam_id":76561198180361759,"connected_time":8266000000000,"state":"active","ping":33},{"user_id":1251,"name":"legalize glue","steam_id":76561198191369066,"connected_time":1166000000000,"state":"active","ping":119},{"user_id":1243,"name":"its shambles mate","steam_id":76561198071440081,"connected_time":2287000000000,"state":"active","ping":105},{"user_id":1196,"name":"Skarp","steam_id":76561198034398376,"connected_time":5661000000000,"state":"active","ping":60},{"user_id":1187,"name":"Borat","steam_id":76561198122226417,"connected_time":7513000000000,"state":"active","ping":43},{"user_id":1225,"name":"CreepyYellowDuck","steam_id":76561198000479387,"connected_time":3767000000000,"state":"active","ping":36},{"user_id":1247,"name":"robouki","steam_id":76561198168265569,"connected_time":1688000000000,"state":"active","ping":44},{"user_id":1253,"name":"tone' (real)","steam_id":76561198055552635,"connected_time":795000000000,"state":"active","ping":60},{"user_id":1252,"name":"Jeff","steam_id":76561198074722832,"connected_time":886000000000,"state":"active","ping":60},{"user_id":1237,"name":"E","steam_id":76561198257836694,"connected_time":2906000000000,"state":"active","ping":43},{"user_id":1256,"name":"lawn","steam_id":76561198001243486,"connected_time":465000000000,"state":"active","ping":46},{"user_id":1182,"name":"MANMANGLER3000 flick","steam_id":76561198083505031,"connected_time":7568000000000,"state":"active","ping":44},{"user_id":1254,"name":"DBlackjack21","steam_id":76561198073241855,"connected_time":757000000000,"state":"active","ping":60},{"user_id":1250,"name":"Mads Mikkelsen","steam_id":76561198083482001,"connected_time":1229000000000,"state":"active","ping":62},{"user_id":1257,"name":"EricToGo","steam_id":76561198068019642,"connected_time":104000000000,"state":"active","ping":68},{"user_id":1248,"name":"pezza","steam_id":76561197995173247,"connected_time":1419000000000,"state":"active","ping":67},{"user_id":1235,"name":"nordstream bomber","steam_id":76561199401283123,"connected_time":3364000000000,"state":"active","ping":50},{"user_id":1155,"name":"Urtaras","steam_id":76561198085604412,"connected_time":11639000000000,"state":"active","ping":55},{"user_id":1217,"name":"soup","steam_id":76561198386933065,"connected_time":4296000000000,"state":"active","ping":73},{"user_id":1238,"name":"phuroon","steam_id":76561198235739036,"connected_time":2704000000000,"state":"active","ping":86},{"user_id":1255,"name":"jeremy","steam_id":76561199062586342,"connected_time":744000000000,"state":"active","ping":67},{"user_id":1178,"name":"Sandshee","steam_id":76561198088574666,"connected_time":7846000000000,"state":"active","ping":46}]},{"server_id":114,"name":"Uncletopia | London | 2 | All Maps","name_short":"lon-2","host":"lon-1.uk.uncletopia.com","port":27025,"enabled":true,"region":"eu","cc":"gb","latitude":51.509865,"longitude":-0.118092,"reserved":0,"last_update":"0001-01-01T00:00:00Z","name_a2s":"Uncletopia | London | 2 | All Maps","protocol":17,"map":"pl_borneo","folder":"tf","game":"Team Fortress","app_id":440,"player_count":23,"max_players":24,"Bots":0,"server_type":"Dedicated","server_os":"Linux","password":true,"vac":true,"version":"7961495","steam_id":85568392924470941,"keywords":["nocrits","nodmgspread","payload","uncletopia"],"game_id":440,"stv_port":27026,"stv_name":"Uncletopia | London | 2 | All Maps | STV","players":[{"user_id":748,"name":"CEO of Racism","steam_id":76561198042317958,"connected_time":556000000000,"state":"active","ping":73},{"user_id":745,"name":"Trapezoid","steam_id":76561198059369295,"connected_time":635000000000,"state":"active","ping":77},{"user_id":607,"name":"heal","steam_id":76561198046754534,"connected_time":11412000000000,"state":"active","ping":88},{"user_id":741,"name":"Gul","steam_id":76561198265090950,"connected_time":1274000000000,"state":"active","ping":112},{"user_id":624,"name":"ashley","steam_id":76561198448551449,"connected_time":10085000000000,"state":"active","ping":36},{"user_id":753,"name":"frutta","steam_id":76561198131786352,"connected_time":66000000000,"state":"active","ping":57},{"user_id":704,"name":"Ephix","steam_id":76561197977164055,"connected_time":4822000000000,"state":"active","ping":53},{"user_id":746,"name":"Albon","steam_id":76561198060378881,"connected_time":635000000000,"state":"active","ping":59},{"user_id":727,"name":"yoneda","steam_id":76561198123238801,"connected_time":2959000000000,"state":"active","ping":49},{"user_id":739,"name":"frosty","steam_id":76561198094560834,"connected_time":1521000000000,"state":"active","ping":57},{"user_id":754,"name":"Swagmaster","steam_id":76561198045828392,"connected_time":52000000000,"state":"spawning","ping":50},{"user_id":752,"name":"GUMLOCK","steam_id":76561199052109415,"connected_time":172000000000,"state":"active","ping":61},{"user_id":756,"name":"JimBean","steam_id":76561198018620946,"connected_time":47000000000,"state":"active","ping":55},{"user_id":679,"name":"Duke Fishlord","steam_id":76561198079928327,"connected_time":6697000000000,"state":"active","ping":69},{"user_id":707,"name":"viva","steam_id":76561198122544149,"connected_time":4751000000000,"state":"active","ping":84},{"user_id":736,"name":"WSinneb","steam_id":76561198073421556,"connected_time":2037000000000,"state":"active","ping":74},{"user_id":755,"name":"ThornDrayton","steam_id":76561198141985675,"connected_time":49000000000,"state":"active","ping":49},{"user_id":757,"name":"Bill Carr","steam_id":76561198110033943,"connected_time":27000000000,"state":"active","ping":39},{"user_id":742,"name":"Reppy","steam_id":76561198339480413,"connected_time":1269000000000,"state":"active","ping":64},{"user_id":724,"name":"sarcasticsatan69","steam_id":76561198407566842,"connected_time":3413000000000,"state":"active","ping":57},{"user_id":743,"name":"Âí∏ÂÖàÁîü","steam_id":76561198094423332,"connected_time":1094000000000,"state":"active","ping":112},{"user_id":750,"name":"jones","steam_id":76561198044434971,"connected_time":497000000000,"state":"active","ping":70}]},{"server_id":320,"name":"Uncletopia | London | 3 | All Maps","name_short":"lon-3","host":"lon-1.uk.uncletopia.com","port":27035,"enabled":true,"region":"eu","cc":"gb","latitude":51.509865,"longitude":-0.118092,"reserved":0,"last_update":"0001-01-01T00:00:00Z","name_a2s":"Uncletopia | London | 3 | All Maps","protocol":17,"map":"cp_snakewater_final1","folder":"tf","game":"Team Fortress","app_id":440,"player_count":0,"max_players":24,"Bots":0,"server_type":"Dedicated","server_os":"Linux","password":true,"vac":true,"version":"7961495","steam_id":85568392924510192,"keywords":["cp","nocrits","nodmgspread","uncletopia"],"game_id":440,"stv_port":27036,"stv_name":"Uncletopia | London | 3 | All Maps | STV","players":null},{"server_id":321,"name":"Uncletopia | London | 4 | All Maps","name_short":"lon-4","host":"lon-1.uk.uncletopia.com","port":27045,"enabled":true,"region":"eu","cc":"gb","latitude":51.509865,"longitude":-0.118092,"reserved":0,"last_update":"0001-01-01T00:00:00Z","name_a2s":"Uncletopia | London | 4 | All Maps","protocol":17,"map":"cp_sunshine","folder":"tf","game":"Team Fortress","app_id":440,"player_count":24,"max_players":24,"Bots":0,"server_type":"Dedicated","server_os":"Linux","password":true,"vac":true,"version":"7961495","steam_id":85568392924510193,"keywords":["cp","nocrits","nodmgspread","uncletopia"],"game_id":440,"stv_port":27046,"stv_name":"Uncletopia | London | 4 | All Maps | STV","players":[{"user_id":430,"name":"King Nugget","steam_id":76561198134037464,"connected_time":489000000000,"state":"active","ping":55},{"user_id":358,"name":"A Succulent Chinese Meal","steam_id":76561198069472440,"connected_time":4371000000000,"state":"active","ping":68},{"user_id":385,"name":"Swayer","steam_id":76561198056192460,"connected_time":3537000000000,"state":"active","ping":65},{"user_id":403,"name":"mary","steam_id":76561198014828037,"connected_time":2674000000000,"state":"active","ping":54},{"user_id":418,"name":"Peat","steam_id":76561197992168067,"connected_time":1617000000000,"state":"active","ping":68},{"user_id":407,"name":"selzic ‚òÖ","steam_id":76561198068100717,"connected_time":2402000000000,"state":"active","ping":46},{"user_id":419,"name":"LXZH GODX","steam_id":76561198052348247,"connected_time":1577000000000,"state":"active","ping":69},{"user_id":431,"name":"the rat","steam_id":76561198079101313,"connected_time":455000000000,"state":"active","ping":57},{"user_id":404,"name":"scott steiners strongest warrio","steam_id":76561198148888622,"connected_time":2640000000000,"state":"active","ping":60},{"user_id":424,"name":"Panserbjorne","steam_id":76561198143964642,"connected_time":1263000000000,"state":"active","ping":66},{"user_id":392,"name":"Sonnakai","steam_id":76561198051688749,"connected_time":3417000000000,"state":"active","ping":48},{"user_id":432,"name":"timmy_22","steam_id":76561198027033926,"connected_time":446000000000,"state":"active","ping":45},{"user_id":428,"name":"euan","steam_id":76561198276531760,"connected_time":600000000000,"state":"active","ping":53},{"user_id":372,"name":"Reljadin","steam_id":76561198054997553,"connected_time":3963000000000,"state":"active","ping":87},{"user_id":426,"name":"Pvt. Prinny","steam_id":76561198030278562,"connected_time":901000000000,"state":"active","ping":47},{"user_id":433,"name":"owen","steam_id":76561198145465595,"connected_time":425000000000,"state":"active","ping":41},{"user_id":405,"name":"filthy","steam_id":76561198089069719,"connected_time":2587000000000,"state":"active","ping":62},{"user_id":399,"name":"Pixeljoch","steam_id":76561198191072611,"connected_time":2786000000000,"state":"active","ping":45},{"user_id":376,"name":"Lucky Number 13","steam_id":76561198043951279,"connected_time":3887000000000,"state":"active","ping":71},{"user_id":417,"name":"your heavy","steam_id":76561198346638308,"connected_time":1964000000000,"state":"active","ping":55},{"user_id":434,"name":"‚ìà ‚òÖ","steam_id":76561198001235783,"connected_time":320000000000,"state":"active","ping":71},{"user_id":410,"name":"Iris","steam_id":76561198430295815,"connected_time":2249000000000,"state":"active","ping":63},{"user_id":437,"name":"CamBoiMykull","steam_id":76561197994550694,"connected_time":184000000000,"state":"active","ping":45},{"user_id":436,"name":"bryophyta","steam_id":76561197968945306,"connected_time":251000000000,"state":"active","ping":66}]},{"server_id":21,"name":"Uncletopia | London | 5 | All Maps","name_short":"lon-5","host":"lon-1.uk.uncletopia.com","port":27055,"enabled":true,"region":"eu","cc":"gb","latitude":51.509865,"longitude":-0.118092,"reserved":0,"last_update":"0001-01-01T00:00:00Z","name_a2s":"Uncletopia | London | 5 | All Maps","protocol":17,"map":"pl_borneo","folder":"tf","game":"Team Fortress","app_id":440,"player_count":9,"max_players":24,"Bots":0,"server_type":"Dedicated","server_os":"Linux","password":true,"vac":true,"version":"7961495","steam_id":85568392924742829,"keywords":["nocrits","nodmgspread","payload","uncletopia"],"game_id":440,"stv_port":27056,"stv_name":"Uncletopia | London | 5 | All Maps | STV","players":[{"user_id":461,"name":"SirDirtbag","steam_id":76561198091890855,"connected_time":1627000000000,"state":"active","ping":77},{"user_id":466,"name":"ja","steam_id":76561199228540618,"connected_time":311000000000,"state":"active","ping":59},{"user_id":450,"name":"FreyjaBreadWitch","steam_id":76561199211405367,"connected_time":4278000000000,"state":"active","ping":99},{"user_id":464,"name":"Coac","steam_id":76561198085265740,"connected_time":1085000000000,"state":"active","ping":67},{"user_id":467,"name":"Marl Karx","steam_id":76561198396797516,"connected_time":272000000000,"state":"active","ping":58},{"user_id":457,"name":"GresSimJa","steam_id":76561198827274930,"connected_time":2714000000000,"state":"active","ping":53},{"user_id":455,"name":"FireStorm","steam_id":76561198350478325,"connected_time":2769000000000,"state":"active","ping":51},{"user_id":456,"name":"vegetable_lover_45","steam_id":76561198361621766,"connected_time":2758000000000,"state":"active","ping":40},{"user_id":468,"name":"Pacolin Friendly","steam_id":76561198865802062,"connected_time":176000000000,"state":"active","ping":203}]},{"server_id":22,"name":"Uncletopia | London | 6 | All Maps","name_short":"lon-6","host":"lon-1.uk.uncletopia.com","port":27065,"enabled":true,"region":"eu","cc":"gb","latitude":51.509865,"longitude":-0.118092,"reserved":0,"last_update":"0001-01-01T00:00:00Z","name_a2s":"Uncletopia | London | 6 | All Maps","protocol":17,"map":"koth_lakeside_final","folder":"tf","game":"Team Fortress","app_id":440,"player_count":0,"max_players":24,"Bots":0,"server_type":"Dedicated","server_os":"Linux","password":true,"vac":true,"version":"7961495","steam_id":85568392924742830,"keywords":["cp","nocrits","nodmgspread","uncletopia"],"game_id":440,"stv_port":27066,"stv_name":"Uncletopia | London | 6 | All Maps | STV","players":null},{"server_id":40,"name":"Uncletopia | London | 7 | Stopwatch","name_short":"lon-7","host":"lon-1.uk.uncletopia.com","port":27075,"enabled":true,"region":"eu","cc":"gb","latitude":51.509865,"longitude":-0.118092,"reserved":0,"last_update":"0001-01-01T00:00:00Z","name_a2s":"Uncletopia | London | 7 | Stopwatch","protocol":17,"map":"workshop/pl_barnblitz_pro7.ugc582280235","folder":"tf","game":"Team Fortress","app_id":440,"player_count":0,"max_players":24,"Bots":0,"server_type":"Dedicated","server_os":"Linux","password":true,"vac":true,"version":"7961495","steam_id":85568392924964314,"keywords":["nocrits","nodmgspread","payload","uncletopia"],"game_id":440,"stv_port":27076,"stv_name":"Uncletopia | London | 7 | Stopwatch | STV","players":null},{"server_id":41,"name":"Uncletopia | London | 8 | Community","name_short":"lon-8","host":"lon-1.uk.uncletopia.com","port":27085,"enabled":true,"region":"eu","cc":"gb","latitude":51.509865,"longitude":-0.118092,"reserved":0,"last_update":"0001-01-01T00:00:00Z","name_a2s":"Uncletopia | London | 8 | Community","protocol":17,"map":"workshop/cp_glassworks_rc7a.ugc454118349","folder":"tf","game":"Team Fortress","app_id":440,"player_count":0,"max_players":24,"Bots":0,"server_type":"Dedicated","server_os":"Linux","password":true,"vac":true,"version":"7961495","steam_id":85568392924964315,"keywords":["cp","nocrits","nodmgspread","uncletopia"],"game_id":440,"stv_port":27086,"stv_name":"Uncletopia | London | 8 | Community | STV","players":null},{"server_id":300,"name":"Uncletopia | Montr√©al | 1 | One Thousand Uncles","name_short":"mtl-1","host":"mtl-1.ca.uncletopia.com","port":27015,"enabled":true,"region":"us-east","cc":"ca","latitude":45.50889,"longitude":-73.56167,"reserved":0,"last_update":"0001-01-01T00:00:00Z","name_a2s":"","protocol":0,"map":"","folder":"","game":"","app_id":0,"player_count":12,"max_players":0,"Bots":0,"server_type":"","server_os":"","password":false,"vac":false,"version":"","steam_id":0,"keywords":null,"game_id":0,"stv_port":0,"stv_name":"","players":[{"user_id":169,"name":"rejz123","steam_id":76561198035165512,"connected_time":282000000000,"state":"active","ping":91},{"user_id":143,"name":"Windup Monkey in a Human Suit","steam_id":76561198119501444,"connected_time":1546000000000,"state":"active","ping":101},{"user_id":168,"name":"DoggyDogWhirl","steam_id":76561198042841344,"connected_time":335000000000,"state":"active","ping":61},{"user_id":145,"name":"Baldo the Bald","steam_id":76561198055227802,"connected_time":1504000000000,"state":"active","ping":92},{"user_id":170,"name":"Phillip Jeffries","steam_id":76561198064052174,"connected_time":281000000000,"state":"active","ping":67},{"user_id":126,"name":"RacoonGamer","steam_id":76561198100907657,"connected_time":1717000000000,"state":"active","ping":43},{"user_id":150,"name":"BreadBread06","steam_id":76561198196914050,"connected_time":614000000000,"state":"active","ping":108},{"user_id":100,"name":"Enzo","steam_id":76561197975076681,"connected_time":3555000000000,"state":"active","ping":61},{"user_id":171,"name":"weezer","steam_id":76561198046115688,"connected_time":119000000000,"state":"active","ping":54},{"user_id":151,"name":"24aidshe","steam_id":76561198850742314,"connected_time":456000000000,"state":"active","ping":77},{"user_id":111,"name":"Sleepy Brady","steam_id":76561198867378129,"connected_time":2641000000000,"state":"active","ping":72},{"user_id":117,"name":"Buck","steam_id":76561197993075304,"connected_time":2445000000000,"state":"active","ping":68}]},{"server_id":301,"name":"Uncletopia | Montr√©al | 2 | One Thousand Uncles","name_short":"mtl-2","host":"mtl-1.ca.uncletopia.com","port":27025,"enabled":true,"region":"us-east","cc":"ca","latitude":45.50889,"longitude":-73.56167,"reserved":0,"last_update":"0001-01-01T00:00:00Z","name_a2s":"","protocol":0,"map":"","folder":"","game":"","app_id":0,"player_count":5,"max_players":0,"Bots":0,"server_type":"","server_os":"","password":false,"vac":false,"version":"","steam_id":0,"keywords":null,"game_id":0,"stv_port":0,"stv_name":"","players":[{"user_id":2,"name":"The Fragrance of Dark Coffee","steam_id":76561198013111370,"connected_time":2246000000000,"state":"active","ping":58},{"user_id":8,"name":"Picnic! at the Disco","steam_id":76561197998572274,"connected_time":2231000000000,"state":"active","ping":40},{"user_id":12,"name":"Jimmy Pubetron","steam_id":76561198077634776,"connected_time":2230000000000,"state":"active","ping":46},{"user_id":21,"name":"Chaos","steam_id":76561197967401532,"connected_time":2225000000000,"state":"active","ping":88},{"user_id":40,"name":"manbearswineflu","steam_id":76561198083945137,"connected_time":343000000000,"state":"active","ping":67}]},{"server_id":302,"name":"Uncletopia | Montr√©al | 3 | One Thousand Uncles","name_short":"mtl-3","host":"mtl-1.ca.uncletopia.com","port":27035,"enabled":true,"region":"us-east","cc":"ca","latitude":45.50889,"longitude":-73.56167,"reserved":0,"last_update":"0001-01-01T00:00:00Z","name_a2s":"","protocol":0,"map":"","folder":"","game":"","app_id":0,"player_count":0,"max_players":0,"Bots":0,"server_type":"","server_os":"","password":false,"vac":false,"version":"","steam_id":0,"keywords":null,"game_id":0,"stv_port":0,"stv_name":"","players":null},{"server_id":13,"name":"Uncletopia | New York City | 1 | All Maps","name_short":"nyc-1","host":"nyc-1.us.uncletopia.com","port":27015,"enabled":true,"region":"us-east","cc":"us","latitude":40.73061,"longitude":-73.93524,"reserved":0,"last_update":"0001-01-01T00:00:00Z","name_a2s":"Uncletopia | New York City | 1 | All Maps","protocol":17,"map":"koth_lazarus","folder":"tf","game":"Team Fortress","app_id":440,"player_count":23,"max_players":24,"Bots":0,"server_type":"Dedicated","server_os":"Linux","password":true,"vac":true,"version":"7961495","steam_id":85568392924469993,"keywords":["cp","nocrits","nodmgspread","uncletopia"],"game_id":440,"stv_port":27016,"stv_name":"Uncletopia | New York City | 1 | All Maps | STV","players":[{"user_id":319,"name":"Reeder Rabbit","steam_id":76561198042675927,"connected_time":716000000000,"state":"active","ping":51},{"user_id":311,"name":"Sizenberg","steam_id":76561198115842661,"connected_time":847000000000,"state":"active","ping":82},{"user_id":330,"name":"Zeora","steam_id":76561198799145251,"connected_time":408000000000,"state":"active","ping":75},{"user_id":320,"name":"Teriyaki Dick","steam_id":76561198067917216,"connected_time":693000000000,"state":"active","ping":67},{"user_id":325,"name":"spingaskhan","steam_id":76561198099412571,"connected_time":493000000000,"state":"active","ping":52},{"user_id":295,"name":"PointyCactus","steam_id":76561199377064707,"connected_time":2700000000000,"state":"active","ping":49},{"user_id":327,"name":"the pest","steam_id":76561198826298849,"connected_time":450000000000,"state":"active","ping":92},{"user_id":290,"name":"Marge \"ZaZa\" Simpson","steam_id":76561198156496197,"connected_time":2980000000000,"state":"active","ping":70},{"user_id":255,"name":"Ginger Jesus","steam_id":76561198052386458,"connected_time":3901000000000,"state":"active","ping":45},{"user_id":313,"name":"ChocoMcFudgeCake","steam_id":76561197994591295,"connected_time":829000000000,"state":"active","ping":63},{"user_id":307,"name":"Donkski","steam_id":76561198406895347,"connected_time":1349000000000,"state":"active","ping":87},{"user_id":304,"name":"Tarot Warden","steam_id":76561198284383023,"connected_time":1814000000000,"state":"active","ping":80},{"user_id":335,"name":"Sultan","steam_id":76561198447852406,"connected_time":166000000000,"state":"active","ping":68},{"user_id":306,"name":"Ping","steam_id":76561199206514106,"connected_time":1498000000000,"state":"active","ping":71},{"user_id":336,"name":"Bootes","steam_id":76561197968255551,"connected_time":79000000000,"state":"active","ping":53},{"user_id":331,"name":"Fudgely","steam_id":76561198039425862,"connected_time":306000000000,"state":"active","ping":70},{"user_id":328,"name":"fire axe enthusiast","steam_id":76561199057874809,"connected_time":417000000000,"state":"active","ping":78},{"user_id":317,"name":"blarthour","steam_id":76561198151534880,"connected_time":780000000000,"state":"active","ping":110},{"user_id":329,"name":"farfalle","steam_id":76561198882758067,"connected_time":416000000000,"state":"active","ping":88},{"user_id":318,"name":"Samrizo el Chorizo","steam_id":76561198009838162,"connected_time":779000000000,"state":"active","ping":56},{"user_id":291,"name":"Osteo-Oligarch","steam_id":76561198164731896,"connected_time":2969000000000,"state":"active","ping":97},{"user_id":332,"name":"Bacchus","steam_id":76561198113244990,"connected_time":282000000000,"state":"active","ping":72},{"user_id":298,"name":"dog","steam_id":76561198263873491,"connected_time":2656000000000,"state":"active","ping":61}]},{"server_id":14,"name":"Uncletopia | New York City | 2 | All Maps","name_short":"nyc-2","host":"nyc-1.us.uncletopia.com","port":27025,"enabled":true,"region":"us-east","cc":"us","latitude":40.73061,"longitude":-73.93524,"reserved":0,"last_update":"0001-01-01T00:00:00Z","name_a2s":"Uncletopia | New York City | 2 | All Maps","protocol":17,"map":"pl_frontier_final","folder":"tf","game":"Team Fortress","app_id":440,"player_count":24,"max_players":24,"Bots":0,"server_type":"Dedicated","server_os":"Linux","password":true,"vac":true,"version":"7961495","steam_id":85568392924469994,"keywords":["nocrits","nodmgspread","payload","uncletopia"],"game_id":440,"stv_port":27026,"stv_name":"Uncletopia | New York City | 2 | All Maps | STV","players":[{"user_id":88,"name":"breathingtrees","steam_id":76561198118931690,"connected_time":2072000000000,"state":"active","ping":57},{"user_id":91,"name":"wile smells :3","steam_id":76561197968351430,"connected_time":1536000000000,"state":"active","ping":120},{"user_id":66,"name":"KuraiHeka","steam_id":76561198025441882,"connected_time":2544000000000,"state":"active","ping":142},{"user_id":108,"name":"RedBaron","steam_id":76561198972426107,"connected_time":169000000000,"state":"active","ping":46},{"user_id":95,"name":"wile hears :3","steam_id":76561198123477485,"connected_time":1339000000000,"state":"active","ping":103},{"user_id":107,"name":"bnob?","steam_id":76561198965284387,"connected_time":201000000000,"state":"active","ping":58},{"user_id":47,"name":"The Poop Inspector","steam_id":76561198293774425,"connected_time":3333000000000,"state":"active","ping":60},{"user_id":100,"name":"Miiukade","steam_id":76561198089157860,"connected_time":1095000000000,"state":"active","ping":55},{"user_id":68,"name":"Mudkip","steam_id":76561198055505997,"connected_time":2526000000000,"state":"active","ping":78},{"user_id":89,"name":"Berb","steam_id":76561198193911899,"connected_time":1634000000000,"state":"active","ping":89},{"user_id":103,"name":"Cellus","steam_id":76561198067204847,"connected_time":589000000000,"state":"active","ping":61},{"user_id":102,"name":"YourFriendJessie","steam_id":76561198176883097,"connected_time":919000000000,"state":"active","ping":52},{"user_id":104,"name":"wile","steam_id":76561198125261443,"connected_time":377000000000,"state":"active","ping":128},{"user_id":97,"name":"JoshingTons","steam_id":76561198043754723,"connected_time":1334000000000,"state":"active","ping":69},{"user_id":106,"name":"LORD MC CHUBS","steam_id":76561199396661854,"connected_time":288000000000,"state":"active","ping":122},{"user_id":109,"name":"MilesFireStorm","steam_id":76561198078642820,"connected_time":110000000000,"state":"active","ping":72},{"user_id":77,"name":"Prof. Redwood","steam_id":76561199055280639,"connected_time":2266000000000,"state":"active","ping":65},{"user_id":98,"name":"‚ô•Bunny‚ô•Slut‚ô•","steam_id":76561198206376851,"connected_time":1333000000000,"state":"active","ping":90},{"user_id":92,"name":"DoUFart","steam_id":76561198093422623,"connected_time":1409000000000,"state":"active","ping":67},{"user_id":81,"name":"Plumpkinz_1","steam_id":76561198275568950,"connected_time":2248000000000,"state":"active","ping":59},{"user_id":82,"name":"TheCopperAndroid","steam_id":76561198179571826,"connected_time":2248000000000,"state":"active","ping":68},{"user_id":83,"name":"‚òº fellini","steam_id":76561198074180953,"connected_time":2245000000000,"state":"active","ping":49},{"user_id":86,"name":"Window Licker #pride","steam_id":76561198386717007,"connected_time":2203000000000,"state":"active","ping":74},{"user_id":94,"name":"r","steam_id":76561198239927434,"connected_time":1360000000000,"state":"active","ping":153}]},{"server_id":15,"name":"Uncletopia | New York City | 3 | Stopwatch","name_short":"nyc-3","host":"nyc-1.us.uncletopia.com","port":27035,"enabled":true,"region":"us-east","cc":"us","latitude":40.73061,"longitude":-73.93524,"reserved":0,"last_update":"0001-01-01T00:00:00Z","name_a2s":"Uncletopia | New York City | 3 | Stopwatch","protocol":17,"map":"workshop/koth_ramjam_rc1.ugc459778887","folder":"tf","game":"Team Fortress","app_id":440,"player_count":0,"max_players":24,"Bots":0,"server_type":"Dedicated","server_os":"Linux","password":true,"vac":true,"version":"7961495","steam_id":85568392924742820,"keywords":["cp","nocrits","nodmgspread","uncletopia"],"game_id":440,"stv_port":27036,"stv_name":"Uncletopia | New York City | 3 | Stopwatch | STV","players":null},{"server_id":16,"name":"Uncletopia | New York City | 4 | Community","name_short":"nyc-4","host":"nyc-1.us.uncletopia.com","port":27045,"enabled":true,"region":"us-east","cc":"us","latitude":40.73061,"longitude":-73.93524,"reserved":0,"last_update":"0001-01-01T00:00:00Z","name_a2s":"Uncletopia | New York City | 4 | Community","protocol":17,"map":"workshop/koth_slaughter_rc1.ugc1712845210","folder":"tf","game":"Team Fortress","app_id":440,"player_count":0,"max_players":24,"Bots":0,"server_type":"Dedicated","server_os":"Linux","password":true,"vac":true,"version":"7961495","steam_id":85568392924742821,"keywords":["cp","nocrits","nodmgspread","uncletopia"],"game_id":440,"stv_port":27046,"stv_name":"Uncletopia | New York City | 4 | Community | STV","players":null},{"server_id":142,"name":"Uncletopia | S√£o Paulo | 1 | All Maps","name_short":"sao-1","host":"sao-1.br.uncletopia.com","port":27015,"enabled":true,"region":"sa","cc":"br","latitude":-23.533773,"longitude":-46.62529,"reserved":0,"last_update":"0001-01-01T00:00:00Z","name_a2s":"Uncletopia | S√£o Paulo | 1 | All Maps","protocol":17,"map":"pl_barnblitz","folder":"tf","game":"Team Fortress","app_id":440,"player_count":1,"max_players":24,"Bots":0,"server_type":"Dedicated","server_os":"Linux","password":true,"vac":true,"version":"7961495","steam_id":85568392924469996,"keywords":["nocrits","nodmgspread","payload","uncletopia"],"game_id":440,"stv_port":27016,"stv_name":"Uncletopia | S√£o Paulo | 1 | All Maps | STV","players":[{"user_id":25,"name":"orial","steam_id":76561199062190178,"connected_time":33000000000,"state":"spawning","ping":143}]},{"server_id":143,"name":"Uncletopia | S√£o Paulo | 2 | Community","name_short":"sao-2","host":"sao-2.br.uncletopia.com","port":27015,"enabled":true,"region":"sa","cc":"br","latitude":-23.533773,"longitude":-46.62529,"reserved":0,"last_update":"0001-01-01T00:00:00Z","name_a2s":"Uncletopia | S√£o Paulo | 2 | Community","protocol":17,"map":"workshop/koth_kemptown_rc1.ugc767410655","folder":"tf","game":"Team Fortress","app_id":440,"player_count":1,"max_players":24,"Bots":0,"server_type":"Dedicated","server_os":"Linux","password":true,"vac":true,"version":"7961495","steam_id":85568392924485349,"keywords":["cp","nocrits","nodmgspread","uncletopia"],"game_id":440,"stv_port":27016,"stv_name":"Uncletopia | S√£o Paulo | 2 | Community | STV","players":[{"user_id":7,"name":"Evanpool","steam_id":76561199121279905,"connected_time":161000000000,"state":"active","ping":197}]},{"server_id":7,"name":"Uncletopia | Seattle | 1 | All Maps","name_short":"sea-1","host":"sea-1.us.uncletopia.com","port":27015,"enabled":true,"region":"us-west","cc":"us","latitude":47.608013,"longitude":-122.33517,"reserved":0,"last_update":"0001-01-01T00:00:00Z","name_a2s":"Uncletopia | Seattle | 1 | All Maps","protocol":17,"map":"cp_dustbowl","folder":"tf","game":"Team Fortress","app_id":440,"player_count":26,"max_players":24,"Bots":0,"server_type":"Dedicated","server_os":"Linux","password":true,"vac":true,"version":"7961495","steam_id":85568392924469997,"keywords":["cp","nocrits","nodmgspread","uncletopia"],"game_id":440,"stv_port":27016,"stv_name":"Uncletopia | Seattle | 1 | All Maps | STV","players":[{"user_id":561,"name":"BIG HOG","steam_id":76561198079923652,"connected_time":3431000000000,"state":"active","ping":105},{"user_id":837,"name":"EightySix","steam_id":76561198186678831,"connected_time":124000000000,"state":"active","ping":89},{"user_id":761,"name":"theManMan","steam_id":76561199488457138,"connected_time":1437000000000,"state":"active","ping":47},{"user_id":685,"name":"Vincent Van Bro","steam_id":76561197966919802,"connected_time":2232000000000,"state":"active","ping":46},{"user_id":810,"name":"thunderous prophet","steam_id":76561198131166135,"connected_time":587000000000,"state":"active","ping":39},{"user_id":842,"name":"Ridley","steam_id":76561198014857463,"connected_time":32000000000,"state":"active","ping":119},{"user_id":839,"name":"Hassium","steam_id":76561198162541373,"connected_time":111000000000,"state":"active","ping":59},{"user_id":823,"name":"Tungsten","steam_id":76561198312854342,"connected_time":284000000000,"state":"active","ping":49},{"user_id":428,"name":"you just got dyked on","steam_id":76561198018977723,"connected_time":8128000000000,"state":"active","ping":46},{"user_id":483,"name":"sleepy","steam_id":76561198255015060,"connected_time":4576000000000,"state":"active","ping":56},{"user_id":463,"name":"cielael","steam_id":76561198043971956,"connected_time":6036000000000,"state":"active","ping":74},{"user_id":843,"name":"Butteryback","steam_id":76561198049642485,"connected_time":12000000000,"state":"spawning","ping":69},{"user_id":638,"name":"Echolu","steam_id":76561198158613750,"connected_time":2523000000000,"state":"active","ping":137},{"user_id":753,"name":"Fruity","steam_id":76561198999674564,"connected_time":1465000000000,"state":"active","ping":122},{"user_id":816,"name":"yomommasabitch","steam_id":76561198323217150,"connected_time":432000000000,"state":"active","ping":91},{"user_id":836,"name":"therealmrstarfish","steam_id":76561198974482075,"connected_time":137000000000,"state":"active","ping":70},{"user_id":768,"name":"Demonic Disaster","steam_id":76561198139544629,"connected_time":1388000000000,"state":"active","ping":77},{"user_id":754,"name":"NewWorldBlues","steam_id":76561198823311447,"connected_time":1462000000000,"state":"active","ping":52},{"user_id":840,"name":"Lmaobox","steam_id":76561199506489424,"connected_time":83000000000,"state":"active","ping":140},{"user_id":829,"name":"bootlore","steam_id":76561198129538164,"connected_time":210000000000,"state":"active","ping":119},{"user_id":776,"name":"Lucide","steam_id":76561197998530400,"connected_time":1180000000000,"state":"active","ping":60},{"user_id":722,"name":"Kid named download","steam_id":76561199192074448,"connected_time":1726000000000,"state":"active","ping":121},{"user_id":844,"name":"lil hog","steam_id":76561199230929836,"connected_time":1000000000,"state":"spawning","ping":238},{"user_id":807,"name":"(1)sleepy","steam_id":76561198288663776,"connected_time":632000000000,"state":"active","ping":60},{"user_id":764,"name":"Squash","steam_id":76561198054254518,"connected_time":1425000000000,"state":"active","ping":132},{"user_id":834,"name":"Taskrabbits","steam_id":76561198366682546,"connected_time":157000000000,"state":"active","ping":139}]},{"server_id":119,"name":"Uncletopia | Seattle | 2 | All Maps","name_short":"sea-2","host":"sea-1.us.uncletopia.com","port":27025,"enabled":true,"region":"us-west","cc":"us","latitude":47.608013,"longitude":-122.33517,"reserved":0,"last_update":"0001-01-01T00:00:00Z","name_a2s":"Uncletopia | Seattle | 2 | All Maps","protocol":17,"map":"pl_borneo","folder":"tf","game":"Team Fortress","app_id":440,"player_count":24,"max_players":24,"Bots":0,"server_type":"Dedicated","server_os":"Linux","password":true,"vac":true,"version":"7961495","steam_id":85568392924469998,"keywords":["nocrits","nodmgspread","payload","uncletopia"],"game_id":440,"stv_port":27026,"stv_name":"Uncletopia | Seattle | 2 | All Maps | STV","players":[{"user_id":13,"name":"mine diam","steam_id":76561198119123981,"connected_time":3301000000000,"state":"active","ping":59},{"user_id":19,"name":"greens beans","steam_id":76561198153611491,"connected_time":2818000000000,"state":"active","ping":36},{"user_id":59,"name":"Cobruh Bubbles","steam_id":76561198134322282,"connected_time":752000000000,"state":"active","ping":90},{"user_id":21,"name":"Toastedtoast222","steam_id":76561198120756409,"connected_time":2523000000000,"state":"active","ping":44},{"user_id":25,"name":"Kipper","steam_id":76561198008515450,"connected_time":2274000000000,"state":"active","ping":64},{"user_id":27,"name":"The King of Piss World","steam_id":76561198082806956,"connected_time":2221000000000,"state":"active","ping":104},{"user_id":32,"name":"goofy goober","steam_id":76561199024079388,"connected_time":1904000000000,"state":"active","ping":46},{"user_id":29,"name":"Vitzenhauzer","steam_id":76561198116449787,"connected_time":2170000000000,"state":"active","ping":81},{"user_id":30,"name":"Pi-Pi","steam_id":76561198450073779,"connected_time":2109000000000,"state":"active","ping":44},{"user_id":65,"name":"Nom Skirrett","steam_id":76561198014600788,"connected_time":566000000000,"state":"active","ping":73},{"user_id":60,"name":"Biscuits","steam_id":76561197996207831,"connected_time":750000000000,"state":"active","ping":100},{"user_id":50,"name":"ATHEIST TIL I REALIZED I AM GOD","steam_id":76561199190800520,"connected_time":1323000000000,"state":"active","ping":42},{"user_id":61,"name":"SERGEANT BRICK","steam_id":76561198067911436,"connected_time":743000000000,"state":"active","ping":74},{"user_id":36,"name":"Other Players, My One Weakness","steam_id":76561197989247588,"connected_time":1788000000000,"state":"active","ping":76},{"user_id":37,"name":"ScoutBox","steam_id":76561198111539895,"connected_time":1769000000000,"state":"active","ping":76},{"user_id":51,"name":"BLANK3T They/He Femboy on THC","steam_id":76561198028875624,"connected_time":1299000000000,"state":"active","ping":53},{"user_id":68,"name":"Set","steam_id":76561198063949642,"connected_time":132000000000,"state":"active","ping":37},{"user_id":63,"name":"Mario","steam_id":76561198321794277,"connected_time":727000000000,"state":"active","ping":89},{"user_id":42,"name":"artemisjackson2","steam_id":76561199094686268,"connected_time":1558000000000,"state":"active","ping":105},{"user_id":67,"name":"T√ºCold","steam_id":76561198111278197,"connected_time":251000000000,"state":"active","ping":44},{"user_id":48,"name":"J O S H¬≥¬≤","steam_id":76561198122603779,"connected_time":1414000000000,"state":"active","ping":86},{"user_id":52,"name":"jojobinks613","steam_id":76561198841293111,"connected_time":1253000000000,"state":"active","ping":93},{"user_id":54,"name":"Julio Quantez","steam_id":76561198216600608,"connected_time":1095000000000,"state":"active","ping":76},{"user_id":64,"name":"jadene11","steam_id":76561199369221113,"connected_time":691000000000,"state":"active","ping":71}]},{"server_id":406,"name":"Uncletopia | Seattle | 3 | Stopwatch","name_short":"sea-3","host":"sea-1.us.uncletopia.com","port":27035,"enabled":true,"region":"us-west","cc":"us","latitude":47.608013,"longitude":-122.33517,"reserved":0,"last_update":"0001-01-01T00:00:00Z","name_a2s":"Uncletopia | Seattle | 3 | Stopwatch","protocol":17,"map":"pl_pier","folder":"tf","game":"Team Fortress","app_id":440,"player_count":0,"max_players":24,"Bots":0,"server_type":"Dedicated","server_os":"Linux","password":true,"vac":true,"version":"7961495","steam_id":85568392924515217,"keywords":["nocrits","nodmgspread","payload","uncletopia"],"game_id":440,"stv_port":27036,"stv_name":"Uncletopia | Seattle | 3 | Stopwatch | STV","players":null},{"server_id":17,"name":"Uncletopia | San Francisco | 1 | All Maps","name_short":"sfo-1","host":"sfo-1.us.uncletopia.com","port":27015,"enabled":true,"region":"us-west","cc":"us","latitude":37.77397,"longitude":-122.4313,"reserved":0,"last_update":"0001-01-01T00:00:00Z","name_a2s":"Uncletopia | San Francisco | 1 | All Maps","protocol":17,"map":"cp_snakewater_final1","folder":"tf","game":"Team Fortress","app_id":440,"player_count":22,"max_players":24,"Bots":0,"server_type":"Dedicated","server_os":"Linux","password":true,"vac":true,"version":"7961495","steam_id":85568392924469999,"keywords":["cp","nocrits","nodmgspread","uncletopia"],"game_id":440,"stv_port":27016,"stv_name":"Uncletopia | San Francisco | 1 | All Maps | STV","players":[{"user_id":71,"name":"Acrid","steam_id":76561199019742998,"connected_time":10000000000,"state":"spawning","ping":97},{"user_id":54,"name":"noceof","steam_id":76561198043656816,"connected_time":816000000000,"state":"active","ping":157},{"user_id":53,"name":"Quigi","steam_id":76561198144645874,"connected_time":977000000000,"state":"active","ping":68},{"user_id":67,"name":"mafia is mafia","steam_id":76561198042574722,"connected_time":244000000000,"state":"active","ping":65},{"user_id":48,"name":"ChoccyMiltank","steam_id":76561198981474284,"connected_time":1297000000000,"state":"active","ping":55},{"user_id":49,"name":"scrapheap","steam_id":76561198202407087,"connected_time":1194000000000,"state":"active","ping":121},{"user_id":56,"name":"Jimmy Fallon","steam_id":76561198069131730,"connected_time":767000000000,"state":"active","ping":96},{"user_id":62,"name":"TechnoBear2099","steam_id":76561198238863596,"connected_time":362000000000,"state":"active","ping":89},{"user_id":63,"name":"pjrock101","steam_id":76561198070616561,"connected_time":308000000000,"state":"active","ping":77},{"user_id":69,"name":"Jovo","steam_id":76561197993265970,"connected_time":110000000000,"state":"active","ping":60},{"user_id":65,"name":"newgrounds1004","steam_id":76561199471951160,"connected_time":284000000000,"state":"active","ping":87},{"user_id":59,"name":"erm... krill yourself?","steam_id":76561198095121758,"connected_time":596000000000,"state":"active","ping":44},{"user_id":22,"name":"Unlimited_Trees","steam_id":76561198299141443,"connected_time":2095000000000,"state":"active","ping":67},{"user_id":70,"name":"(1)ƒê√Ø…ê»ê…π…¶…Üa","steam_id":76561198981411945,"connected_time":49000000000,"state":"active","ping":45},{"user_id":68,"name":"Captain Underbelly","steam_id":76561198811270935,"connected_time":159000000000,"state":"active","ping":94},{"user_id":28,"name":"Amateur Glaswegian","steam_id":76561198030851956,"connected_time":1975000000000,"state":"active","ping":64},{"user_id":29,"name":"duddlee","steam_id":76561198030052564,"connected_time":1954000000000,"state":"active","ping":72},{"user_id":57,"name":"roody","steam_id":76561198066260405,"connected_time":620000000000,"state":"active","ping":71},{"user_id":36,"name":"mo wangs","steam_id":76561198045992418,"connected_time":1853000000000,"state":"active","ping":74},{"user_id":37,"name":"life","steam_id":76561198227112556,"connected_time":1852000000000,"state":"active","ping":61},{"user_id":46,"name":"Bestmaster202","steam_id":76561198235282680,"connected_time":1378000000000,"state":"active","ping":69},{"user_id":55,"name":"GalaxyDoug32","steam_id":76561197997126305,"connected_time":799000000000,"state":"active","ping":75}]},{"server_id":18,"name":"Uncletopia | San Francisco | 2 | All Maps","name_short":"sfo-2","host":"sfo-1.us.uncletopia.com","port":27025,"enabled":true,"region":"us-west","cc":"us","latitude":37.77397,"longitude":-122.4313,"reserved":0,"last_update":"0001-01-01T00:00:00Z","name_a2s":"Uncletopia | San Francisco | 2 | All Maps","protocol":17,"map":"cp_sunshine","folder":"tf","game":"Team Fortress","app_id":440,"player_count":0,"max_players":24,"Bots":0,"server_type":"Dedicated","server_os":"Linux","password":true,"vac":true,"version":"7961495","steam_id":85568392924470000,"keywords":["cp","nocrits","nodmgspread","uncletopia"],"game_id":440,"stv_port":27026,"stv_name":"Uncletopia | San Francisco | 2 | All Maps | STV","players":null},{"server_id":19,"name":"Uncletopia | San Francisco | 3 | Stopwatch","name_short":"sfo-3","host":"sfo-1.us.uncletopia.com","port":27035,"enabled":true,"region":"us-west","cc":"us","latitude":37.77397,"longitude":-122.4313,"reserved":0,"last_update":"0001-01-01T00:00:00Z","name_a2s":"Uncletopia | San Francisco | 3 | Stopwatch","protocol":17,"map":"pl_borneo","folder":"tf","game":"Team Fortress","app_id":440,"player_count":0,"max_players":24,"Bots":0,"server_type":"Dedicated","server_os":"Linux","password":true,"vac":true,"version":"7961495","steam_id":85568392924742824,"keywords":["nocrits","nodmgspread","payload","uncletopia"],"game_id":440,"stv_port":27036,"stv_name":"Uncletopia | San Francisco | 3 | Stopwatch | STV","players":null},{"server_id":20,"name":"Uncletopia | San Francisco | 4 | Community","name_short":"sfo-4","host":"sfo-1.us.uncletopia.com","port":27045,"enabled":true,"region":"us-west","cc":"us","latitude":37.77397,"longitude":-122.4313,"reserved":0,"last_update":"0001-01-01T00:00:00Z","name_a2s":"Uncletopia | San Francisco | 4 | Community","protocol":17,"map":"pl_pier","folder":"tf","game":"Team Fortress","app_id":440,"player_count":0,"max_players":24,"Bots":0,"server_type":"Dedicated","server_os":"Linux","password":true,"vac":true,"version":"7961495","steam_id":85568392924742826,"keywords":["nocrits","nodmgspread","payload","uncletopia"],"game_id":440,"stv_port":27046,"stv_name":"Uncletopia | San Francisco | 4 | Community | STV","players":null},{"server_id":141,"name":"Uncletopia | Sydney | 1 | All Maps","name_short":"syd-1","host":"syd-1.au.uncletopia.com","port":27015,"enabled":true,"region":"au","cc":"au","latitude":-33.865143,"longitude":151.2099,"reserved":0,"last_update":"0001-01-01T00:00:00Z","name_a2s":"Uncletopia | Sydney | 1 | All Maps","protocol":17,"map":"koth_viaduct","folder":"tf","game":"Team Fortress","app_id":440,"player_count":0,"max_players":24,"Bots":0,"server_type":"Dedicated","server_os":"Linux","password":true,"vac":true,"version":"7961495","steam_id":85568392924470001,"keywords":["cp","nocrits","nodmgspread","uncletopia"],"game_id":440,"stv_port":27016,"stv_name":"Uncletopia | Sydney | 1 | All Maps | STV","players":null},{"server_id":123,"name":"Uncletopia | Sydney | 2 | All Maps","name_short":"syd-2","host":"syd-1.au.uncletopia.com","port":27025,"enabled":true,"region":"au","cc":"au","latitude":-33.865143,"longitude":151.2099,"reserved":0,"last_update":"0001-01-01T00:00:00Z","name_a2s":"Uncletopia | Sydney | 2 | All Maps","protocol":17,"map":"koth_lakeside_final","folder":"tf","game":"Team Fortress","app_id":440,"player_count":0,"max_players":24,"Bots":0,"server_type":"Dedicated","server_os":"Linux","password":true,"vac":true,"version":"7961495","steam_id":85568392924470002,"keywords":["cp","nocrits","nodmgspread","uncletopia"],"game_id":440,"stv_port":27026,"stv_name":"Uncletopia | Sydney | 2 | All Maps | STV","players":null},{"server_id":395,"name":"Uncletopia | Sydney | 3 | All Maps","name_short":"syd-3","host":"syd-1.au.uncletopia.com","port":27035,"enabled":true,"region":"au","cc":"au","latitude":-33.865143,"longitude":151.2099,"reserved":0,"last_update":"0001-01-01T00:00:00Z","name_a2s":"Uncletopia | Sydney | 3 | All Maps","protocol":17,"map":"pl_frontier_final","folder":"tf","game":"Team Fortress","app_id":440,"player_count":0,"max_players":24,"Bots":0,"server_type":"Dedicated","server_os":"Linux","password":true,"vac":true,"version":"7961495","steam_id":85568392925194467,"keywords":["nocrits","nodmgspread","payload","uncletopia"],"game_id":440,"stv_port":27036,"stv_name":"Uncletopia | Sydney | 3 | All Maps | STV","players":null},{"server_id":396,"name":"Uncletopia | Sydney | 4 | All Maps","name_short":"syd-4","host":"syd-1.au.uncletopia.com","port":27045,"enabled":true,"region":"au","cc":"au","latitude":-33.865143,"longitude":151.2099,"reserved":0,"last_update":"0001-01-01T00:00:00Z","name_a2s":"Uncletopia | Sydney | 4 | All Maps","protocol":17,"map":"cp_process_final","folder":"tf","game":"Team Fortress","app_id":440,"player_count":0,"max_players":24,"Bots":0,"server_type":"Dedicated","server_os":"Linux","password":true,"vac":true,"version":"7961495","steam_id":85568392925397958,"keywords":["cp","nocrits","nodmgspread","uncletopia"],"game_id":440,"stv_port":27046,"stv_name":"Uncletopia | Sydney | 4 | All Maps | STV","players":null},{"server_id":58,"name":"Uncletopia | Sydney | 5 | Stopwatch","name_short":"syd-5","host":"syd-1.au.uncletopia.com","port":27055,"enabled":true,"region":"au","cc":"au","latitude":-33.865143,"longitude":151.2099,"reserved":0,"last_update":"0001-01-01T00:00:00Z","name_a2s":"Uncletopia | Sydney | 5 | Stopwatch","protocol":17,"map":"pl_frontier_final","folder":"tf","game":"Team Fortress","app_id":440,"player_count":0,"max_players":24,"Bots":0,"server_type":"Dedicated","server_os":"Linux","password":true,"vac":true,"version":"7961495","steam_id":85568392925397959,"keywords":["nocrits","nodmgspread","payload","uncletopia"],"game_id":440,"stv_port":27056,"stv_name":"Uncletopia | Sydney | 5 | Stopwatch | STV","players":null},{"server_id":59,"name":"Uncletopia | Sydney | 6 | Community","name_short":"syd-6","host":"syd-1.au.uncletopia.com","port":27065,"enabled":true,"region":"au","cc":"au","latitude":-33.865143,"longitude":151.2099,"reserved":0,"last_update":"0001-01-01T00:00:00Z","name_a2s":"Uncletopia | Sydney | 6 | Community","protocol":17,"map":"cp_sunshine","folder":"tf","game":"Team Fortress","app_id":440,"player_count":0,"max_players":24,"Bots":0,"server_type":"Dedicated","server_os":"Linux","password":true,"vac":true,"version":"7961495","steam_id":85568392925397960,"keywords":["cp","nocrits","nodmgspread","uncletopia"],"game_id":440,"stv_port":27066,"stv_name":"Uncletopia | Sydney | 6 | Community | STV","players":null},{"server_id":49,"name":"Uncletopia | Warsaw | 1 | One Thousand Uncles","name_short":"waw-1","host":"waw-1.pl.uncletopia.com","port":27015,"enabled":true,"region":"eu","cc":"pl","latitude":52.2297,"longitude":21.017532,"reserved":0,"last_update":"0001-01-01T00:00:00Z","name_a2s":"Uncletopia | Warsaw | 1 | One Thousand Uncles","protocol":17,"map":"cp_dustbowl","folder":"tf","game":"Team Fortress","app_id":440,"player_count":0,"max_players":32,"Bots":0,"server_type":"Dedicated","server_os":"Linux","password":true,"vac":true,"version":"7961495","steam_id":85568392925397850,"keywords":["alltalk","cp","danepve","increased_maxplayers","nocrits","norespawntime","uncletopia"],"game_id":440,"stv_port":0,"stv_name":"","players":null},{"server_id":50,"name":"Uncletopia | Warsaw | 2 | One Thousand Uncles","name_short":"waw-2","host":"waw-1.pl.uncletopia.com","port":27025,"enabled":true,"region":"eu","cc":"pl","latitude":52.2297,"longitude":21.017532,"reserved":0,"last_update":"0001-01-01T00:00:00Z","name_a2s":"Uncletopia | Warsaw | 2 | One Thousand Uncles","protocol":17,"map":"pl_goldrush","folder":"tf","game":"Team Fortress","app_id":440,"player_count":0,"max_players":32,"Bots":0,"server_type":"Dedicated","server_os":"Linux","password":true,"vac":true,"version":"7961495","steam_id":85568392925397851,"keywords":["alltalk","danepve","increased_maxplayers","nocrits","norespawntime","payload","uncletopia"],"game_id":440,"stv_port":0,"stv_name":"","players":null},{"server_id":51,"name":"Uncletopia | Warsaw | 3 | All Maps","name_short":"waw-3","host":"waw-1.pl.uncletopia.com","port":27035,"enabled":true,"region":"eu","cc":"pl","latitude":52.2297,"longitude":21.017532,"reserved":0,"last_update":"0001-01-01T00:00:00Z","name_a2s":"Uncletopia | Warsaw | 3 | All Maps","protocol":17,"map":"cp_process_final","folder":"tf","game":"Team Fortress","app_id":440,"player_count":0,"max_players":24,"Bots":0,"server_type":"Dedicated","server_os":"Linux","password":true,"vac":true,"version":"7961495","steam_id":85568392925397852,"keywords":["cp","nocrits","nodmgspread","uncletopia"],"game_id":440,"stv_port":27036,"stv_name":"Uncletopia | Warsaw | 3 | All Maps | STV","players":null},{"server_id":52,"name":"Uncletopia | Warsaw | 4 | All Maps","name_short":"waw-4","host":"waw-1.pl.uncletopia.com","port":27045,"enabled":true,"region":"eu","cc":"pl","latitude":52.2297,"longitude":21.017532,"reserved":0,"last_update":"0001-01-01T00:00:00Z","name_a2s":"Uncletopia | Warsaw | 4 | All Maps","protocol":17,"map":"pl_snowycoast","folder":"tf","game":"Team Fortress","app_id":440,"player_count":0,"max_players":24,"Bots":0,"server_type":"Dedicated","server_os":"Linux","password":true,"vac":true,"version":"7961495","steam_id":85568392925397853,"keywords":["nocrits","nodmgspread","payload","uncletopia"],"game_id":440,"stv_port":27046,"stv_name":"Uncletopia | Warsaw | 4 | All Maps | STV","players":null},{"server_id":53,"name":"Uncletopia | Warsaw | 5 | Stopwatch","name_short":"waw-5","host":"waw-1.pl.uncletopia.com","port":27055,"enabled":true,"region":"eu","cc":"pl","latitude":52.2297,"longitude":21.017532,"reserved":0,"last_update":"0001-01-01T00:00:00Z","name_a2s":"Uncletopia | Warsaw | 5 | Stopwatch","protocol":17,"map":"koth_lakeside_final","folder":"tf","game":"Team Fortress","app_id":440,"player_count":0,"max_players":24,"Bots":0,"server_type":"Dedicated","server_os":"Linux","password":true,"vac":true,"version":"7961495","steam_id":85568392925397854,"keywords":["cp","nocrits","nodmgspread","uncletopia"],"game_id":440,"stv_port":27056,"stv_name":"Uncletopia | Warsaw | 5 | Stopwatch | STV","players":null},{"server_id":54,"name":"Uncletopia | Warsaw | 6 | Community","name_short":"waw-6","host":"waw-1.pl.uncletopia.com","port":27065,"enabled":true,"region":"eu","cc":"pl","latitude":52.2297,"longitude":21.017532,"reserved":0,"last_update":"0001-01-01T00:00:00Z","name_a2s":"Uncletopia | Warsaw | 6 | Community","protocol":17,"map":"workshop/pl_corrode_rc2.ugc546577989","folder":"tf","game":"Team Fortress","app_id":440,"player_count":0,"max_players":24,"Bots":0,"server_type":"Dedicated","server_os":"Linux","password":true,"vac":true,"version":"7961495","steam_id":85568392925397856,"keywords":["nocrits","nodmgspread","payload","uncletopia"],"game_id":440,"stv_port":27066,"stv_name":"Uncletopia | Warsaw | 6 | Community | STV","players":null}]}