{"status":true,"message":"","result":[{"server_id":9,"name":"Uncletopia | Atlanta | 1 | All Maps","name_short":"atl-1","host":"atl-1.us.uncletopia.com","port":27015,"enabled":true,"region":"us-east","cc":"us","latitude":33.753746,"longitude":-84.38633,"reserved":0,"last_update":"0001-01-01T00:00:00Z","name_a2s":"Uncletopia | Atlanta | 1 | All Maps","protocol":17,"map":"koth_cascade","folder":"tf","game":"Team Fortress","app_id":440,"player_count":0,"max_players":24,"Bots":0,"server_type":"Dedicated","server_os":"Linux","password":true,"vac":true,"version":"7757534","steam_id":85568392924469982,"keywords":["cp","nocrits","nodmgspread","uncletopia"],"game_id":440,"stv_port":27016,"stv_name":"Uncletopia | Atlanta | 1 | All Maps | STV","players":null},{"server_id":104,"name":"Uncletopia | Atlanta | 2 | All Maps","name_short":"atl-2","host":"atl-1.us.uncletopia.com","port":27025,"enabled":true,"region":"us-east","cc":"us","latitude":33.753746,"longitude":-84.38633,"reserved":0,"last_update":"0001-01-01T00:00:00Z","name_a2s":"Uncletopia | Atlanta | 2 | All Maps","protocol":17,"map":"cp_dustbowl","folder":"tf","game":"Team Fortress","app_id":440,"player_count":0,"max_players":24,"Bots":0,"server_type":"Dedicated","server_os":"Linux","password":true,"vac":true,"version":"7757534","steam_id":85568392924469983,"keywords":["cp","nocrits","nodmgspread","uncletopia"],"game_id":440,"stv_port":27026,"stv_name":"Uncletopia | Atlanta | 2 | All Maps | STV","players":null},{"server_id":400,"name":"Uncletopia | Atlanta | 3 | Community","name_short":"atl-3","host":"atl-1.us.uncletopia.com","port":27035,"enabled":true,"region":"us-east","cc":"us","latitude":33.753746,"longitude":-84.38633,"reserved":0,"last_update":"0001-01-01T00:00:00Z","name_a2s":"Uncletopia | Atlanta | 3 | Community","protocol":17,"map":"cp_snakewater_final1","folder":"tf","game":"Team Fortress","app_id":440,"player_count":0,"max_players":24,"Bots":0,"server_type":"Dedicated","server_os":"Linux","password":true,"vac":true,"version":"7757534","steam_id":85568392924515187,"keywords":["cp","nocrits","nodmgspread","uncletopia"],"game_id":440,"stv_port":27036,"stv_name":"Uncletopia | Atlanta | 3 | Community | STV","players":null},{"server_id":401,"name":"Uncletopia | Atlanta | 4 | No Payload","name_short":"atl-4","host":"atl-1.us.uncletopia.com","port":27045,"enabled":true,"region":"us-east","cc":"us","latitude":33.753746,"longitude":-84.38633,"reserved":0,"last_update":"0001-01-01T00:00:00Z","name_a2s":"","protocol":0,"map":"","folder":"","game":"","app_id":0,"player_count":0,"max_players":0,"Bots":0,"server_type":"","server_os":"","password":false,"vac":false,"version":"","steam_id":0,"keywords":null,"game_id":0,"stv_port":0,"stv_name":"","players":null},{"server_id":2,"name":"Uncletopia | Chicago | 1 | All Maps","name_short":"chi-1","host":"chi-1.us.uncletopia.com","port":27015,"enabled":true,"region":"us-central","cc":"us","latitude":41.881832,"longitude":-87.62318,"reserved":0,"last_update":"0001-01-01T00:00:00Z","name_a2s":"Uncletopia | Chicago | 1 | All Maps","protocol":17,"map":"pl_barnblitz","folder":"tf","game":"Team Fortress","app_id":440,"player_count":20,"max_players":24,"Bots":0,"server_type":"Dedicated","server_os":"Linux","password":true,"vac":true,"version":"7757534","steam_id":85568392924469984,"keywords":["nocrits","nodmgspread","payload","uncletopia"],"game_id":440,"stv_port":27016,"stv_name":"Uncletopia | Chicago | 1 | All Maps | STV","players":[{"user_id":15,"name":"gob","steam_id":76561199182212668,"connected_time":736000000000,"state":"active","ping":68},{"user_id":26,"name":"SeaBass","steam_id":76561197982949108,"connected_time":390000000000,"state":"active","ping":70},{"user_id":24,"name":"jackirosss","steam_id":76561199403718993,"connected_time":497000000000,"state":"active","ping":84},{"user_id":11,"name":"manbearswineflu","steam_id":76561198083945137,"connected_time":818000000000,"state":"active","ping":62},{"user_id":8,"name":"The Great Eagle Scourge of 1822","steam_id":76561198325086209,"connected_time":931000000000,"state":"active","ping":109},{"user_id":9,"name":"i really like this dog :)","steam_id":76561198882404753,"connected_time":927000000000,"state":"active","ping":79},{"user_id":10,"name":"Doctor Bear ʕ •ᴥ•ʔ","steam_id":76561197968103161,"connected_time":904000000000,"state":"active","ping":118},{"user_id":12,"name":"Tom","steam_id":76561197976965430,"connected_time":800000000000,"state":"active","ping":59},{"user_id":30,"name":"SCARY MONSTERS","steam_id":76561198042034176,"connected_time":249000000000,"state":"active","ping":61},{"user_id":14,"name":"ᴷᵒˢʰᵏᵃ","steam_id":76561198102045762,"connected_time":795000000000,"state":"active","ping":72},{"user_id":20,"name":"Smug","steam_id":76561198448205229,"connected_time":585000000000,"state":"active","ping":98},{"user_id":21,"name":"GODZILLA","steam_id":76561198016943111,"connected_time":555000000000,"state":"active","ping":55},{"user_id":22,"name":"Romo","steam_id":76561198243101572,"connected_time":523000000000,"state":"active","ping":84},{"user_id":27,"name":"Rabblerouser","steam_id":76561198127930963,"connected_time":338000000000,"state":"active","ping":100},{"user_id":31,"name":"Velvet","steam_id":76561199187523987,"connected_time":190000000000,"state":"active","ping":109},{"user_id":32,"name":"Bro Stfu","steam_id":76561199091507835,"connected_time":113000000000,"state":"active","ping":72},{"user_id":33,"name":"Mendo","steam_id":76561198068884273,"connected_time":102000000000,"state":"active","ping":68},{"user_id":34,"name":"HumFreY","steam_id":76561198076639682,"connected_time":58000000000,"state":"active","ping":72},{"user_id":35,"name":"theRainyMute","steam_id":76561198127625760,"connected_time":34000000000,"state":"active","ping":64},{"user_id":36,"name":"O o g","steam_id":76561199267535506,"connected_time":9000000000,"state":"spawning","ping":109}]},{"server_id":106,"name":"Uncletopia | Chicago | 2 | All Maps","name_short":"chi-2","host":"chi-1.us.uncletopia.com","port":27025,"enabled":true,"region":"us-central","cc":"us","latitude":41.881832,"longitude":-87.62318,"reserved":0,"last_update":"0001-01-01T00:00:00Z","name_a2s":"Uncletopia | Chicago | 2 | All Maps","protocol":17,"map":"pl_pier","folder":"tf","game":"Team Fortress","app_id":440,"player_count":24,"max_players":24,"Bots":0,"server_type":"Dedicated","server_os":"Linux","password":true,"vac":true,"version":"7757534","steam_id":85568392924469985,"keywords":["nocrits","nodmgspread","payload","uncletopia"],"game_id":440,"stv_port":27026,"stv_name":"Uncletopia | Chicago | 2 | All Maps | STV","players":[{"user_id":79,"name":"The Horselords and Animal Gods","steam_id":76561197975094050,"connected_time":879000000000,"state":"active","ping":106},{"user_id":39,"name":":^|","steam_id":76561198119826352,"connected_time":3356000000000,"state":"active","ping":74},{"user_id":7,"name":"occi","steam_id":76561198046864204,"connected_time":5823000000000,"state":"active","ping":80},{"user_id":8,"name":"DiamondDragon","steam_id":76561198979733214,"connected_time":5749000000000,"state":"active","ping":133},{"user_id":45,"name":"BTS | Bumbler","steam_id":76561198048895038,"connected_time":3071000000000,"state":"active","ping":78},{"user_id":62,"name":"Womp","steam_id":76561198245103000,"connected_time":1801000000000,"state":"active","ping":69},{"user_id":85,"name":"Proof by close enough","steam_id":76561198083345384,"connected_time":343000000000,"state":"active","ping":84},{"user_id":57,"name":"boulder","steam_id":76561198347225801,"connected_time":2117000000000,"state":"active","ping":109},{"user_id":77,"name":"BasicPeaches","steam_id":76561198190890150,"connected_time":889000000000,"state":"active","ping":76},{"user_id":58,"name":"Zumano","steam_id":76561198356835924,"connected_time":2064000000000,"state":"active","ping":146},{"user_id":29,"name":"DualiTea","steam_id":76561198081733870,"connected_time":3718000000000,"state":"active","ping":45},{"user_id":63,"name":"fetus eater #savetf2","steam_id":76561198294366854,"connected_time":1771000000000,"state":"active","ping":87},{"user_id":86,"name":"lard","steam_id":76561198327199795,"connected_time":214000000000,"state":"active","ping":75},{"user_id":22,"name":"Yummy Kabobz","steam_id":76561198067661705,"connected_time":4087000000000,"state":"active","ping":59},{"user_id":80,"name":"mrselfdestruct13","steam_id":76561197992054553,"connected_time":795000000000,"state":"active","ping":77},{"user_id":65,"name":"Cringe Guillotine User","steam_id":76561198997067030,"connected_time":1406000000000,"state":"active","ping":89},{"user_id":81,"name":"Kiss Master","steam_id":76561198289572271,"connected_time":778000000000,"state":"active","ping":74},{"user_id":26,"name":"Phyzisist","steam_id":76561197983915993,"connected_time":3963000000000,"state":"active","ping":83},{"user_id":74,"name":"bappo","steam_id":76561199294792123,"connected_time":903000000000,"state":"active","ping":50},{"user_id":72,"name":"creepycrawler","steam_id":76561198352016831,"connected_time":915000000000,"state":"active","ping":60},{"user_id":76,"name":"Yume","steam_id":76561198018060136,"connected_time":894000000000,"state":"active","ping":73},{"user_id":82,"name":"popfulmail","steam_id":76561198865971290,"connected_time":774000000000,"state":"active","ping":93},{"user_id":61,"name":"William Wallace","steam_id":76561199343316814,"connected_time":1869000000000,"state":"active","ping":72},{"user_id":69,"name":"SuperFresh","steam_id":76561198200723198,"connected_time":1226000000000,"state":"active","ping":45}]},{"server_id":402,"name":"Uncletopia | Chicago | 3 | All Maps","name_short":"chi-3","host":"chi-1.us.uncletopia.com","port":27035,"enabled":true,"region":"us-central","cc":"us","latitude":41.881832,"longitude":-87.62318,"reserved":0,"last_update":"0001-01-01T00:00:00Z","name_a2s":"Uncletopia | Chicago | 3 | All Maps","protocol":17,"map":"cp_dustbowl","folder":"tf","game":"Team Fortress","app_id":440,"player_count":2,"max_players":24,"Bots":0,"server_type":"Dedicated","server_os":"Linux","password":true,"vac":true,"version":"7757534","steam_id":85568392924515191,"keywords":["cp","nocrits","nodmgspread","uncletopia"],"game_id":440,"stv_port":27036,"stv_name":"Uncletopia | Chicago | 3 | All Maps | STV","players":[{"user_id":3,"name":"mksezer","steam_id":76561199049726708,"connected_time":741000000000,"state":"active","ping":197},{"user_id":4,"name":"pr4242","steam_id":76561199383650165,"connected_time":731000000000,"state":"active","ping":188}]},{"server_id":403,"name":"Uncletopia | Chicago | 4 | All Maps","name_short":"chi-4","host":"chi-1.us.uncletopia.com","port":27045,"enabled":true,"region":"us-central","cc":"us","latitude":41.881832,"longitude":-87.62318,"reserved":0,"last_update":"0001-01-01T00:00:00Z","name_a2s":"Uncletopia | Chicago | 4 | All Maps","protocol":17,"map":"cp_mountainlab","folder":"tf","game":"Team Fortress","app_id":440,"player_count":0,"max_players":24,"Bots":0,"server_type":"Dedicated","server_os":"Linux","password":true,"vac":true,"version":"7757534","steam_id":85568392924515193,"keywords":["cp","nocrits","nodmgspread","uncletopia"],"game_id":440,"stv_port":27046,"stv_name":"Uncletopia | Chicago | 4 | All Maps | STV","players":null},{"server_id":36,"name":"Uncletopia | Chicago | 5 | All Maps","name_short":"chi-5","host":"chi-2.us.uncletopia.com","port":27015,"enabled":true,"region":"us-central","cc":"us","latitude":41.881832,"longitude":-87.62318,"reserved":0,"last_update":"0001-01-01T00:00:00Z","name_a2s":"Uncletopia | Chicago | 5 | All Maps","protocol":17,"map":"koth_cascade","folder":"tf","game":"Team Fortress","app_id":440,"player_count":0,"max_players":24,"Bots":0,"server_type":"Dedicated","server_os":"Linux","password":true,"vac":true,"version":"7757534","steam_id":85568392924866362,"keywords":["cp","nocrits","nodmgspread","uncletopia"],"game_id":440,"stv_port":27016,"stv_name":"Uncletopia | Chicago | 5 | All Maps | STV","players":null},{"server_id":37,"name":"Uncletopia | Chicago | 6 | All Maps","name_short":"chi-6","host":"chi-2.us.uncletopia.com","port":27025,"enabled":true,"region":"us-central","cc":"us","latitude":41.881832,"longitude":-87.62318,"reserved":0,"last_update":"0001-01-01T00:00:00Z","name_a2s":"Uncletopia | Chicago | 6 | All Maps","protocol":17,"map":"pl_borneo","folder":"tf","game":"Team Fortress","app_id":440,"player_count":0,"max_players":24,"Bots":0,"server_type":"Dedicated","server_os":"Linux","password":true,"vac":true,"version":"7757534","steam_id":85568392924866363,"keywords":["nocrits","nodmgspread","payload","uncletopia"],"game_id":440,"stv_port":27026,"stv_name":"Uncletopia | Chicago | 6 | All Maps | STV","players":null},{"server_id":38,"name":"Uncletopia | Chicago | 7 | Stopwatch Beta","name_short":"chi-7","host":"chi-2.us.uncletopia.com","port":27035,"enabled":true,"region":"us-central","cc":"us","latitude":41.881832,"longitude":-87.62318,"reserved":0,"last_update":"0001-01-01T00:00:00Z","name_a2s":"Uncletopia | Chicago | 7 | Stopwatch Beta","protocol":17,"map":"pl_barnblitz","folder":"tf","game":"Team Fortress","app_id":440,"player_count":0,"max_players":24,"Bots":0,"server_type":"Dedicated","server_os":"Linux","password":true,"vac":true,"version":"7757534","steam_id":85568392924866364,"keywords":["nocrits","nodmgspread","payload","uncletopia"],"game_id":440,"stv_port":27036,"stv_name":"Uncletopia | Chicago | 7 | Stopwatch Beta | STV","players":null},{"server_id":39,"name":"Uncletopia | Chicago | 8 | Community","name_short":"chi-8","host":"chi-2.us.uncletopia.com","port":27045,"enabled":true,"region":"us-central","cc":"us","latitude":41.881832,"longitude":-87.62318,"reserved":0,"last_update":"0001-01-01T00:00:00Z","name_a2s":"Uncletopia | Chicago | 8 | Community","protocol":17,"map":"koth_cascade","folder":"tf","game":"Team Fortress","app_id":440,"player_count":0,"max_players":24,"Bots":0,"server_type":"Dedicated","server_os":"Linux","password":true,"vac":true,"version":"7757534","steam_id":85568392924866365,"keywords":["cp","nocrits","nodmgspread","uncletopia"],"game_id":440,"stv_port":27046,"stv_name":"Uncletopia | Chicago | 8 | Community | STV","players":null},{"server_id":8,"name":"Uncletopia | Dallas | 1 | All Maps","name_short":"dal-1","host":"dal-1.us.uncletopia.com","port":27015,"enabled":true,"region":"us-central","cc":"us","latitude":32.779167,"longitude":-96.80889,"reserved":0,"last_update":"0001-01-01T00:00:00Z","name_a2s":"Uncletopia | Dallas | 1 | All Maps","protocol":17,"map":"koth_cascade","folder":"tf","game":"Team Fortress","app_id":440,"player_count":0,"max_players":24,"Bots":0,"server_type":"Dedicated","server_os":"Linux","password":true,"vac":true,"version":"7757534","steam_id":85568392924469986,"keywords":["cp","nocrits","nodmgspread","uncletopia"],"game_id":440,"stv_port":27016,"stv_name":"Uncletopia | Dallas | 1 | All Maps | STV","players":null},{"server_id":108,"name":"Uncletopia | Dallas | 2 | All Maps","name_short":"dal-2","host":"dal-1.us.uncletopia.com","port":27025,"enabled":true,"region":"us-central","cc":"us","latitude":32.779167,"longitude":-96.80889,"reserved":0,"last_update":"0001-01-01T00:00:00Z","name_a2s":"Uncletopia | Dallas | 2 | All Maps","protocol":17,"map":"pl_upward","folder":"tf","game":"Team Fortress","app_id":440,"player_count":0,"max_players":24,"Bots":0,"server_type":"Dedicated","server_os":"Linux","password":true,"vac":true,"version":"7757534","steam_id":85568392924469988,"keywords":["nocrits","nodmgspread","payload","uncletopia"],"game_id":440,"stv_port":27026,"stv_name":"Uncletopia | Dallas | 2 | All Maps | STV","players":null},{"server_id":5,"name":"Uncletopia | Frankfurt | 1 | All Maps","name_short":"frk-1","host":"frk-1.de.uncletopia.com","port":27015,"enabled":true,"region":"eu","cc":"de","latitude":50.110924,"longitude":8.682127,"reserved":0,"last_update":"0001-01-01T00:00:00Z","name_a2s":"Uncletopia | Frankfurt | 1 | All Maps","protocol":17,"map":"cp_mountainlab","folder":"tf","game":"Team Fortress","app_id":440,"player_count":0,"max_players":24,"Bots":0,"server_type":"Dedicated","server_os":"Linux","password":true,"vac":true,"version":"7757534","steam_id":85568392924469989,"keywords":["cp","nocrits","nodmgspread","uncletopia"],"game_id":440,"stv_port":27016,"stv_name":"Uncletopia | Frankfurt | 1 | All Maps | STV","players":null},{"server_id":110,"name":"Uncletopia | Frankfurt | 2 | All Maps","name_short":"frk-2","host":"frk-1.de.uncletopia.com","port":27025,"enabled":true,"region":"eu","cc":"de","latitude":50.110924,"longitude":8.682127,"reserved":0,"last_update":"0001-01-01T00:00:00Z","name_a2s":"Uncletopia | Frankfurt | 2 | All Maps","protocol":17,"map":"pl_upward","folder":"tf","game":"Team Fortress","app_id":440,"player_count":24,"max_players":24,"Bots":0,"server_type":"Dedicated","server_os":"Linux","password":true,"vac":true,"version":"7757534","steam_id":85568392924469990,"keywords":["nocrits","nodmgspread","payload","uncletopia"],"game_id":440,"stv_port":27026,"stv_name":"Uncletopia | Frankfurt | 2 | All Maps | STV","players":[{"user_id":128,"name":"Xriasp","steam_id":76561198104721321,"connected_time":56000000000,"state":"active","ping":75},{"user_id":119,"name":"Maxim Prime","steam_id":76561198001342231,"connected_time":978000000000,"state":"active","ping":73},{"user_id":117,"name":"MoeruKurowassan","steam_id":76561198319349647,"connected_time":1070000000000,"state":"active","ping":84},{"user_id":99,"name":"That Phlog mfer","steam_id":76561198050416948,"connected_time":2288000000000,"state":"active","ping":57},{"user_id":86,"name":"Sarah Obama Michella","steam_id":76561198078996559,"connected_time":2909000000000,"state":"active","ping":73},{"user_id":109,"name":"Big choke daddy","steam_id":76561197986387044,"connected_time":1861000000000,"state":"active","ping":58},{"user_id":125,"name":"Spinyapickle","steam_id":76561198086653667,"connected_time":505000000000,"state":"active","ping":64},{"user_id":41,"name":"Digio","steam_id":76561199065101964,"connected_time":5093000000000,"state":"active","ping":84},{"user_id":105,"name":"Stroz","steam_id":76561198146444213,"connected_time":1969000000000,"state":"active","ping":71},{"user_id":124,"name":"Rat, the ungodly rat #SaveTF2","steam_id":76561199126577423,"connected_time":544000000000,"state":"active","ping":61},{"user_id":126,"name":"Kvikk","steam_id":76561198063104117,"connected_time":451000000000,"state":"active","ping":91},{"user_id":127,"name":"G6 sherlock","steam_id":76561198802967796,"connected_time":441000000000,"state":"active","ping":119},{"user_id":120,"name":"Ablativus","steam_id":76561198025698470,"connected_time":882000000000,"state":"active","ping":68},{"user_id":88,"name":"dunduu","steam_id":76561198875240717,"connected_time":2815000000000,"state":"active","ping":67},{"user_id":122,"name":"Flying skyhigh","steam_id":76561198372971096,"connected_time":733000000000,"state":"active","ping":80},{"user_id":93,"name":"OutOfRage","steam_id":76561198211205791,"connected_time":2428000000000,"state":"active","ping":45},{"user_id":123,"name":"GoudAI","steam_id":76561198103391197,"connected_time":660000000000,"state":"active","ping":90},{"user_id":94,"name":"old slimey ichabod","steam_id":76561198043900518,"connected_time":2406000000000,"state":"active","ping":148},{"user_id":113,"name":"on1on (fried)","steam_id":76561197995304137,"connected_time":1344000000000,"state":"active","ping":62},{"user_id":95,"name":"[T]aKer","steam_id":76561198001778013,"connected_time":2392000000000,"state":"active","ping":52},{"user_id":107,"name":"JoltStryke","steam_id":76561198072955299,"connected_time":1936000000000,"state":"active","ping":79},{"user_id":106,"name":"Pancake lover","steam_id":76561199137392321,"connected_time":1950000000000,"state":"active","ping":55},{"user_id":116,"name":"Hyperek","steam_id":76561198130797464,"connected_time":1201000000000,"state":"active","ping":91},{"user_id":110,"name":"Mean-tweet Necromancer","steam_id":76561198050018221,"connected_time":1732000000000,"state":"active","ping":48}]},{"server_id":308,"name":"Uncletopia | Frankfurt | 3 | All Maps","name_short":"frk-3","host":"frk-1.de.uncletopia.com","port":27035,"enabled":true,"region":"eu","cc":"de","latitude":50.110924,"longitude":8.682127,"reserved":0,"last_update":"0001-01-01T00:00:00Z","name_a2s":"Uncletopia | Frankfurt | 3 | All Maps","protocol":17,"map":"cp_snakewater_final1","folder":"tf","game":"Team Fortress","app_id":440,"player_count":2,"max_players":24,"Bots":0,"server_type":"Dedicated","server_os":"Linux","password":true,"vac":true,"version":"7757534","steam_id":85568392924504274,"keywords":["cp","nocrits","nodmgspread","uncletopia"],"game_id":440,"stv_port":27036,"stv_name":"Uncletopia | Frankfurt | 3 | All Maps | STV","players":[{"user_id":9,"name":"Dim","steam_id":76561198141549249,"connected_time":263000000000,"state":"active","ping":141},{"user_id":10,"name":"dogburg","steam_id":76561199248912868,"connected_time":243000000000,"state":"active","ping":71}]},{"server_id":309,"name":"Uncletopia | Frankfurt | 4 | All Maps","name_short":"frk-4","host":"frk-1.de.uncletopia.com","port":27045,"enabled":true,"region":"eu","cc":"de","latitude":50.110924,"longitude":8.682127,"reserved":0,"last_update":"0001-01-01T00:00:00Z","name_a2s":"Uncletopia | Frankfurt | 4 | All Maps","protocol":17,"map":"pl_snowycoast","folder":"tf","game":"Team Fortress","app_id":440,"player_count":25,"max_players":24,"Bots":0,"server_type":"Dedicated","server_os":"Linux","password":true,"vac":true,"version":"7757534","steam_id":85568392924504275,"keywords":["nocrits","nodmgspread","payload","uncletopia"],"game_id":440,"stv_port":27046,"stv_name":"Uncletopia | Frankfurt | 4 | All Maps | STV","players":[{"user_id":480,"name":"RobTheKid","steam_id":76561198346638308,"connected_time":1124000000000,"state":"active","ping":64},{"user_id":497,"name":"Egap","steam_id":76561199070653454,"connected_time":42000000000,"state":"active","ping":84},{"user_id":472,"name":"Ixion","steam_id":76561198041660675,"connected_time":1755000000000,"state":"active","ping":74},{"user_id":453,"name":"robsan","steam_id":76561198137375391,"connected_time":3497000000000,"state":"active","ping":64},{"user_id":482,"name":"Boom","steam_id":76561198809430255,"connected_time":1072000000000,"state":"active","ping":47},{"user_id":493,"name":"lard","steam_id":76561198327199795,"connected_time":234000000000,"state":"connecting","ping":0},{"user_id":467,"name":"I am a box","steam_id":76561199184671939,"connected_time":2078000000000,"state":"active","ping":106},{"user_id":454,"name":"Doctor Marijuana","steam_id":76561198288289879,"connected_time":3494000000000,"state":"active","ping":65},{"user_id":432,"name":"Enigmus","steam_id":76561197994063627,"connected_time":4543000000000,"state":"active","ping":79},{"user_id":478,"name":"B.batt","steam_id":76561198998684199,"connected_time":1369000000000,"state":"active","ping":116},{"user_id":446,"name":"-Boomer-","steam_id":76561197970798571,"connected_time":3589000000000,"state":"active","ping":77},{"user_id":354,"name":"Mac Bean","steam_id":76561198133782205,"connected_time":11339000000000,"state":"active","ping":131},{"user_id":495,"name":"W*","steam_id":76561197972244657,"connected_time":139000000000,"state":"active","ping":58},{"user_id":485,"name":"Goku Eduardo","steam_id":76561199081356069,"connected_time":981000000000,"state":"active","ping":176},{"user_id":487,"name":"JeanCorben","steam_id":76561197965133561,"connected_time":869000000000,"state":"active","ping":45},{"user_id":473,"name":"Dolcelatte","steam_id":76561198038501770,"connected_time":1735000000000,"state":"active","ping":50},{"user_id":469,"name":"Fallen Dog","steam_id":76561198851387188,"connected_time":2029000000000,"state":"active","ping":64},{"user_id":489,"name":"[Walmart] HatsuneMiku","steam_id":76561198843075093,"connected_time":654000000000,"state":"active","ping":86},{"user_id":459,"name":"juckport","steam_id":76561198211967715,"connected_time":2588000000000,"state":"active","ping":90},{"user_id":435,"name":"WinterPhresh | RIP Merp","steam_id":76561198056987501,"connected_time":4383000000000,"state":"active","ping":178},{"user_id":463,"name":"Glitch","steam_id":76561198309789756,"connected_time":2335000000000,"state":"active","ping":66},{"user_id":437,"name":"niko","steam_id":76561198880704263,"connected_time":4334000000000,"state":"active","ping":186},{"user_id":471,"name":"holykyckling","steam_id":76561198040661615,"connected_time":1866000000000,"state":"active","ping":79},{"user_id":490,"name":"kotamine","steam_id":76561198068907991,"connected_time":651000000000,"state":"active","ping":70},{"user_id":496,"name":"YoursTruly","steam_id":76561199102839784,"connected_time":69000000000,"state":"active","ping":197}]},{"server_id":310,"name":"Uncletopia | Frankfurt | 5 | All Maps","name_short":"frk-5","host":"frk-1.de.uncletopia.com","port":27055,"enabled":true,"region":"eu","cc":"de","latitude":50.110924,"longitude":8.682127,"reserved":0,"last_update":"0001-01-01T00:00:00Z","name_a2s":"Uncletopia | Frankfurt | 5 | All Maps","protocol":17,"map":"pl_barnblitz","folder":"tf","game":"Team Fortress","app_id":440,"player_count":24,"max_players":24,"Bots":0,"server_type":"Dedicated","server_os":"Linux","password":true,"vac":true,"version":"7757534","steam_id":85568392924504277,"keywords":["nocrits","nodmgspread","payload","uncletopia"],"game_id":440,"stv_port":27056,"stv_name":"Uncletopia | Frankfurt | 5 | All Maps | STV","players":[{"user_id":127,"name":":weed:","steam_id":76561198388750592,"connected_time":434000000000,"state":"active","ping":57},{"user_id":112,"name":"Lessoz","steam_id":76561199211572036,"connected_time":1706000000000,"state":"active","ping":90},{"user_id":126,"name":"dust","steam_id":76561198293557665,"connected_time":453000000000,"state":"active","ping":115},{"user_id":136,"name":"lunaire","steam_id":76561198163344452,"connected_time":226000000000,"state":"active","ping":75},{"user_id":95,"name":"goktwoxd","steam_id":76561198065114415,"connected_time":3374000000000,"state":"active","ping":74},{"user_id":120,"name":"RIFT","steam_id":76561198991622379,"connected_time":1595000000000,"state":"active","ping":55},{"user_id":97,"name":"MAKENTAKEN","steam_id":76561199127359587,"connected_time":3364000000000,"state":"active","ping":97},{"user_id":133,"name":"After8","steam_id":76561198090750865,"connected_time":381000000000,"state":"active","ping":64},{"user_id":113,"name":"yeldad","steam_id":76561198447264153,"connected_time":1676000000000,"state":"active","ping":121},{"user_id":16,"name":"Balls","steam_id":76561198086400484,"connected_time":8198000000000,"state":"active","ping":75},{"user_id":130,"name":"quickfast","steam_id":76561199438900919,"connected_time":425000000000,"state":"active","ping":59},{"user_id":75,"name":"meatsoupcube","steam_id":76561198276802249,"connected_time":5181000000000,"state":"active","ping":108},{"user_id":128,"name":"pfear","steam_id":76561197999207328,"connected_time":433000000000,"state":"active","ping":75},{"user_id":129,"name":"Unsalted Butter","steam_id":76561198053118190,"connected_time":430000000000,"state":"active","ping":55},{"user_id":137,"name":"PascalAdam","steam_id":76561198219583647,"connected_time":132000000000,"state":"active","ping":51},{"user_id":132,"name":"bad at tf2 episode 2","steam_id":76561198002451113,"connected_time":402000000000,"state":"active","ping":92},{"user_id":124,"name":"betonomeshalka","steam_id":76561198304548337,"connected_time":1115000000000,"state":"active","ping":103},{"user_id":121,"name":".::[SerafeTTiN]::.","steam_id":76561198009471724,"connected_time":1417000000000,"state":"active","ping":92},{"user_id":78,"name":"hamburgr","steam_id":76561198183999845,"connected_time":5130000000000,"state":"active","ping":74},{"user_id":125,"name":"Bastard'Nick","steam_id":76561198044044651,"connected_time":722000000000,"state":"active","ping":72},{"user_id":123,"name":"NicatsCage","steam_id":76561198067271076,"connected_time":1151000000000,"state":"active","ping":94},{"user_id":84,"name":"Криминальный уще","steam_id":76561198034136409,"connected_time":4332000000000,"state":"active","ping":94},{"user_id":117,"name":"beep!","steam_id":76561198111674607,"connected_time":1618000000000,"state":"active","ping":54},{"user_id":134,"name":"Kanksteli","steam_id":76561198035919109,"connected_time":357000000000,"state":"active","ping":73}]},{"server_id":311,"name":"Uncletopia | Frankfurt | 6 | All Maps","name_short":"frk-6","host":"frk-1.de.uncletopia.com","port":27065,"enabled":true,"region":"eu","cc":"de","latitude":50.110924,"longitude":8.682127,"reserved":0,"last_update":"0001-01-01T00:00:00Z","name_a2s":"Uncletopia | Frankfurt | 6 | All Maps","protocol":17,"map":"pl_upward","folder":"tf","game":"Team Fortress","app_id":440,"player_count":24,"max_players":24,"Bots":0,"server_type":"Dedicated","server_os":"Linux","password":true,"vac":true,"version":"7757534","steam_id":85568392924504278,"keywords":["nocrits","nodmgspread","payload","uncletopia"],"game_id":440,"stv_port":27066,"stv_name":"Uncletopia | Frankfurt | 6 | All Maps | STV","players":[{"user_id":17,"name":"PanPatrik","steam_id":76561198293331527,"connected_time":2213000000000,"state":"active","ping":56},{"user_id":36,"name":"1ggy","steam_id":76561199051285912,"connected_time":1289000000000,"state":"active","ping":81},{"user_id":48,"name":"HotPotatoGuy","steam_id":76561198059231776,"connected_time":295000000000,"state":"active","ping":67},{"user_id":12,"name":"Ramzus","steam_id":76561198012385070,"connected_time":3712000000000,"state":"active","ping":87},{"user_id":19,"name":"vadim_kotler","steam_id":76561199016634369,"connected_time":1932000000000,"state":"active","ping":105},{"user_id":47,"name":"femboy","steam_id":76561199480741801,"connected_time":480000000000,"state":"active","ping":45},{"user_id":45,"name":"Charles Darwin","steam_id":76561197973496139,"connected_time":978000000000,"state":"active","ping":61},{"user_id":27,"name":"Holofightz Nene","steam_id":76561198226788392,"connected_time":1664000000000,"state":"active","ping":72},{"user_id":23,"name":"Loyde","steam_id":76561198029919524,"connected_time":1819000000000,"state":"active","ping":101},{"user_id":24,"name":"cl_skinnyboi 1","steam_id":76561198042864708,"connected_time":1795000000000,"state":"active","ping":68},{"user_id":28,"name":"willus212","steam_id":76561199182615246,"connected_time":1643000000000,"state":"active","ping":87},{"user_id":33,"name":"MrKtosiek","steam_id":76561198879971028,"connected_time":1470000000000,"state":"active","ping":83},{"user_id":29,"name":"Jörg Sprave","steam_id":76561198163668367,"connected_time":1549000000000,"state":"active","ping":67},{"user_id":46,"name":"Gorzel","steam_id":76561198828273330,"connected_time":952000000000,"state":"active","ping":71},{"user_id":31,"name":"Gyro Zeppeli","steam_id":76561198143600606,"connected_time":1504000000000,"state":"active","ping":62},{"user_id":32,"name":"I Bleed Butter","steam_id":76561198130814770,"connected_time":1499000000000,"state":"active","ping":75},{"user_id":34,"name":"howabe","steam_id":76561197996486818,"connected_time":1454000000000,"state":"active","ping":54},{"user_id":37,"name":"саша бургер","steam_id":76561199149307190,"connected_time":1278000000000,"state":"active","ping":75},{"user_id":38,"name":"gegit08","steam_id":76561199040010283,"connected_time":1257000000000,"state":"active","ping":87},{"user_id":43,"name":"Wir suchen dich!","steam_id":76561198307613521,"connected_time":1118000000000,"state":"active","ping":49},{"user_id":40,"name":"TITUS","steam_id":76561198017404328,"connected_time":1205000000000,"state":"active","ping":98},{"user_id":41,"name":"Comrade","steam_id":76561198164635260,"connected_time":1199000000000,"state":"active","ping":125},{"user_id":42,"name":"Akane","steam_id":76561197990407312,"connected_time":1158000000000,"state":"active","ping":71},{"user_id":44,"name":"Vectillion","steam_id":76561198074292454,"connected_time":1104000000000,"state":"active","ping":83}]},{"server_id":23,"name":"Uncletopia | Frankfurt | 7 | Stopwatch Beta","name_short":"frk-7","host":"frk-1.de.uncletopia.com","port":27075,"enabled":true,"region":"eu","cc":"de","latitude":50.110924,"longitude":8.682127,"reserved":0,"last_update":"0001-01-01T00:00:00Z","name_a2s":"Uncletopia | Frankfurt | 7 | Stopwatch Beta","protocol":17,"map":"cp_sunshine","folder":"tf","game":"Team Fortress","app_id":440,"player_count":0,"max_players":24,"Bots":0,"server_type":"Dedicated","server_os":"Linux","password":true,"vac":true,"version":"7757534","steam_id":85568392924742827,"keywords":["cp","nocrits","nodmgspread","uncletopia"],"game_id":440,"stv_port":27076,"stv_name":"Uncletopia | Frankfurt | 7 | Stopwatch Beta | STV","players":null},{"server_id":24,"name":"Uncletopia | Frankfurt | 8 | Community","name_short":"frk-8","host":"frk-1.de.uncletopia.com","port":27085,"enabled":true,"region":"eu","cc":"de","latitude":50.110924,"longitude":8.682127,"reserved":0,"last_update":"0001-01-01T00:00:00Z","name_a2s":"Uncletopia | Frankfurt | 8 | Community","protocol":17,"map":"koth_lakeside_final","folder":"tf","game":"Team Fortress","app_id":440,"player_count":0,"max_players":24,"Bots":0,"server_type":"Dedicated","server_os":"Linux","password":true,"vac":true,"version":"7757534","steam_id":85568392924742828,"keywords":["cp","nocrits","nodmgspread","uncletopia"],"game_id":440,"stv_port":27086,"stv_name":"Uncletopia | Frankfurt | 8 | Community | STV","players":null},{"server_id":202,"name":"Uncletopia | Hong Kong | 1 | All Maps","name_short":"hgk-1","host":"hgk-1.hk.uncletopia.com","port":27015,"enabled":true,"region":"asia","cc":"hk","latitude":22.302711,"longitude":114.177216,"reserved":0,"last_update":"0001-01-01T00:00:00Z","name_a2s":"Uncletopia | Hong Kong | 1 | All Maps","protocol":17,"map":"pl_badwater","folder":"tf","game":"Team Fortress","app_id":440,"player_count":23,"max_players":24,"Bots":0,"server_type":"Dedicated","server_os":"Linux","password":true,"vac":true,"version":"7757534","steam_id":85568392924494504,"keywords":["nocrits","nodmgspread","payload","uncletopia"],"game_id":440,"stv_port":27016,"stv_name":"Uncletopia | Hong Kong | 1 | All Maps | STV","players":[{"user_id":32,"name":"ArcticDolphin","steam_id":76561198203626319,"connected_time":16591000000000,"state":"active","ping":123},{"user_id":224,"name":"Spy with shoes","steam_id":76561198979802944,"connected_time":1706000000000,"state":"active","ping":55},{"user_id":209,"name":"쿠키","steam_id":76561197997220367,"connected_time":2654000000000,"state":"active","ping":44},{"user_id":202,"name":"IDontLaunder","steam_id":76561199103223706,"connected_time":3904000000000,"state":"active","ping":178},{"user_id":241,"name":"Yonkers092","steam_id":76561199438595119,"connected_time":164000000000,"state":"active","ping":123},{"user_id":230,"name":"Hay","steam_id":76561199438952901,"connected_time":773000000000,"state":"active","ping":45},{"user_id":225,"name":"Telekhine","steam_id":76561198387120618,"connected_time":1687000000000,"state":"active","ping":53},{"user_id":227,"name":"shenko","steam_id":76561198082921407,"connected_time":947000000000,"state":"active","ping":124},{"user_id":213,"name":"Women Beater Simulator 2023","steam_id":76561198333809604,"connected_time":2423000000000,"state":"active","ping":131},{"user_id":195,"name":"Tyxant","steam_id":76561198091066056,"connected_time":4628000000000,"state":"active","ping":94},{"user_id":239,"name":"Buttman","steam_id":76561198044693388,"connected_time":423000000000,"state":"active","ping":50},{"user_id":228,"name":"\"SKS\"","steam_id":76561198187995386,"connected_time":944000000000,"state":"active","ping":86},{"user_id":242,"name":"hasty","steam_id":76561198439382132,"connected_time":111000000000,"state":"active","ping":105},{"user_id":236,"name":"Bingsu","steam_id":76561199385814973,"connected_time":524000000000,"state":"active","ping":78},{"user_id":204,"name":"23rd","steam_id":76561199014675406,"connected_time":3847000000000,"state":"active","ping":123},{"user_id":212,"name":"borack obama","steam_id":76561198008307645,"connected_time":2568000000000,"state":"active","ping":128},{"user_id":240,"name":"母の肉団子@hao123.com","steam_id":76561198069561896,"connected_time":197000000000,"state":"active","ping":44},{"user_id":234,"name":"SEX Instructor (free)","steam_id":76561198871697359,"connected_time":669000000000,"state":"active","ping":75},{"user_id":199,"name":"大中風","steam_id":76561198309119742,"connected_time":4090000000000,"state":"active","ping":64},{"user_id":206,"name":"paper boat","steam_id":76561198046558051,"connected_time":3494000000000,"state":"active","ping":86},{"user_id":220,"name":"!!!","steam_id":76561199058258142,"connected_time":2212000000000,"state":"active","ping":80},{"user_id":208,"name":"TomCat","steam_id":76561198133744053,"connected_time":3220000000000,"state":"active","ping":118},{"user_id":171,"name":"joe tiden","steam_id":76561198092969425,"connected_time":6644000000000,"state":"active","ping":108}]},{"server_id":1,"name":"Uncletopia | Los Angeles | 1 | All Maps","name_short":"lax-1","host":"lax-1.us.uncletopia.com","port":27015,"enabled":true,"region":"us-west","cc":"us","latitude":33.94279,"longitude":-118.41004,"reserved":0,"last_update":"0001-01-01T00:00:00Z","name_a2s":"Uncletopia | Los Angeles | 1 | All Maps","protocol":17,"map":"koth_lakeside_final","folder":"tf","game":"Team Fortress","app_id":440,"player_count":0,"max_players":24,"Bots":0,"server_type":"Dedicated","server_os":"Linux","password":true,"vac":true,"version":"7757534","steam_id":85568392924469991,"keywords":["cp","nocrits","nodmgspread","uncletopia"],"game_id":440,"stv_port":27016,"stv_name":"Uncletopia | Los Angeles | 1 | All Maps | STV","players":null},{"server_id":112,"name":"Uncletopia | Los Angeles | 2 | All Maps","name_short":"lax-2","host":"lax-1.us.uncletopia.com","port":27025,"enabled":true,"region":"us-west","cc":"us","latitude":33.94279,"longitude":-118.41004,"reserved":0,"last_update":"0001-01-01T00:00:00Z","name_a2s":"Uncletopia | Los Angeles | 2 | All Maps","protocol":17,"map":"pl_badwater","folder":"tf","game":"Team Fortress","app_id":440,"player_count":0,"max_players":24,"Bots":0,"server_type":"Dedicated","server_os":"Linux","password":true,"vac":true,"version":"7757534","steam_id":85568392924469992,"keywords":["nocrits","nodmgspread","payload","uncletopia"],"game_id":440,"stv_port":27026,"stv_name":"Uncletopia | Los Angeles | 2 | All Maps | STV","players":null},{"server_id":324,"name":"Uncletopia | Los Angeles | 3 | All Maps","name_short":"lax-3","host":"lax-1.us.uncletopia.com","port":27035,"enabled":true,"region":"us-west","cc":"us","latitude":33.94279,"longitude":-118.41004,"reserved":0,"last_update":"0001-01-01T00:00:00Z","name_a2s":"Uncletopia | Los Angeles | 3 | All Maps","protocol":17,"map":"pl_barnblitz","folder":"tf","game":"Team Fortress","app_id":440,"player_count":0,"max_players":24,"Bots":0,"server_type":"Dedicated","server_os":"Linux","password":true,"vac":true,"version":"7757534","steam_id":85568392924510198,"keywords":["nocrits","nodmgspread","payload","uncletopia"],"game_id":440,"stv_port":27036,"stv_name":"Uncletopia | Los Angeles | 3 | All Maps | STV","players":null},{"server_id":25,"name":"Uncletopia | Los Angeles | 4 | Stopwatch Beta","name_short":"lax-4","host":"lax-1.us.uncletopia.com","port":27045,"enabled":true,"region":"us-west","cc":"us","latitude":33.94279,"longitude":-118.41004,"reserved":0,"last_update":"0001-01-01T00:00:00Z","name_a2s":"Uncletopia | Los Angeles | 4 | Stopwatch Beta","protocol":17,"map":"pl_swiftwater_final1","folder":"tf","game":"Team Fortress","app_id":440,"player_count":0,"max_players":24,"Bots":0,"server_type":"Dedicated","server_os":"Linux","password":true,"vac":true,"version":"7757534","steam_id":85568392924510199,"keywords":["nocrits","nodmgspread","payload","uncletopia"],"game_id":440,"stv_port":27046,"stv_name":"Uncletopia | Los Angeles | 4 | Stopwatch Beta | STV","players":null},{"server_id":11,"name":"Uncletopia | London | 1 | All Maps","name_short":"lon-1","host":"lon-1.uk.uncletopia.com","port":27015,"enabled":true,"region":"eu","cc":"gb","latitude":51.509865,"longitude":-0.118092,"reserved":0,"last_update":"0001-01-01T00:00:00Z","name_a2s":"Uncletopia | London | 1 | All Maps","protocol":17,"map":"koth_highpass","folder":"tf","game":"Team Fortress","app_id":440,"player_count":24,"max_players":24,"Bots":0,"server_type":"Dedicated","server_os":"Linux","password":true,"vac":true,"version":"7757534","steam_id":85568392924367362,"keywords":["cp","nocrits","nodmgspread","uncletopia"],"game_id":440,"stv_port":27016,"stv_name":"Uncletopia | London | 1 | All Maps | STV","players":[{"user_id":242,"name":"Ocelot","steam_id":76561198263386006,"connected_time":5531000000000,"state":"active","ping":106},{"user_id":282,"name":"bird (trans rights)","steam_id":76561198393596975,"connected_time":2584000000000,"state":"active","ping":49},{"user_id":293,"name":"Kretur","steam_id":76561198161086266,"connected_time":1537000000000,"state":"active","ping":99},{"user_id":305,"name":"xavier","steam_id":76561198076494034,"connected_time":365000000000,"state":"active","ping":49},{"user_id":310,"name":"Tobleroney","steam_id":76561198154402655,"connected_time":157000000000,"state":"active","ping":48},{"user_id":262,"name":"heavy sings (real)","steam_id":76561199023804405,"connected_time":3427000000000,"state":"active","ping":65},{"user_id":270,"name":"sm0ke","steam_id":76561198198977226,"connected_time":3137000000000,"state":"active","ping":82},{"user_id":122,"name":"Dastardly","steam_id":76561198028351509,"connected_time":14337000000000,"state":"active","ping":65},{"user_id":307,"name":"athenowolf","steam_id":76561198850106994,"connected_time":316000000000,"state":"active","ping":83},{"user_id":228,"name":"Plop_","steam_id":76561198112567921,"connected_time":5987000000000,"state":"active","ping":40},{"user_id":287,"name":"Rad","steam_id":76561198001101843,"connected_time":2259000000000,"state":"active","ping":65},{"user_id":311,"name":"femboy clarti","steam_id":76561198062396436,"connected_time":67000000000,"state":"active","ping":42},{"user_id":277,"name":"Skoualala","steam_id":76561198121754445,"connected_time":2947000000000,"state":"active","ping":63},{"user_id":292,"name":"Chongo","steam_id":76561198133400491,"connected_time":1559000000000,"state":"active","ping":79},{"user_id":303,"name":"Ichbaplaya","steam_id":76561198152701211,"connected_time":386000000000,"state":"active","ping":69},{"user_id":301,"name":"FluffMuffin OwO","steam_id":76561198275120259,"connected_time":1016000000000,"state":"active","ping":56},{"user_id":256,"name":"john fortress","steam_id":76561198013237629,"connected_time":4096000000000,"state":"active","ping":91},{"user_id":283,"name":"ApoSinamonCake","steam_id":76561198278526664,"connected_time":2495000000000,"state":"active","ping":139},{"user_id":297,"name":"b_a1Ln","steam_id":76561198135213739,"connected_time":1182000000000,"state":"active","ping":94},{"user_id":276,"name":"kojitori","steam_id":76561198838072150,"connected_time":3020000000000,"state":"active","ping":46},{"user_id":253,"name":"Poppy Stingray","steam_id":76561198049673783,"connected_time":4647000000000,"state":"active","ping":70},{"user_id":302,"name":"Atse","steam_id":76561199019974513,"connected_time":848000000000,"state":"active","ping":105},{"user_id":309,"name":"LukeLeal","steam_id":76561198049822995,"connected_time":262000000000,"state":"active","ping":178},{"user_id":286,"name":"Yuzu","steam_id":76561198121694613,"connected_time":2294000000000,"state":"active","ping":52}]},{"server_id":114,"name":"Uncletopia | London | 2 | All Maps","name_short":"lon-2","host":"lon-1.uk.uncletopia.com","port":27025,"enabled":true,"region":"eu","cc":"gb","latitude":51.509865,"longitude":-0.118092,"reserved":0,"last_update":"0001-01-01T00:00:00Z","name_a2s":"Uncletopia | London | 2 | All Maps","protocol":17,"map":"koth_viaduct","folder":"tf","game":"Team Fortress","app_id":440,"player_count":0,"max_players":24,"Bots":0,"server_type":"Dedicated","server_os":"Linux","password":true,"vac":true,"version":"7757534","steam_id":85568392924470941,"keywords":["cp","nocrits","nodmgspread","uncletopia"],"game_id":440,"stv_port":27026,"stv_name":"Uncletopia | London | 2 | All Maps | STV","players":null},{"server_id":320,"name":"Uncletopia | London | 3 | All Maps","name_short":"lon-3","host":"lon-1.uk.uncletopia.com","port":27035,"enabled":true,"region":"eu","cc":"gb","latitude":51.509865,"longitude":-0.118092,"reserved":0,"last_update":"0001-01-01T00:00:00Z","name_a2s":"Uncletopia | London | 3 | All Maps","protocol":17,"map":"cp_steel","folder":"tf","game":"Team Fortress","app_id":440,"player_count":21,"max_players":24,"Bots":0,"server_type":"Dedicated","server_os":"Linux","password":true,"vac":true,"version":"7757534","steam_id":85568392924510192,"keywords":["cp","nocrits","nodmgspread","uncletopia"],"game_id":440,"stv_port":27036,"stv_name":"Uncletopia | London | 3 | All Maps | STV","players":[{"user_id":253,"name":"Izzy","steam_id":76561198406200478,"connected_time":210000000000,"state":"active","ping":99},{"user_id":249,"name":"SaltyCupcakes","steam_id":76561198256386417,"connected_time":401000000000,"state":"active","ping":36},{"user_id":225,"name":"God Of Pancakes","steam_id":76561198074535608,"connected_time":1222000000000,"state":"active","ping":90},{"user_id":250,"name":"Very bad dont rely on me","steam_id":76561198362116755,"connected_time":349000000000,"state":"active","ping":157},{"user_id":229,"name":"Вадим Какашкин","steam_id":76561198383509320,"connected_time":1060000000000,"state":"active","ping":78},{"user_id":252,"name":"Dave The Sloth","steam_id":76561199135831355,"connected_time":290000000000,"state":"active","ping":65},{"user_id":254,"name":"Tamm","steam_id":76561199481134450,"connected_time":101000000000,"state":"active","ping":124},{"user_id":222,"name":"Igames","steam_id":76561198414062544,"connected_time":1527000000000,"state":"active","ping":53},{"user_id":245,"name":"FoxyTheFish","steam_id":76561199074190919,"connected_time":485000000000,"state":"active","ping":67},{"user_id":255,"name":"Dark Wizart","steam_id":76561198377689439,"connected_time":81000000000,"state":"active","ping":78},{"user_id":147,"name":"Chromega","steam_id":76561199075307750,"connected_time":6510000000000,"state":"active","ping":67},{"user_id":247,"name":"Sneikijs","steam_id":76561198052549308,"connected_time":474000000000,"state":"active","ping":47},{"user_id":240,"name":"Wiki","steam_id":76561198148455642,"connected_time":796000000000,"state":"active","ping":44},{"user_id":220,"name":"soofoul","steam_id":76561198285862099,"connected_time":1648000000000,"state":"active","ping":35},{"user_id":155,"name":"Dr. Mike Litoris","steam_id":76561197991205793,"connected_time":6147000000000,"state":"active","ping":94},{"user_id":234,"name":"imthegerman","steam_id":76561198053401077,"connected_time":941000000000,"state":"active","ping":108},{"user_id":188,"name":"Economic crisis","steam_id":76561198063562843,"connected_time":3457000000000,"state":"active","ping":58},{"user_id":235,"name":"Slice :)","steam_id":76561198081699492,"connected_time":908000000000,"state":"active","ping":68},{"user_id":199,"name":"Psyche","steam_id":76561198091662001,"connected_time":2762000000000,"state":"active","ping":70},{"user_id":244,"name":"MLG Peridot","steam_id":76561198069780233,"connected_time":642000000000,"state":"active","ping":49},{"user_id":180,"name":"sape (huntsman enjoyer)","steam_id":76561198089322416,"connected_time":4481000000000,"state":"active","ping":90}]},{"server_id":321,"name":"Uncletopia | London | 4 | All Maps","name_short":"lon-4","host":"lon-1.uk.uncletopia.com","port":27045,"enabled":true,"region":"eu","cc":"gb","latitude":51.509865,"longitude":-0.118092,"reserved":0,"last_update":"0001-01-01T00:00:00Z","name_a2s":"Uncletopia | London | 4 | All Maps","protocol":17,"map":"cp_dustbowl","folder":"tf","game":"Team Fortress","app_id":440,"player_count":0,"max_players":24,"Bots":0,"server_type":"Dedicated","server_os":"Linux","password":true,"vac":true,"version":"7757534","steam_id":85568392924510193,"keywords":["cp","nocrits","nodmgspread","uncletopia"],"game_id":440,"stv_port":27046,"stv_name":"Uncletopia | London | 4 | All Maps | STV","players":null},{"server_id":21,"name":"Uncletopia | London | 5 | All Maps","name_short":"lon-5","host":"lon-1.uk.uncletopia.com","port":27055,"enabled":true,"region":"eu","cc":"gb","latitude":51.509865,"longitude":-0.118092,"reserved":0,"last_update":"0001-01-01T00:00:00Z","name_a2s":"Uncletopia | London | 5 | All Maps","protocol":17,"map":"koth_cascade","folder":"tf","game":"Team Fortress","app_id":440,"player_count":0,"max_players":24,"Bots":0,"server_type":"Dedicated","server_os":"Linux","password":true,"vac":true,"version":"7757534","steam_id":85568392924742829,"keywords":["cp","nocrits","nodmgspread","uncletopia"],"game_id":440,"stv_port":27056,"stv_name":"Uncletopia | London | 5 | All Maps | STV","players":null},{"server_id":22,"name":"Uncletopia | London | 6 | All Maps","name_short":"lon-6","host":"lon-1.uk.uncletopia.com","port":27065,"enabled":true,"region":"eu","cc":"gb","latitude":51.509865,"longitude":-0.118092,"reserved":0,"last_update":"0001-01-01T00:00:00Z","name_a2s":"Uncletopia | London | 6 | All Maps","protocol":17,"map":"koth_viaduct","folder":"tf","game":"Team Fortress","app_id":440,"player_count":0,"max_players":24,"Bots":0,"server_type":"Dedicated","server_os":"Linux","password":true,"vac":true,"version":"7757534","steam_id":85568392924742830,"keywords":["cp","nocrits","nodmgspread","uncletopia"],"game_id":440,"stv_port":27066,"stv_name":"Uncletopia | London | 6 | All Maps | STV","players":null},{"server_id":40,"name":"Uncletopia | London | 7 | No Payload","name_short":"lon-7","host":"lon-1.uk.uncletopia.com","port":27075,"enabled":true,"region":"eu","cc":"gb","latitude":51.509865,"longitude":-0.118092,"reserved":0,"last_update":"0001-01-01T00:00:00Z","name_a2s":"Uncletopia | London | 7 | No Payload","protocol":17,"map":"pl_badwater","folder":"tf","game":"Team Fortress","app_id":440,"player_count":0,"max_players":24,"Bots":0,"server_type":"Dedicated","server_os":"Linux","password":true,"vac":true,"version":"7757534","steam_id":85568392924964314,"keywords":["nocrits","nodmgspread","payload","uncletopia"],"game_id":440,"stv_port":27076,"stv_name":"Uncletopia | London | 7 | No Payload | STV","players":null},{"server_id":41,"name":"Uncletopia | London | 8 | Community","name_short":"lon-8","host":"lon-1.uk.uncletopia.com","port":27085,"enabled":true,"region":"eu","cc":"gb","latitude":51.509865,"longitude":-0.118092,"reserved":0,"last_update":"0001-01-01T00:00:00Z","name_a2s":"Uncletopia | London | 8 | Community","protocol":17,"map":"pl_barnblitz","folder":"tf","game":"Team Fortress","app_id":440,"player_count":0,"max_players":24,"Bots":0,"server_type":"Dedicated","server_os":"Linux","password":true,"vac":true,"version":"7757534","steam_id":85568392924964315,"keywords":["nocrits","nodmgspread","payload","uncletopia"],"game_id":440,"stv_port":27086,"stv_name":"Uncletopia | London | 8 | Community | STV","players":null},{"server_id":300,"name":"Uncletopia | Montréal | 1 | All Maps","name_short":"mtl-1","host":"mtl-1.ca.uncletopia.com","port":27015,"enabled":true,"region":"us-east","cc":"ca","latitude":45.50889,"longitude":-73.56167,"reserved":0,"last_update":"0001-01-01T00:00:00Z","name_a2s":"Uncletopia | Montréal | 1 | All Maps","protocol":17,"map":"pl_upward","folder":"tf","game":"Team Fortress","app_id":440,"player_count":0,"max_players":24,"Bots":0,"server_type":"Dedicated","server_os":"Linux","password":true,"vac":true,"version":"7757534","steam_id":85568392924500087,"keywords":["nocrits","nodmgspread","payload","uncletopia"],"game_id":440,"stv_port":27016,"stv_name":"Uncletopia | Montréal | 1 | All Maps | STV","players":null},{"server_id":301,"name":"Uncletopia | Montréal | 2 | All Maps","name_short":"mtl-2","host":"mtl-1.ca.uncletopia.com","port":27025,"enabled":true,"region":"us-east","cc":"ca","latitude":45.50889,"longitude":-73.56167,"reserved":0,"last_update":"0001-01-01T00:00:00Z","name_a2s":"Uncletopia | Montréal | 2 | All Maps","protocol":17,"map":"pl_snowycoast","folder":"tf","game":"Team Fortress","app_id":440,"player_count":0,"max_players":24,"Bots":0,"server_type":"Dedicated","server_os":"Linux","password":true,"vac":true,"version":"7757534","steam_id":85568392924500088,"keywords":["nocrits","nodmgspread","payload","uncletopia"],"game_id":440,"stv_port":27026,"stv_name":"Uncletopia | Montréal | 2 | All Maps | STV","players":null},{"server_id":302,"name":"Uncletopia | Montréal | 3 | All Maps","name_short":"mtl-3","host":"mtl-1.ca.uncletopia.com","port":27035,"enabled":true,"region":"us-east","cc":"ca","latitude":45.50889,"longitude":-73.56167,"reserved":0,"last_update":"0001-01-01T00:00:00Z","name_a2s":"Uncletopia | Montréal | 3 | All Maps","protocol":17,"map":"pl_swiftwater_final1","folder":"tf","game":"Team Fortress","app_id":440,"player_count":0,"max_players":24,"Bots":0,"server_type":"Dedicated","server_os":"Linux","password":true,"vac":true,"version":"7757534","steam_id":85568392924500089,"keywords":["nocrits","nodmgspread","payload","uncletopia"],"game_id":440,"stv_port":27036,"stv_name":"Uncletopia | Montréal | 3 | All Maps | STV","players":null},{"server_id":303,"name":"Uncletopia | Montréal | 4 | No Payload","name_short":"mtl-4","host":"mtl-1.ca.uncletopia.com","port":27045,"enabled":true,"region":"us-east","cc":"ca","latitude":45.50889,"longitude":-73.56167,"reserved":0,"last_update":"0001-01-01T00:00:00Z","name_a2s":"Uncletopia | Montréal | 4 | No Payload","protocol":17,"map":"pl_pier","folder":"tf","game":"Team Fortress","app_id":440,"player_count":0,"max_players":24,"Bots":0,"server_type":"Dedicated","server_os":"Linux","password":true,"vac":true,"version":"7757534","steam_id":85568392924500090,"keywords":["nocrits","nodmgspread","payload","uncletopia"],"game_id":440,"stv_port":27046,"stv_name":"Uncletopia | Montréal | 4 | No Payload | STV","players":null},{"server_id":13,"name":"Uncletopia | New York City | 1 | All Maps","name_short":"nyc-1","host":"nyc-1.us.uncletopia.com","port":27015,"enabled":true,"region":"us-east","cc":"us","latitude":40.73061,"longitude":-73.93524,"reserved":0,"last_update":"0001-01-01T00:00:00Z","name_a2s":"Uncletopia | New York City | 1 | All Maps","protocol":17,"map":"koth_viaduct","folder":"tf","game":"Team Fortress","app_id":440,"player_count":0,"max_players":24,"Bots":0,"server_type":"Dedicated","server_os":"Linux","password":true,"vac":true,"version":"7757534","steam_id":85568392924469993,"keywords":["cp","nocrits","nodmgspread","uncletopia"],"game_id":440,"stv_port":27016,"stv_name":"Uncletopia | New York City | 1 | All Maps | STV","players":null},{"server_id":14,"name":"Uncletopia | New York City | 2 | All Maps","name_short":"nyc-2","host":"nyc-1.us.uncletopia.com","port":27025,"enabled":true,"region":"us-east","cc":"us","latitude":40.73061,"longitude":-73.93524,"reserved":0,"last_update":"0001-01-01T00:00:00Z","name_a2s":"Uncletopia | New York City | 2 | All Maps","protocol":17,"map":"pl_frontier_final","folder":"tf","game":"Team Fortress","app_id":440,"player_count":0,"max_players":24,"Bots":0,"server_type":"Dedicated","server_os":"Linux","password":true,"vac":true,"version":"7757534","steam_id":85568392924469994,"keywords":["nocrits","nodmgspread","payload","uncletopia"],"game_id":440,"stv_port":27026,"stv_name":"Uncletopia | New York City | 2 | All Maps | STV","players":null},{"server_id":15,"name":"Uncletopia | New York City | 3 | Stopwatch Beta","name_short":"nyc-3","host":"nyc-1.us.uncletopia.com","port":27035,"enabled":true,"region":"us-east","cc":"us","latitude":40.73061,"longitude":-73.93524,"reserved":0,"last_update":"0001-01-01T00:00:00Z","name_a2s":"Uncletopia | New York City | 3 | Stopwatch Beta","protocol":17,"map":"pl_upward","folder":"tf","game":"Team Fortress","app_id":440,"player_count":0,"max_players":24,"Bots":0,"server_type":"Dedicated","server_os":"Linux","password":true,"vac":true,"version":"7757534","steam_id":85568392924742820,"keywords":["nocrits","nodmgspread","payload","uncletopia"],"game_id":440,"stv_port":27036,"stv_name":"Uncletopia | New York City | 3 | Stopwatch Beta | STV","players":null},{"server_id":16,"name":"Uncletopia | New York City | 4 | Community","name_short":"nyc-4","host":"nyc-1.us.uncletopia.com","port":27045,"enabled":true,"region":"us-east","cc":"us","latitude":40.73061,"longitude":-73.93524,"reserved":0,"last_update":"0001-01-01T00:00:00Z","name_a2s":"Uncletopia | New York City | 4 | Community","protocol":17,"map":"pl_swiftwater_final1","folder":"tf","game":"Team Fortress","app_id":440,"player_count":0,"max_players":24,"Bots":0,"server_type":"Dedicated","server_os":"Linux","password":true,"vac":true,"version":"7757534","steam_id":85568392924742821,"keywords":["nocrits","nodmgspread","payload","uncletopia"],"game_id":440,"stv_port":27046,"stv_name":"Uncletopia | New York City | 4 | Community | STV","players":null},{"server_id":142,"name":"Uncletopia | São Paulo | 1 | All Maps","name_short":"sao-1","host":"sao-1.br.uncletopia.com","port":27015,"enabled":true,"region":"sa","cc":"br","latitude":-23.533773,"longitude":-46.62529,"reserved":0,"last_update":"0001-01-01T00:00:00Z","name_a2s":"Uncletopia | São Paulo | 1 | All Maps","protocol":17,"map":"koth_lakeside_final","folder":"tf","game":"Team Fortress","app_id":440,"player_count":0,"max_players":24,"Bots":0,"server_type":"Dedicated","server_os":"Linux","password":true,"vac":true,"version":"7757534","steam_id":85568392924469996,"keywords":["cp","nocrits","nodmgspread","uncletopia"],"game_id":440,"stv_port":27016,"stv_name":"Uncletopia | São Paulo | 1 | All Maps | STV","players":null},{"server_id":143,"name":"Uncletopia | São Paulo | 2 | All Maps","name_short":"sao-2","host":"sao-2.br.uncletopia.com","port":27015,"enabled":true,"region":"sa","cc":"br","latitude":-23.533773,"longitude":-46.62529,"reserved":0,"last_update":"0001-01-01T00:00:00Z","name_a2s":"Uncletopia | São Paulo | 2 | All Maps","protocol":17,"map":"pl_borneo","folder":"tf","game":"Team Fortress","app_id":440,"player_count":0,"max_players":24,"Bots":0,"server_type":"Dedicated","server_os":"Linux","password":true,"vac":true,"version":"7757534","steam_id":85568392924485349,"keywords":["nocrits","nodmgspread","payload","uncletopia"],"game_id":440,"stv_port":27016,"stv_name":"Uncletopia | São Paulo | 2 | All Maps | STV","players":null},{"server_id":7,"name":"Uncletopia | Seattle | 1 | All Maps","name_short":"sea-1","host":"sea-1.us.uncletopia.com","port":27015,"enabled":true,"region":"us-west","cc":"us","latitude":47.608013,"longitude":-122.33517,"reserved":0,"last_update":"0001-01-01T00:00:00Z","name_a2s":"Uncletopia | Seattle | 1 | All Maps","protocol":17,"map":"koth_lakeside_final","folder":"tf","game":"Team Fortress","app_id":440,"player_count":24,"max_players":24,"Bots":0,"server_type":"Dedicated","server_os":"Linux","password":true,"vac":true,"version":"7757534","steam_id":85568392924469997,"keywords":["cp","nocrits","nodmgspread","uncletopia"],"game_id":440,"stv_port":27016,"stv_name":"Uncletopia | Seattle | 1 | All Maps | STV","players":[{"user_id":3,"name":"Lord Theodore XIII","steam_id":76561198085842797,"connected_time":936000000000,"state":"active","ping":104},{"user_id":4,"name":"♥Bean♥","steam_id":76561198835286379,"connected_time":931000000000,"state":"active","ping":131},{"user_id":5,"name":"[TrC] Dackstrus","steam_id":76561197973518509,"connected_time":927000000000,"state":"active","ping":59},{"user_id":13,"name":"Velvety","steam_id":76561198081922813,"connected_time":903000000000,"state":"active","ping":71},{"user_id":7,"name":"reiidaya","steam_id":76561198325306660,"connected_time":923000000000,"state":"active","ping":54},{"user_id":8,"name":"watrisntfruit","steam_id":76561199274595793,"connected_time":920000000000,"state":"active","ping":59},{"user_id":9,"name":"homsar","steam_id":76561199031742838,"connected_time":916000000000,"state":"active","ping":111},{"user_id":10,"name":"SgtMaj Soggy Titties","steam_id":76561198067732216,"connected_time":915000000000,"state":"active","ping":84},{"user_id":11,"name":"Bastee1021","steam_id":76561199456141163,"connected_time":915000000000,"state":"active","ping":105},{"user_id":12,"name":"lox","steam_id":76561198288531493,"connected_time":913000000000,"state":"active","ping":51},{"user_id":14,"name":"canid","steam_id":76561198103496593,"connected_time":888000000000,"state":"active","ping":110},{"user_id":15,"name":"FATMAN....HOOVY","steam_id":76561198125277447,"connected_time":888000000000,"state":"active","ping":105},{"user_id":16,"name":"Degenerate","steam_id":76561198079416360,"connected_time":874000000000,"state":"active","ping":129},{"user_id":18,"name":"rustyorion","steam_id":76561198439186347,"connected_time":871000000000,"state":"active","ping":58},{"user_id":19,"name":"Doorhinge","steam_id":76561198872501684,"connected_time":863000000000,"state":"active","ping":84},{"user_id":20,"name":"Banjo","steam_id":76561198004652853,"connected_time":779000000000,"state":"active","ping":46},{"user_id":21,"name":"touka","steam_id":76561198171521806,"connected_time":748000000000,"state":"active","ping":63},{"user_id":22,"name":"Unicorn","steam_id":76561198119261280,"connected_time":724000000000,"state":"active","ping":114},{"user_id":23,"name":"Coyote","steam_id":76561198428625600,"connected_time":694000000000,"state":"active","ping":81},{"user_id":29,"name":"Vespen","steam_id":76561198259984019,"connected_time":525000000000,"state":"active","ping":75},{"user_id":25,"name":"mycoolcucumber","steam_id":76561198177586211,"connected_time":607000000000,"state":"active","ping":110},{"user_id":26,"name":"ark","steam_id":76561198041066271,"connected_time":598000000000,"state":"active","ping":78},{"user_id":27,"name":"Mr.Frundles","steam_id":76561198134559026,"connected_time":597000000000,"state":"active","ping":60},{"user_id":28,"name":"FRANKY!!!","steam_id":76561199211305343,"connected_time":566000000000,"state":"active","ping":69}]},{"server_id":119,"name":"Uncletopia | Seattle | 2 | All Maps","name_short":"sea-2","host":"sea-1.us.uncletopia.com","port":27025,"enabled":true,"region":"us-west","cc":"us","latitude":47.608013,"longitude":-122.33517,"reserved":0,"last_update":"0001-01-01T00:00:00Z","name_a2s":"Uncletopia | Seattle | 2 | All Maps","protocol":17,"map":"pl_badwater","folder":"tf","game":"Team Fortress","app_id":440,"player_count":0,"max_players":24,"Bots":0,"server_type":"Dedicated","server_os":"Linux","password":true,"vac":true,"version":"7757534","steam_id":85568392924469998,"keywords":["nocrits","nodmgspread","payload","uncletopia"],"game_id":440,"stv_port":27026,"stv_name":"Uncletopia | Seattle | 2 | All Maps | STV","players":null},{"server_id":406,"name":"Uncletopia | Seattle | 3 | Stopwatch Beta","name_short":"sea-3","host":"sea-1.us.uncletopia.com","port":27035,"enabled":true,"region":"us-west","cc":"us","latitude":47.608013,"longitude":-122.33517,"reserved":0,"last_update":"0001-01-01T00:00:00Z","name_a2s":"Uncletopia | Seattle | 3 | Stopwatch Beta","protocol":17,"map":"cp_dustbowl","folder":"tf","game":"Team Fortress","app_id":440,"player_count":0,"max_players":24,"Bots":0,"server_type":"Dedicated","server_os":"Linux","password":true,"vac":true,"version":"7757534","steam_id":85568392924515217,"keywords":["cp","nocrits","nodmgspread","uncletopia"],"game_id":440,"stv_port":27036,"stv_name":"Uncletopia | Seattle | 3 | Stopwatch Beta | STV","players":null},{"server_id":17,"name":"Uncletopia | San Francisco | 1 | All Maps","name_short":"sfo-1","host":"sfo-1.us.uncletopia.com","port":27015,"enabled":true,"region":"us-west","cc":"us","latitude":37.77397,"longitude":-122.4313,"reserved":0,"last_update":"0001-01-01T00:00:00Z","name_a2s":"Uncletopia | San Francisco | 1 | All Maps","protocol":17,"map":"cp_process_final","folder":"tf","game":"Team Fortress","app_id":440,"player_count":0,"max_players":24,"Bots":0,"server_type":"Dedicated","server_os":"Linux","password":true,"vac":true,"version":"7757534","steam_id":85568392924469999,"keywords":["cp","nocrits","nodmgspread","uncletopia"],"game_id":440,"stv_port":27016,"stv_name":"Uncletopia | San Francisco | 1 | All Maps | STV","players":null},{"server_id":18,"name":"Uncletopia | San Francisco | 2 | All Maps","name_short":"sfo-2","host":"sfo-1.us.uncletopia.com","port":27025,"enabled":true,"region":"us-west","cc":"us","latitude":37.77397,"longitude":-122.4313,"reserved":0,"last_update":"0001-01-01T00:00:00Z","name_a2s":"Uncletopia | San Francisco | 2 | All Maps","protocol":17,"map":"koth_highpass","folder":"tf","game":"Team Fortress","app_id":440,"player_count":0,"max_players":24,"Bots":0,"server_type":"Dedicated","server_os":"Linux","password":true,"vac":true,"version":"7757534","steam_id":85568392924470000,"keywords":["cp","nocrits","nodmgspread","uncletopia"],"game_id":440,"stv_port":27026,"stv_name":"Uncletopia | San Francisco | 2 | All Maps | STV","players":null},{"server_id":19,"name":"Uncletopia | San Francisco | 3 | Stopwatch Beta","name_short":"sfo-3","host":"sfo-1.us.uncletopia.com","port":27035,"enabled":true,"region":"us-west","cc":"us","latitude":37.77397,"longitude":-122.4313,"reserved":0,"last_update":"0001-01-01T00:00:00Z","name_a2s":"Uncletopia | San Francisco | 3 | Stopwatch Beta","protocol":17,"map":"koth_lakeside_final","folder":"tf","game":"Team Fortress","app_id":440,"player_count":0,"max_players":24,"Bots":0,"server_type":"Dedicated","server_os":"Linux","password":true,"vac":true,"version":"7757534","steam_id":85568392924742824,"keywords":["cp","nocrits","nodmgspread","uncletopia"],"game_id":440,"stv_port":27036,"stv_name":"Uncletopia | San Francisco | 3 | Stopwatch Beta | STV","players":null},{"server_id":20,"name":"Uncletopia | San Francisco | 4 | Community","name_short":"sfo-4","host":"sfo-1.us.uncletopia.com","port":27045,"enabled":true,"region":"us-west","cc":"us","latitude":37.77397,"longitude":-122.4313,"reserved":0,"last_update":"0001-01-01T00:00:00Z","name_a2s":"Uncletopia | San Francisco | 4 | Community","protocol":17,"map":"cp_altitude","folder":"tf","game":"Team Fortress","app_id":440,"player_count":0,"max_players":24,"Bots":0,"server_type":"Dedicated","server_os":"Linux","password":true,"vac":true,"version":"7757534","steam_id":85568392924742826,"keywords":["cp","nocrits","nodmgspread","uncletopia"],"game_id":440,"stv_port":27046,"stv_name":"Uncletopia | San Francisco | 4 | Community | STV","players":null},{"server_id":141,"name":"Uncletopia | Sydney | 1 | All Maps","name_short":"syd-1","host":"syd-1.au.uncletopia.com","port":27015,"enabled":true,"region":"au","cc":"au","latitude":-33.865143,"longitude":151.2099,"reserved":0,"last_update":"0001-01-01T00:00:00Z","name_a2s":"Uncletopia | Sydney | 1 | All Maps","protocol":17,"map":"koth_viaduct","folder":"tf","game":"Team Fortress","app_id":440,"player_count":0,"max_players":24,"Bots":0,"server_type":"Dedicated","server_os":"Linux","password":true,"vac":true,"version":"7757534","steam_id":85568392924470001,"keywords":["cp","nocrits","nodmgspread","uncletopia"],"game_id":440,"stv_port":27016,"stv_name":"Uncletopia | Sydney | 1 | All Maps | STV","players":null},{"server_id":123,"name":"Uncletopia | Sydney | 2 | All Maps","name_short":"syd-2","host":"syd-1.au.uncletopia.com","port":27025,"enabled":true,"region":"au","cc":"au","latitude":-33.865143,"longitude":151.2099,"reserved":0,"last_update":"0001-01-01T00:00:00Z","name_a2s":"Uncletopia | Sydney | 2 | All Maps","protocol":17,"map":"pl_badwater","folder":"tf","game":"Team Fortress","app_id":440,"player_count":14,"max_players":24,"Bots":0,"server_type":"Dedicated","server_os":"Linux","password":true,"vac":true,"version":"7757534","steam_id":85568392924470002,"keywords":["nocrits","nodmgspread","payload","uncletopia"],"game_id":440,"stv_port":27026,"stv_name":"Uncletopia | Sydney | 2 | All Maps | STV","players":[{"user_id":460,"name":"Jodelkönig Franzl Lang","steam_id":76561198007667830,"connected_time":10166000000000,"state":"active","ping":48},{"user_id":532,"name":"Kouroboros","steam_id":76561198141283669,"connected_time":1484000000000,"state":"active","ping":71},{"user_id":536,"name":"WobbliestCrab","steam_id":76561198169923902,"connected_time":1158000000000,"state":"active","ping":106},{"user_id":547,"name":"redditHaver","steam_id":76561198170727659,"connected_time":218000000000,"state":"active","ping":68},{"user_id":510,"name":"noobar","steam_id":76561198042991153,"connected_time":3676000000000,"state":"active","ping":51},{"user_id":537,"name":"Shadow Puppeteer","steam_id":76561198151121997,"connected_time":1144000000000,"state":"active","ping":77},{"user_id":507,"name":"biff","steam_id":76561198069603865,"connected_time":3850000000000,"state":"active","ping":58},{"user_id":511,"name":"Swate","steam_id":76561198042991670,"connected_time":3669000000000,"state":"active","ping":59},{"user_id":548,"name":"itsjustmarvin77","steam_id":76561199375656301,"connected_time":163000000000,"state":"active","ping":74},{"user_id":496,"name":"LightningBlock","steam_id":76561198289997742,"connected_time":4561000000000,"state":"active","ping":35},{"user_id":546,"name":"lycoris","steam_id":76561199113965768,"connected_time":278000000000,"state":"active","ping":280},{"user_id":513,"name":"Tux","steam_id":76561198039000791,"connected_time":3538000000000,"state":"active","ping":60},{"user_id":516,"name":"[FTW] RonnieD'","steam_id":76561197993957267,"connected_time":2914000000000,"state":"active","ping":45},{"user_id":518,"name":"Tees","steam_id":76561199174602317,"connected_time":2685000000000,"state":"active","ping":45}]},{"server_id":395,"name":"Uncletopia | Sydney | 3 | All Maps","name_short":"syd-3","host":"syd-1.au.uncletopia.com","port":27035,"enabled":true,"region":"au","cc":"au","latitude":-33.865143,"longitude":151.2099,"reserved":0,"last_update":"0001-01-01T00:00:00Z","name_a2s":"Uncletopia | Sydney | 3 | All Maps","protocol":17,"map":"koth_viaduct","folder":"tf","game":"Team Fortress","app_id":440,"player_count":0,"max_players":24,"Bots":0,"server_type":"Dedicated","server_os":"Linux","password":true,"vac":true,"version":"7757534","steam_id":85568392925194467,"keywords":["cp","nocrits","nodmgspread","uncletopia"],"game_id":440,"stv_port":27036,"stv_name":"Uncletopia | Sydney | 3 | All Maps | STV","players":null},{"server_id":396,"name":"Uncletopia | Sydney | 4 | All Maps","name_short":"syd-4","host":"syd-1.au.uncletopia.com","port":27045,"enabled":true,"region":"au","cc":"au","latitude":-33.865143,"longitude":151.2099,"reserved":0,"last_update":"0001-01-01T00:00:00Z","name_a2s":"Uncletopia | Sydney | 4 | All Maps","protocol":17,"map":"koth_highpass","folder":"tf","game":"Team Fortress","app_id":440,"player_count":0,"max_players":24,"Bots":0,"server_type":"Dedicated","server_os":"Linux","password":true,"vac":true,"version":"7757534","steam_id":85568392925397958,"keywords":["cp","nocrits","nodmgspread","uncletopia"],"game_id":440,"stv_port":27046,"stv_name":"Uncletopia | Sydney | 4 | All Maps | STV","players":null},{"server_id":58,"name":"Uncletopia | Sydney | 5 | Stopwatch Beta","name_short":"syd-5","host":"syd-1.au.uncletopia.com","port":27055,"enabled":true,"region":"au","cc":"au","latitude":-33.865143,"longitude":151.2099,"reserved":0,"last_update":"0001-01-01T00:00:00Z","name_a2s":"Uncletopia | Sydney | 5 | Stopwatch Beta","protocol":17,"map":"workshop/cp_reckoner_rc6.ugc674719999","folder":"tf","game":"Team Fortress","app_id":440,"player_count":0,"max_players":24,"Bots":0,"server_type":"Dedicated","server_os":"Linux","password":true,"vac":true,"version":"7757534","steam_id":85568392925397959,"keywords":["cp","nocrits","nodmgspread","uncletopia"],"game_id":440,"stv_port":27056,"stv_name":"Uncletopia | Sydney | 5 | Stopwatch Beta | STV","players":null},{"server_id":59,"name":"Uncletopia | Sydney | 6 | Community","name_short":"syd-6","host":"syd-1.au.uncletopia.com","port":27065,"enabled":true,"region":"au","cc":"au","latitude":-33.865143,"longitude":151.2099,"reserved":0,"last_update":"0001-01-01T00:00:00Z","name_a2s":"Uncletopia | Sydney | 6 | Community","protocol":17,"map":"workshop/pl_vigil_rc9.ugc1266210012","folder":"tf","game":"Team Fortress","app_id":440,"player_count":0,"max_players":24,"Bots":0,"server_type":"Dedicated","server_os":"Linux","password":true,"vac":true,"version":"7757534","steam_id":85568392925397960,"keywords":["nocrits","nodmgspread","payload","uncletopia"],"game_id":440,"stv_port":27066,"stv_name":"Uncletopia | Sydney | 6 | Community | STV","players":null},{"server_id":49,"name":"Uncletopia | Warsaw | 1 | All Maps","name_short":"waw-1","host":"waw-1.pl.uncletopia.com","port":27015,"enabled":true,"region":"eu","cc":"pl","latitude":52.2297,"longitude":21.017532,"reserved":0,"last_update":"0001-01-01T00:00:00Z","name_a2s":"","protocol":0,"map":"","folder":"","game":"","app_id":0,"player_count":0,"max_players":0,"Bots":0,"server_type":"","server_os":"","password":false,"vac":false,"version":"","steam_id":0,"keywords":null,"game_id":0,"stv_port":0,"stv_name":"","players":null},{"server_id":50,"name":"Uncletopia | Warsaw | 2 | All Maps","name_short":"waw-2","host":"waw-1.pl.uncletopia.com","port":27025,"enabled":true,"region":"eu","cc":"pl","latitude":52.2297,"longitude":21.017532,"reserved":0,"last_update":"0001-01-01T00:00:00Z","name_a2s":"Uncletopia | Warsaw | 2 | All Maps","protocol":17,"map":"koth_viaduct","folder":"tf","game":"Team Fortress","app_id":440,"player_count":0,"max_players":24,"Bots":0,"server_type":"Dedicated","server_os":"Linux","password":true,"vac":true,"version":"7757534","steam_id":85568392925397851,"keywords":["cp","nocrits","nodmgspread","uncletopia"],"game_id":440,"stv_port":27026,"stv_name":"Uncletopia | Warsaw | 2 | All Maps | STV","players":null},{"server_id":51,"name":"Uncletopia | Warsaw | 3 | All Maps","name_short":"waw-3","host":"waw-1.pl.uncletopia.com","port":27035,"enabled":true,"region":"eu","cc":"pl","latitude":52.2297,"longitude":21.017532,"reserved":0,"last_update":"0001-01-01T00:00:00Z","name_a2s":"Uncletopia | Warsaw | 3 | All Maps","protocol":17,"map":"pl_badwater","folder":"tf","game":"Team Fortress","app_id":440,"player_count":0,"max_players":24,"Bots":0,"server_type":"Dedicated","server_os":"Linux","password":true,"vac":true,"version":"7757534","steam_id":85568392925397852,"keywords":["nocrits","nodmgspread","payload","uncletopia"],"game_id":440,"stv_port":27036,"stv_name":"Uncletopia | Warsaw | 3 | All Maps | STV","players":null},{"server_id":52,"name":"Uncletopia | Warsaw | 4 | All Maps","name_short":"waw-4","host":"waw-1.pl.uncletopia.com","port":27045,"enabled":true,"region":"eu","cc":"pl","latitude":52.2297,"longitude":21.017532,"reserved":0,"last_update":"0001-01-01T00:00:00Z","name_a2s":"Uncletopia | Warsaw | 4 | All Maps","protocol":17,"map":"koth_lakeside_final","folder":"tf","game":"Team Fortress","app_id":440,"player_count":0,"max_players":24,"Bots":0,"server_type":"Dedicated","server_os":"Linux","password":true,"vac":true,"version":"7757534","steam_id":85568392925397853,"keywords":["cp","nocrits","nodmgspread","uncletopia"],"game_id":440,"stv_port":27046,"stv_name":"Uncletopia | Warsaw | 4 | All Maps | STV","players":null},{"server_id":53,"name":"Uncletopia | Warsaw | 5 | Stopwatch Beta","name_short":"waw-5","host":"waw-1.pl.uncletopia.com","port":27055,"enabled":true,"region":"eu","cc":"pl","latitude":52.2297,"longitude":21.017532,"reserved":0,"last_update":"0001-01-01T00:00:00Z","name_a2s":"Uncletopia | Warsaw | 5 | Stopwatch Beta","protocol":17,"map":"pl_borneo","folder":"tf","game":"Team Fortress","app_id":440,"player_count":0,"max_players":24,"Bots":0,"server_type":"Dedicated","server_os":"Linux","password":true,"vac":true,"version":"7757534","steam_id":85568392925397854,"keywords":["nocrits","nodmgspread","payload","uncletopia"],"game_id":440,"stv_port":27056,"stv_name":"Uncletopia | Warsaw | 5 | Stopwatch Beta | STV","players":null},{"server_id":54,"name":"Uncletopia | Warsaw | 6 | Community","name_short":"waw-6","host":"waw-1.pl.uncletopia.com","port":27065,"enabled":true,"region":"eu","cc":"pl","latitude":52.2297,"longitude":21.017532,"reserved":0,"last_update":"0001-01-01T00:00:00Z","name_a2s":"Uncletopia | Warsaw | 6 | Community","protocol":17,"map":"koth_lakeside_final","folder":"tf","game":"Team Fortress","app_id":440,"player_count":0,"max_players":24,"Bots":0,"server_type":"Dedicated","server_os":"Linux","password":true,"vac":true,"version":"7757534","steam_id":85568392925397856,"keywords":["cp","nocrits","nodmgspread","uncletopia"],"game_id":440,"stv_port":27066,"stv_name":"Uncletopia | Warsaw | 6 | Community | STV","players":null}]}