{"status":true,"message":"","result":[{"server_id":9,"name":"Uncletopia | Atlanta | 1 | All Maps","name_short":"atl-1","host":"atl-1.us.uncletopia.com","port":27015,"enabled":true,"region":"us-east","cc":"us","latitude":33.753746,"longitude":-84.38633,"reserved":0,"last_update":"0001-01-01T00:00:00Z","name_a2s":"Uncletopia | Atlanta | 1 | All Maps","protocol":17,"map":"cp_mountainlab","folder":"tf","game":"Team Fortress","app_id":440,"player_count":0,"max_players":24,"Bots":0,"server_type":"Dedicated","server_os":"Linux","password":true,"vac":true,"version":"7961495","steam_id":85568392924469982,"keywords":["cp","nocrits","nodmgspread","uncletopia"],"game_id":440,"stv_port":27016,"stv_name":"Uncletopia | Atlanta | 1 | All Maps | STV","players":null},{"server_id":104,"name":"Uncletopia | Atlanta | 2 | All Maps","name_short":"atl-2","host":"atl-1.us.uncletopia.com","port":27025,"enabled":true,"region":"us-east","cc":"us","latitude":33.753746,"longitude":-84.38633,"reserved":0,"last_update":"0001-01-01T00:00:00Z","name_a2s":"","protocol":0,"map":"","folder":"","game":"","app_id":0,"player_count":0,"max_players":0,"Bots":0,"server_type":"","server_os":"","password":false,"vac":false,"version":"","steam_id":0,"keywords":null,"game_id":0,"stv_port":0,"stv_name":"","players":null},{"server_id":400,"name":"Uncletopia | Atlanta | 3 | All Maps","name_short":"atl-3","host":"atl-1.us.uncletopia.com","port":27035,"enabled":true,"region":"us-east","cc":"us","latitude":33.753746,"longitude":-84.38633,"reserved":0,"last_update":"0001-01-01T00:00:00Z","name_a2s":"","protocol":0,"map":"","folder":"","game":"","app_id":0,"player_count":0,"max_players":0,"Bots":0,"server_type":"","server_os":"","password":false,"vac":false,"version":"","steam_id":0,"keywords":null,"game_id":0,"stv_port":0,"stv_name":"","players":null},{"server_id":401,"name":"Uncletopia | Atlanta | 4 | Community","name_short":"atl-4","host":"atl-1.us.uncletopia.com","port":27045,"enabled":true,"region":"us-east","cc":"us","latitude":33.753746,"longitude":-84.38633,"reserved":0,"last_update":"0001-01-01T00:00:00Z","name_a2s":"","protocol":0,"map":"","folder":"","game":"","app_id":0,"player_count":0,"max_players":0,"Bots":0,"server_type":"","server_os":"","password":false,"vac":false,"version":"","steam_id":0,"keywords":null,"game_id":0,"stv_port":0,"stv_name":"","players":null},{"server_id":2,"name":"Uncletopia | Chicago | 1 | All Maps","name_short":"chi-1","host":"chi-1.us.uncletopia.com","port":27015,"enabled":true,"region":"us-central","cc":"us","latitude":41.881832,"longitude":-87.62318,"reserved":0,"last_update":"0001-01-01T00:00:00Z","name_a2s":"Uncletopia | Chicago | 1 | All Maps","protocol":17,"map":"cp_dustbowl","folder":"tf","game":"Team Fortress","app_id":440,"player_count":24,"max_players":24,"Bots":0,"server_type":"Dedicated","server_os":"Linux","password":true,"vac":true,"version":"7961495","steam_id":85568392924469984,"keywords":["cp","nocrits","nodmgspread","uncletopia"],"game_id":440,"stv_port":27016,"stv_name":"Uncletopia | Chicago | 1 | All Maps | STV","players":[{"user_id":378,"name":"Yam Jazzy Jim","steam_id":76561198000788950,"connected_time":713000000000,"state":"active","ping":66},{"user_id":375,"name":"Tommy Pickles (Very Cool)","steam_id":76561198391261463,"connected_time":830000000000,"state":"active","ping":66},{"user_id":336,"name":"William Wallace","steam_id":76561199343316814,"connected_time":4682000000000,"state":"active","ping":72},{"user_id":386,"name":"assasssinnsnsnssn","steam_id":76561199492727315,"connected_time":272000000000,"state":"active","ping":55},{"user_id":351,"name":"blob","steam_id":76561198122375328,"connected_time":3396000000000,"state":"active","ping":58},{"user_id":387,"name":"Glue Gulper","steam_id":76561198158014525,"connected_time":235000000000,"state":"active","ping":59},{"user_id":372,"name":"Kmaids","steam_id":76561198100291036,"connected_time":881000000000,"state":"active","ping":62},{"user_id":364,"name":"D. Kickem","steam_id":76561198978221033,"connected_time":1848000000000,"state":"active","ping":65},{"user_id":361,"name":"girlpeen supreme","steam_id":76561198031242903,"connected_time":2517000000000,"state":"active","ping":59},{"user_id":369,"name":"Lawnmower","steam_id":76561198186680197,"connected_time":1729000000000,"state":"active","ping":84},{"user_id":381,"name":"hi","steam_id":76561198809577048,"connected_time":430000000000,"state":"active","ping":105},{"user_id":363,"name":"6t26j","steam_id":76561198278282836,"connected_time":2022000000000,"state":"active","ping":59},{"user_id":334,"name":"Dragus","steam_id":76561198032967285,"connected_time":4965000000000,"state":"active","ping":50},{"user_id":341,"name":"McGruble","steam_id":76561198136317340,"connected_time":4145000000000,"state":"active","ping":83},{"user_id":376,"name":"Plague Dr.","steam_id":76561198142468986,"connected_time":796000000000,"state":"active","ping":58},{"user_id":377,"name":"antivirus.exe","steam_id":76561198152067633,"connected_time":755000000000,"state":"active","ping":68},{"user_id":347,"name":"Shalom","steam_id":76561198410005222,"connected_time":3551000000000,"state":"active","ping":69},{"user_id":348,"name":"b","steam_id":76561198208094321,"connected_time":3532000000000,"state":"active","ping":100},{"user_id":306,"name":"Ashes!","steam_id":76561197998475441,"connected_time":6531000000000,"state":"active","ping":89},{"user_id":352,"name":"Thunder","steam_id":76561199434110716,"connected_time":3393000000000,"state":"active","ping":66},{"user_id":331,"name":"Mecha","steam_id":76561198014927379,"connected_time":5422000000000,"state":"active","ping":68},{"user_id":379,"name":"2020 RX 350","steam_id":76561199123332348,"connected_time":645000000000,"state":"active","ping":79},{"user_id":383,"name":"Chiki","steam_id":76561198063590320,"connected_time":421000000000,"state":"active","ping":71},{"user_id":384,"name":"exotic smishes","steam_id":76561199046490785,"connected_time":417000000000,"state":"active","ping":65}]},{"server_id":106,"name":"Uncletopia | Chicago | 2 | All Maps","name_short":"chi-2","host":"chi-1.us.uncletopia.com","port":27025,"enabled":true,"region":"us-central","cc":"us","latitude":41.881832,"longitude":-87.62318,"reserved":0,"last_update":"0001-01-01T00:00:00Z","name_a2s":"Uncletopia | Chicago | 2 | All Maps","protocol":17,"map":"pl_badwater","folder":"tf","game":"Team Fortress","app_id":440,"player_count":24,"max_players":24,"Bots":0,"server_type":"Dedicated","server_os":"Linux","password":true,"vac":true,"version":"7961495","steam_id":85568392924469985,"keywords":["nocrits","nodmgspread","payload","uncletopia"],"game_id":440,"stv_port":27026,"stv_name":"Uncletopia | Chicago | 2 | All Maps | STV","players":[{"user_id":321,"name":"Apetometrist","steam_id":76561198045391635,"connected_time":310000000000,"state":"active","ping":61},{"user_id":310,"name":"Kobheerian Freighter Captain","steam_id":76561198069735882,"connected_time":1487000000000,"state":"active","ping":73},{"user_id":327,"name":"Âåó (Hoku)","steam_id":76561198156541138,"connected_time":6000000000,"state":"spawning","ping":140},{"user_id":265,"name":"Obama","steam_id":76561198194065283,"connected_time":4304000000000,"state":"active","ping":99},{"user_id":320,"name":"Mr. Fluffy Penguins","steam_id":76561198172538149,"connected_time":369000000000,"state":"active","ping":94},{"user_id":315,"name":"eat Pant","steam_id":76561197974965536,"connected_time":837000000000,"state":"active","ping":48},{"user_id":316,"name":"caption cool","steam_id":76561197990612056,"connected_time":747000000000,"state":"active","ping":41},{"user_id":326,"name":"Tlaloc","steam_id":76561198375215983,"connected_time":53000000000,"state":"active","ping":117},{"user_id":304,"name":"Caboose","steam_id":76561198119221840,"connected_time":2161000000000,"state":"active","ping":98},{"user_id":317,"name":"benedro05","steam_id":76561198269369429,"connected_time":402000000000,"state":"active","ping":60},{"user_id":279,"name":"Scorpie Doodle","steam_id":76561198021845763,"connected_time":3428000000000,"state":"active","ping":56},{"user_id":274,"name":"God","steam_id":76561198131089513,"connected_time":3713000000000,"state":"active","ping":53},{"user_id":322,"name":"mr.sapyoursentry","steam_id":76561199202571828,"connected_time":282000000000,"state":"active","ping":92},{"user_id":308,"name":"dieling","steam_id":76561198831902966,"connected_time":1674000000000,"state":"active","ping":73},{"user_id":309,"name":"Cult of neurodivergency üè≥","steam_id":76561199112194007,"connected_time":1603000000000,"state":"active","ping":83},{"user_id":156,"name":"ThatGamingKiwi","steam_id":76561199170522237,"connected_time":11942000000000,"state":"active","ping":72},{"user_id":300,"name":"Ghost Lord","steam_id":76561198088956723,"connected_time":2268000000000,"state":"active","ping":96},{"user_id":323,"name":"mountainkug","steam_id":76561199491802535,"connected_time":279000000000,"state":"active","ping":88},{"user_id":288,"name":"a table","steam_id":76561198158461279,"connected_time":2990000000000,"state":"active","ping":64},{"user_id":318,"name":"‚ô•Sav‚ô•","steam_id":76561198066973280,"connected_time":392000000000,"state":"active","ping":81},{"user_id":325,"name":"iUseDvorak","steam_id":76561198064439037,"connected_time":216000000000,"state":"active","ping":74},{"user_id":305,"name":"dog","steam_id":76561198263873491,"connected_time":2123000000000,"state":"active","ping":43},{"user_id":290,"name":"ohhhl0rd","steam_id":76561199066793578,"connected_time":2952000000000,"state":"active","ping":61},{"user_id":314,"name":"P53 Enfield","steam_id":76561198144121679,"connected_time":903000000000,"state":"active","ping":53}]},{"server_id":402,"name":"Uncletopia | Chicago | 3 | All Maps","name_short":"chi-3","host":"chi-1.us.uncletopia.com","port":27035,"enabled":true,"region":"us-central","cc":"us","latitude":41.881832,"longitude":-87.62318,"reserved":0,"last_update":"0001-01-01T00:00:00Z","name_a2s":"Uncletopia | Chicago | 3 | All Maps","protocol":17,"map":"koth_cascade","folder":"tf","game":"Team Fortress","app_id":440,"player_count":24,"max_players":24,"Bots":0,"server_type":"Dedicated","server_os":"Linux","password":true,"vac":true,"version":"7961495","steam_id":85568392924515191,"keywords":["cp","nocrits","nodmgspread","uncletopia"],"game_id":440,"stv_port":27036,"stv_name":"Uncletopia | Chicago | 3 | All Maps | STV","players":[{"user_id":225,"name":"tsbro40","steam_id":76561199455605580,"connected_time":57000000000,"state":"active","ping":83},{"user_id":219,"name":"azucar","steam_id":76561198056543825,"connected_time":715000000000,"state":"active","ping":51},{"user_id":203,"name":"TheFriendlyPybro","steam_id":76561198119425604,"connected_time":1311000000000,"state":"active","ping":75},{"user_id":178,"name":"anonpain","steam_id":76561198081317092,"connected_time":3462000000000,"state":"active","ping":53},{"user_id":207,"name":"SmearierGold7","steam_id":76561198065689410,"connected_time":1220000000000,"state":"active","ping":101},{"user_id":222,"name":"Lemon","steam_id":76561198119362095,"connected_time":372000000000,"state":"active","ping":56},{"user_id":199,"name":"Roar","steam_id":76561199476592495,"connected_time":1856000000000,"state":"active","ping":55},{"user_id":218,"name":"5mech","steam_id":76561198979167520,"connected_time":838000000000,"state":"active","ping":55},{"user_id":224,"name":"Prsm","steam_id":76561198053344995,"connected_time":127000000000,"state":"active","ping":53},{"user_id":194,"name":"Coach McFish","steam_id":76561198210456405,"connected_time":2254000000000,"state":"active","ping":73},{"user_id":201,"name":"Blobbyfish","steam_id":76561198822962650,"connected_time":1740000000000,"state":"active","ping":70},{"user_id":162,"name":"TheFryingDutchman","steam_id":76561199193784099,"connected_time":4667000000000,"state":"active","ping":91},{"user_id":160,"name":"MontellWilliams","steam_id":76561198172143015,"connected_time":4744000000000,"state":"active","ping":61},{"user_id":195,"name":"subdromeda","steam_id":76561198884351860,"connected_time":2219000000000,"state":"active","ping":72},{"user_id":209,"name":"Danger Daniel","steam_id":76561199085838474,"connected_time":1215000000000,"state":"active","ping":86},{"user_id":210,"name":"Your Pal, Vegeta","steam_id":76561198064916816,"connected_time":1198000000000,"state":"active","ping":86},{"user_id":221,"name":"Acehay14","steam_id":76561198052373291,"connected_time":463000000000,"state":"active","ping":62},{"user_id":197,"name":"IMM0RTAL","steam_id":76561198013747901,"connected_time":2081000000000,"state":"active","ping":66},{"user_id":220,"name":"dmikewilcox","steam_id":76561198060700489,"connected_time":691000000000,"state":"active","ping":45},{"user_id":213,"name":"Letters","steam_id":76561198035508148,"connected_time":1176000000000,"state":"active","ping":95},{"user_id":164,"name":"Natsuki the Scunt","steam_id":76561199175922684,"connected_time":4649000000000,"state":"active","ping":115},{"user_id":214,"name":"Nephi","steam_id":76561198031525122,"connected_time":1162000000000,"state":"active","ping":89},{"user_id":215,"name":"thepokeyen","steam_id":76561198236847572,"connected_time":1116000000000,"state":"active","ping":72},{"user_id":191,"name":"Mephistopheles","steam_id":76561198253731826,"connected_time":2455000000000,"state":"active","ping":113}]},{"server_id":403,"name":"Uncletopia | Chicago | 4 | All Maps","name_short":"chi-4","host":"chi-1.us.uncletopia.com","port":27045,"enabled":true,"region":"us-central","cc":"us","latitude":41.881832,"longitude":-87.62318,"reserved":0,"last_update":"0001-01-01T00:00:00Z","name_a2s":"Uncletopia | Chicago | 4 | All Maps","protocol":17,"map":"koth_cascade","folder":"tf","game":"Team Fortress","app_id":440,"player_count":0,"max_players":24,"Bots":0,"server_type":"Dedicated","server_os":"Linux","password":true,"vac":true,"version":"7961495","steam_id":85568392924515193,"keywords":["cp","nocrits","nodmgspread","uncletopia"],"game_id":440,"stv_port":27046,"stv_name":"Uncletopia | Chicago | 4 | All Maps | STV","players":null},{"server_id":36,"name":"Uncletopia | Chicago | 5 | All Maps","name_short":"chi-5","host":"chi-2.us.uncletopia.com","port":27015,"enabled":true,"region":"us-central","cc":"us","latitude":41.881832,"longitude":-87.62318,"reserved":0,"last_update":"0001-01-01T00:00:00Z","name_a2s":"Uncletopia | Chicago | 5 | All Maps","protocol":17,"map":"koth_highpass","folder":"tf","game":"Team Fortress","app_id":440,"player_count":0,"max_players":24,"Bots":0,"server_type":"Dedicated","server_os":"Linux","password":true,"vac":true,"version":"7961495","steam_id":85568392924866362,"keywords":["cp","nocrits","nodmgspread","uncletopia"],"game_id":440,"stv_port":27016,"stv_name":"Uncletopia | Chicago | 5 | All Maps | STV","players":null},{"server_id":37,"name":"Uncletopia | Chicago | 6 | All Maps","name_short":"chi-6","host":"chi-2.us.uncletopia.com","port":27025,"enabled":true,"region":"us-central","cc":"us","latitude":41.881832,"longitude":-87.62318,"reserved":0,"last_update":"0001-01-01T00:00:00Z","name_a2s":"Uncletopia | Chicago | 6 | All Maps","protocol":17,"map":"cp_altitude","folder":"tf","game":"Team Fortress","app_id":440,"player_count":0,"max_players":24,"Bots":0,"server_type":"Dedicated","server_os":"Linux","password":true,"vac":true,"version":"7961495","steam_id":85568392924866363,"keywords":["cp","nocrits","nodmgspread","uncletopia"],"game_id":440,"stv_port":27026,"stv_name":"Uncletopia | Chicago | 6 | All Maps | STV","players":null},{"server_id":38,"name":"Uncletopia | Chicago | 7 | Stopwatch Beta","name_short":"chi-7","host":"chi-2.us.uncletopia.com","port":27035,"enabled":true,"region":"us-central","cc":"us","latitude":41.881832,"longitude":-87.62318,"reserved":0,"last_update":"0001-01-01T00:00:00Z","name_a2s":"Uncletopia | Chicago | 7 | Stopwatch Beta","protocol":17,"map":"pl_badwater","folder":"tf","game":"Team Fortress","app_id":440,"player_count":0,"max_players":24,"Bots":0,"server_type":"Dedicated","server_os":"Linux","password":true,"vac":true,"version":"7961495","steam_id":85568392924866364,"keywords":["nocrits","nodmgspread","payload","uncletopia"],"game_id":440,"stv_port":27036,"stv_name":"Uncletopia | Chicago | 7 | Stopwatch Beta | STV","players":null},{"server_id":39,"name":"Uncletopia | Chicago | 8 | Community","name_short":"chi-8","host":"chi-2.us.uncletopia.com","port":27045,"enabled":true,"region":"us-central","cc":"us","latitude":41.881832,"longitude":-87.62318,"reserved":0,"last_update":"0001-01-01T00:00:00Z","name_a2s":"Uncletopia | Chicago | 8 | Community","protocol":17,"map":"koth_cascade","folder":"tf","game":"Team Fortress","app_id":440,"player_count":0,"max_players":24,"Bots":0,"server_type":"Dedicated","server_os":"Linux","password":true,"vac":true,"version":"7961495","steam_id":85568392924866365,"keywords":["cp","nocrits","nodmgspread","uncletopia"],"game_id":440,"stv_port":27046,"stv_name":"Uncletopia | Chicago | 8 | Community | STV","players":null},{"server_id":8,"name":"Uncletopia | Dallas | 1 | All Maps","name_short":"dal-1","host":"dal-1.us.uncletopia.com","port":27015,"enabled":true,"region":"us-central","cc":"us","latitude":32.779167,"longitude":-96.80889,"reserved":0,"last_update":"0001-01-01T00:00:00Z","name_a2s":"Uncletopia | Dallas | 1 | All Maps","protocol":17,"map":"pl_badwater","folder":"tf","game":"Team Fortress","app_id":440,"player_count":23,"max_players":24,"Bots":0,"server_type":"Dedicated","server_os":"Linux","password":true,"vac":true,"version":"7961495","steam_id":85568392924469986,"keywords":["nocrits","nodmgspread","payload","uncletopia"],"game_id":440,"stv_port":27016,"stv_name":"Uncletopia | Dallas | 1 | All Maps | STV","players":[{"user_id":255,"name":"Jango","steam_id":76561198084589742,"connected_time":4075000000000,"state":"active","ping":74},{"user_id":282,"name":"The Sapper","steam_id":76561198255322968,"connected_time":1917000000000,"state":"active","ping":118},{"user_id":256,"name":"David De Bergerac","steam_id":76561198010306294,"connected_time":4041000000000,"state":"active","ping":87},{"user_id":233,"name":"Mellou","steam_id":76561198212048740,"connected_time":5813000000000,"state":"active","ping":47},{"user_id":286,"name":"The Balls Scratcher","steam_id":76561198878732910,"connected_time":809000000000,"state":"active","ping":93},{"user_id":296,"name":"Green Mario","steam_id":76561198922644496,"connected_time":102000000000,"state":"active","ping":90},{"user_id":275,"name":"Fran√ßois Vi√®te","steam_id":76561198072975518,"connected_time":2546000000000,"state":"active","ping":68},{"user_id":297,"name":"GX thedittoguy (lfp demo)","steam_id":76561199013129784,"connected_time":72000000000,"state":"active","ping":53},{"user_id":298,"name":"Weird","steam_id":76561199082362722,"connected_time":71000000000,"state":"active","ping":116},{"user_id":259,"name":"dang it darn it crap","steam_id":76561198204593875,"connected_time":3408000000000,"state":"active","ping":63},{"user_id":285,"name":"Atlas","steam_id":76561198127975050,"connected_time":1610000000000,"state":"active","ping":66},{"user_id":276,"name":"scout gaming","steam_id":76561199314496252,"connected_time":2544000000000,"state":"active","ping":101},{"user_id":292,"name":"Ghost","steam_id":76561199010766490,"connected_time":274000000000,"state":"active","ping":80},{"user_id":294,"name":"Walmart Security","steam_id":76561198970357141,"connected_time":239000000000,"state":"active","ping":93},{"user_id":277,"name":"imng","steam_id":76561198014988031,"connected_time":2530000000000,"state":"active","ping":71},{"user_id":230,"name":"The Engineer","steam_id":76561198104086771,"connected_time":6267000000000,"state":"active","ping":77},{"user_id":266,"name":"nosound","steam_id":76561198092135570,"connected_time":2989000000000,"state":"active","ping":40},{"user_id":252,"name":"furrein","steam_id":76561198318777982,"connected_time":4351000000000,"state":"active","ping":57},{"user_id":289,"name":"Fightin Cow","steam_id":76561198080941486,"connected_time":734000000000,"state":"active","ping":61},{"user_id":295,"name":"elso","steam_id":76561198058209902,"connected_time":198000000000,"state":"active","ping":84},{"user_id":254,"name":"SLOPMASTER_69","steam_id":76561198080130096,"connected_time":4259000000000,"state":"active","ping":92},{"user_id":300,"name":"Pasta","steam_id":76561198358320222,"connected_time":7000000000,"state":"spawning","ping":66},{"user_id":291,"name":"Shadowgear7","steam_id":76561198129463509,"connected_time":574000000000,"state":"active","ping":75}]},{"server_id":108,"name":"Uncletopia | Dallas | 2 | All Maps","name_short":"dal-2","host":"dal-1.us.uncletopia.com","port":27025,"enabled":true,"region":"us-central","cc":"us","latitude":32.779167,"longitude":-96.80889,"reserved":0,"last_update":"0001-01-01T00:00:00Z","name_a2s":"Uncletopia | Dallas | 2 | All Maps","protocol":17,"map":"pl_pier","folder":"tf","game":"Team Fortress","app_id":440,"player_count":22,"max_players":24,"Bots":0,"server_type":"Dedicated","server_os":"Linux","password":true,"vac":true,"version":"7961495","steam_id":85568392924469988,"keywords":["nocrits","nodmgspread","payload","uncletopia"],"game_id":440,"stv_port":27026,"stv_name":"Uncletopia | Dallas | 2 | All Maps | STV","players":[{"user_id":127,"name":"alset333","steam_id":76561198405345260,"connected_time":3965000000000,"state":"active","ping":80},{"user_id":124,"name":"Quinton Beef","steam_id":76561198117825609,"connected_time":3992000000000,"state":"active","ping":83},{"user_id":151,"name":"woah","steam_id":76561198993008247,"connected_time":1823000000000,"state":"active","ping":129},{"user_id":132,"name":"Brown_Dream","steam_id":76561198975766145,"connected_time":3767000000000,"state":"active","ping":88},{"user_id":156,"name":"mkl","steam_id":76561197986401685,"connected_time":1465000000000,"state":"active","ping":45},{"user_id":169,"name":"Campasrt","steam_id":76561198165410359,"connected_time":575000000000,"state":"active","ping":84},{"user_id":161,"name":"ok","steam_id":76561198099308185,"connected_time":1079000000000,"state":"active","ping":50},{"user_id":170,"name":"BU Baggead","steam_id":76561198852902827,"connected_time":523000000000,"state":"active","ping":74},{"user_id":181,"name":"$limek‚úîngEM0.an1me.B0Y_33309","steam_id":76561198283687382,"connected_time":238000000000,"state":"active","ping":88},{"user_id":172,"name":"Chestnut","steam_id":76561198078198968,"connected_time":486000000000,"state":"active","ping":79},{"user_id":155,"name":"Wescool121","steam_id":76561198351313234,"connected_time":1713000000000,"state":"active","ping":92},{"user_id":153,"name":"DiscoTraveler","steam_id":76561199240168088,"connected_time":1740000000000,"state":"active","ping":81},{"user_id":173,"name":"sentry food","steam_id":76561198042926224,"connected_time":474000000000,"state":"active","ping":83},{"user_id":143,"name":"mr poop","steam_id":76561199195196632,"connected_time":2510000000000,"state":"active","ping":50},{"user_id":107,"name":"Raine","steam_id":76561198055761141,"connected_time":5696000000000,"state":"active","ping":105},{"user_id":111,"name":"Snoopy","steam_id":76561198273735974,"connected_time":5540000000000,"state":"active","ping":75},{"user_id":174,"name":"Serenue","steam_id":76561199040361250,"connected_time":456000000000,"state":"active","ping":112},{"user_id":175,"name":"fasterbum","steam_id":76561198142577444,"connected_time":441000000000,"state":"active","ping":78},{"user_id":177,"name":"MatchaPanda","steam_id":76561198027383926,"connected_time":375000000000,"state":"active","ping":161},{"user_id":178,"name":"s a d b o y s","steam_id":76561198037481669,"connected_time":371000000000,"state":"active","ping":85},{"user_id":179,"name":"rawburt","steam_id":76561197993860970,"connected_time":370000000000,"state":"active","ping":74},{"user_id":180,"name":"XARRRR","steam_id":76561198151401500,"connected_time":356000000000,"state":"active","ping":99}]},{"server_id":404,"name":"Uncletopia | Dallas | 3 | All Maps","name_short":"dal-3","host":"dal-1.us.uncletopia.com","port":27035,"enabled":true,"region":"us-central","cc":"us","latitude":32.779167,"longitude":-96.80889,"reserved":0,"last_update":"0001-01-01T00:00:00Z","name_a2s":"Uncletopia | Dallas | 3 | All Maps","protocol":17,"map":"pl_upward","folder":"tf","game":"Team Fortress","app_id":440,"player_count":14,"max_players":24,"Bots":0,"server_type":"Dedicated","server_os":"Linux","password":true,"vac":true,"version":"7961495","steam_id":85568392924515219,"keywords":["nocrits","nodmgspread","payload","uncletopia"],"game_id":440,"stv_port":27036,"stv_name":"Uncletopia | Dallas | 3 | All Maps | STV","players":[{"user_id":6,"name":"Lord Commissar Drac","steam_id":76561198030371218,"connected_time":3859000000000,"state":"active","ping":167},{"user_id":49,"name":"the mental gent","steam_id":76561198374969412,"connected_time":93000000000,"state":"active","ping":57},{"user_id":8,"name":"GezmeRR TF2","steam_id":76561198043814532,"connected_time":3603000000000,"state":"active","ping":159},{"user_id":48,"name":"Jimster","steam_id":76561199121115211,"connected_time":137000000000,"state":"active","ping":74},{"user_id":39,"name":"Irritated Duck","steam_id":76561198247792076,"connected_time":676000000000,"state":"active","ping":129},{"user_id":12,"name":"lucky","steam_id":76561198323426623,"connected_time":2684000000000,"state":"active","ping":89},{"user_id":50,"name":"andyiscolorless","steam_id":76561199239870921,"connected_time":72000000000,"state":"active","ping":148},{"user_id":43,"name":"cat food","steam_id":76561198905911729,"connected_time":499000000000,"state":"active","ping":166},{"user_id":40,"name":"Solly","steam_id":76561198157466077,"connected_time":636000000000,"state":"active","ping":60},{"user_id":35,"name":"g00bur","steam_id":76561197993622520,"connected_time":1199000000000,"state":"active","ping":82},{"user_id":37,"name":"Yukon Cornelius","steam_id":76561198261512781,"connected_time":1058000000000,"state":"active","ping":57},{"user_id":20,"name":"ÓÄòMICEBATH_NGÓÄò","steam_id":76561199194844669,"connected_time":1982000000000,"state":"active","ping":101},{"user_id":21,"name":"[hoodie]","steam_id":76561198105408624,"connected_time":1837000000000,"state":"active","ping":88},{"user_id":47,"name":"bluedaproto","steam_id":76561199000149623,"connected_time":322000000000,"state":"active","ping":51}]},{"server_id":405,"name":"Uncletopia | Dallas | 4 | Community","name_short":"dal-4","host":"dal-1.us.uncletopia.com","port":27045,"enabled":true,"region":"us-central","cc":"us","latitude":32.779167,"longitude":-96.80889,"reserved":0,"last_update":"0001-01-01T00:00:00Z","name_a2s":"Uncletopia | Dallas | 4 | Community","protocol":17,"map":"workshop/pl_barnblitz_pro7.ugc582280235","folder":"tf","game":"Team Fortress","app_id":440,"player_count":0,"max_players":24,"Bots":0,"server_type":"Dedicated","server_os":"Linux","password":true,"vac":true,"version":"7961495","steam_id":85568392924515220,"keywords":["nocrits","nodmgspread","payload","uncletopia"],"game_id":440,"stv_port":27046,"stv_name":"Uncletopia | Dallas | 4 | Community | STV","players":null},{"server_id":5,"name":"Uncletopia | Frankfurt | 1 | All Maps","name_short":"frk-1","host":"frk-1.de.uncletopia.com","port":27015,"enabled":true,"region":"eu","cc":"de","latitude":50.110924,"longitude":8.682127,"reserved":0,"last_update":"0001-01-01T00:00:00Z","name_a2s":"Uncletopia | Frankfurt | 1 | All Maps","protocol":17,"map":"cp_sunshine","folder":"tf","game":"Team Fortress","app_id":440,"player_count":24,"max_players":24,"Bots":0,"server_type":"Dedicated","server_os":"Linux","password":true,"vac":true,"version":"7961495","steam_id":85568392924469989,"keywords":["cp","nocrits","nodmgspread","uncletopia"],"game_id":440,"stv_port":27016,"stv_name":"Uncletopia | Frankfurt | 1 | All Maps | STV","players":[{"user_id":645,"name":"Fiurius","steam_id":76561198151910950,"connected_time":3782000000000,"state":"active","ping":63},{"user_id":682,"name":"Daruun","steam_id":76561198019068781,"connected_time":1649000000000,"state":"active","ping":73},{"user_id":708,"name":"We are in a world of magic","steam_id":76561198104745492,"connected_time":709000000000,"state":"active","ping":72},{"user_id":700,"name":"Stikker","steam_id":76561198064183847,"connected_time":1176000000000,"state":"active","ping":72},{"user_id":718,"name":"Pestdoktor","steam_id":76561198058159271,"connected_time":125000000000,"state":"active","ping":100},{"user_id":673,"name":"Noob_with_source","steam_id":76561198870362103,"connected_time":2521000000000,"state":"active","ping":59},{"user_id":692,"name":"Mashiro Shiina","steam_id":76561198301932572,"connected_time":1392000000000,"state":"active","ping":84},{"user_id":710,"name":"Vitamin Weee","steam_id":76561199183937747,"connected_time":686000000000,"state":"active","ping":83},{"user_id":713,"name":"Envy","steam_id":76561198132723219,"connected_time":531000000000,"state":"active","ping":92},{"user_id":606,"name":"‚ôÇ Animan ‚ôÇ Studios ‚ôÇ","steam_id":76561198308302932,"connected_time":6393000000000,"state":"active","ping":92},{"user_id":675,"name":"Mr.Schnittlauch","steam_id":76561198295868113,"connected_time":2257000000000,"state":"active","ping":47},{"user_id":698,"name":"Althea","steam_id":76561198284106616,"connected_time":1223000000000,"state":"active","ping":92},{"user_id":690,"name":"Adushka","steam_id":76561198053095808,"connected_time":1412000000000,"state":"active","ping":79},{"user_id":514,"name":"halow","steam_id":76561198061505163,"connected_time":13011000000000,"state":"active","ping":97},{"user_id":711,"name":"CEO of Racism","steam_id":76561198042317958,"connected_time":659000000000,"state":"active","ping":60},{"user_id":702,"name":"TidB","steam_id":76561198055342304,"connected_time":910000000000,"state":"active","ping":56},{"user_id":652,"name":"The Captain","steam_id":76561198136877350,"connected_time":3517000000000,"state":"active","ping":76},{"user_id":677,"name":"megidolaon","steam_id":76561198176189782,"connected_time":2191000000000,"state":"active","ping":76},{"user_id":699,"name":"The Noxious Zephion","steam_id":76561198886608082,"connected_time":1205000000000,"state":"active","ping":88},{"user_id":712,"name":"Urfangonultasadana","steam_id":76561199389286151,"connected_time":632000000000,"state":"active","ping":98},{"user_id":668,"name":"–õ—ã—Å—ã–π –∏–∑ –∫—É—Ö–Ω–∏","steam_id":76561199072741842,"connected_time":2678000000000,"state":"active","ping":83},{"user_id":715,"name":"vurtun","steam_id":76561198857395274,"connected_time":469000000000,"state":"active","ping":54},{"user_id":654,"name":"screenshot2020-25-09","steam_id":76561198255275650,"connected_time":3126000000000,"state":"active","ping":47},{"user_id":717,"name":"SPONGE","steam_id":76561198040933472,"connected_time":247000000000,"state":"active","ping":61}]},{"server_id":110,"name":"Uncletopia | Frankfurt | 2 | All Maps","name_short":"frk-2","host":"frk-1.de.uncletopia.com","port":27025,"enabled":true,"region":"eu","cc":"de","latitude":50.110924,"longitude":8.682127,"reserved":0,"last_update":"0001-01-01T00:00:00Z","name_a2s":"Uncletopia | Frankfurt | 2 | All Maps","protocol":17,"map":"pl_borneo","folder":"tf","game":"Team Fortress","app_id":440,"player_count":24,"max_players":24,"Bots":0,"server_type":"Dedicated","server_os":"Linux","password":true,"vac":true,"version":"7961495","steam_id":85568392924469990,"keywords":["nocrits","nodmgspread","payload","uncletopia"],"game_id":440,"stv_port":27026,"stv_name":"Uncletopia | Frankfurt | 2 | All Maps | STV","players":[{"user_id":434,"name":"Rigby","steam_id":76561198021552128,"connected_time":204000000000,"state":"active","ping":90},{"user_id":414,"name":"Badrock 1","steam_id":76561198368513115,"connected_time":1378000000000,"state":"spawning","ping":115},{"user_id":435,"name":"üÉî Katarina","steam_id":76561198065652251,"connected_time":132000000000,"state":"active","ping":36},{"user_id":427,"name":"Maksim:)","steam_id":76561198816061842,"connected_time":760000000000,"state":"active","ping":73},{"user_id":390,"name":"Mr. Master","steam_id":76561199198569317,"connected_time":2826000000000,"state":"active","ping":59},{"user_id":398,"name":"Traylie","steam_id":76561198050797796,"connected_time":2027000000000,"state":"active","ping":75},{"user_id":399,"name":"Lukey","steam_id":76561198052076168,"connected_time":2019000000000,"state":"active","ping":78},{"user_id":400,"name":"Blenderman179","steam_id":76561198091096668,"connected_time":1990000000000,"state":"active","ping":68},{"user_id":401,"name":"TrashBoat","steam_id":76561199089671432,"connected_time":1934000000000,"state":"active","ping":164},{"user_id":436,"name":"Jeffrey Harpen","steam_id":76561199073314677,"connected_time":125000000000,"state":"active","ping":65},{"user_id":430,"name":"Kabajsa","steam_id":76561198111264439,"connected_time":549000000000,"state":"active","ping":70},{"user_id":405,"name":"ShadoWizardMONEYG4NG","steam_id":76561198114777963,"connected_time":1681000000000,"state":"active","ping":49},{"user_id":437,"name":"iq drops","steam_id":76561198035795130,"connected_time":123000000000,"state":"active","ping":66},{"user_id":426,"name":"NeonPixel","steam_id":76561198165901066,"connected_time":919000000000,"state":"active","ping":75},{"user_id":408,"name":"the cuck","steam_id":76561199210613967,"connected_time":1615000000000,"state":"active","ping":164},{"user_id":429,"name":"Pacyfista Feminista Frutarianin","steam_id":76561198435883762,"connected_time":753000000000,"state":"active","ping":90},{"user_id":441,"name":"Tree","steam_id":76561198054795379,"connected_time":48000000000,"state":"active","ping":51},{"user_id":431,"name":"Obama","steam_id":76561198094993151,"connected_time":539000000000,"state":"active","ping":49},{"user_id":433,"name":"bixigu","steam_id":76561198007425793,"connected_time":301000000000,"state":"active","ping":93},{"user_id":419,"name":"t.tv/Montreetor","steam_id":76561198088729562,"connected_time":1302000000000,"state":"active","ping":54},{"user_id":439,"name":"Michael","steam_id":76561198003146906,"connected_time":72000000000,"state":"active","ping":54},{"user_id":421,"name":"lulu","steam_id":76561199147764133,"connected_time":1164000000000,"state":"active","ping":75},{"user_id":422,"name":"goyard","steam_id":76561198154987321,"connected_time":1163000000000,"state":"active","ping":40},{"user_id":425,"name":"Thors","steam_id":76561197968739075,"connected_time":1080000000000,"state":"active","ping":32}]},{"server_id":308,"name":"Uncletopia | Frankfurt | 3 | All Maps","name_short":"frk-3","host":"frk-1.de.uncletopia.com","port":27035,"enabled":true,"region":"eu","cc":"de","latitude":50.110924,"longitude":8.682127,"reserved":0,"last_update":"0001-01-01T00:00:00Z","name_a2s":"Uncletopia | Frankfurt | 3 | All Maps","protocol":17,"map":"pl_borneo","folder":"tf","game":"Team Fortress","app_id":440,"player_count":24,"max_players":24,"Bots":0,"server_type":"Dedicated","server_os":"Linux","password":true,"vac":true,"version":"7961495","steam_id":85568392924504274,"keywords":["nocrits","nodmgspread","payload","uncletopia"],"game_id":440,"stv_port":27036,"stv_name":"Uncletopia | Frankfurt | 3 | All Maps | STV","players":[{"user_id":160,"name":"antonio.jurjevic@brazzers.hr","steam_id":76561198179392402,"connected_time":596000000000,"state":"active","ping":48},{"user_id":170,"name":"whip lol","steam_id":76561199313282353,"connected_time":68000000000,"state":"active","ping":93},{"user_id":156,"name":"lol917Den","steam_id":76561198434273418,"connected_time":1304000000000,"state":"active","ping":77},{"user_id":164,"name":"Bread","steam_id":76561198145232617,"connected_time":463000000000,"state":"active","ping":52},{"user_id":135,"name":"Kapf","steam_id":76561198137467168,"connected_time":2144000000000,"state":"active","ping":48},{"user_id":99,"name":"fish","steam_id":76561198092096689,"connected_time":4286000000000,"state":"active","ping":51},{"user_id":120,"name":"quarks and stuff","steam_id":76561198137869662,"connected_time":3155000000000,"state":"active","ping":49},{"user_id":100,"name":"Killcam","steam_id":76561198060307235,"connected_time":4282000000000,"state":"active","ping":73},{"user_id":153,"name":"No, Why?","steam_id":76561198888755969,"connected_time":1581000000000,"state":"active","ping":79},{"user_id":149,"name":"D√•vid","steam_id":76561198184135755,"connected_time":1824000000000,"state":"active","ping":56},{"user_id":165,"name":"Hexagon","steam_id":76561198151205758,"connected_time":404000000000,"state":"active","ping":53},{"user_id":166,"name":"TheAnonymeKiller","steam_id":76561198190680978,"connected_time":380000000000,"state":"active","ping":85},{"user_id":158,"name":"RoofRabbid","steam_id":76561198012821810,"connected_time":1154000000000,"state":"active","ping":112},{"user_id":140,"name":"Cava","steam_id":76561198054840118,"connected_time":2018000000000,"state":"active","ping":73},{"user_id":157,"name":"Piox","steam_id":76561198125689157,"connected_time":1290000000000,"state":"active","ping":63},{"user_id":167,"name":"Mr. Mundy","steam_id":76561198132008918,"connected_time":357000000000,"state":"active","ping":70},{"user_id":155,"name":"Ratatatatatatouille","steam_id":76561198182267098,"connected_time":1548000000000,"state":"active","ping":88},{"user_id":148,"name":"yush","steam_id":76561198121688934,"connected_time":1864000000000,"state":"active","ping":73},{"user_id":168,"name":"pijacka","steam_id":76561198103899658,"connected_time":325000000000,"state":"active","ping":60},{"user_id":133,"name":"ChilledCatz","steam_id":76561198166046621,"connected_time":2699000000000,"state":"active","ping":55},{"user_id":126,"name":"akela","steam_id":76561198122010232,"connected_time":3071000000000,"state":"active","ping":68},{"user_id":161,"name":"fronin","steam_id":76561198189553021,"connected_time":596000000000,"state":"active","ping":61},{"user_id":169,"name":"obi‚ò≠","steam_id":76561198040154461,"connected_time":303000000000,"state":"active","ping":75},{"user_id":130,"name":"Time-Green","steam_id":76561198133937444,"connected_time":2799000000000,"state":"active","ping":74}]},{"server_id":309,"name":"Uncletopia | Frankfurt | 4 | All Maps","name_short":"frk-4","host":"frk-1.de.uncletopia.com","port":27045,"enabled":true,"region":"eu","cc":"de","latitude":50.110924,"longitude":8.682127,"reserved":0,"last_update":"0001-01-01T00:00:00Z","name_a2s":"Uncletopia | Frankfurt | 4 | All Maps","protocol":17,"map":"pl_badwater","folder":"tf","game":"Team Fortress","app_id":440,"player_count":24,"max_players":24,"Bots":0,"server_type":"Dedicated","server_os":"Linux","password":true,"vac":true,"version":"7961495","steam_id":85568392924504275,"keywords":["nocrits","nodmgspread","payload","uncletopia"],"game_id":440,"stv_port":27046,"stv_name":"Uncletopia | Frankfurt | 4 | All Maps | STV","players":[{"user_id":282,"name":"sHIFTINGvORTEX","steam_id":76561198231648332,"connected_time":5927000000000,"state":"active","ping":77},{"user_id":345,"name":"YOU ARE SHITTING YOUR SELF","steam_id":76561198371719058,"connected_time":1216000000000,"state":"active","ping":65},{"user_id":322,"name":"LivEssense","steam_id":76561198052476979,"connected_time":2622000000000,"state":"active","ping":75},{"user_id":346,"name":"Lucky B.üèÜ","steam_id":76561198077571162,"connected_time":1216000000000,"state":"active","ping":59},{"user_id":349,"name":"jimmy kane","steam_id":76561197984425891,"connected_time":994000000000,"state":"active","ping":56},{"user_id":358,"name":"Lemon","steam_id":76561198093765664,"connected_time":312000000000,"state":"active","ping":70},{"user_id":327,"name":"Wafflesky","steam_id":76561198109973821,"connected_time":2549000000000,"state":"active","ping":63},{"user_id":359,"name":"onlystay","steam_id":76561198314370793,"connected_time":139000000000,"state":"active","ping":74},{"user_id":320,"name":"YuraGreek","steam_id":76561198050182252,"connected_time":2779000000000,"state":"active","ping":75},{"user_id":337,"name":"astroclad","steam_id":76561198263068744,"connected_time":1842000000000,"state":"active","ping":92},{"user_id":300,"name":"Rin-Nakaret","steam_id":76561197971051188,"connected_time":4246000000000,"state":"active","ping":81},{"user_id":350,"name":"Krefa12","steam_id":76561198268375393,"connected_time":988000000000,"state":"active","ping":75},{"user_id":341,"name":"Dkz","steam_id":76561197970673402,"connected_time":1545000000000,"state":"active","ping":47},{"user_id":351,"name":"ERROR","steam_id":76561198260905060,"connected_time":964000000000,"state":"active","ping":77},{"user_id":357,"name":"dzban","steam_id":76561198013511672,"connected_time":481000000000,"state":"active","ping":60},{"user_id":352,"name":"Buddy","steam_id":76561198050185582,"connected_time":950000000000,"state":"active","ping":75},{"user_id":354,"name":"TheEventGuy","steam_id":76561197972797744,"connected_time":716000000000,"state":"active","ping":61},{"user_id":333,"name":"willus212","steam_id":76561199182615246,"connected_time":2017000000000,"state":"active","ping":91},{"user_id":257,"name":"tequila sunset","steam_id":76561198315969106,"connected_time":7535000000000,"state":"active","ping":100},{"user_id":334,"name":"Doctor Livesey","steam_id":76561198828037534,"connected_time":1991000000000,"state":"active","ping":69},{"user_id":356,"name":"SpaceBoxxer","steam_id":76561198798211513,"connected_time":552000000000,"state":"active","ping":84},{"user_id":347,"name":"üóªüé¥Hadrian Maloneüé¥üóª","steam_id":76561198036151103,"connected_time":1173000000000,"state":"active","ping":66},{"user_id":353,"name":"hhhhhh","steam_id":76561198031982574,"connected_time":913000000000,"state":"active","ping":54},{"user_id":335,"name":"Pvt Talbot","steam_id":76561198261001389,"connected_time":1978000000000,"state":"active","ping":45}]},{"server_id":310,"name":"Uncletopia | Frankfurt | 5 | All Maps","name_short":"frk-5","host":"frk-1.de.uncletopia.com","port":27055,"enabled":true,"region":"eu","cc":"de","latitude":50.110924,"longitude":8.682127,"reserved":0,"last_update":"0001-01-01T00:00:00Z","name_a2s":"Uncletopia | Frankfurt | 5 | All Maps","protocol":17,"map":"pl_frontier_final","folder":"tf","game":"Team Fortress","app_id":440,"player_count":21,"max_players":24,"Bots":0,"server_type":"Dedicated","server_os":"Linux","password":true,"vac":true,"version":"7961495","steam_id":85568392924504277,"keywords":["nocrits","nodmgspread","payload","uncletopia"],"game_id":440,"stv_port":27056,"stv_name":"Uncletopia | Frankfurt | 5 | All Maps | STV","players":[{"user_id":382,"name":"bricküß±","steam_id":76561198410706584,"connected_time":55000000000,"state":"active","ping":60},{"user_id":373,"name":"Lord Lem0ns!","steam_id":76561198323174893,"connected_time":1187000000000,"state":"active","ping":86},{"user_id":338,"name":"Toasty5050","steam_id":76561198073540881,"connected_time":3595000000000,"state":"active","ping":40},{"user_id":378,"name":"MBI","steam_id":76561198027504670,"connected_time":298000000000,"state":"active","ping":68},{"user_id":384,"name":"Pighead_08","steam_id":76561199060466647,"connected_time":8000000000,"state":"active","ping":341},{"user_id":361,"name":"coffee","steam_id":76561198382387303,"connected_time":2235000000000,"state":"active","ping":73},{"user_id":337,"name":"Deckard","steam_id":76561198004704647,"connected_time":3610000000000,"state":"active","ping":71},{"user_id":385,"name":"the_Bulgarian_Badger","steam_id":76561199067348424,"connected_time":7000000000,"state":"spawning","ping":86},{"user_id":383,"name":"a man of great pleasure","steam_id":76561198241772340,"connected_time":43000000000,"state":"active","ping":107},{"user_id":313,"name":"Alekk","steam_id":76561198093533143,"connected_time":5538000000000,"state":"active","ping":70},{"user_id":379,"name":"T–Ωunde–≥Cu–ø—Ç","steam_id":76561198135091800,"connected_time":295000000000,"state":"active","ping":35},{"user_id":386,"name":"Dr. Cox","steam_id":76561198246629218,"connected_time":5000000000,"state":"spawning","ping":103},{"user_id":307,"name":"Hussain_144","steam_id":76561198346029208,"connected_time":5760000000000,"state":"active","ping":167},{"user_id":341,"name":"dotdotdot","steam_id":76561198057628751,"connected_time":3491000000000,"state":"active","ping":62},{"user_id":369,"name":"willem dafoe fan","steam_id":76561198795590054,"connected_time":1709000000000,"state":"active","ping":90},{"user_id":343,"name":"Mario Moretti [BR]","steam_id":76561198179299606,"connected_time":3480000000000,"state":"active","ping":104},{"user_id":381,"name":"Nihplod_","steam_id":76561199010320094,"connected_time":178000000000,"state":"active","ping":128},{"user_id":360,"name":"shadow39344","steam_id":76561198090639618,"connected_time":2278000000000,"state":"active","ping":67},{"user_id":372,"name":"Maddox","steam_id":76561198026419869,"connected_time":1574000000000,"state":"active","ping":63},{"user_id":347,"name":"VolcanicArts","steam_id":76561198063453246,"connected_time":3338000000000,"state":"active","ping":60},{"user_id":335,"name":"Rimx","steam_id":76561198053034840,"connected_time":4060000000000,"state":"active","ping":90}]},{"server_id":311,"name":"Uncletopia | Frankfurt | 6 | All Maps","name_short":"frk-6","host":"frk-1.de.uncletopia.com","port":27065,"enabled":true,"region":"eu","cc":"de","latitude":50.110924,"longitude":8.682127,"reserved":0,"last_update":"0001-01-01T00:00:00Z","name_a2s":"Uncletopia | Frankfurt | 6 | All Maps","protocol":17,"map":"cp_mountainlab","folder":"tf","game":"Team Fortress","app_id":440,"player_count":1,"max_players":24,"Bots":0,"server_type":"Dedicated","server_os":"Linux","password":true,"vac":true,"version":"7961495","steam_id":85568392924504278,"keywords":["cp","nocrits","nodmgspread","uncletopia"],"game_id":440,"stv_port":27066,"stv_name":"Uncletopia | Frankfurt | 6 | All Maps | STV","players":[{"user_id":50,"name":"Per√§pohjola","steam_id":76561198944072942,"connected_time":48000000000,"state":"active","ping":74}]},{"server_id":23,"name":"Uncletopia | Frankfurt | 7 | Stopwatch Beta","name_short":"frk-7","host":"frk-1.de.uncletopia.com","port":27075,"enabled":true,"region":"eu","cc":"de","latitude":50.110924,"longitude":8.682127,"reserved":0,"last_update":"0001-01-01T00:00:00Z","name_a2s":"Uncletopia | Frankfurt | 7 | Stopwatch Beta","protocol":17,"map":"koth_cascade","folder":"tf","game":"Team Fortress","app_id":440,"player_count":0,"max_players":24,"Bots":0,"server_type":"Dedicated","server_os":"Linux","password":true,"vac":true,"version":"7961495","steam_id":85568392924742827,"keywords":["cp","nocrits","nodmgspread","uncletopia"],"game_id":440,"stv_port":27076,"stv_name":"Uncletopia | Frankfurt | 7 | Stopwatch Beta | STV","players":null},{"server_id":24,"name":"Uncletopia | Frankfurt | 8 | Community","name_short":"frk-8","host":"frk-1.de.uncletopia.com","port":27085,"enabled":true,"region":"eu","cc":"de","latitude":50.110924,"longitude":8.682127,"reserved":0,"last_update":"0001-01-01T00:00:00Z","name_a2s":"Uncletopia | Frankfurt | 8 | Community","protocol":17,"map":"workshop/cp_logjam_rc12.ugc454812035","folder":"tf","game":"Team Fortress","app_id":440,"player_count":0,"max_players":24,"Bots":0,"server_type":"Dedicated","server_os":"Linux","password":true,"vac":true,"version":"7961495","steam_id":85568392924742828,"keywords":["cp","nocrits","nodmgspread","uncletopia"],"game_id":440,"stv_port":27086,"stv_name":"Uncletopia | Frankfurt | 8 | Community | STV","players":null},{"server_id":202,"name":"Uncletopia | Hong Kong | 1 | All Maps","name_short":"hgk-1","host":"hgk-1.hk.uncletopia.com","port":27015,"enabled":true,"region":"asia","cc":"hk","latitude":22.302711,"longitude":114.177216,"reserved":0,"last_update":"0001-01-01T00:00:00Z","name_a2s":"Uncletopia | Hong Kong | 1 | All Maps","protocol":17,"map":"koth_lakeside_final","folder":"tf","game":"Team Fortress","app_id":440,"player_count":0,"max_players":24,"Bots":0,"server_type":"Dedicated","server_os":"Linux","password":true,"vac":true,"version":"7961495","steam_id":85568392924494504,"keywords":["cp","nocrits","nodmgspread","uncletopia"],"game_id":440,"stv_port":27016,"stv_name":"Uncletopia | Hong Kong | 1 | All Maps | STV","players":null},{"server_id":1,"name":"Uncletopia | Los Angeles | 1 | All Maps","name_short":"lax-1","host":"lax-1.us.uncletopia.com","port":27015,"enabled":true,"region":"us-west","cc":"us","latitude":33.94279,"longitude":-118.41004,"reserved":0,"last_update":"0001-01-01T00:00:00Z","name_a2s":"Uncletopia | Los Angeles | 1 | All Maps","protocol":17,"map":"pl_borneo","folder":"tf","game":"Team Fortress","app_id":440,"player_count":0,"max_players":24,"Bots":0,"server_type":"Dedicated","server_os":"Linux","password":true,"vac":true,"version":"7961495","steam_id":85568392924469991,"keywords":["nocrits","nodmgspread","payload","uncletopia"],"game_id":440,"stv_port":27016,"stv_name":"Uncletopia | Los Angeles | 1 | All Maps | STV","players":null},{"server_id":112,"name":"Uncletopia | Los Angeles | 2 | All Maps","name_short":"lax-2","host":"lax-1.us.uncletopia.com","port":27025,"enabled":true,"region":"us-west","cc":"us","latitude":33.94279,"longitude":-118.41004,"reserved":0,"last_update":"0001-01-01T00:00:00Z","name_a2s":"Uncletopia | Los Angeles | 2 | All Maps","protocol":17,"map":"koth_cascade","folder":"tf","game":"Team Fortress","app_id":440,"player_count":11,"max_players":24,"Bots":0,"server_type":"Dedicated","server_os":"Linux","password":true,"vac":true,"version":"7961495","steam_id":85568392924469992,"keywords":["cp","nocrits","nodmgspread","uncletopia"],"game_id":440,"stv_port":27026,"stv_name":"Uncletopia | Los Angeles | 2 | All Maps | STV","players":[{"user_id":10,"name":"meme","steam_id":76561199170771700,"connected_time":2246000000000,"state":"active","ping":55},{"user_id":14,"name":"ApplesMate","steam_id":76561198832763278,"connected_time":1356000000000,"state":"active","ping":47},{"user_id":12,"name":"victorhgcm321","steam_id":76561199468837090,"connected_time":1737000000000,"state":"active","ping":236},{"user_id":13,"name":"Thequirka (He/They, bc not h","steam_id":76561198968058652,"connected_time":1691000000000,"state":"active","ping":72},{"user_id":15,"name":"De Monki","steam_id":76561198964210411,"connected_time":1131000000000,"state":"active","ping":60},{"user_id":17,"name":"incoming","steam_id":76561199138214818,"connected_time":620000000000,"state":"active","ping":202},{"user_id":18,"name":"Tmiracle","steam_id":76561198052375275,"connected_time":601000000000,"state":"active","ping":45},{"user_id":19,"name":"SOGGY DOGGY","steam_id":76561199158847498,"connected_time":534000000000,"state":"active","ping":65},{"user_id":20,"name":"Cinnamon","steam_id":76561198801251513,"connected_time":478000000000,"state":"active","ping":67},{"user_id":21,"name":"Jeramosa","steam_id":76561198811000094,"connected_time":272000000000,"state":"active","ping":84},{"user_id":22,"name":"stboncho","steam_id":76561198172275301,"connected_time":81000000000,"state":"active","ping":69}]},{"server_id":324,"name":"Uncletopia | Los Angeles | 3 | All Maps","name_short":"lax-3","host":"lax-1.us.uncletopia.com","port":27035,"enabled":true,"region":"us-west","cc":"us","latitude":33.94279,"longitude":-118.41004,"reserved":0,"last_update":"0001-01-01T00:00:00Z","name_a2s":"Uncletopia | Los Angeles | 3 | All Maps","protocol":17,"map":"cp_process_final","folder":"tf","game":"Team Fortress","app_id":440,"player_count":0,"max_players":24,"Bots":0,"server_type":"Dedicated","server_os":"Linux","password":true,"vac":true,"version":"7961495","steam_id":85568392924510198,"keywords":["cp","nocrits","nodmgspread","uncletopia"],"game_id":440,"stv_port":27036,"stv_name":"Uncletopia | Los Angeles | 3 | All Maps | STV","players":null},{"server_id":25,"name":"Uncletopia | Los Angeles | 4 | Stopwatch Beta","name_short":"lax-4","host":"lax-1.us.uncletopia.com","port":27045,"enabled":true,"region":"us-west","cc":"us","latitude":33.94279,"longitude":-118.41004,"reserved":0,"last_update":"0001-01-01T00:00:00Z","name_a2s":"Uncletopia | Los Angeles | 4 | Stopwatch Beta","protocol":17,"map":"pl_upward","folder":"tf","game":"Team Fortress","app_id":440,"player_count":0,"max_players":24,"Bots":0,"server_type":"Dedicated","server_os":"Linux","password":true,"vac":true,"version":"7961495","steam_id":85568392924510199,"keywords":["nocrits","nodmgspread","payload","uncletopia"],"game_id":440,"stv_port":27046,"stv_name":"Uncletopia | Los Angeles | 4 | Stopwatch Beta | STV","players":null},{"server_id":11,"name":"Uncletopia | London | 1 | All Maps","name_short":"lon-1","host":"lon-1.uk.uncletopia.com","port":27015,"enabled":true,"region":"eu","cc":"gb","latitude":51.509865,"longitude":-0.118092,"reserved":0,"last_update":"0001-01-01T00:00:00Z","name_a2s":"Uncletopia | London | 1 | All Maps","protocol":17,"map":"cp_mountainlab","folder":"tf","game":"Team Fortress","app_id":440,"player_count":24,"max_players":24,"Bots":0,"server_type":"Dedicated","server_os":"Linux","password":true,"vac":true,"version":"7961495","steam_id":85568392924367362,"keywords":["cp","nocrits","nodmgspread","uncletopia"],"game_id":440,"stv_port":27016,"stv_name":"Uncletopia | London | 1 | All Maps | STV","players":[{"user_id":433,"name":"Whackyone5588","steam_id":76561198846242972,"connected_time":927000000000,"state":"active","ping":214},{"user_id":422,"name":"Sissel GT","steam_id":76561198798757458,"connected_time":1748000000000,"state":"active","ping":63},{"user_id":354,"name":"Vilhelm","steam_id":76561198157521187,"connected_time":6369000000000,"state":"active","ping":85},{"user_id":407,"name":"Rockfrenzy","steam_id":76561198005428050,"connected_time":3082000000000,"state":"active","ping":71},{"user_id":432,"name":"SkinnyScoutSillies","steam_id":76561199239986653,"connected_time":967000000000,"state":"active","ping":104},{"user_id":424,"name":"Dumpster Child","steam_id":76561198317007913,"connected_time":1724000000000,"state":"active","ping":159},{"user_id":425,"name":"cansado","steam_id":76561198003898089,"connected_time":1717000000000,"state":"active","ping":75},{"user_id":430,"name":"soar","steam_id":76561198010662796,"connected_time":1260000000000,"state":"active","ping":46},{"user_id":400,"name":"ArtaKir","steam_id":76561198291746440,"connected_time":3888000000000,"state":"active","ping":85},{"user_id":417,"name":"The Manager of Sex","steam_id":76561198385989487,"connected_time":1917000000000,"state":"active","ping":101},{"user_id":437,"name":"owo","steam_id":76561198158209651,"connected_time":131000000000,"state":"active","ping":60},{"user_id":394,"name":"quickfast","steam_id":76561199438900919,"connected_time":4499000000000,"state":"active","ping":46},{"user_id":418,"name":"MC Stompin","steam_id":76561198061527217,"connected_time":1894000000000,"state":"active","ping":60},{"user_id":435,"name":"jermany","steam_id":76561198126599355,"connected_time":512000000000,"state":"active","ping":61},{"user_id":302,"name":"Snake-chan","steam_id":76561199044755854,"connected_time":9932000000000,"state":"active","ping":77},{"user_id":426,"name":"breakfast burrito","steam_id":76561198148606969,"connected_time":1691000000000,"state":"active","ping":86},{"user_id":359,"name":"Kenny","steam_id":76561198070731150,"connected_time":6340000000000,"state":"active","ping":97},{"user_id":401,"name":"Zombie Chicken gaming","steam_id":76561199356990346,"connected_time":3749000000000,"state":"active","ping":100},{"user_id":360,"name":"Larry","steam_id":76561198051333590,"connected_time":6324000000000,"state":"active","ping":112},{"user_id":413,"name":"ein'd","steam_id":76561198152162834,"connected_time":2125000000000,"state":"active","ping":109},{"user_id":175,"name":"krayy (she/her)","steam_id":76561198035037830,"connected_time":14213000000000,"state":"active","ping":55},{"user_id":427,"name":"gnarly business","steam_id":76561198832688767,"connected_time":1684000000000,"state":"active","ping":59},{"user_id":436,"name":"beda","steam_id":76561198277943630,"connected_time":504000000000,"state":"active","ping":75},{"user_id":410,"name":"Losre","steam_id":76561198071393125,"connected_time":2755000000000,"state":"active","ping":62}]},{"server_id":114,"name":"Uncletopia | London | 2 | All Maps","name_short":"lon-2","host":"lon-1.uk.uncletopia.com","port":27025,"enabled":true,"region":"eu","cc":"gb","latitude":51.509865,"longitude":-0.118092,"reserved":0,"last_update":"0001-01-01T00:00:00Z","name_a2s":"Uncletopia | London | 2 | All Maps","protocol":17,"map":"pl_pier","folder":"tf","game":"Team Fortress","app_id":440,"player_count":24,"max_players":24,"Bots":0,"server_type":"Dedicated","server_os":"Linux","password":true,"vac":true,"version":"7961495","steam_id":85568392924470941,"keywords":["nocrits","nodmgspread","payload","uncletopia"],"game_id":440,"stv_port":27026,"stv_name":"Uncletopia | London | 2 | All Maps | STV","players":[{"user_id":262,"name":"General Lee","steam_id":76561198306295023,"connected_time":531000000000,"state":"active","ping":70},{"user_id":246,"name":"Marcus","steam_id":76561198205027963,"connected_time":2636000000000,"state":"active","ping":62},{"user_id":263,"name":"Ray","steam_id":76561198159545727,"connected_time":514000000000,"state":"active","ping":57},{"user_id":257,"name":"bl√•haj","steam_id":76561198094268619,"connected_time":1498000000000,"state":"active","ping":74},{"user_id":232,"name":"randem_","steam_id":76561198338793755,"connected_time":3114000000000,"state":"active","ping":42},{"user_id":251,"name":"Aster","steam_id":76561198037920420,"connected_time":1843000000000,"state":"active","ping":157},{"user_id":253,"name":"LegoKatt","steam_id":76561198064536870,"connected_time":1808000000000,"state":"active","ping":78},{"user_id":273,"name":"ztrs6","steam_id":76561198314853803,"connected_time":113000000000,"state":"active","ping":100},{"user_id":249,"name":"Warren","steam_id":76561197991735900,"connected_time":2371000000000,"state":"active","ping":59},{"user_id":260,"name":"Firiak","steam_id":76561198050216930,"connected_time":711000000000,"state":"active","ping":55},{"user_id":269,"name":"Dungdil","steam_id":76561198351930639,"connected_time":315000000000,"state":"active","ping":70},{"user_id":259,"name":"goga","steam_id":76561198280507478,"connected_time":1211000000000,"state":"active","ping":60},{"user_id":274,"name":"Grillem Dafoe","steam_id":76561198306874574,"connected_time":81000000000,"state":"active","ping":65},{"user_id":168,"name":"jge","steam_id":76561198123186387,"connected_time":6413000000000,"state":"active","ping":59},{"user_id":244,"name":"Ferrariracer5f1","steam_id":76561199229815098,"connected_time":2844000000000,"state":"active","ping":53},{"user_id":275,"name":"shankz","steam_id":76561198128803260,"connected_time":42000000000,"state":"spawning","ping":44},{"user_id":197,"name":"noot","steam_id":76561198148074472,"connected_time":5120000000000,"state":"active","ping":58},{"user_id":198,"name":"ra ra raz","steam_id":76561198147277460,"connected_time":5113000000000,"state":"active","ping":60},{"user_id":276,"name":"brehs","steam_id":76561198150653454,"connected_time":30000000000,"state":"active","ping":29},{"user_id":245,"name":"cringey name","steam_id":76561198163244605,"connected_time":2677000000000,"state":"active","ping":83},{"user_id":254,"name":"I Lamp","steam_id":76561198423215585,"connected_time":1694000000000,"state":"active","ping":104},{"user_id":266,"name":"Fish 'n' Chips","steam_id":76561198033476886,"connected_time":426000000000,"state":"active","ping":71},{"user_id":270,"name":"Morbidly A Beast","steam_id":76561198251578274,"connected_time":266000000000,"state":"active","ping":110},{"user_id":256,"name":"katten","steam_id":76561198163615254,"connected_time":1649000000000,"state":"active","ping":60}]},{"server_id":320,"name":"Uncletopia | London | 3 | All Maps","name_short":"lon-3","host":"lon-1.uk.uncletopia.com","port":27035,"enabled":true,"region":"eu","cc":"gb","latitude":51.509865,"longitude":-0.118092,"reserved":0,"last_update":"0001-01-01T00:00:00Z","name_a2s":"Uncletopia | London | 3 | All Maps","protocol":17,"map":"pl_goldrush","folder":"tf","game":"Team Fortress","app_id":440,"player_count":24,"max_players":24,"Bots":0,"server_type":"Dedicated","server_os":"Linux","password":true,"vac":true,"version":"7961495","steam_id":85568392924510192,"keywords":["nocrits","nodmgspread","payload","uncletopia"],"game_id":440,"stv_port":27036,"stv_name":"Uncletopia | London | 3 | All Maps | STV","players":[{"user_id":214,"name":"silly time","steam_id":76561199143544069,"connected_time":984000000000,"state":"active","ping":75},{"user_id":222,"name":"Mr_Pulse_","steam_id":76561198095001602,"connected_time":524000000000,"state":"active","ping":114},{"user_id":215,"name":"ROX","steam_id":76561198272289320,"connected_time":968000000000,"state":"active","ping":58},{"user_id":220,"name":"Deacon Dracul","steam_id":76561198046880663,"connected_time":732000000000,"state":"active","ping":93},{"user_id":192,"name":"nyanezt","steam_id":76561198253734265,"connected_time":2323000000000,"state":"active","ping":107},{"user_id":226,"name":"bacon_lover_","steam_id":76561198893458049,"connected_time":182000000000,"state":"active","ping":66},{"user_id":144,"name":"Milca_11 Bow user","steam_id":76561198848650365,"connected_time":5105000000000,"state":"active","ping":74},{"user_id":227,"name":"Gugu","steam_id":76561198161822358,"connected_time":166000000000,"state":"active","ping":72},{"user_id":221,"name":"ThatTFguy","steam_id":76561198056794321,"connected_time":717000000000,"state":"active","ping":60},{"user_id":186,"name":"unpronounceable","steam_id":76561198271860748,"connected_time":2832000000000,"state":"active","ping":46},{"user_id":206,"name":"Varsk","steam_id":76561198061398890,"connected_time":1562000000000,"state":"active","ping":42},{"user_id":216,"name":"stead.","steam_id":76561198042622629,"connected_time":940000000000,"state":"active","ping":60},{"user_id":183,"name":"Ewelinka Zniszczenia","steam_id":76561198307374456,"connected_time":2858000000000,"state":"active","ping":78},{"user_id":229,"name":"quak","steam_id":76561198053928976,"connected_time":81000000000,"state":"active","ping":94},{"user_id":230,"name":"porngamer","steam_id":76561198204620491,"connected_time":55000000000,"state":"active","ping":30},{"user_id":185,"name":"bAdmon","steam_id":76561197961785793,"connected_time":2841000000000,"state":"active","ping":57},{"user_id":194,"name":"Bobo","steam_id":76561198052308399,"connected_time":2303000000000,"state":"active","ping":71},{"user_id":62,"name":"Bottle O' Scrumpy","steam_id":76561199244250562,"connected_time":7199000000000,"state":"active","ping":107},{"user_id":224,"name":"Alegz","steam_id":76561198287810139,"connected_time":266000000000,"state":"active","ping":90},{"user_id":198,"name":"PlushtrapDev","steam_id":76561199109026519,"connected_time":2074000000000,"state":"active","ping":116},{"user_id":228,"name":"Average meme enjoyer","steam_id":76561199087566663,"connected_time":152000000000,"state":"active","ping":95},{"user_id":202,"name":"Townsend And Sons","steam_id":76561199072698153,"connected_time":1671000000000,"state":"active","ping":72},{"user_id":218,"name":"Gorillaz3030","steam_id":76561198071026677,"connected_time":859000000000,"state":"active","ping":69},{"user_id":219,"name":"J√∏rn","steam_id":76561199073257952,"connected_time":842000000000,"state":"active","ping":68}]},{"server_id":321,"name":"Uncletopia | London | 4 | All Maps","name_short":"lon-4","host":"lon-1.uk.uncletopia.com","port":27045,"enabled":true,"region":"eu","cc":"gb","latitude":51.509865,"longitude":-0.118092,"reserved":0,"last_update":"0001-01-01T00:00:00Z","name_a2s":"Uncletopia | London | 4 | All Maps","protocol":17,"map":"plr_bananabay","folder":"tf","game":"Team Fortress","app_id":440,"player_count":24,"max_players":24,"Bots":0,"server_type":"Dedicated","server_os":"Linux","password":true,"vac":true,"version":"7961495","steam_id":85568392924510193,"keywords":["nocrits","nodmgspread","payload","uncletopia"],"game_id":440,"stv_port":27046,"stv_name":"Uncletopia | London | 4 | All Maps | STV","players":[{"user_id":292,"name":"Sentry hater","steam_id":76561199269309068,"connected_time":1929000000000,"state":"active","ping":89},{"user_id":318,"name":"Niemen","steam_id":76561198021559905,"connected_time":771000000000,"state":"active","ping":86},{"user_id":317,"name":"Seail_M","steam_id":76561198002405605,"connected_time":784000000000,"state":"active","ping":60},{"user_id":322,"name":"Certified Hood pybro (ua)","steam_id":76561198970562699,"connected_time":260000000000,"state":"active","ping":84},{"user_id":323,"name":"beheading video from 2009","steam_id":76561198834897089,"connected_time":229000000000,"state":"active","ping":146},{"user_id":309,"name":"Megumin","steam_id":76561197993247395,"connected_time":922000000000,"state":"active","ping":54},{"user_id":330,"name":"oultimosuicida","steam_id":76561198051429942,"connected_time":138000000000,"state":"active","ping":79},{"user_id":324,"name":"Maple","steam_id":76561199051578556,"connected_time":224000000000,"state":"active","ping":156},{"user_id":325,"name":"Voxel","steam_id":76561199225333422,"connected_time":216000000000,"state":"active","ping":129},{"user_id":263,"name":"God's Goofiest Goober","steam_id":76561198103175187,"connected_time":4480000000000,"state":"active","ping":72},{"user_id":319,"name":"pablo","steam_id":76561198089285014,"connected_time":612000000000,"state":"active","ping":84},{"user_id":305,"name":"JujuBalu","steam_id":76561198207253071,"connected_time":1012000000000,"state":"active","ping":59},{"user_id":291,"name":"EœáSpecula","steam_id":76561198040669766,"connected_time":2060000000000,"state":"active","ping":99},{"user_id":313,"name":"63756d","steam_id":76561198808699024,"connected_time":880000000000,"state":"active","ping":71},{"user_id":270,"name":"Wario","steam_id":76561198356089255,"connected_time":4194000000000,"state":"active","ping":71},{"user_id":314,"name":"Smoking problem","steam_id":76561198361351449,"connected_time":868000000000,"state":"active","ping":71},{"user_id":245,"name":"sticks","steam_id":76561198127099299,"connected_time":5285000000000,"state":"active","ping":44},{"user_id":326,"name":"silicon based life form","steam_id":76561199127121346,"connected_time":203000000000,"state":"active","ping":64},{"user_id":331,"name":"I Don't Know","steam_id":76561198841011430,"connected_time":128000000000,"state":"active","ping":79},{"user_id":328,"name":"Mint","steam_id":76561198105502303,"connected_time":184000000000,"state":"active","ping":54},{"user_id":332,"name":"Lukas","steam_id":76561198009118452,"connected_time":56000000000,"state":"active","ping":69},{"user_id":237,"name":"fence_","steam_id":76561198150386379,"connected_time":6281000000000,"state":"active","ping":49},{"user_id":316,"name":"heavy sings (real)","steam_id":76561199023804405,"connected_time":834000000000,"state":"active","ping":70},{"user_id":333,"name":"IONYCH","steam_id":76561198378350040,"connected_time":28000000000,"state":"active","ping":86}]},{"server_id":21,"name":"Uncletopia | London | 5 | All Maps","name_short":"lon-5","host":"lon-1.uk.uncletopia.com","port":27055,"enabled":true,"region":"eu","cc":"gb","latitude":51.509865,"longitude":-0.118092,"reserved":0,"last_update":"0001-01-01T00:00:00Z","name_a2s":"Uncletopia | London | 5 | All Maps","protocol":17,"map":"cp_mountainlab","folder":"tf","game":"Team Fortress","app_id":440,"player_count":14,"max_players":24,"Bots":0,"server_type":"Dedicated","server_os":"Linux","password":true,"vac":true,"version":"7961495","steam_id":85568392924742829,"keywords":["cp","nocrits","nodmgspread","uncletopia"],"game_id":440,"stv_port":27056,"stv_name":"Uncletopia | London | 5 | All Maps | STV","players":[{"user_id":75,"name":"insane, deranged possibly menta","steam_id":76561198139729249,"connected_time":1213000000000,"state":"active","ping":92},{"user_id":94,"name":"rapsterdude","steam_id":76561199388597561,"connected_time":227000000000,"state":"active","ping":52},{"user_id":100,"name":"ventross","steam_id":76561198055233097,"connected_time":122000000000,"state":"active","ping":77},{"user_id":96,"name":"Lernix","steam_id":76561198382328645,"connected_time":213000000000,"state":"active","ping":67},{"user_id":86,"name":"Underground - Hard Rock R1700G","steam_id":76561198215986979,"connected_time":607000000000,"state":"active","ping":44},{"user_id":98,"name":"Wellink","steam_id":76561198854204494,"connected_time":193000000000,"state":"active","ping":76},{"user_id":73,"name":"ASL translator","steam_id":76561198031573426,"connected_time":1664000000000,"state":"active","ping":74},{"user_id":49,"name":"Toogler","steam_id":76561198172334113,"connected_time":2852000000000,"state":"active","ping":61},{"user_id":52,"name":"bignazzer","steam_id":76561199472149697,"connected_time":2826000000000,"state":"active","ping":57},{"user_id":77,"name":"evil garfield","steam_id":76561198249832770,"connected_time":1146000000000,"state":"active","ping":45},{"user_id":80,"name":"Mussolini","steam_id":76561198218384865,"connected_time":1060000000000,"state":"active","ping":106},{"user_id":57,"name":"zelda","steam_id":76561198273358760,"connected_time":2774000000000,"state":"active","ping":63},{"user_id":90,"name":"Twink Destroyer","steam_id":76561198397024973,"connected_time":445000000000,"state":"active","ping":43},{"user_id":91,"name":"Alvie","steam_id":76561198141621466,"connected_time":379000000000,"state":"active","ping":67}]},{"server_id":22,"name":"Uncletopia | London | 6 | All Maps","name_short":"lon-6","host":"lon-1.uk.uncletopia.com","port":27065,"enabled":true,"region":"eu","cc":"gb","latitude":51.509865,"longitude":-0.118092,"reserved":0,"last_update":"0001-01-01T00:00:00Z","name_a2s":"Uncletopia | London | 6 | All Maps","protocol":17,"map":"pl_badwater","folder":"tf","game":"Team Fortress","app_id":440,"player_count":24,"max_players":24,"Bots":0,"server_type":"Dedicated","server_os":"Linux","password":true,"vac":true,"version":"7961495","steam_id":85568392924742830,"keywords":["nocrits","nodmgspread","payload","uncletopia"],"game_id":440,"stv_port":27066,"stv_name":"Uncletopia | London | 6 | All Maps | STV","players":[{"user_id":355,"name":"a bullet","steam_id":76561198809248362,"connected_time":2016000000000,"state":"active","ping":89},{"user_id":334,"name":"red texan","steam_id":76561199193957264,"connected_time":3215000000000,"state":"active","ping":50},{"user_id":332,"name":"McMonty","steam_id":76561198028973788,"connected_time":3493000000000,"state":"active","ping":56},{"user_id":301,"name":"After8","steam_id":76561198090750865,"connected_time":5395000000000,"state":"active","ping":75},{"user_id":309,"name":"Combat Wombat","steam_id":76561197994720068,"connected_time":4670000000000,"state":"active","ping":64},{"user_id":319,"name":"Waltcha","steam_id":76561198007691468,"connected_time":4543000000000,"state":"active","ping":72},{"user_id":370,"name":"Icaras","steam_id":76561198416724843,"connected_time":71000000000,"state":"active","ping":43},{"user_id":368,"name":"Tails8521","steam_id":76561198051747164,"connected_time":348000000000,"state":"active","ping":56},{"user_id":359,"name":"cazador","steam_id":76561198123096922,"connected_time":1440000000000,"state":"active","ping":106},{"user_id":310,"name":"Kamanie","steam_id":76561198135448255,"connected_time":4637000000000,"state":"active","ping":65},{"user_id":353,"name":"TheArmyGuy","steam_id":76561198024821078,"connected_time":2085000000000,"state":"active","ping":56},{"user_id":347,"name":"EagleFire","steam_id":76561198352938403,"connected_time":2255000000000,"state":"active","ping":53},{"user_id":348,"name":"blazeeight","steam_id":76561198159456502,"connected_time":2254000000000,"state":"active","ping":54},{"user_id":338,"name":"generic alias","steam_id":76561198271607226,"connected_time":2624000000000,"state":"active","ping":87},{"user_id":315,"name":"MaRo","steam_id":76561198992286676,"connected_time":4598000000000,"state":"active","ping":51},{"user_id":349,"name":"fabacher","steam_id":76561198057905272,"connected_time":2238000000000,"state":"active","ping":63},{"user_id":361,"name":"walrus","steam_id":76561198167898969,"connected_time":1425000000000,"state":"active","ping":59},{"user_id":369,"name":"Free dpm; world tour","steam_id":76561199042470246,"connected_time":204000000000,"state":"active","ping":73},{"user_id":343,"name":"Setiago","steam_id":76561198060770498,"connected_time":2492000000000,"state":"active","ping":63},{"user_id":287,"name":"P1nnnnnnnn","steam_id":76561198382749493,"connected_time":6217000000000,"state":"active","ping":91},{"user_id":364,"name":"Cagnus Marlsen","steam_id":76561198077859721,"connected_time":849000000000,"state":"active","ping":69},{"user_id":354,"name":"Puss in Boots","steam_id":76561198211599767,"connected_time":2063000000000,"state":"active","ping":54},{"user_id":337,"name":"wheelchair emperor","steam_id":76561198076084824,"connected_time":3073000000000,"state":"active","ping":70},{"user_id":365,"name":"78 :3","steam_id":76561198208328357,"connected_time":755000000000,"state":"active","ping":88}]},{"server_id":40,"name":"Uncletopia | London | 7 | No Payload","name_short":"lon-7","host":"lon-1.uk.uncletopia.com","port":27075,"enabled":true,"region":"eu","cc":"gb","latitude":51.509865,"longitude":-0.118092,"reserved":0,"last_update":"0001-01-01T00:00:00Z","name_a2s":"Uncletopia | London | 7 | No Payload","protocol":17,"map":"cp_metalworks","folder":"tf","game":"Team Fortress","app_id":440,"player_count":24,"max_players":24,"Bots":0,"server_type":"Dedicated","server_os":"Linux","password":true,"vac":true,"version":"7961495","steam_id":85568392924964314,"keywords":["cp","nocrits","nodmgspread","uncletopia"],"game_id":440,"stv_port":27076,"stv_name":"Uncletopia | London | 7 | No Payload | STV","players":[{"user_id":250,"name":"Aspartus","steam_id":76561198101385763,"connected_time":4099000000000,"state":"active","ping":40},{"user_id":289,"name":"kush kombatant","steam_id":76561198235739036,"connected_time":1378000000000,"state":"active","ping":75},{"user_id":312,"name":"Rock..","steam_id":76561198004641963,"connected_time":1000000000,"state":"spawning","ping":65},{"user_id":282,"name":"Kotlonizator","steam_id":76561198993830128,"connected_time":1599000000000,"state":"active","ping":85},{"user_id":310,"name":"Sirzen","steam_id":76561198170155434,"connected_time":233000000000,"state":"active","ping":48},{"user_id":298,"name":"mud","steam_id":76561198141497461,"connected_time":791000000000,"state":"active","ping":78},{"user_id":285,"name":"Verin","steam_id":76561199440799610,"connected_time":1477000000000,"state":"active","ping":89},{"user_id":296,"name":"Twingo","steam_id":76561198207042812,"connected_time":1014000000000,"state":"active","ping":80},{"user_id":292,"name":"Spectralius","steam_id":76561198111455006,"connected_time":1189000000000,"state":"active","ping":59},{"user_id":277,"name":"GMsU | AuxiliusM","steam_id":76561198071903356,"connected_time":2082000000000,"state":"active","ping":59},{"user_id":305,"name":"Pain in a Box","steam_id":76561197990777173,"connected_time":611000000000,"state":"active","ping":104},{"user_id":291,"name":"owenfrix64","steam_id":76561198944759558,"connected_time":1288000000000,"state":"active","ping":68},{"user_id":299,"name":"thysponge55","steam_id":76561198042784730,"connected_time":782000000000,"state":"active","ping":48},{"user_id":279,"name":"Biggus Dickus","steam_id":76561198018358868,"connected_time":1865000000000,"state":"active","ping":68},{"user_id":306,"name":"AethericRuby","steam_id":76561198066395000,"connected_time":563000000000,"state":"active","ping":47},{"user_id":235,"name":"akakez","steam_id":76561198095432821,"connected_time":4943000000000,"state":"active","ping":113},{"user_id":311,"name":"Jordi.B","steam_id":76561198015233614,"connected_time":54000000000,"state":"active","ping":58},{"user_id":300,"name":"dum","steam_id":76561198053386482,"connected_time":779000000000,"state":"active","ping":141},{"user_id":264,"name":"ddchdrn","steam_id":76561198024358566,"connected_time":3477000000000,"state":"active","ping":71},{"user_id":307,"name":"haraldÔº®Ôº°Ôº≤Ôº°Ôº¨Ôº§","steam_id":76561198116998970,"connected_time":562000000000,"state":"active","ping":84},{"user_id":265,"name":"Loitsu","steam_id":76561198098177012,"connected_time":3474000000000,"state":"active","ping":110},{"user_id":276,"name":"DelT","steam_id":76561198204007537,"connected_time":2244000000000,"state":"active","ping":60},{"user_id":309,"name":"Smith","steam_id":76561197993946455,"connected_time":402000000000,"state":"active","ping":55},{"user_id":269,"name":"I bombed the Donetsk children","steam_id":76561198831766743,"connected_time":2748000000000,"state":"active","ping":87}]},{"server_id":41,"name":"Uncletopia | London | 8 | Community","name_short":"lon-8","host":"lon-1.uk.uncletopia.com","port":27085,"enabled":true,"region":"eu","cc":"gb","latitude":51.509865,"longitude":-0.118092,"reserved":0,"last_update":"0001-01-01T00:00:00Z","name_a2s":"Uncletopia | London | 8 | Community","protocol":17,"map":"workshop/koth_ramjam_rc1.ugc459778887","folder":"tf","game":"Team Fortress","app_id":440,"player_count":3,"max_players":24,"Bots":0,"server_type":"Dedicated","server_os":"Linux","password":true,"vac":true,"version":"7961495","steam_id":85568392924964315,"keywords":["cp","nocrits","nodmgspread","uncletopia"],"game_id":440,"stv_port":27086,"stv_name":"Uncletopia | London | 8 | Community | STV","players":[{"user_id":11,"name":"–£—Ö –¢–∏–º—É—Ä–∫–∞","steam_id":76561198203003862,"connected_time":1345000000000,"state":"active","ping":114},{"user_id":12,"name":"—É—Ö –ê–ª–µ–∫—Å–∞–Ω–¥—Ä","steam_id":76561198995476261,"connected_time":1323000000000,"state":"active","ping":101},{"user_id":13,"name":"—É—Ö –ù–∏–∫–∏—Ç–∫–∞","steam_id":76561199227727933,"connected_time":1187000000000,"state":"active","ping":105}]},{"server_id":300,"name":"Uncletopia | Montr√©al | 1 | All Maps","name_short":"mtl-1","host":"mtl-1.ca.uncletopia.com","port":27015,"enabled":true,"region":"us-east","cc":"ca","latitude":45.50889,"longitude":-73.56167,"reserved":0,"last_update":"0001-01-01T00:00:00Z","name_a2s":"Uncletopia | Montr√©al | 1 | All Maps","protocol":17,"map":"koth_harvest_final","folder":"tf","game":"Team Fortress","app_id":440,"player_count":0,"max_players":24,"Bots":0,"server_type":"Dedicated","server_os":"Linux","password":true,"vac":true,"version":"7961495","steam_id":85568392924500087,"keywords":["cp","nocrits","nodmgspread","uncletopia"],"game_id":440,"stv_port":27016,"stv_name":"Uncletopia | Montr√©al | 1 | All Maps | STV","players":null},{"server_id":301,"name":"Uncletopia | Montr√©al | 2 | All Maps","name_short":"mtl-2","host":"mtl-1.ca.uncletopia.com","port":27025,"enabled":true,"region":"us-east","cc":"ca","latitude":45.50889,"longitude":-73.56167,"reserved":0,"last_update":"0001-01-01T00:00:00Z","name_a2s":"Uncletopia | Montr√©al | 2 | All Maps","protocol":17,"map":"cp_dustbowl","folder":"tf","game":"Team Fortress","app_id":440,"player_count":0,"max_players":24,"Bots":0,"server_type":"Dedicated","server_os":"Linux","password":true,"vac":true,"version":"7961495","steam_id":85568392924500088,"keywords":["cp","nocrits","nodmgspread","uncletopia"],"game_id":440,"stv_port":27026,"stv_name":"Uncletopia | Montr√©al | 2 | All Maps | STV","players":null},{"server_id":302,"name":"Uncletopia | Montr√©al | 3 | All Maps","name_short":"mtl-3","host":"mtl-1.ca.uncletopia.com","port":27035,"enabled":true,"region":"us-east","cc":"ca","latitude":45.50889,"longitude":-73.56167,"reserved":0,"last_update":"0001-01-01T00:00:00Z","name_a2s":"Uncletopia | Montr√©al | 3 | All Maps","protocol":17,"map":"koth_cascade","folder":"tf","game":"Team Fortress","app_id":440,"player_count":0,"max_players":24,"Bots":0,"server_type":"Dedicated","server_os":"Linux","password":true,"vac":true,"version":"7961495","steam_id":85568392924500089,"keywords":["cp","nocrits","nodmgspread","uncletopia"],"game_id":440,"stv_port":27036,"stv_name":"Uncletopia | Montr√©al | 3 | All Maps | STV","players":null},{"server_id":303,"name":"Uncletopia | Montr√©al | 4 | No Payload","name_short":"mtl-4","host":"mtl-1.ca.uncletopia.com","port":27045,"enabled":true,"region":"us-east","cc":"ca","latitude":45.50889,"longitude":-73.56167,"reserved":0,"last_update":"0001-01-01T00:00:00Z","name_a2s":"Uncletopia | Montr√©al | 4 | No Payload","protocol":17,"map":"koth_lakeside_final","folder":"tf","game":"Team Fortress","app_id":440,"player_count":0,"max_players":24,"Bots":0,"server_type":"Dedicated","server_os":"Linux","password":true,"vac":true,"version":"7961495","steam_id":85568392924500090,"keywords":["cp","nocrits","nodmgspread","uncletopia"],"game_id":440,"stv_port":27046,"stv_name":"Uncletopia | Montr√©al | 4 | No Payload | STV","players":null},{"server_id":13,"name":"Uncletopia | New York City | 1 | All Maps","name_short":"nyc-1","host":"nyc-1.us.uncletopia.com","port":27015,"enabled":true,"region":"us-east","cc":"us","latitude":40.73061,"longitude":-73.93524,"reserved":0,"last_update":"0001-01-01T00:00:00Z","name_a2s":"Uncletopia | New York City | 1 | All Maps","protocol":17,"map":"pl_upward","folder":"tf","game":"Team Fortress","app_id":440,"player_count":24,"max_players":24,"Bots":0,"server_type":"Dedicated","server_os":"Linux","password":true,"vac":true,"version":"7961495","steam_id":85568392924469993,"keywords":["nocrits","nodmgspread","payload","uncletopia"],"game_id":440,"stv_port":27016,"stv_name":"Uncletopia | New York City | 1 | All Maps | STV","players":[{"user_id":88,"name":"Blitzy","steam_id":76561198149472890,"connected_time":3654000000000,"state":"active","ping":90},{"user_id":124,"name":"Feces","steam_id":76561198380219187,"connected_time":829000000000,"state":"active","ping":72},{"user_id":126,"name":"Primal","steam_id":76561197983118203,"connected_time":602000000000,"state":"active","ping":81},{"user_id":106,"name":"Kerflumple","steam_id":76561198050602757,"connected_time":1609000000000,"state":"active","ping":57},{"user_id":118,"name":"Kritzburgh","steam_id":76561198149466938,"connected_time":1099000000000,"state":"active","ping":55},{"user_id":113,"name":"turd ferguson","steam_id":76561198071620782,"connected_time":1307000000000,"state":"active","ping":69},{"user_id":100,"name":"Bwett","steam_id":76561198009227940,"connected_time":1919000000000,"state":"active","ping":53},{"user_id":133,"name":"Norman","steam_id":76561198154715990,"connected_time":19000000000,"state":"active","ping":103},{"user_id":73,"name":"üÖúüÖîüÖîüÖöüÖ¢üÖ£üÖî\ufffd\ufffd\ufffd","steam_id":76561197999748343,"connected_time":4717000000000,"state":"active","ping":75},{"user_id":76,"name":"bone hurting juice","steam_id":76561198095452955,"connected_time":4215000000000,"state":"active","ping":61},{"user_id":125,"name":"[NAME-REDACTED]","steam_id":76561198035682975,"connected_time":657000000000,"state":"active","ping":55},{"user_id":115,"name":"Grilled Jizo","steam_id":76561199250875340,"connected_time":1238000000000,"state":"active","ping":97},{"user_id":99,"name":"rivera","steam_id":76561198051058706,"connected_time":1987000000000,"state":"active","ping":37},{"user_id":92,"name":"Vem","steam_id":76561198117273112,"connected_time":3378000000000,"state":"active","ping":82},{"user_id":80,"name":"Zomboboi_","steam_id":76561198139401380,"connected_time":3894000000000,"state":"active","ping":79},{"user_id":131,"name":"Sprinklingmydoughnut","steam_id":76561198168009092,"connected_time":80000000000,"state":"active","ping":59},{"user_id":108,"name":"glass eater","steam_id":76561199229710761,"connected_time":1582000000000,"state":"active","ping":58},{"user_id":119,"name":"Dattallguy","steam_id":76561198873155093,"connected_time":1090000000000,"state":"active","ping":80},{"user_id":132,"name":"Epifiny","steam_id":76561198027958086,"connected_time":31000000000,"state":"active","ping":84},{"user_id":114,"name":"yoshido","steam_id":76561198846313229,"connected_time":1269000000000,"state":"active","ping":50},{"user_id":120,"name":"nilftb","steam_id":76561198161952186,"connected_time":1079000000000,"state":"active","ping":56},{"user_id":109,"name":"BellyAche","steam_id":76561198098582202,"connected_time":1538000000000,"state":"active","ping":111},{"user_id":116,"name":"Pugzilla","steam_id":76561198108088960,"connected_time":1200000000000,"state":"active","ping":67},{"user_id":121,"name":"KhorneBread Ô∏ª„Éá ‰∏Ä","steam_id":76561198097069958,"connected_time":1077000000000,"state":"active","ping":72}]},{"server_id":14,"name":"Uncletopia | New York City | 2 | All Maps","name_short":"nyc-2","host":"nyc-1.us.uncletopia.com","port":27025,"enabled":true,"region":"us-east","cc":"us","latitude":40.73061,"longitude":-73.93524,"reserved":0,"last_update":"0001-01-01T00:00:00Z","name_a2s":"Uncletopia | New York City | 2 | All Maps","protocol":17,"map":"koth_lakeside_final","folder":"tf","game":"Team Fortress","app_id":440,"player_count":0,"max_players":24,"Bots":0,"server_type":"Dedicated","server_os":"Linux","password":true,"vac":true,"version":"7961495","steam_id":85568392924469994,"keywords":["cp","nocrits","nodmgspread","uncletopia"],"game_id":440,"stv_port":27026,"stv_name":"Uncletopia | New York City | 2 | All Maps | STV","players":null},{"server_id":15,"name":"Uncletopia | New York City | 3 | Stopwatch Beta","name_short":"nyc-3","host":"nyc-1.us.uncletopia.com","port":27035,"enabled":true,"region":"us-east","cc":"us","latitude":40.73061,"longitude":-73.93524,"reserved":0,"last_update":"0001-01-01T00:00:00Z","name_a2s":"Uncletopia | New York City | 3 | Stopwatch Beta","protocol":17,"map":"cp_mountainlab","folder":"tf","game":"Team Fortress","app_id":440,"player_count":0,"max_players":24,"Bots":0,"server_type":"Dedicated","server_os":"Linux","password":true,"vac":true,"version":"7961495","steam_id":85568392924742820,"keywords":["cp","nocrits","nodmgspread","uncletopia"],"game_id":440,"stv_port":27036,"stv_name":"Uncletopia | New York City | 3 | Stopwatch Beta | STV","players":null},{"server_id":16,"name":"Uncletopia | New York City | 4 | Community","name_short":"nyc-4","host":"nyc-1.us.uncletopia.com","port":27045,"enabled":true,"region":"us-east","cc":"us","latitude":40.73061,"longitude":-73.93524,"reserved":0,"last_update":"0001-01-01T00:00:00Z","name_a2s":"Uncletopia | New York City | 4 | Community","protocol":17,"map":"workshop/pl_eruption_b9a.ugc2807898013","folder":"tf","game":"Team Fortress","app_id":440,"player_count":24,"max_players":24,"Bots":0,"server_type":"Dedicated","server_os":"Linux","password":true,"vac":true,"version":"7961495","steam_id":85568392924742821,"keywords":["nocrits","nodmgspread","payload","uncletopia"],"game_id":440,"stv_port":27046,"stv_name":"Uncletopia | New York City | 4 | Community | STV","players":[{"user_id":76,"name":"artichoke","steam_id":76561198980994364,"connected_time":2703000000000,"state":"active","ping":90},{"user_id":107,"name":"MR.DED, THE 2FORT FINAL BOSS","steam_id":76561199102310318,"connected_time":334000000000,"state":"active","ping":89},{"user_id":26,"name":"exlhk7","steam_id":76561199468136783,"connected_time":5849000000000,"state":"active","ping":122},{"user_id":70,"name":"Zhong Xina","steam_id":76561198048157121,"connected_time":3362000000000,"state":"active","ping":60},{"user_id":32,"name":"Jellin","steam_id":76561198093616984,"connected_time":4808000000000,"state":"active","ping":58},{"user_id":103,"name":"Security Chief Boper","steam_id":76561198218558897,"connected_time":675000000000,"state":"active","ping":123},{"user_id":84,"name":"‚òºBarracuda‚òº","steam_id":76561198013022083,"connected_time":1929000000000,"state":"active","ping":90},{"user_id":109,"name":"defcon","steam_id":76561198100656328,"connected_time":221000000000,"state":"active","ping":92},{"user_id":78,"name":"Freewave","steam_id":76561198156282541,"connected_time":2652000000000,"state":"active","ping":60},{"user_id":95,"name":"StormyBoyo","steam_id":76561198273482774,"connected_time":1159000000000,"state":"active","ping":81},{"user_id":96,"name":"Virtual Insanity","steam_id":76561198095245223,"connected_time":1136000000000,"state":"active","ping":47},{"user_id":88,"name":"Post nut clarity","steam_id":76561198060246831,"connected_time":1516000000000,"state":"active","ping":78},{"user_id":112,"name":"Berries","steam_id":76561198109312962,"connected_time":86000000000,"state":"active","ping":159},{"user_id":99,"name":"ChimpLover445","steam_id":76561199221501810,"connected_time":962000000000,"state":"active","ping":55},{"user_id":101,"name":"Ninja Steave","steam_id":76561197985884951,"connected_time":899000000000,"state":"active","ping":55},{"user_id":104,"name":"ZackPlayz","steam_id":76561198393823932,"connected_time":622000000000,"state":"active","ping":102},{"user_id":105,"name":"GibbusGod","steam_id":76561199232436690,"connected_time":504000000000,"state":"active","ping":70},{"user_id":45,"name":"WitchBomb_7","steam_id":76561198247320334,"connected_time":4522000000000,"state":"active","ping":71},{"user_id":114,"name":"Osrio","steam_id":76561198083428069,"connected_time":14000000000,"state":"spawning","ping":174},{"user_id":82,"name":"ProfPorker","steam_id":76561198084211940,"connected_time":2227000000000,"state":"active","ping":72},{"user_id":111,"name":"The Boss","steam_id":76561198264576571,"connected_time":145000000000,"state":"active","ping":165},{"user_id":50,"name":"Mr. Durian","steam_id":76561198093813212,"connected_time":4375000000000,"state":"active","ping":49},{"user_id":54,"name":"4jess20","steam_id":76561199488852383,"connected_time":4224000000000,"state":"active","ping":46},{"user_id":113,"name":"The Bucket","steam_id":76561199131973613,"connected_time":83000000000,"state":"active","ping":169}]},{"server_id":142,"name":"Uncletopia | S√£o Paulo | 1 | All Maps","name_short":"sao-1","host":"sao-1.br.uncletopia.com","port":27015,"enabled":true,"region":"sa","cc":"br","latitude":-23.533773,"longitude":-46.62529,"reserved":0,"last_update":"0001-01-01T00:00:00Z","name_a2s":"Uncletopia | S√£o Paulo | 1 | All Maps","protocol":17,"map":"koth_highpass","folder":"tf","game":"Team Fortress","app_id":440,"player_count":0,"max_players":24,"Bots":0,"server_type":"Dedicated","server_os":"Linux","password":true,"vac":true,"version":"7961495","steam_id":85568392924469996,"keywords":["cp","nocrits","nodmgspread","uncletopia"],"game_id":440,"stv_port":27016,"stv_name":"Uncletopia | S√£o Paulo | 1 | All Maps | STV","players":null},{"server_id":143,"name":"Uncletopia | S√£o Paulo | 2 | Community","name_short":"sao-2","host":"sao-2.br.uncletopia.com","port":27015,"enabled":true,"region":"sa","cc":"br","latitude":-23.533773,"longitude":-46.62529,"reserved":0,"last_update":"0001-01-01T00:00:00Z","name_a2s":"Uncletopia | S√£o Paulo | 2 | Community","protocol":17,"map":"workshop/pl_divulgence_b4b.ugc2884808746","folder":"tf","game":"Team Fortress","app_id":440,"player_count":0,"max_players":24,"Bots":0,"server_type":"Dedicated","server_os":"Linux","password":true,"vac":true,"version":"7961495","steam_id":85568392924485349,"keywords":["nocrits","nodmgspread","payload","uncletopia"],"game_id":440,"stv_port":27016,"stv_name":"Uncletopia | S√£o Paulo | 2 | Community | STV","players":null},{"server_id":7,"name":"Uncletopia | Seattle | 1 | All Maps","name_short":"sea-1","host":"sea-1.us.uncletopia.com","port":27015,"enabled":true,"region":"us-west","cc":"us","latitude":47.608013,"longitude":-122.33517,"reserved":0,"last_update":"0001-01-01T00:00:00Z","name_a2s":"Uncletopia | Seattle | 1 | All Maps","protocol":17,"map":"pl_badwater","folder":"tf","game":"Team Fortress","app_id":440,"player_count":24,"max_players":24,"Bots":0,"server_type":"Dedicated","server_os":"Linux","password":true,"vac":true,"version":"7961495","steam_id":85568392924469997,"keywords":["nocrits","nodmgspread","payload","uncletopia"],"game_id":440,"stv_port":27016,"stv_name":"Uncletopia | Seattle | 1 | All Maps | STV","players":[{"user_id":119,"name":"captain red","steam_id":76561198191587983,"connected_time":1502000000000,"state":"active","ping":88},{"user_id":155,"name":"Mythical Lag","steam_id":76561198347031281,"connected_time":443000000000,"state":"active","ping":109},{"user_id":152,"name":"Cob","steam_id":76561198042518365,"connected_time":658000000000,"state":"active","ping":68},{"user_id":81,"name":"The Entire Population of Canada","steam_id":76561198090187112,"connected_time":2503000000000,"state":"active","ping":120},{"user_id":111,"name":"forest (minecraft npc)","steam_id":76561198157960257,"connected_time":1744000000000,"state":"active","ping":38},{"user_id":139,"name":"Mike","steam_id":76561198122500429,"connected_time":1197000000000,"state":"active","ping":121},{"user_id":140,"name":"Mr. DeLarge","steam_id":76561198336820066,"connected_time":1164000000000,"state":"active","ping":63},{"user_id":66,"name":"CasemanTheBlondeBear","steam_id":76561198144862404,"connected_time":3117000000000,"state":"active","ping":53},{"user_id":141,"name":"Based","steam_id":76561199089316436,"connected_time":1139000000000,"state":"active","ping":45},{"user_id":80,"name":"Serene Salamander","steam_id":76561198001094770,"connected_time":2533000000000,"state":"active","ping":87},{"user_id":143,"name":"harrymcfly623","steam_id":76561198993215179,"connected_time":1108000000000,"state":"active","ping":82},{"user_id":27,"name":"Mr. Pockets","steam_id":76561198053657771,"connected_time":4224000000000,"state":"active","ping":87},{"user_id":33,"name":"Cambonieboo","steam_id":76561198139174433,"connected_time":3902000000000,"state":"active","ping":92},{"user_id":156,"name":"Keamy","steam_id":76561199471434875,"connected_time":383000000000,"state":"active","ping":40},{"user_id":145,"name":"JesterJasper","steam_id":76561198025338925,"connected_time":1042000000000,"state":"active","ping":47},{"user_id":122,"name":"Shark Sandwich","steam_id":76561198025007938,"connected_time":1419000000000,"state":"active","ping":59},{"user_id":161,"name":"—ïœÖ„Äê ï‚Ä¢·¥•‚Ä¢ î„Äë","steam_id":76561198071233302,"connected_time":265000000000,"state":"active","ping":114},{"user_id":148,"name":"pee pants","steam_id":76561198119711607,"connected_time":1000000000000,"state":"active","ping":71},{"user_id":147,"name":"strawberry","steam_id":76561198101926397,"connected_time":1010000000000,"state":"active","ping":100},{"user_id":153,"name":"Roberto Del Fuego","steam_id":76561198043458554,"connected_time":633000000000,"state":"active","ping":86},{"user_id":40,"name":"KillerRhodes","steam_id":76561198082550654,"connected_time":3726000000000,"state":"active","ping":105},{"user_id":159,"name":"Andrew","steam_id":76561198070615190,"connected_time":364000000000,"state":"active","ping":88},{"user_id":158,"name":"bengineer","steam_id":76561198171912174,"connected_time":371000000000,"state":"active","ping":56},{"user_id":160,"name":"Mugen","steam_id":76561198411174773,"connected_time":344000000000,"state":"active","ping":87}]},{"server_id":119,"name":"Uncletopia | Seattle | 2 | All Maps","name_short":"sea-2","host":"sea-1.us.uncletopia.com","port":27025,"enabled":true,"region":"us-west","cc":"us","latitude":47.608013,"longitude":-122.33517,"reserved":0,"last_update":"0001-01-01T00:00:00Z","name_a2s":"Uncletopia | Seattle | 2 | All Maps","protocol":17,"map":"pl_pier","folder":"tf","game":"Team Fortress","app_id":440,"player_count":23,"max_players":24,"Bots":0,"server_type":"Dedicated","server_os":"Linux","password":true,"vac":true,"version":"7961495","steam_id":85568392924469998,"keywords":["nocrits","nodmgspread","payload","uncletopia"],"game_id":440,"stv_port":27026,"stv_name":"Uncletopia | Seattle | 2 | All Maps | STV","players":[{"user_id":358,"name":"Cerabond","steam_id":76561199230915333,"connected_time":456000000000,"state":"active","ping":133},{"user_id":350,"name":"Daddy Topps","steam_id":76561198203594332,"connected_time":1897000000000,"state":"active","ping":45},{"user_id":359,"name":"Milkf porn","steam_id":76561198152601497,"connected_time":245000000000,"state":"active","ping":96},{"user_id":360,"name":"Soda","steam_id":76561198219209367,"connected_time":218000000000,"state":"active","ping":49},{"user_id":339,"name":"_almond_milk_","steam_id":76561198415523179,"connected_time":2297000000000,"state":"active","ping":77},{"user_id":361,"name":"Dad 2","steam_id":76561198138546187,"connected_time":197000000000,"state":"active","ping":124},{"user_id":347,"name":"Cael Thavain","steam_id":76561198136789464,"connected_time":1990000000000,"state":"active","ping":66},{"user_id":363,"name":"jayeskae","steam_id":76561198144220801,"connected_time":127000000000,"state":"active","ping":52},{"user_id":362,"name":"Phyre112","steam_id":76561198064367510,"connected_time":191000000000,"state":"active","ping":74},{"user_id":225,"name":"The Ball Mangler","steam_id":76561198090419068,"connected_time":7663000000000,"state":"active","ping":81},{"user_id":364,"name":"Skabbety","steam_id":76561198168044257,"connected_time":126000000000,"state":"active","ping":45},{"user_id":365,"name":"Twitch.tv/Jinx_VM","steam_id":76561198280150602,"connected_time":31000000000,"state":"active","ping":57},{"user_id":332,"name":"Laney","steam_id":76561199048555878,"connected_time":2691000000000,"state":"active","ping":63},{"user_id":352,"name":"floofy","steam_id":76561198389769098,"connected_time":1602000000000,"state":"active","ping":130},{"user_id":340,"name":"SadChicken Œª","steam_id":76561198082458968,"connected_time":2264000000000,"state":"active","ping":100},{"user_id":357,"name":"BlazedBunny","steam_id":76561198243610560,"connected_time":778000000000,"state":"active","ping":75},{"user_id":353,"name":"BurdBrain","steam_id":76561197962097737,"connected_time":1216000000000,"state":"active","ping":91},{"user_id":348,"name":"Ludacris","steam_id":76561198829460487,"connected_time":1975000000000,"state":"active","ping":109},{"user_id":308,"name":"fruit brute fiend","steam_id":76561198811500361,"connected_time":4067000000000,"state":"active","ping":45},{"user_id":342,"name":"chanoc","steam_id":76561198026734746,"connected_time":2212000000000,"state":"active","ping":66},{"user_id":349,"name":"garbo","steam_id":76561198149280150,"connected_time":1967000000000,"state":"active","ping":80},{"user_id":354,"name":"bobtheninjaman","steam_id":76561198066424544,"connected_time":1200000000000,"state":"active","ping":92},{"user_id":366,"name":"‚ô• alixei! ‚ô•","steam_id":76561198014557455,"connected_time":28000000000,"state":"active","ping":107}]},{"server_id":406,"name":"Uncletopia | Seattle | 3 | Stopwatch Beta","name_short":"sea-3","host":"sea-1.us.uncletopia.com","port":27035,"enabled":true,"region":"us-west","cc":"us","latitude":47.608013,"longitude":-122.33517,"reserved":0,"last_update":"0001-01-01T00:00:00Z","name_a2s":"Uncletopia | Seattle | 3 | Stopwatch Beta","protocol":17,"map":"koth_lakeside_final","folder":"tf","game":"Team Fortress","app_id":440,"player_count":0,"max_players":24,"Bots":0,"server_type":"Dedicated","server_os":"Linux","password":true,"vac":true,"version":"7961495","steam_id":85568392924515217,"keywords":["cp","nocrits","nodmgspread","uncletopia"],"game_id":440,"stv_port":27036,"stv_name":"Uncletopia | Seattle | 3 | Stopwatch Beta | STV","players":null},{"server_id":17,"name":"Uncletopia | San Francisco | 1 | All Maps","name_short":"sfo-1","host":"sfo-1.us.uncletopia.com","port":27015,"enabled":true,"region":"us-west","cc":"us","latitude":37.77397,"longitude":-122.4313,"reserved":0,"last_update":"0001-01-01T00:00:00Z","name_a2s":"Uncletopia | San Francisco | 1 | All Maps","protocol":17,"map":"pl_snowycoast","folder":"tf","game":"Team Fortress","app_id":440,"player_count":0,"max_players":24,"Bots":0,"server_type":"Dedicated","server_os":"Linux","password":true,"vac":true,"version":"7961495","steam_id":85568392924469999,"keywords":["nocrits","nodmgspread","payload","uncletopia"],"game_id":440,"stv_port":27016,"stv_name":"Uncletopia | San Francisco | 1 | All Maps | STV","players":null},{"server_id":18,"name":"Uncletopia | San Francisco | 2 | All Maps","name_short":"sfo-2","host":"sfo-1.us.uncletopia.com","port":27025,"enabled":true,"region":"us-west","cc":"us","latitude":37.77397,"longitude":-122.4313,"reserved":0,"last_update":"0001-01-01T00:00:00Z","name_a2s":"Uncletopia | San Francisco | 2 | All Maps","protocol":17,"map":"cp_process_final","folder":"tf","game":"Team Fortress","app_id":440,"player_count":0,"max_players":24,"Bots":0,"server_type":"Dedicated","server_os":"Linux","password":true,"vac":true,"version":"7961495","steam_id":85568392924470000,"keywords":["cp","nocrits","nodmgspread","uncletopia"],"game_id":440,"stv_port":27026,"stv_name":"Uncletopia | San Francisco | 2 | All Maps | STV","players":null},{"server_id":19,"name":"Uncletopia | San Francisco | 3 | Stopwatch Beta","name_short":"sfo-3","host":"sfo-1.us.uncletopia.com","port":27035,"enabled":true,"region":"us-west","cc":"us","latitude":37.77397,"longitude":-122.4313,"reserved":0,"last_update":"0001-01-01T00:00:00Z","name_a2s":"Uncletopia | San Francisco | 3 | Stopwatch Beta","protocol":17,"map":"pl_borneo","folder":"tf","game":"Team Fortress","app_id":440,"player_count":0,"max_players":24,"Bots":0,"server_type":"Dedicated","server_os":"Linux","password":true,"vac":true,"version":"7961495","steam_id":85568392924742824,"keywords":["nocrits","nodmgspread","payload","uncletopia"],"game_id":440,"stv_port":27036,"stv_name":"Uncletopia | San Francisco | 3 | Stopwatch Beta | STV","players":null},{"server_id":20,"name":"Uncletopia | San Francisco | 4 | Community","name_short":"sfo-4","host":"sfo-1.us.uncletopia.com","port":27045,"enabled":true,"region":"us-west","cc":"us","latitude":37.77397,"longitude":-122.4313,"reserved":0,"last_update":"0001-01-01T00:00:00Z","name_a2s":"Uncletopia | San Francisco | 4 | Community","protocol":17,"map":"koth_viaduct","folder":"tf","game":"Team Fortress","app_id":440,"player_count":0,"max_players":24,"Bots":0,"server_type":"Dedicated","server_os":"Linux","password":true,"vac":true,"version":"7961495","steam_id":85568392924742826,"keywords":["cp","nocrits","nodmgspread","uncletopia"],"game_id":440,"stv_port":27046,"stv_name":"Uncletopia | San Francisco | 4 | Community | STV","players":null},{"server_id":141,"name":"Uncletopia | Sydney | 1 | All Maps","name_short":"syd-1","host":"syd-1.au.uncletopia.com","port":27015,"enabled":true,"region":"au","cc":"au","latitude":-33.865143,"longitude":151.2099,"reserved":0,"last_update":"0001-01-01T00:00:00Z","name_a2s":"Uncletopia | Sydney | 1 | All Maps","protocol":17,"map":"koth_cascade","folder":"tf","game":"Team Fortress","app_id":440,"player_count":0,"max_players":24,"Bots":0,"server_type":"Dedicated","server_os":"Linux","password":true,"vac":true,"version":"7961495","steam_id":85568392924470001,"keywords":["cp","nocrits","nodmgspread","uncletopia"],"game_id":440,"stv_port":27016,"stv_name":"Uncletopia | Sydney | 1 | All Maps | STV","players":null},{"server_id":123,"name":"Uncletopia | Sydney | 2 | All Maps","name_short":"syd-2","host":"syd-1.au.uncletopia.com","port":27025,"enabled":true,"region":"au","cc":"au","latitude":-33.865143,"longitude":151.2099,"reserved":0,"last_update":"0001-01-01T00:00:00Z","name_a2s":"Uncletopia | Sydney | 2 | All Maps","protocol":17,"map":"cp_altitude","folder":"tf","game":"Team Fortress","app_id":440,"player_count":0,"max_players":24,"Bots":0,"server_type":"Dedicated","server_os":"Linux","password":true,"vac":true,"version":"7961495","steam_id":85568392924470002,"keywords":["cp","nocrits","nodmgspread","uncletopia"],"game_id":440,"stv_port":27026,"stv_name":"Uncletopia | Sydney | 2 | All Maps | STV","players":null},{"server_id":395,"name":"Uncletopia | Sydney | 3 | All Maps","name_short":"syd-3","host":"syd-1.au.uncletopia.com","port":27035,"enabled":true,"region":"au","cc":"au","latitude":-33.865143,"longitude":151.2099,"reserved":0,"last_update":"0001-01-01T00:00:00Z","name_a2s":"Uncletopia | Sydney | 3 | All Maps","protocol":17,"map":"pl_borneo","folder":"tf","game":"Team Fortress","app_id":440,"player_count":0,"max_players":24,"Bots":0,"server_type":"Dedicated","server_os":"Linux","password":true,"vac":true,"version":"7961495","steam_id":85568392925194467,"keywords":["nocrits","nodmgspread","payload","uncletopia"],"game_id":440,"stv_port":27036,"stv_name":"Uncletopia | Sydney | 3 | All Maps | STV","players":null},{"server_id":396,"name":"Uncletopia | Sydney | 4 | All Maps","name_short":"syd-4","host":"syd-1.au.uncletopia.com","port":27045,"enabled":true,"region":"au","cc":"au","latitude":-33.865143,"longitude":151.2099,"reserved":0,"last_update":"0001-01-01T00:00:00Z","name_a2s":"Uncletopia | Sydney | 4 | All Maps","protocol":17,"map":"koth_highpass","folder":"tf","game":"Team Fortress","app_id":440,"player_count":0,"max_players":24,"Bots":0,"server_type":"Dedicated","server_os":"Linux","password":true,"vac":true,"version":"7961495","steam_id":85568392925397958,"keywords":["cp","nocrits","nodmgspread","uncletopia"],"game_id":440,"stv_port":27046,"stv_name":"Uncletopia | Sydney | 4 | All Maps | STV","players":null},{"server_id":58,"name":"Uncletopia | Sydney | 5 | Stopwatch Beta","name_short":"syd-5","host":"syd-1.au.uncletopia.com","port":27055,"enabled":true,"region":"au","cc":"au","latitude":-33.865143,"longitude":151.2099,"reserved":0,"last_update":"0001-01-01T00:00:00Z","name_a2s":"Uncletopia | Sydney | 5 | Stopwatch Beta","protocol":17,"map":"koth_viaduct","folder":"tf","game":"Team Fortress","app_id":440,"player_count":0,"max_players":24,"Bots":0,"server_type":"Dedicated","server_os":"Linux","password":true,"vac":true,"version":"7961495","steam_id":85568392925397959,"keywords":["cp","nocrits","nodmgspread","uncletopia"],"game_id":440,"stv_port":27056,"stv_name":"Uncletopia | Sydney | 5 | Stopwatch Beta | STV","players":null},{"server_id":59,"name":"Uncletopia | Sydney | 6 | Community","name_short":"syd-6","host":"syd-1.au.uncletopia.com","port":27065,"enabled":true,"region":"au","cc":"au","latitude":-33.865143,"longitude":151.2099,"reserved":0,"last_update":"0001-01-01T00:00:00Z","name_a2s":"Uncletopia | Sydney | 6 | Community","protocol":17,"map":"koth_cascade","folder":"tf","game":"Team Fortress","app_id":440,"player_count":0,"max_players":24,"Bots":0,"server_type":"Dedicated","server_os":"Linux","password":true,"vac":true,"version":"7961495","steam_id":85568392925397960,"keywords":["cp","nocrits","nodmgspread","uncletopia"],"game_id":440,"stv_port":27066,"stv_name":"Uncletopia | Sydney | 6 | Community | STV","players":null},{"server_id":49,"name":"Uncletopia | Warsaw | 1 | All Maps","name_short":"waw-1","host":"waw-1.pl.uncletopia.com","port":27015,"enabled":true,"region":"eu","cc":"pl","latitude":52.2297,"longitude":21.017532,"reserved":0,"last_update":"0001-01-01T00:00:00Z","name_a2s":"Uncletopia | Warsaw | 1 | All Maps","protocol":17,"map":"koth_cascade","folder":"tf","game":"Team Fortress","app_id":440,"player_count":0,"max_players":24,"Bots":0,"server_type":"Dedicated","server_os":"Linux","password":true,"vac":true,"version":"7961495","steam_id":85568392925397850,"keywords":["cp","nocrits","nodmgspread","uncletopia"],"game_id":440,"stv_port":27016,"stv_name":"Uncletopia | Warsaw | 1 | All Maps | STV","players":null},{"server_id":50,"name":"Uncletopia | Warsaw | 2 | All Maps","name_short":"waw-2","host":"waw-1.pl.uncletopia.com","port":27025,"enabled":true,"region":"eu","cc":"pl","latitude":52.2297,"longitude":21.017532,"reserved":0,"last_update":"0001-01-01T00:00:00Z","name_a2s":"Uncletopia | Warsaw | 2 | All Maps","protocol":17,"map":"koth_lakeside_final","folder":"tf","game":"Team Fortress","app_id":440,"player_count":0,"max_players":24,"Bots":0,"server_type":"Dedicated","server_os":"Linux","password":true,"vac":true,"version":"7961495","steam_id":85568392925397851,"keywords":["cp","nocrits","nodmgspread","uncletopia"],"game_id":440,"stv_port":27026,"stv_name":"Uncletopia | Warsaw | 2 | All Maps | STV","players":null},{"server_id":51,"name":"Uncletopia | Warsaw | 3 | All Maps","name_short":"waw-3","host":"waw-1.pl.uncletopia.com","port":27035,"enabled":true,"region":"eu","cc":"pl","latitude":52.2297,"longitude":21.017532,"reserved":0,"last_update":"0001-01-01T00:00:00Z","name_a2s":"Uncletopia | Warsaw | 3 | All Maps","protocol":17,"map":"pl_snowycoast","folder":"tf","game":"Team Fortress","app_id":440,"player_count":0,"max_players":24,"Bots":0,"server_type":"Dedicated","server_os":"Linux","password":true,"vac":true,"version":"7961495","steam_id":85568392925397852,"keywords":["nocrits","nodmgspread","payload","uncletopia"],"game_id":440,"stv_port":27036,"stv_name":"Uncletopia | Warsaw | 3 | All Maps | STV","players":null},{"server_id":52,"name":"Uncletopia | Warsaw | 4 | All Maps","name_short":"waw-4","host":"waw-1.pl.uncletopia.com","port":27045,"enabled":true,"region":"eu","cc":"pl","latitude":52.2297,"longitude":21.017532,"reserved":0,"last_update":"0001-01-01T00:00:00Z","name_a2s":"Uncletopia | Warsaw | 4 | All Maps","protocol":17,"map":"koth_viaduct","folder":"tf","game":"Team Fortress","app_id":440,"player_count":0,"max_players":24,"Bots":0,"server_type":"Dedicated","server_os":"Linux","password":true,"vac":true,"version":"7961495","steam_id":85568392925397853,"keywords":["cp","nocrits","nodmgspread","uncletopia"],"game_id":440,"stv_port":27046,"stv_name":"Uncletopia | Warsaw | 4 | All Maps | STV","players":null},{"server_id":53,"name":"Uncletopia | Warsaw | 5 | Stopwatch Beta","name_short":"waw-5","host":"waw-1.pl.uncletopia.com","port":27055,"enabled":true,"region":"eu","cc":"pl","latitude":52.2297,"longitude":21.017532,"reserved":0,"last_update":"0001-01-01T00:00:00Z","name_a2s":"Uncletopia | Warsaw | 5 | Stopwatch Beta","protocol":17,"map":"pl_swiftwater_final1","folder":"tf","game":"Team Fortress","app_id":440,"player_count":0,"max_players":24,"Bots":0,"server_type":"Dedicated","server_os":"Linux","password":true,"vac":true,"version":"7961495","steam_id":85568392925397854,"keywords":["nocrits","nodmgspread","payload","uncletopia"],"game_id":440,"stv_port":27056,"stv_name":"Uncletopia | Warsaw | 5 | Stopwatch Beta | STV","players":null},{"server_id":54,"name":"Uncletopia | Warsaw | 6 | Community","name_short":"waw-6","host":"waw-1.pl.uncletopia.com","port":27065,"enabled":true,"region":"eu","cc":"pl","latitude":52.2297,"longitude":21.017532,"reserved":0,"last_update":"0001-01-01T00:00:00Z","name_a2s":"Uncletopia | Warsaw | 6 | Community","protocol":17,"map":"workshop/pl_fifthcurve_rc1.ugc648227046","folder":"tf","game":"Team Fortress","app_id":440,"player_count":0,"max_players":24,"Bots":0,"server_type":"Dedicated","server_os":"Linux","password":true,"vac":true,"version":"7961495","steam_id":85568392925397856,"keywords":["nocrits","nodmgspread","payload","uncletopia"],"game_id":440,"stv_port":27066,"stv_name":"Uncletopia | Warsaw | 6 | Community | STV","players":null}]}