{"status":true,"message":"","result":[{"server_id":9,"name":"Uncletopia | Atlanta | 1 | All Maps","name_short":"atl-1","host":"atl-1.us.uncletopia.com","port":27015,"enabled":true,"region":"us-east","cc":"us","latitude":33.753746,"longitude":-84.38633,"reserved":0,"last_update":"0001-01-01T00:00:00Z","name_a2s":"Uncletopia | Atlanta | 1 | All Maps","protocol":17,"map":"pl_snowycoast","folder":"tf","game":"Team Fortress","app_id":440,"player_count":1,"max_players":24,"Bots":0,"server_type":"Dedicated","server_os":"Linux","password":true,"vac":true,"version":"7742253","steam_id":85568392924469982,"keywords":["nocrits","nodmgspread","payload","uncletopia"],"game_id":440,"stv_port":27016,"stv_name":"Uncletopia | Atlanta | 1 | All Maps | STV","players":[{"user_id":7,"name":"fortnite.jimmy.2014","steam_id":76561199177672325,"connected_time":147000000000,"state":"active","ping":30}]},{"server_id":400,"name":"Uncletopia | Atlanta | 3 | Stopwatch Beta","name_short":"atl-3","host":"atl-1.us.uncletopia.com","port":27035,"enabled":true,"region":"us-east","cc":"us","latitude":33.753746,"longitude":-84.38633,"reserved":0,"last_update":"0001-01-01T00:00:00Z","name_a2s":"Uncletopia | Atlanta | 3 | Stopwatch Beta","protocol":17,"map":"pl_pier","folder":"tf","game":"Team Fortress","app_id":440,"player_count":0,"max_players":24,"Bots":0,"server_type":"Dedicated","server_os":"Linux","password":true,"vac":true,"version":"7742253","steam_id":85568392924515187,"keywords":["nocrits","nodmgspread","payload","uncletopia"],"game_id":440,"stv_port":27036,"stv_name":"Uncletopia | Atlanta | 3 | Stopwatch Beta | STV","players":null},{"server_id":401,"name":"Uncletopia | Atlanta | 4 | No Payload","name_short":"atl-4","host":"atl-1.us.uncletopia.com","port":27045,"enabled":true,"region":"us-east","cc":"us","latitude":33.753746,"longitude":-84.38633,"reserved":0,"last_update":"0001-01-01T00:00:00Z","name_a2s":"Uncletopia | Atlanta | 4 | No Payload","protocol":17,"map":"pl_pier","folder":"tf","game":"Team Fortress","app_id":440,"player_count":0,"max_players":24,"Bots":0,"server_type":"Dedicated","server_os":"Linux","password":true,"vac":true,"version":"7723704","steam_id":85568392924515188,"keywords":["nocrits","nodmgspread","payload","uncletopia"],"game_id":440,"stv_port":27046,"stv_name":"Uncletopia | Atlanta | 4 | No Payload | STV","players":null},{"server_id":2,"name":"Uncletopia | Chicago | 1 | All Maps","name_short":"chi-1","host":"chi-1.us.uncletopia.com","port":27015,"enabled":true,"region":"us-central","cc":"us","latitude":41.881832,"longitude":-87.62318,"reserved":0,"last_update":"0001-01-01T00:00:00Z","name_a2s":"Uncletopia | Chicago | 1 | All Maps","protocol":17,"map":"pl_barnblitz","folder":"tf","game":"Team Fortress","app_id":440,"player_count":0,"max_players":24,"Bots":0,"server_type":"Dedicated","server_os":"Linux","password":true,"vac":true,"version":"7742253","steam_id":85568392924469984,"keywords":["nocrits","nodmgspread","payload","uncletopia"],"game_id":440,"stv_port":27016,"stv_name":"Uncletopia | Chicago | 1 | All Maps | STV","players":null},{"server_id":106,"name":"Uncletopia | Chicago | 2 | All Maps","name_short":"chi-2","host":"chi-1.us.uncletopia.com","port":27025,"enabled":true,"region":"us-central","cc":"us","latitude":41.881832,"longitude":-87.62318,"reserved":0,"last_update":"0001-01-01T00:00:00Z","name_a2s":"Uncletopia | Chicago | 2 | All Maps","protocol":17,"map":"pl_snowycoast","folder":"tf","game":"Team Fortress","app_id":440,"player_count":0,"max_players":24,"Bots":0,"server_type":"Dedicated","server_os":"Linux","password":true,"vac":true,"version":"7742253","steam_id":85568392924469985,"keywords":["nocrits","nodmgspread","payload","uncletopia"],"game_id":440,"stv_port":27026,"stv_name":"Uncletopia | Chicago | 2 | All Maps | STV","players":null},{"server_id":402,"name":"Uncletopia | Chicago | 3 | All Maps","name_short":"chi-3","host":"chi-1.us.uncletopia.com","port":27035,"enabled":true,"region":"us-central","cc":"us","latitude":41.881832,"longitude":-87.62318,"reserved":0,"last_update":"0001-01-01T00:00:00Z","name_a2s":"Uncletopia | Chicago | 3 | All Maps","protocol":17,"map":"koth_viaduct","folder":"tf","game":"Team Fortress","app_id":440,"player_count":0,"max_players":24,"Bots":0,"server_type":"Dedicated","server_os":"Linux","password":true,"vac":true,"version":"7742253","steam_id":85568392924515191,"keywords":["cp","nocrits","nodmgspread","uncletopia"],"game_id":440,"stv_port":27036,"stv_name":"Uncletopia | Chicago | 3 | All Maps | STV","players":null},{"server_id":403,"name":"Uncletopia | Chicago | 4 | All Maps","name_short":"chi-4","host":"chi-1.us.uncletopia.com","port":27045,"enabled":true,"region":"us-central","cc":"us","latitude":41.881832,"longitude":-87.62318,"reserved":0,"last_update":"0001-01-01T00:00:00Z","name_a2s":"Uncletopia | Chicago | 4 | All Maps","protocol":17,"map":"koth_lakeside_final","folder":"tf","game":"Team Fortress","app_id":440,"player_count":0,"max_players":24,"Bots":0,"server_type":"Dedicated","server_os":"Linux","password":true,"vac":true,"version":"7742253","steam_id":85568392924515193,"keywords":["cp","nocrits","nodmgspread","uncletopia"],"game_id":440,"stv_port":27046,"stv_name":"Uncletopia | Chicago | 4 | All Maps | STV","players":null},{"server_id":36,"name":"Uncletopia | Chicago | 5 | All Maps","name_short":"chi-5","host":"chi-2.us.uncletopia.com","port":27015,"enabled":true,"region":"us-central","cc":"us","latitude":41.881832,"longitude":-87.62318,"reserved":0,"last_update":"0001-01-01T00:00:00Z","name_a2s":"Uncletopia | Chicago | 5 | All Maps","protocol":17,"map":"pl_upward","folder":"tf","game":"Team Fortress","app_id":440,"player_count":0,"max_players":24,"Bots":0,"server_type":"Dedicated","server_os":"Linux","password":true,"vac":true,"version":"7742253","steam_id":85568392924866362,"keywords":["nocrits","nodmgspread","payload","uncletopia"],"game_id":440,"stv_port":27016,"stv_name":"Uncletopia | Chicago | 5 | All Maps | STV","players":null},{"server_id":37,"name":"Uncletopia | Chicago | 6 | All Maps","name_short":"chi-6","host":"chi-2.us.uncletopia.com","port":27025,"enabled":true,"region":"us-central","cc":"us","latitude":41.881832,"longitude":-87.62318,"reserved":0,"last_update":"0001-01-01T00:00:00Z","name_a2s":"Uncletopia | Chicago | 6 | All Maps","protocol":17,"map":"pl_frontier_final","folder":"tf","game":"Team Fortress","app_id":440,"player_count":24,"max_players":24,"Bots":0,"server_type":"Dedicated","server_os":"Linux","password":true,"vac":true,"version":"7742253","steam_id":85568392924866363,"keywords":["nocrits","nodmgspread","payload","uncletopia"],"game_id":440,"stv_port":27026,"stv_name":"Uncletopia | Chicago | 6 | All Maps | STV","players":[{"user_id":85,"name":"I'm So Fucking Cool","steam_id":76561198098418071,"connected_time":875000000000,"state":"active","ping":104},{"user_id":66,"name":"Danzuniverse","steam_id":76561198179817943,"connected_time":2201000000000,"state":"active","ping":94},{"user_id":80,"name":"srv","steam_id":76561198026589960,"connected_time":1120000000000,"state":"active","ping":45},{"user_id":70,"name":"Casual Costanza","steam_id":76561198024409325,"connected_time":1837000000000,"state":"active","ping":61},{"user_id":86,"name":"vortexgamer","steam_id":76561197999435527,"connected_time":829000000000,"state":"active","ping":76},{"user_id":81,"name":"Bichael","steam_id":76561198013308693,"connected_time":1118000000000,"state":"active","ping":64},{"user_id":90,"name":"sex_haver2009","steam_id":76561198068603757,"connected_time":561000000000,"state":"active","ping":77},{"user_id":74,"name":"YungKeet","steam_id":76561198293854963,"connected_time":1277000000000,"state":"active","ping":78},{"user_id":11,"name":"⛧⸸⛧⸸⛧⸸","steam_id":76561198007051179,"connected_time":5941000000000,"state":"active","ping":95},{"user_id":91,"name":"Purgatory","steam_id":76561198374795958,"connected_time":250000000000,"state":"active","ping":117},{"user_id":13,"name":"Batman Grant Williams","steam_id":76561198115458307,"connected_time":5918000000000,"state":"active","ping":105},{"user_id":35,"name":"Atlas","steam_id":76561198127975050,"connected_time":4784000000000,"state":"active","ping":100},{"user_id":54,"name":"viedoamegs","steam_id":76561198025295263,"connected_time":3248000000000,"state":"active","ping":78},{"user_id":16,"name":"Jimothy","steam_id":76561198982248872,"connected_time":5903000000000,"state":"active","ping":75},{"user_id":69,"name":"morbissey","steam_id":76561198072592880,"connected_time":1869000000000,"state":"active","ping":44},{"user_id":19,"name":"Pan Dulce","steam_id":76561198044444716,"connected_time":5879000000000,"state":"active","ping":110},{"user_id":87,"name":"Papa Banana","steam_id":76561198273437591,"connected_time":826000000000,"state":"active","ping":73},{"user_id":89,"name":"kratomSnorter.1quarter","steam_id":76561198946987511,"connected_time":716000000000,"state":"active","ping":90},{"user_id":22,"name":"Brown_Dream","steam_id":76561198975766145,"connected_time":5822000000000,"state":"active","ping":72},{"user_id":71,"name":"GabetIV femboy","steam_id":76561198145700338,"connected_time":1321000000000,"state":"active","ping":62},{"user_id":24,"name":"Soap Man","steam_id":76561198000490235,"connected_time":5718000000000,"state":"active","ping":109},{"user_id":88,"name":"Alias Bulldog Drummond","steam_id":76561198013065507,"connected_time":797000000000,"state":"active","ping":82},{"user_id":84,"name":"Bud Hamshaw","steam_id":76561198002877152,"connected_time":935000000000,"state":"active","ping":54},{"user_id":78,"name":"IPlayGamez","steam_id":76561198041387508,"connected_time":1265000000000,"state":"active","ping":60}]},{"server_id":38,"name":"Uncletopia | Chicago | 7 | Stopwatch Beta","name_short":"chi-7","host":"chi-2.us.uncletopia.com","port":27035,"enabled":true,"region":"us-central","cc":"us","latitude":41.881832,"longitude":-87.62318,"reserved":0,"last_update":"0001-01-01T00:00:00Z","name_a2s":"Uncletopia | Chicago | 7 | Stopwatch Beta","protocol":17,"map":"koth_lakeside_final","folder":"tf","game":"Team Fortress","app_id":440,"player_count":0,"max_players":24,"Bots":0,"server_type":"Dedicated","server_os":"Linux","password":true,"vac":true,"version":"7742253","steam_id":85568392924866364,"keywords":["cp","nocrits","nodmgspread","uncletopia"],"game_id":440,"stv_port":27036,"stv_name":"Uncletopia | Chicago | 7 | Stopwatch Beta | STV","players":null},{"server_id":39,"name":"Uncletopia | Chicago | 8 | Community","name_short":"chi-8","host":"chi-2.us.uncletopia.com","port":27045,"enabled":true,"region":"us-central","cc":"us","latitude":41.881832,"longitude":-87.62318,"reserved":0,"last_update":"0001-01-01T00:00:00Z","name_a2s":"Uncletopia | Chicago | 8 | Community","protocol":17,"map":"koth_lakeside_final","folder":"tf","game":"Team Fortress","app_id":440,"player_count":0,"max_players":24,"Bots":0,"server_type":"Dedicated","server_os":"Linux","password":true,"vac":true,"version":"7742253","steam_id":85568392924866365,"keywords":["cp","nocrits","nodmgspread","uncletopia"],"game_id":440,"stv_port":27046,"stv_name":"Uncletopia | Chicago | 8 | Community | STV","players":null},{"server_id":8,"name":"Uncletopia | Dallas | 1 | All Maps","name_short":"dal-1","host":"dal-1.us.uncletopia.com","port":27015,"enabled":true,"region":"us-central","cc":"us","latitude":32.779167,"longitude":-96.80889,"reserved":0,"last_update":"0001-01-01T00:00:00Z","name_a2s":"Uncletopia | Dallas | 1 | All Maps","protocol":17,"map":"koth_lakeside_final","folder":"tf","game":"Team Fortress","app_id":440,"player_count":0,"max_players":24,"Bots":0,"server_type":"Dedicated","server_os":"Linux","password":true,"vac":true,"version":"7742253","steam_id":85568392924469986,"keywords":["cp","nocrits","nodmgspread","uncletopia"],"game_id":440,"stv_port":27016,"stv_name":"Uncletopia | Dallas | 1 | All Maps | STV","players":null},{"server_id":108,"name":"Uncletopia | Dallas | 2 | All Maps","name_short":"dal-2","host":"dal-1.us.uncletopia.com","port":27025,"enabled":true,"region":"us-central","cc":"us","latitude":32.779167,"longitude":-96.80889,"reserved":0,"last_update":"0001-01-01T00:00:00Z","name_a2s":"Uncletopia | Dallas | 2 | All Maps","protocol":17,"map":"cp_process_final","folder":"tf","game":"Team Fortress","app_id":440,"player_count":0,"max_players":24,"Bots":0,"server_type":"Dedicated","server_os":"Linux","password":true,"vac":true,"version":"7742253","steam_id":85568392924469988,"keywords":["cp","nocrits","nodmgspread","uncletopia"],"game_id":440,"stv_port":27026,"stv_name":"Uncletopia | Dallas | 2 | All Maps | STV","players":null},{"server_id":5,"name":"Uncletopia | Frankfurt | 1 | All Maps","name_short":"frk-1","host":"frk-1.de.uncletopia.com","port":27015,"enabled":true,"region":"eu","cc":"de","latitude":50.110924,"longitude":8.682127,"reserved":0,"last_update":"0001-01-01T00:00:00Z","name_a2s":"Uncletopia | Frankfurt | 1 | All Maps","protocol":17,"map":"pl_swiftwater_final1","folder":"tf","game":"Team Fortress","app_id":440,"player_count":24,"max_players":24,"Bots":0,"server_type":"Dedicated","server_os":"Linux","password":true,"vac":true,"version":"7742253","steam_id":85568392924469989,"keywords":["nocrits","nodmgspread","payload","uncletopia"],"game_id":440,"stv_port":27016,"stv_name":"Uncletopia | Frankfurt | 1 | All Maps | STV","players":[{"user_id":295,"name":"Drdarlekzzz","steam_id":76561198160141785,"connected_time":90000000000,"state":"active","ping":58},{"user_id":294,"name":"テイルス","steam_id":76561198022403271,"connected_time":129000000000,"state":"active","ping":45},{"user_id":253,"name":"noamshor","steam_id":76561198974556515,"connected_time":2163000000000,"state":"active","ping":133},{"user_id":289,"name":"tealoverr.190","steam_id":76561199028497703,"connected_time":307000000000,"state":"active","ping":103},{"user_id":196,"name":"Bundle of Sticks","steam_id":76561198133782205,"connected_time":5600000000000,"state":"active","ping":123},{"user_id":282,"name":"NotASpy","steam_id":76561199191051178,"connected_time":538000000000,"state":"active","ping":129},{"user_id":284,"name":"jack's vitamin d","steam_id":76561198036032168,"connected_time":510000000000,"state":"active","ping":130},{"user_id":293,"name":"Ｒ Ｏ Ｂ Ｂ Ｅ Ｒ Ｔ","steam_id":76561198134404830,"connected_time":155000000000,"state":"active","ping":126},{"user_id":276,"name":"Ledze Shuns Dope","steam_id":76561198049945010,"connected_time":1694000000000,"state":"active","ping":56},{"user_id":254,"name":"Pinkchup","steam_id":76561198106802803,"connected_time":2152000000000,"state":"active","ping":75},{"user_id":296,"name":"PhantomStriker","steam_id":76561199116689935,"connected_time":74000000000,"state":"spawning","ping":75},{"user_id":256,"name":"SR. AGENTE JOAO","steam_id":76561198854417161,"connected_time":2106000000000,"state":"active","ping":102},{"user_id":297,"name":"theres a bomb in my tea","steam_id":76561199134149296,"connected_time":59000000000,"state":"active","ping":106},{"user_id":298,"name":"TKN_Paps997","steam_id":76561198419868465,"connected_time":36000000000,"state":"active","ping":78},{"user_id":218,"name":"contracts are pain","steam_id":76561198864028310,"connected_time":4144000000000,"state":"active","ping":58},{"user_id":278,"name":"pepper","steam_id":76561198059782462,"connected_time":1047000000000,"state":"active","ping":57},{"user_id":286,"name":"Old Beavis","steam_id":76561198065951617,"connected_time":387000000000,"state":"active","ping":61},{"user_id":280,"name":"Maximus","steam_id":76561198032472655,"connected_time":560000000000,"state":"active","ping":57},{"user_id":292,"name":"Arcticpyro","steam_id":76561198010708923,"connected_time":280000000000,"state":"active","ping":61},{"user_id":279,"name":"Magiccomplex","steam_id":76561199203555188,"connected_time":850000000000,"state":"active","ping":45},{"user_id":258,"name":"txrracxtta","steam_id":76561198073478010,"connected_time":2049000000000,"state":"active","ping":48},{"user_id":288,"name":"dedwarded","steam_id":76561199194948995,"connected_time":324000000000,"state":"active","ping":54},{"user_id":259,"name":"G. Grey GreySon","steam_id":76561198073954578,"connected_time":2033000000000,"state":"active","ping":82},{"user_id":260,"name":"festry","steam_id":76561198873296090,"connected_time":2014000000000,"state":"active","ping":64}]},{"server_id":110,"name":"Uncletopia | Frankfurt | 2 | All Maps","name_short":"frk-2","host":"frk-1.de.uncletopia.com","port":27025,"enabled":true,"region":"eu","cc":"de","latitude":50.110924,"longitude":8.682127,"reserved":0,"last_update":"0001-01-01T00:00:00Z","name_a2s":"Uncletopia | Frankfurt | 2 | All Maps","protocol":17,"map":"pl_frontier_final","folder":"tf","game":"Team Fortress","app_id":440,"player_count":24,"max_players":24,"Bots":0,"server_type":"Dedicated","server_os":"Linux","password":true,"vac":true,"version":"7742253","steam_id":85568392924469990,"keywords":["nocrits","nodmgspread","payload","uncletopia"],"game_id":440,"stv_port":27026,"stv_name":"Uncletopia | Frankfurt | 2 | All Maps | STV","players":[{"user_id":164,"name":"BOO","steam_id":76561198809430255,"connected_time":338000000000,"state":"active","ping":52},{"user_id":150,"name":"Squash Banana","steam_id":76561198055480280,"connected_time":1247000000000,"state":"active","ping":63},{"user_id":165,"name":"zheel","steam_id":76561198354135485,"connected_time":316000000000,"state":"active","ping":66},{"user_id":154,"name":"apem","steam_id":76561198155568598,"connected_time":700000000000,"state":"active","ping":47},{"user_id":155,"name":"DeKritteh","steam_id":76561198113945397,"connected_time":697000000000,"state":"active","ping":80},{"user_id":136,"name":"blurst of times","steam_id":76561197972325640,"connected_time":2498000000000,"state":"active","ping":57},{"user_id":167,"name":"Cossack","steam_id":76561198076661772,"connected_time":239000000000,"state":"active","ping":80},{"user_id":146,"name":"Cuthbert","steam_id":76561198204649481,"connected_time":1425000000000,"state":"active","ping":104},{"user_id":157,"name":"clems17","steam_id":76561199420685482,"connected_time":662000000000,"state":"active","ping":48},{"user_id":138,"name":"Buursq","steam_id":76561198137801309,"connected_time":2470000000000,"state":"active","ping":72},{"user_id":141,"name":"Joel!","steam_id":76561198155422742,"connected_time":2448000000000,"state":"active","ping":54},{"user_id":158,"name":"le big mac","steam_id":76561199026378253,"connected_time":636000000000,"state":"active","ping":53},{"user_id":159,"name":"The Bonk Man™","steam_id":76561199044260792,"connected_time":633000000000,"state":"active","ping":64},{"user_id":64,"name":"Solid","steam_id":76561198357049292,"connected_time":6731000000000,"state":"active","ping":92},{"user_id":104,"name":"aaron","steam_id":76561198090143282,"connected_time":4275000000000,"state":"active","ping":62},{"user_id":142,"name":"citronous","steam_id":76561198093290934,"connected_time":2247000000000,"state":"active","ping":58},{"user_id":160,"name":"Comunisation","steam_id":76561199131568273,"connected_time":627000000000,"state":"active","ping":76},{"user_id":169,"name":"Babatitiste","steam_id":76561198800212915,"connected_time":224000000000,"state":"active","ping":69},{"user_id":149,"name":"Tank","steam_id":76561199059174576,"connected_time":1346000000000,"state":"active","ping":170},{"user_id":121,"name":"dr.cumfart","steam_id":76561198045330758,"connected_time":3355000000000,"state":"active","ping":129},{"user_id":130,"name":"Akirus","steam_id":76561198369831090,"connected_time":2929000000000,"state":"active","ping":97},{"user_id":127,"name":"Gordon Birdman","steam_id":76561198013382324,"connected_time":3132000000000,"state":"active","ping":75},{"user_id":133,"name":"Sigmar's Weakest Soldier","steam_id":76561198320506848,"connected_time":2698000000000,"state":"active","ping":56},{"user_id":161,"name":"Fan","steam_id":76561198440592048,"connected_time":626000000000,"state":"active","ping":79}]},{"server_id":308,"name":"Uncletopia | Frankfurt | 3 | All Maps","name_short":"frk-3","host":"frk-1.de.uncletopia.com","port":27035,"enabled":true,"region":"eu","cc":"de","latitude":50.110924,"longitude":8.682127,"reserved":0,"last_update":"0001-01-01T00:00:00Z","name_a2s":"Uncletopia | Frankfurt | 3 | All Maps","protocol":17,"map":"ctf_2fort","folder":"tf","game":"Team Fortress","app_id":440,"player_count":22,"max_players":24,"Bots":0,"server_type":"Dedicated","server_os":"Linux","password":true,"vac":true,"version":"7742253","steam_id":85568392924504274,"keywords":["ctf","nocrits","nodmgspread","uncletopia"],"game_id":440,"stv_port":27036,"stv_name":"Uncletopia | Frankfurt | 3 | All Maps | STV","players":[{"user_id":64,"name":"Senator Armstrong","steam_id":76561198984346408,"connected_time":7000000000,"state":"spawning","ping":79},{"user_id":63,"name":"Jolvard","steam_id":76561198050953597,"connected_time":112000000000,"state":"active","ping":67},{"user_id":53,"name":"Españaa","steam_id":76561198879587832,"connected_time":627000000000,"state":"active","ping":74},{"user_id":15,"name":"jesus0004","steam_id":76561198300074730,"connected_time":1447000000000,"state":"active","ping":78},{"user_id":16,"name":"Iranian Voodoo Doctor","steam_id":76561198299412111,"connected_time":1443000000000,"state":"active","ping":45},{"user_id":17,"name":"sinapsid","steam_id":76561199130784607,"connected_time":1386000000000,"state":"active","ping":82},{"user_id":18,"name":"gmem","steam_id":76561198070006725,"connected_time":1371000000000,"state":"active","ping":65},{"user_id":19,"name":"Fella","steam_id":76561199090136355,"connected_time":1371000000000,"state":"active","ping":54},{"user_id":21,"name":"yeldad","steam_id":76561198447264153,"connected_time":1297000000000,"state":"active","ping":125},{"user_id":23,"name":"Baki ツ","steam_id":76561198193615529,"connected_time":1266000000000,"state":"active","ping":59},{"user_id":56,"name":"Bepperman","steam_id":76561198397517828,"connected_time":592000000000,"state":"active","ping":67},{"user_id":31,"name":"Osmo","steam_id":76561199286764992,"connected_time":1207000000000,"state":"active","ping":84},{"user_id":32,"name":"enodor1","steam_id":76561198895251313,"connected_time":1191000000000,"state":"active","ping":76},{"user_id":41,"name":"Toaster889","steam_id":76561199020601573,"connected_time":1036000000000,"state":"active","ping":179},{"user_id":30,"name":"Blyatwork","steam_id":76561198825379598,"connected_time":1212000000000,"state":"active","ping":40},{"user_id":33,"name":"Gandalf67","steam_id":76561198297447327,"connected_time":1187000000000,"state":"active","ping":81},{"user_id":34,"name":"Tyyppioksidi","steam_id":76561198365773408,"connected_time":1181000000000,"state":"active","ping":92},{"user_id":57,"name":"Zogg","steam_id":76561198352683491,"connected_time":514000000000,"state":"active","ping":52},{"user_id":50,"name":"Mokorito","steam_id":76561198873773949,"connected_time":734000000000,"state":"active","ping":63},{"user_id":61,"name":"EasyName","steam_id":76561198351836689,"connected_time":247000000000,"state":"spawning","ping":101},{"user_id":42,"name":"kornetov.vitalya","steam_id":76561199286034833,"connected_time":1035000000000,"state":"active","ping":75},{"user_id":58,"name":"Blondie","steam_id":76561198080631634,"connected_time":315000000000,"state":"active","ping":66}]},{"server_id":309,"name":"Uncletopia | Frankfurt | 4 | All Maps","name_short":"frk-4","host":"frk-1.de.uncletopia.com","port":27045,"enabled":true,"region":"eu","cc":"de","latitude":50.110924,"longitude":8.682127,"reserved":0,"last_update":"0001-01-01T00:00:00Z","name_a2s":"Uncletopia | Frankfurt | 4 | All Maps","protocol":17,"map":"pl_pier","folder":"tf","game":"Team Fortress","app_id":440,"player_count":24,"max_players":24,"Bots":0,"server_type":"Dedicated","server_os":"Linux","password":true,"vac":true,"version":"7742253","steam_id":85568392924504275,"keywords":["nocrits","nodmgspread","payload","uncletopia"],"game_id":440,"stv_port":27046,"stv_name":"Uncletopia | Frankfurt | 4 | All Maps | STV","players":[{"user_id":49,"name":"Zoran Snajper","steam_id":76561198312564061,"connected_time":3615000000000,"state":"active","ping":70},{"user_id":112,"name":"fmdi","steam_id":76561199433879329,"connected_time":15000000000,"state":"active","ping":196},{"user_id":64,"name":"cl","steam_id":76561199436640904,"connected_time":2790000000000,"state":"active","ping":62},{"user_id":104,"name":"sololiste","steam_id":76561198006047494,"connected_time":771000000000,"state":"active","ping":63},{"user_id":89,"name":"marcelwellmann","steam_id":76561198868282827,"connected_time":1396000000000,"state":"active","ping":58},{"user_id":24,"name":"Enigmus","steam_id":76561197994063627,"connected_time":4590000000000,"state":"active","ping":78},{"user_id":97,"name":"GZimmer","steam_id":76561198088794767,"connected_time":1164000000000,"state":"active","ping":48},{"user_id":100,"name":"Echo of Abyss","steam_id":76561198981841782,"connected_time":1002000000000,"state":"active","ping":81},{"user_id":99,"name":"Autonomous movement","steam_id":76561198087800030,"connected_time":1026000000000,"state":"active","ping":66},{"user_id":68,"name":"markus #Hindiboys","steam_id":76561198186791643,"connected_time":2773000000000,"state":"active","ping":73},{"user_id":29,"name":"coffee","steam_id":76561198382387303,"connected_time":4422000000000,"state":"active","ping":75},{"user_id":75,"name":"Mottinen","steam_id":76561198223868928,"connected_time":2584000000000,"state":"active","ping":78},{"user_id":77,"name":"opaacic","steam_id":76561199158514501,"connected_time":2269000000000,"state":"active","ping":82},{"user_id":70,"name":"Gorlami","steam_id":76561198139623088,"connected_time":2763000000000,"state":"active","ping":78},{"user_id":109,"name":"El`Capitano Flex","steam_id":76561198061813730,"connected_time":68000000000,"state":"active","ping":64},{"user_id":107,"name":"Mr.4kb","steam_id":76561198027916127,"connected_time":359000000000,"state":"active","ping":53},{"user_id":72,"name":"Allergic to cart","steam_id":76561198410598772,"connected_time":2756000000000,"state":"active","ping":45},{"user_id":90,"name":"A Certain Craftsman","steam_id":76561198107329135,"connected_time":1393000000000,"state":"active","ping":108},{"user_id":110,"name":"Stille Willem","steam_id":76561198093579428,"connected_time":59000000000,"state":"active","ping":62},{"user_id":105,"name":"Zargibarg","steam_id":76561198007792525,"connected_time":763000000000,"state":"active","ping":48},{"user_id":91,"name":"Dr-je-kill","steam_id":76561198890817226,"connected_time":1392000000000,"state":"active","ping":70},{"user_id":103,"name":"Mihuel Hairman#Savetf2","steam_id":76561199041992422,"connected_time":828000000000,"state":"active","ping":135},{"user_id":92,"name":"Logone","steam_id":76561198069133372,"connected_time":1384000000000,"state":"active","ping":109},{"user_id":106,"name":"jjatr","steam_id":76561198951140196,"connected_time":389000000000,"state":"active","ping":68}]},{"server_id":310,"name":"Uncletopia | Frankfurt | 5 | All Maps","name_short":"frk-5","host":"frk-1.de.uncletopia.com","port":27055,"enabled":true,"region":"eu","cc":"de","latitude":50.110924,"longitude":8.682127,"reserved":0,"last_update":"0001-01-01T00:00:00Z","name_a2s":"Uncletopia | Frankfurt | 5 | All Maps","protocol":17,"map":"pl_snowycoast","folder":"tf","game":"Team Fortress","app_id":440,"player_count":24,"max_players":24,"Bots":0,"server_type":"Dedicated","server_os":"Linux","password":true,"vac":true,"version":"7742253","steam_id":85568392924504277,"keywords":["nocrits","nodmgspread","payload","uncletopia"],"game_id":440,"stv_port":27056,"stv_name":"Uncletopia | Frankfurt | 5 | All Maps | STV","players":[{"user_id":135,"name":"Van","steam_id":76561199177668753,"connected_time":996000000000,"state":"active","ping":49},{"user_id":148,"name":"Alberto Balsam","steam_id":76561198091814810,"connected_time":304000000000,"state":"active","ping":182},{"user_id":144,"name":"McGov","steam_id":76561198211361463,"connected_time":768000000000,"state":"active","ping":70},{"user_id":140,"name":"vertman90210","steam_id":76561199000067805,"connected_time":878000000000,"state":"active","ping":69},{"user_id":141,"name":"Prox","steam_id":76561198351490981,"connected_time":844000000000,"state":"active","ping":56},{"user_id":73,"name":"goodguy","steam_id":76561199048167724,"connected_time":3738000000000,"state":"active","ping":101},{"user_id":153,"name":"SantiThePug #ReviveTheCaber","steam_id":76561199049615996,"connected_time":106000000000,"state":"active","ping":67},{"user_id":139,"name":"Plimpus","steam_id":76561198086654069,"connected_time":902000000000,"state":"active","ping":75},{"user_id":150,"name":"VIN WEASEL","steam_id":76561198014387066,"connected_time":296000000000,"state":"active","ping":52},{"user_id":154,"name":"The year is 20BB...","steam_id":76561198101292843,"connected_time":65000000000,"state":"active","ping":54},{"user_id":114,"name":"TMC","steam_id":76561198077956157,"connected_time":1579000000000,"state":"active","ping":59},{"user_id":155,"name":"ttv.twitch.tv/watchLive","steam_id":76561198047359132,"connected_time":45000000000,"state":"active","ping":61},{"user_id":131,"name":"That Piss Sniper","steam_id":76561198356449555,"connected_time":1085000000000,"state":"active","ping":74},{"user_id":122,"name":"FilipeLuk","steam_id":76561198150675438,"connected_time":1228000000000,"state":"active","ping":71},{"user_id":103,"name":"kul","steam_id":76561198065179630,"connected_time":2350000000000,"state":"active","ping":56},{"user_id":32,"name":"Yony","steam_id":76561199070569941,"connected_time":5699000000000,"state":"active","ping":61},{"user_id":115,"name":"Roni Pepperoni","steam_id":76561198074979740,"connected_time":1562000000000,"state":"active","ping":98},{"user_id":78,"name":"Tonne","steam_id":76561197970856766,"connected_time":3579000000000,"state":"active","ping":51},{"user_id":108,"name":"Fridge","steam_id":76561198071665589,"connected_time":2256000000000,"state":"active","ping":120},{"user_id":132,"name":"Patrick Bateman","steam_id":76561198408829424,"connected_time":1081000000000,"state":"active","ping":78},{"user_id":41,"name":"Welder","steam_id":76561198355300561,"connected_time":5453000000000,"state":"active","ping":72},{"user_id":145,"name":"ZePequenio","steam_id":76561197968506094,"connected_time":495000000000,"state":"active","ping":49},{"user_id":134,"name":"Bread","steam_id":76561198323756120,"connected_time":1069000000000,"state":"active","ping":74},{"user_id":151,"name":"bro.","steam_id":76561198053394831,"connected_time":293000000000,"state":"active","ping":64}]},{"server_id":311,"name":"Uncletopia | Frankfurt | 6 | All Maps","name_short":"frk-6","host":"frk-1.de.uncletopia.com","port":27065,"enabled":true,"region":"eu","cc":"de","latitude":50.110924,"longitude":8.682127,"reserved":0,"last_update":"0001-01-01T00:00:00Z","name_a2s":"Uncletopia | Frankfurt | 6 | All Maps","protocol":17,"map":"koth_lakeside_final","folder":"tf","game":"Team Fortress","app_id":440,"player_count":1,"max_players":24,"Bots":0,"server_type":"Dedicated","server_os":"Linux","password":true,"vac":true,"version":"7742253","steam_id":85568392924504278,"keywords":["cp","nocrits","nodmgspread","uncletopia"],"game_id":440,"stv_port":27066,"stv_name":"Uncletopia | Frankfurt | 6 | All Maps | STV","players":[{"user_id":9,"name":"Guy with squares as username","steam_id":76561198269524918,"connected_time":12000000000,"state":"spawning","ping":67}]},{"server_id":23,"name":"Uncletopia | Frankfurt | 7 | Stopwatch Beta","name_short":"frk-7","host":"frk-1.de.uncletopia.com","port":27075,"enabled":true,"region":"eu","cc":"de","latitude":50.110924,"longitude":8.682127,"reserved":0,"last_update":"0001-01-01T00:00:00Z","name_a2s":"Uncletopia | Frankfurt | 7 | Stopwatch Beta","protocol":17,"map":"pl_badwater","folder":"tf","game":"Team Fortress","app_id":440,"player_count":0,"max_players":24,"Bots":0,"server_type":"Dedicated","server_os":"Linux","password":true,"vac":true,"version":"7742253","steam_id":85568392924742827,"keywords":["nocrits","nodmgspread","payload","uncletopia"],"game_id":440,"stv_port":27076,"stv_name":"Uncletopia | Frankfurt | 7 | Stopwatch Beta | STV","players":null},{"server_id":24,"name":"Uncletopia | Frankfurt | 8 | Community","name_short":"frk-8","host":"frk-1.de.uncletopia.com","port":27085,"enabled":true,"region":"eu","cc":"de","latitude":50.110924,"longitude":8.682127,"reserved":0,"last_update":"0001-01-01T00:00:00Z","name_a2s":"Uncletopia | Frankfurt | 8 | Community","protocol":17,"map":"koth_cascade","folder":"tf","game":"Team Fortress","app_id":440,"player_count":3,"max_players":24,"Bots":0,"server_type":"Dedicated","server_os":"Linux","password":true,"vac":true,"version":"7742253","steam_id":85568392924742828,"keywords":["cp","nocrits","nodmgspread","uncletopia"],"game_id":440,"stv_port":27086,"stv_name":"Uncletopia | Frankfurt | 8 | Community | STV","players":[{"user_id":9,"name":"47","steam_id":76561198856781924,"connected_time":883000000000,"state":"active","ping":51},{"user_id":7,"name":"Geralt of Rivia","steam_id":76561198856506827,"connected_time":1233000000000,"state":"active","ping":57},{"user_id":10,"name":"Mandele","steam_id":76561199183213205,"connected_time":381000000000,"state":"active","ping":78}]},{"server_id":202,"name":"Uncletopia | Hong Kong | 1 | All Maps","name_short":"hgk-1","host":"hgk-1.hk.uncletopia.com","port":27015,"enabled":true,"region":"asia","cc":"hk","latitude":22.302711,"longitude":114.177216,"reserved":0,"last_update":"0001-01-01T00:00:00Z","name_a2s":"Uncletopia | Hong Kong | 1 | All Maps","protocol":17,"map":"pl_barnblitz","folder":"tf","game":"Team Fortress","app_id":440,"player_count":24,"max_players":24,"Bots":0,"server_type":"Dedicated","server_os":"Linux","password":true,"vac":true,"version":"7742253","steam_id":85568392924494504,"keywords":["nocrits","nodmgspread","payload","uncletopia"],"game_id":440,"stv_port":27016,"stv_name":"Uncletopia | Hong Kong | 1 | All Maps | STV","players":[{"user_id":574,"name":"hpeed","steam_id":76561198808595586,"connected_time":1111000000000,"state":"active","ping":122},{"user_id":547,"name":"john ultrakill","steam_id":76561198442507642,"connected_time":2949000000000,"state":"active","ping":103},{"user_id":560,"name":"Buttman","steam_id":76561198044693388,"connected_time":2582000000000,"state":"active","ping":45},{"user_id":550,"name":"쿠키","steam_id":76561197997220367,"connected_time":2930000000000,"state":"active","ping":46},{"user_id":552,"name":"lettuce at 58p","steam_id":76561199401283123,"connected_time":2918000000000,"state":"active","ping":90},{"user_id":567,"name":"Owmyn","steam_id":76561199239651098,"connected_time":1979000000000,"state":"active","ping":105},{"user_id":546,"name":"Wattson22542","steam_id":76561198011172886,"connected_time":2949000000000,"state":"active","ping":44},{"user_id":468,"name":"UltraFat","steam_id":76561198253918132,"connected_time":9002000000000,"state":"active","ping":75},{"user_id":521,"name":"ratfucker47","steam_id":76561198413116920,"connected_time":5337000000000,"state":"active","ping":75},{"user_id":538,"name":"Banana Milk","steam_id":76561198005156257,"connected_time":3935000000000,"state":"active","ping":122},{"user_id":577,"name":"no vc no c","steam_id":76561197989503095,"connected_time":896000000000,"state":"active","ping":98},{"user_id":491,"name":"r/leroy","steam_id":76561199137927625,"connected_time":7441000000000,"state":"active","ping":97},{"user_id":537,"name":"screaming sniper","steam_id":76561199085568674,"connected_time":4102000000000,"state":"active","ping":71},{"user_id":568,"name":"Simoframe","steam_id":76561199111778304,"connected_time":1979000000000,"state":"active","ping":167},{"user_id":573,"name":"RACE","steam_id":76561198416788004,"connected_time":1337000000000,"state":"active","ping":109},{"user_id":492,"name":"Kirov airship","steam_id":76561199024960087,"connected_time":7419000000000,"state":"active","ping":65},{"user_id":576,"name":"AmaiToxic","steam_id":76561199122491157,"connected_time":1101000000000,"state":"active","ping":168},{"user_id":515,"name":"Corhix","steam_id":76561198968706355,"connected_time":5519000000000,"state":"active","ping":47},{"user_id":520,"name":"corpse_cadaver","steam_id":76561199225360457,"connected_time":5406000000000,"state":"active","ping":61},{"user_id":539,"name":"conq","steam_id":76561199110124835,"connected_time":3692000000000,"state":"active","ping":98},{"user_id":548,"name":"bocchi the oppai","steam_id":76561198008307645,"connected_time":2948000000000,"state":"active","ping":126},{"user_id":522,"name":"m1ko-  ❀❆","steam_id":76561198337154745,"connected_time":5090000000000,"state":"active","ping":93},{"user_id":579,"name":"Cheesey","steam_id":76561198975684137,"connected_time":852000000000,"state":"active","ping":123},{"user_id":562,"name":"yw","steam_id":76561199382726488,"connected_time":2488000000000,"state":"active","ping":80}]},{"server_id":1,"name":"Uncletopia | Los Angeles | 1 | All Maps","name_short":"lax-1","host":"lax-1.us.uncletopia.com","port":27015,"enabled":true,"region":"us-west","cc":"us","latitude":33.94279,"longitude":-118.41004,"reserved":0,"last_update":"0001-01-01T00:00:00Z","name_a2s":"Uncletopia | Los Angeles | 1 | All Maps","protocol":17,"map":"koth_viaduct","folder":"tf","game":"Team Fortress","app_id":440,"player_count":0,"max_players":24,"Bots":0,"server_type":"Dedicated","server_os":"Linux","password":true,"vac":true,"version":"7742253","steam_id":85568392924469991,"keywords":["cp","nocrits","nodmgspread","uncletopia"],"game_id":440,"stv_port":27016,"stv_name":"Uncletopia | Los Angeles | 1 | All Maps | STV","players":null},{"server_id":112,"name":"Uncletopia | Los Angeles | 2 | All Maps","name_short":"lax-2","host":"lax-1.us.uncletopia.com","port":27025,"enabled":true,"region":"us-west","cc":"us","latitude":33.94279,"longitude":-118.41004,"reserved":0,"last_update":"0001-01-01T00:00:00Z","name_a2s":"Uncletopia | Los Angeles | 2 | All Maps","protocol":17,"map":"koth_viaduct","folder":"tf","game":"Team Fortress","app_id":440,"player_count":0,"max_players":24,"Bots":0,"server_type":"Dedicated","server_os":"Linux","password":true,"vac":true,"version":"7742253","steam_id":85568392924469992,"keywords":["cp","nocrits","nodmgspread","uncletopia"],"game_id":440,"stv_port":27026,"stv_name":"Uncletopia | Los Angeles | 2 | All Maps | STV","players":null},{"server_id":324,"name":"Uncletopia | Los Angeles | 3 | All Maps","name_short":"lax-3","host":"lax-1.us.uncletopia.com","port":27035,"enabled":true,"region":"us-west","cc":"us","latitude":33.94279,"longitude":-118.41004,"reserved":0,"last_update":"0001-01-01T00:00:00Z","name_a2s":"Uncletopia | Los Angeles | 3 | All Maps","protocol":17,"map":"cp_altitude","folder":"tf","game":"Team Fortress","app_id":440,"player_count":0,"max_players":24,"Bots":0,"server_type":"Dedicated","server_os":"Linux","password":true,"vac":true,"version":"7742253","steam_id":85568392924510198,"keywords":["cp","nocrits","nodmgspread","uncletopia"],"game_id":440,"stv_port":27036,"stv_name":"Uncletopia | Los Angeles | 3 | All Maps | STV","players":null},{"server_id":25,"name":"Uncletopia | Los Angeles | 4 | Stopwatch Beta","name_short":"lax-4","host":"lax-1.us.uncletopia.com","port":27045,"enabled":true,"region":"us-west","cc":"us","latitude":33.94279,"longitude":-118.41004,"reserved":0,"last_update":"0001-01-01T00:00:00Z","name_a2s":"Uncletopia | Los Angeles | 4 | Stopwatch Beta","protocol":17,"map":"workshop/koth_product_final.ugc454272353","folder":"tf","game":"Team Fortress","app_id":440,"player_count":0,"max_players":24,"Bots":0,"server_type":"Dedicated","server_os":"Linux","password":true,"vac":true,"version":"7742253","steam_id":85568392924510199,"keywords":["cp","nocrits","nodmgspread","uncletopia"],"game_id":440,"stv_port":27046,"stv_name":"Uncletopia | Los Angeles | 4 | Stopwatch Beta | STV","players":null},{"server_id":11,"name":"Uncletopia | London | 1 | All Maps","name_short":"lon-1","host":"lon-1.uk.uncletopia.com","port":27015,"enabled":true,"region":"eu","cc":"gb","latitude":51.509865,"longitude":-0.118092,"reserved":0,"last_update":"0001-01-01T00:00:00Z","name_a2s":"Uncletopia | London | 1 | All Maps","protocol":17,"map":"pl_upward","folder":"tf","game":"Team Fortress","app_id":440,"player_count":24,"max_players":24,"Bots":0,"server_type":"Dedicated","server_os":"Linux","password":true,"vac":true,"version":"7742253","steam_id":85568392924367362,"keywords":["nocrits","nodmgspread","payload","uncletopia"],"game_id":440,"stv_port":27016,"stv_name":"Uncletopia | London | 1 | All Maps | STV","players":[{"user_id":147,"name":"Tavish","steam_id":76561197971486686,"connected_time":4419000000000,"state":"active","ping":64},{"user_id":165,"name":"Pabs :D","steam_id":76561198000016962,"connected_time":2488000000000,"state":"active","ping":76},{"user_id":184,"name":"kackboon","steam_id":76561198044189114,"connected_time":483000000000,"state":"active","ping":62},{"user_id":182,"name":"Fbafroguy","steam_id":76561199113010473,"connected_time":495000000000,"state":"active","ping":54},{"user_id":175,"name":"nudjura","steam_id":76561198281986139,"connected_time":1523000000000,"state":"active","ping":43},{"user_id":160,"name":"lord-squidness","steam_id":76561198734104623,"connected_time":3000000000000,"state":"active","ping":49},{"user_id":179,"name":"acid at 7/11","steam_id":76561198013232647,"connected_time":529000000000,"state":"active","ping":74},{"user_id":196,"name":"Benito Mussolini","steam_id":76561198362801147,"connected_time":7000000000,"state":"spawning","ping":84},{"user_id":183,"name":"daanvanliempt05","steam_id":76561198355398948,"connected_time":490000000000,"state":"active","ping":51},{"user_id":185,"name":"♫★Xriasp★♫","steam_id":76561198104721321,"connected_time":477000000000,"state":"active","ping":105},{"user_id":174,"name":"Garfield is God","steam_id":76561198159537481,"connected_time":1729000000000,"state":"active","ping":59},{"user_id":186,"name":"Krokinet","steam_id":76561198985877252,"connected_time":475000000000,"state":"active","ping":91},{"user_id":187,"name":"Uncle Terry","steam_id":76561198396415736,"connected_time":470000000000,"state":"active","ping":54},{"user_id":194,"name":"Caz","steam_id":76561198033412140,"connected_time":142000000000,"state":"active","ping":77},{"user_id":161,"name":"MarioThePlumber","steam_id":76561198314229530,"connected_time":2978000000000,"state":"active","ping":81},{"user_id":188,"name":"Marley","steam_id":76561198045380078,"connected_time":466000000000,"state":"active","ping":71},{"user_id":191,"name":"Cillian","steam_id":76561199046965320,"connected_time":429000000000,"state":"active","ping":64},{"user_id":192,"name":"PinkPillow","steam_id":76561198008937865,"connected_time":372000000000,"state":"active","ping":49},{"user_id":137,"name":"csnipery","steam_id":76561199435280050,"connected_time":4735000000000,"state":"active","ping":71},{"user_id":162,"name":"presidentialAIDS","steam_id":76561199257284077,"connected_time":2977000000000,"state":"active","ping":132},{"user_id":197,"name":"badass mafia toolbars","steam_id":76561198259668029,"connected_time":1000000000,"state":"spawning","ping":49},{"user_id":178,"name":"spy gaming","steam_id":76561198410955546,"connected_time":908000000000,"state":"active","ping":83},{"user_id":176,"name":"Joseph Stalin LFT","steam_id":76561198033199746,"connected_time":1367000000000,"state":"active","ping":47},{"user_id":134,"name":"тукку ирма","steam_id":76561197998715016,"connected_time":4895000000000,"state":"active","ping":67}]},{"server_id":114,"name":"Uncletopia | London | 2 | All Maps","name_short":"lon-2","host":"lon-1.uk.uncletopia.com","port":27025,"enabled":true,"region":"eu","cc":"gb","latitude":51.509865,"longitude":-0.118092,"reserved":0,"last_update":"0001-01-01T00:00:00Z","name_a2s":"Uncletopia | London | 2 | All Maps","protocol":17,"map":"pl_barnblitz","folder":"tf","game":"Team Fortress","app_id":440,"player_count":0,"max_players":24,"Bots":0,"server_type":"Dedicated","server_os":"Linux","password":true,"vac":true,"version":"7742253","steam_id":85568392924470941,"keywords":["nocrits","nodmgspread","payload","uncletopia"],"game_id":440,"stv_port":27026,"stv_name":"Uncletopia | London | 2 | All Maps | STV","players":null},{"server_id":320,"name":"Uncletopia | London | 3 | All Maps","name_short":"lon-3","host":"lon-1.uk.uncletopia.com","port":27035,"enabled":true,"region":"eu","cc":"gb","latitude":51.509865,"longitude":-0.118092,"reserved":0,"last_update":"0001-01-01T00:00:00Z","name_a2s":"Uncletopia | London | 3 | All Maps","protocol":17,"map":"cp_sunshine","folder":"tf","game":"Team Fortress","app_id":440,"player_count":23,"max_players":24,"Bots":0,"server_type":"Dedicated","server_os":"Linux","password":true,"vac":true,"version":"7742253","steam_id":85568392924510192,"keywords":["cp","nocrits","nodmgspread","uncletopia"],"game_id":440,"stv_port":27036,"stv_name":"Uncletopia | London | 3 | All Maps | STV","players":[{"user_id":393,"name":"RelatableiLLness","steam_id":76561198441669772,"connected_time":14000000000,"state":"active","ping":142},{"user_id":373,"name":"Dodoshka","steam_id":76561198093464840,"connected_time":1115000000000,"state":"active","ping":106},{"user_id":345,"name":"Donaldinho","steam_id":76561198026490299,"connected_time":2211000000000,"state":"active","ping":43},{"user_id":388,"name":"Hot._.Chocopops","steam_id":76561199025668594,"connected_time":156000000000,"state":"active","ping":63},{"user_id":342,"name":"S0LDaTo","steam_id":76561198269413360,"connected_time":2583000000000,"state":"active","ping":66},{"user_id":346,"name":"InKryption","steam_id":76561198125975094,"connected_time":2211000000000,"state":"active","ping":75},{"user_id":360,"name":"Tidez_","steam_id":76561198374956415,"connected_time":1607000000000,"state":"active","ping":87},{"user_id":312,"name":"JOHN GAMING (based)","steam_id":76561199085822219,"connected_time":5005000000000,"state":"active","ping":82},{"user_id":258,"name":"Mr. Potato the 11th","steam_id":76561198163246758,"connected_time":8500000000000,"state":"active","ping":63},{"user_id":329,"name":"doc","steam_id":76561198000050301,"connected_time":3629000000000,"state":"active","ping":55},{"user_id":378,"name":"AigleChene","steam_id":76561198180089715,"connected_time":1091000000000,"state":"active","ping":51},{"user_id":386,"name":"Carp","steam_id":76561198972038742,"connected_time":832000000000,"state":"active","ping":70},{"user_id":384,"name":"SPONGE","steam_id":76561198040933472,"connected_time":896000000000,"state":"active","ping":61},{"user_id":349,"name":"Be!chqueen","steam_id":76561197961080789,"connected_time":2183000000000,"state":"active","ping":47},{"user_id":387,"name":"player","steam_id":76561198054474684,"connected_time":232000000000,"state":"active","ping":76},{"user_id":382,"name":"vissa","steam_id":76561198150680224,"connected_time":1029000000000,"state":"active","ping":90},{"user_id":371,"name":"Benameme","steam_id":76561198074097655,"connected_time":1186000000000,"state":"active","ping":44},{"user_id":305,"name":"Swayer","steam_id":76561198056192460,"connected_time":5137000000000,"state":"active","ping":55},{"user_id":391,"name":"Ross","steam_id":76561198965967986,"connected_time":107000000000,"state":"active","ping":60},{"user_id":367,"name":"Holz is sleepy","steam_id":76561197994205997,"connected_time":1313000000000,"state":"active","ping":44},{"user_id":392,"name":"¬°Nice","steam_id":76561198387871867,"connected_time":82000000000,"state":"active","ping":90},{"user_id":389,"name":"SimplePig","steam_id":76561198071862153,"connected_time":156000000000,"state":"active","ping":109},{"user_id":337,"name":"Noodle","steam_id":76561197997208006,"connected_time":3312000000000,"state":"active","ping":60}]},{"server_id":321,"name":"Uncletopia | London | 4 | All Maps","name_short":"lon-4","host":"lon-1.uk.uncletopia.com","port":27045,"enabled":true,"region":"eu","cc":"gb","latitude":51.509865,"longitude":-0.118092,"reserved":0,"last_update":"0001-01-01T00:00:00Z","name_a2s":"Uncletopia | London | 4 | All Maps","protocol":17,"map":"koth_highpass","folder":"tf","game":"Team Fortress","app_id":440,"player_count":0,"max_players":24,"Bots":0,"server_type":"Dedicated","server_os":"Linux","password":true,"vac":true,"version":"7742253","steam_id":85568392924510193,"keywords":["cp","nocrits","nodmgspread","uncletopia"],"game_id":440,"stv_port":27046,"stv_name":"Uncletopia | London | 4 | All Maps | STV","players":null},{"server_id":21,"name":"Uncletopia | London | 5 | All Maps","name_short":"lon-5","host":"lon-1.uk.uncletopia.com","port":27055,"enabled":true,"region":"eu","cc":"gb","latitude":51.509865,"longitude":-0.118092,"reserved":0,"last_update":"0001-01-01T00:00:00Z","name_a2s":"Uncletopia | London | 5 | All Maps","protocol":17,"map":"cp_sunshine","folder":"tf","game":"Team Fortress","app_id":440,"player_count":20,"max_players":24,"Bots":0,"server_type":"Dedicated","server_os":"Linux","password":true,"vac":true,"version":"7742253","steam_id":85568392924742829,"keywords":["cp","nocrits","nodmgspread","uncletopia"],"game_id":440,"stv_port":27056,"stv_name":"Uncletopia | London | 5 | All Maps | STV","players":[{"user_id":212,"name":"misato from Evangelion (real)","steam_id":76561198130860698,"connected_time":3685000000000,"state":"active","ping":52},{"user_id":257,"name":"ねこ","steam_id":76561199119253607,"connected_time":148000000000,"state":"active","ping":75},{"user_id":259,"name":"DoctorTopLeL","steam_id":76561198088533595,"connected_time":83000000000,"state":"active","ping":102},{"user_id":258,"name":"Jughead","steam_id":76561198000355410,"connected_time":118000000000,"state":"active","ping":47},{"user_id":268,"name":"jose maria gonzales","steam_id":76561198054244573,"connected_time":5000000000,"state":"spawning","ping":101},{"user_id":261,"name":"bruhson","steam_id":76561198321624388,"connected_time":72000000000,"state":"active","ping":107},{"user_id":234,"name":"HanhiGaming","steam_id":76561198877007477,"connected_time":2140000000000,"state":"active","ping":76},{"user_id":262,"name":"soup","steam_id":76561198386933065,"connected_time":62000000000,"state":"active","ping":70},{"user_id":249,"name":"The Subway Scientist","steam_id":76561198193757646,"connected_time":1242000000000,"state":"active","ping":45},{"user_id":267,"name":"Explosion","steam_id":76561198033465837,"connected_time":12000000000,"state":"active","ping":89},{"user_id":250,"name":"Pasta Water Slurper","steam_id":76561198024883917,"connected_time":1211000000000,"state":"active","ping":128},{"user_id":177,"name":"popaj72","steam_id":76561198108657509,"connected_time":6237000000000,"state":"active","ping":37},{"user_id":263,"name":"Big Earning month","steam_id":76561198799097492,"connected_time":60000000000,"state":"active","ping":45},{"user_id":251,"name":"t.tv/FamilyGuyFunnyMoments277","steam_id":76561198416047580,"connected_time":1114000000000,"state":"active","ping":135},{"user_id":264,"name":"Lukren","steam_id":76561198254574528,"connected_time":53000000000,"state":"active","ping":102},{"user_id":265,"name":"Carrot","steam_id":76561198119340863,"connected_time":46000000000,"state":"active","ping":41},{"user_id":269,"name":"Lalo Salamanca","steam_id":76561199116882319,"connected_time":4000000000,"state":"spawning","ping":52},{"user_id":256,"name":"Zwphyr | TourBot.TF","steam_id":76561198160772793,"connected_time":169000000000,"state":"active","ping":60},{"user_id":248,"name":"ToxicBlonde","steam_id":76561198136633815,"connected_time":1361000000000,"state":"active","ping":50},{"user_id":223,"name":"FigazMaslam","steam_id":76561198148207978,"connected_time":2996000000000,"state":"active","ping":91}]},{"server_id":22,"name":"Uncletopia | London | 6 | All Maps","name_short":"lon-6","host":"lon-1.uk.uncletopia.com","port":27065,"enabled":true,"region":"eu","cc":"gb","latitude":51.509865,"longitude":-0.118092,"reserved":0,"last_update":"0001-01-01T00:00:00Z","name_a2s":"Uncletopia | London | 6 | All Maps","protocol":17,"map":"cp_altitude","folder":"tf","game":"Team Fortress","app_id":440,"player_count":0,"max_players":24,"Bots":0,"server_type":"Dedicated","server_os":"Linux","password":true,"vac":true,"version":"7742253","steam_id":85568392924742830,"keywords":["cp","nocrits","nodmgspread","uncletopia"],"game_id":440,"stv_port":27066,"stv_name":"Uncletopia | London | 6 | All Maps | STV","players":null},{"server_id":40,"name":"Uncletopia | London | 7 | No Payload","name_short":"lon-7","host":"lon-1.uk.uncletopia.com","port":27075,"enabled":true,"region":"eu","cc":"gb","latitude":51.509865,"longitude":-0.118092,"reserved":0,"last_update":"0001-01-01T00:00:00Z","name_a2s":"Uncletopia | London | 7 | No Payload","protocol":17,"map":"koth_viaduct","folder":"tf","game":"Team Fortress","app_id":440,"player_count":0,"max_players":24,"Bots":0,"server_type":"Dedicated","server_os":"Linux","password":true,"vac":true,"version":"7742253","steam_id":85568392924964314,"keywords":["cp","nocrits","nodmgspread","uncletopia"],"game_id":440,"stv_port":27076,"stv_name":"Uncletopia | London | 7 | No Payload | STV","players":null},{"server_id":41,"name":"Uncletopia | London | 8 | Community","name_short":"lon-8","host":"lon-1.uk.uncletopia.com","port":27085,"enabled":true,"region":"eu","cc":"gb","latitude":51.509865,"longitude":-0.118092,"reserved":0,"last_update":"0001-01-01T00:00:00Z","name_a2s":"Uncletopia | London | 8 | Community","protocol":17,"map":"cp_altitude","folder":"tf","game":"Team Fortress","app_id":440,"player_count":0,"max_players":24,"Bots":0,"server_type":"Dedicated","server_os":"Linux","password":true,"vac":true,"version":"7742253","steam_id":85568392924964315,"keywords":["cp","nocrits","nodmgspread","uncletopia"],"game_id":440,"stv_port":27086,"stv_name":"Uncletopia | London | 8 | Community | STV","players":null},{"server_id":300,"name":"Uncletopia | Montréal | 1 | All Maps","name_short":"mtl-1","host":"mtl-1.ca.uncletopia.com","port":27015,"enabled":true,"region":"us-east","cc":"ca","latitude":45.50889,"longitude":-73.56167,"reserved":0,"last_update":"0001-01-01T00:00:00Z","name_a2s":"Uncletopia | Montréal | 1 | All Maps","protocol":17,"map":"cp_snakewater_final1","folder":"tf","game":"Team Fortress","app_id":440,"player_count":0,"max_players":24,"Bots":0,"server_type":"Dedicated","server_os":"Linux","password":true,"vac":true,"version":"7742253","steam_id":85568392924500087,"keywords":["cp","nocrits","nodmgspread","uncletopia"],"game_id":440,"stv_port":27016,"stv_name":"Uncletopia | Montréal | 1 | All Maps | STV","players":null},{"server_id":301,"name":"Uncletopia | Montréal | 2 | All Maps","name_short":"mtl-2","host":"mtl-1.ca.uncletopia.com","port":27025,"enabled":true,"region":"us-east","cc":"ca","latitude":45.50889,"longitude":-73.56167,"reserved":0,"last_update":"0001-01-01T00:00:00Z","name_a2s":"Uncletopia | Montréal | 2 | All Maps","protocol":17,"map":"koth_highpass","folder":"tf","game":"Team Fortress","app_id":440,"player_count":0,"max_players":24,"Bots":0,"server_type":"Dedicated","server_os":"Linux","password":true,"vac":true,"version":"7742253","steam_id":85568392924500088,"keywords":["cp","nocrits","nodmgspread","uncletopia"],"game_id":440,"stv_port":27026,"stv_name":"Uncletopia | Montréal | 2 | All Maps | STV","players":null},{"server_id":302,"name":"Uncletopia | Montréal | 3 | All Maps","name_short":"mtl-3","host":"mtl-1.ca.uncletopia.com","port":27035,"enabled":true,"region":"us-east","cc":"ca","latitude":45.50889,"longitude":-73.56167,"reserved":0,"last_update":"0001-01-01T00:00:00Z","name_a2s":"Uncletopia | Montréal | 3 | All Maps","protocol":17,"map":"cp_mountainlab","folder":"tf","game":"Team Fortress","app_id":440,"player_count":0,"max_players":24,"Bots":0,"server_type":"Dedicated","server_os":"Linux","password":true,"vac":true,"version":"7742253","steam_id":85568392924500089,"keywords":["cp","nocrits","nodmgspread","uncletopia"],"game_id":440,"stv_port":27036,"stv_name":"Uncletopia | Montréal | 3 | All Maps | STV","players":null},{"server_id":303,"name":"Uncletopia | Montréal | 4 | No Payload","name_short":"mtl-4","host":"mtl-1.ca.uncletopia.com","port":27045,"enabled":true,"region":"us-east","cc":"ca","latitude":45.50889,"longitude":-73.56167,"reserved":0,"last_update":"0001-01-01T00:00:00Z","name_a2s":"Uncletopia | Montréal | 4 | No Payload","protocol":17,"map":"cp_snakewater_final1","folder":"tf","game":"Team Fortress","app_id":440,"player_count":0,"max_players":24,"Bots":0,"server_type":"Dedicated","server_os":"Linux","password":true,"vac":true,"version":"7742253","steam_id":85568392924500090,"keywords":["cp","nocrits","nodmgspread","uncletopia"],"game_id":440,"stv_port":27046,"stv_name":"Uncletopia | Montréal | 4 | No Payload | STV","players":null},{"server_id":13,"name":"Uncletopia | New York City | 1 | All Maps","name_short":"nyc-1","host":"nyc-1.us.uncletopia.com","port":27015,"enabled":true,"region":"us-east","cc":"us","latitude":40.73061,"longitude":-73.93524,"reserved":0,"last_update":"0001-01-01T00:00:00Z","name_a2s":"Uncletopia | New York City | 1 | All Maps","protocol":17,"map":"cp_mountainlab","folder":"tf","game":"Team Fortress","app_id":440,"player_count":0,"max_players":24,"Bots":0,"server_type":"Dedicated","server_os":"Linux","password":true,"vac":true,"version":"7742253","steam_id":85568392924469993,"keywords":["cp","nocrits","nodmgspread","uncletopia"],"game_id":440,"stv_port":27016,"stv_name":"Uncletopia | New York City | 1 | All Maps | STV","players":null},{"server_id":14,"name":"Uncletopia | New York City | 2 | All Maps","name_short":"nyc-2","host":"nyc-1.us.uncletopia.com","port":27025,"enabled":true,"region":"us-east","cc":"us","latitude":40.73061,"longitude":-73.93524,"reserved":0,"last_update":"0001-01-01T00:00:00Z","name_a2s":"Uncletopia | New York City | 2 | All Maps","protocol":17,"map":"cp_altitude","folder":"tf","game":"Team Fortress","app_id":440,"player_count":0,"max_players":24,"Bots":0,"server_type":"Dedicated","server_os":"Linux","password":true,"vac":true,"version":"7742253","steam_id":85568392924469994,"keywords":["cp","nocrits","nodmgspread","uncletopia"],"game_id":440,"stv_port":27026,"stv_name":"Uncletopia | New York City | 2 | All Maps | STV","players":null},{"server_id":15,"name":"Uncletopia | New York City | 3 | Stopwatch Beta","name_short":"nyc-3","host":"nyc-1.us.uncletopia.com","port":27035,"enabled":true,"region":"us-east","cc":"us","latitude":40.73061,"longitude":-73.93524,"reserved":0,"last_update":"0001-01-01T00:00:00Z","name_a2s":"Uncletopia | New York City | 3 | Stopwatch Beta","protocol":17,"map":"pl_pier","folder":"tf","game":"Team Fortress","app_id":440,"player_count":0,"max_players":24,"Bots":0,"server_type":"Dedicated","server_os":"Linux","password":true,"vac":true,"version":"7742253","steam_id":85568392924742820,"keywords":["nocrits","nodmgspread","payload","uncletopia"],"game_id":440,"stv_port":27036,"stv_name":"Uncletopia | New York City | 3 | Stopwatch Beta | STV","players":null},{"server_id":16,"name":"Uncletopia | New York City | 4 | Community","name_short":"nyc-4","host":"nyc-1.us.uncletopia.com","port":27045,"enabled":true,"region":"us-east","cc":"us","latitude":40.73061,"longitude":-73.93524,"reserved":0,"last_update":"0001-01-01T00:00:00Z","name_a2s":"Uncletopia | New York City | 4 | Community","protocol":17,"map":"koth_viaduct","folder":"tf","game":"Team Fortress","app_id":440,"player_count":0,"max_players":24,"Bots":0,"server_type":"Dedicated","server_os":"Linux","password":true,"vac":true,"version":"7742253","steam_id":85568392924742821,"keywords":["cp","nocrits","nodmgspread","uncletopia"],"game_id":440,"stv_port":27046,"stv_name":"Uncletopia | New York City | 4 | Community | STV","players":null},{"server_id":142,"name":"Uncletopia | São Paulo | 1 | All Maps","name_short":"sao-1","host":"sao-1.br.uncletopia.com","port":27015,"enabled":true,"region":"sa","cc":"br","latitude":-23.533773,"longitude":-46.62529,"reserved":0,"last_update":"0001-01-01T00:00:00Z","name_a2s":"Uncletopia | São Paulo | 1 | All Maps","protocol":17,"map":"koth_viaduct","folder":"tf","game":"Team Fortress","app_id":440,"player_count":0,"max_players":24,"Bots":0,"server_type":"Dedicated","server_os":"Linux","password":true,"vac":true,"version":"7742253","steam_id":85568392924469996,"keywords":["cp","nocrits","nodmgspread","uncletopia"],"game_id":440,"stv_port":27016,"stv_name":"Uncletopia | São Paulo | 1 | All Maps | STV","players":null},{"server_id":143,"name":"Uncletopia | São Paulo | 2 | All Maps","name_short":"sao-2","host":"sao-2.br.uncletopia.com","port":27015,"enabled":true,"region":"sa","cc":"br","latitude":-23.533773,"longitude":-46.62529,"reserved":0,"last_update":"0001-01-01T00:00:00Z","name_a2s":"Uncletopia | São Paulo | 2 | All Maps","protocol":17,"map":"koth_viaduct","folder":"tf","game":"Team Fortress","app_id":440,"player_count":0,"max_players":24,"Bots":0,"server_type":"Dedicated","server_os":"Linux","password":true,"vac":true,"version":"7742253","steam_id":85568392924485349,"keywords":["cp","nocrits","nodmgspread","uncletopia"],"game_id":440,"stv_port":27016,"stv_name":"Uncletopia | São Paulo | 2 | All Maps | STV","players":null},{"server_id":7,"name":"Uncletopia | Seattle | 1 | All Maps","name_short":"sea-1","host":"sea-1.us.uncletopia.com","port":27015,"enabled":true,"region":"us-west","cc":"us","latitude":47.608013,"longitude":-122.33517,"reserved":0,"last_update":"0001-01-01T00:00:00Z","name_a2s":"Uncletopia | Seattle | 1 | All Maps","protocol":17,"map":"koth_lakeside_final","folder":"tf","game":"Team Fortress","app_id":440,"player_count":1,"max_players":24,"Bots":0,"server_type":"Dedicated","server_os":"Linux","password":true,"vac":true,"version":"7742253","steam_id":85568392924469997,"keywords":["cp","nocrits","nodmgspread","uncletopia"],"game_id":440,"stv_port":27016,"stv_name":"Uncletopia | Seattle | 1 | All Maps | STV","players":[{"user_id":818,"name":"duckie","steam_id":76561198333163800,"connected_time":196000000000,"state":"active","ping":30}]},{"server_id":119,"name":"Uncletopia | Seattle | 2 | All Maps","name_short":"sea-2","host":"sea-1.us.uncletopia.com","port":27025,"enabled":true,"region":"us-west","cc":"us","latitude":47.608013,"longitude":-122.33517,"reserved":0,"last_update":"0001-01-01T00:00:00Z","name_a2s":"Uncletopia | Seattle | 2 | All Maps","protocol":17,"map":"koth_highpass","folder":"tf","game":"Team Fortress","app_id":440,"player_count":0,"max_players":24,"Bots":0,"server_type":"Dedicated","server_os":"Linux","password":true,"vac":true,"version":"7742253","steam_id":85568392924469998,"keywords":["cp","nocrits","nodmgspread","uncletopia"],"game_id":440,"stv_port":27026,"stv_name":"Uncletopia | Seattle | 2 | All Maps | STV","players":null},{"server_id":406,"name":"Uncletopia | Seattle | 3 | Stopwatch Beta","name_short":"sea-3","host":"sea-1.us.uncletopia.com","port":27035,"enabled":true,"region":"us-west","cc":"us","latitude":47.608013,"longitude":-122.33517,"reserved":0,"last_update":"0001-01-01T00:00:00Z","name_a2s":"Uncletopia | Seattle | 3 | Stopwatch Beta","protocol":17,"map":"pl_borneo","folder":"tf","game":"Team Fortress","app_id":440,"player_count":0,"max_players":24,"Bots":0,"server_type":"Dedicated","server_os":"Linux","password":true,"vac":true,"version":"7742253","steam_id":85568392924515217,"keywords":["nocrits","nodmgspread","payload","uncletopia"],"game_id":440,"stv_port":27036,"stv_name":"Uncletopia | Seattle | 3 | Stopwatch Beta | STV","players":null},{"server_id":17,"name":"Uncletopia | San Francisco | 1 | All Maps","name_short":"sfo-1","host":"sfo-1.us.uncletopia.com","port":27015,"enabled":true,"region":"us-west","cc":"us","latitude":37.77397,"longitude":-122.4313,"reserved":0,"last_update":"0001-01-01T00:00:00Z","name_a2s":"Uncletopia | San Francisco | 1 | All Maps","protocol":17,"map":"koth_highpass","folder":"tf","game":"Team Fortress","app_id":440,"player_count":0,"max_players":24,"Bots":0,"server_type":"Dedicated","server_os":"Linux","password":true,"vac":true,"version":"7742253","steam_id":85568392924469999,"keywords":["cp","nocrits","nodmgspread","uncletopia"],"game_id":440,"stv_port":27016,"stv_name":"Uncletopia | San Francisco | 1 | All Maps | STV","players":null},{"server_id":18,"name":"Uncletopia | San Francisco | 2 | All Maps","name_short":"sfo-2","host":"sfo-1.us.uncletopia.com","port":27025,"enabled":true,"region":"us-west","cc":"us","latitude":37.77397,"longitude":-122.4313,"reserved":0,"last_update":"0001-01-01T00:00:00Z","name_a2s":"Uncletopia | San Francisco | 2 | All Maps","protocol":17,"map":"koth_lakeside_final","folder":"tf","game":"Team Fortress","app_id":440,"player_count":0,"max_players":24,"Bots":0,"server_type":"Dedicated","server_os":"Linux","password":true,"vac":true,"version":"7742253","steam_id":85568392924470000,"keywords":["cp","nocrits","nodmgspread","uncletopia"],"game_id":440,"stv_port":27026,"stv_name":"Uncletopia | San Francisco | 2 | All Maps | STV","players":null},{"server_id":19,"name":"Uncletopia | San Francisco | 3 | Stopwatch Beta","name_short":"sfo-3","host":"sfo-1.us.uncletopia.com","port":27035,"enabled":true,"region":"us-west","cc":"us","latitude":37.77397,"longitude":-122.4313,"reserved":0,"last_update":"0001-01-01T00:00:00Z","name_a2s":"Uncletopia | San Francisco | 3 | Stopwatch Beta","protocol":17,"map":"workshop/cp_process_f11.ugc2302948105","folder":"tf","game":"Team Fortress","app_id":440,"player_count":0,"max_players":24,"Bots":0,"server_type":"Dedicated","server_os":"Linux","password":true,"vac":true,"version":"7742253","steam_id":85568392924742824,"keywords":["cp","nocrits","nodmgspread","uncletopia"],"game_id":440,"stv_port":27036,"stv_name":"Uncletopia | San Francisco | 3 | Stopwatch Beta | STV","players":null},{"server_id":20,"name":"Uncletopia | San Francisco | 4 | Community","name_short":"sfo-4","host":"sfo-1.us.uncletopia.com","port":27045,"enabled":true,"region":"us-west","cc":"us","latitude":37.77397,"longitude":-122.4313,"reserved":0,"last_update":"0001-01-01T00:00:00Z","name_a2s":"Uncletopia | San Francisco | 4 | Community","protocol":17,"map":"workshop/koth_slaughter_rc1.ugc1712845210","folder":"tf","game":"Team Fortress","app_id":440,"player_count":0,"max_players":24,"Bots":0,"server_type":"Dedicated","server_os":"Linux","password":true,"vac":true,"version":"7742253","steam_id":85568392924742826,"keywords":["cp","nocrits","nodmgspread","uncletopia"],"game_id":440,"stv_port":27046,"stv_name":"Uncletopia | San Francisco | 4 | Community | STV","players":null},{"server_id":141,"name":"Uncletopia | Sydney | 1 | All Maps","name_short":"syd-1","host":"syd-1.au.uncletopia.com","port":27015,"enabled":true,"region":"au","cc":"au","latitude":-33.865143,"longitude":151.2099,"reserved":0,"last_update":"0001-01-01T00:00:00Z","name_a2s":"Uncletopia | Sydney | 1 | All Maps","protocol":17,"map":"cp_process_final","folder":"tf","game":"Team Fortress","app_id":440,"player_count":0,"max_players":24,"Bots":0,"server_type":"Dedicated","server_os":"Linux","password":true,"vac":true,"version":"7742253","steam_id":85568392924470001,"keywords":["cp","nocrits","nodmgspread","uncletopia"],"game_id":440,"stv_port":27016,"stv_name":"Uncletopia | Sydney | 1 | All Maps | STV","players":null},{"server_id":123,"name":"Uncletopia | Sydney | 2 | All Maps","name_short":"syd-2","host":"syd-1.au.uncletopia.com","port":27025,"enabled":true,"region":"au","cc":"au","latitude":-33.865143,"longitude":151.2099,"reserved":0,"last_update":"0001-01-01T00:00:00Z","name_a2s":"Uncletopia | Sydney | 2 | All Maps","protocol":17,"map":"cp_sunshine","folder":"tf","game":"Team Fortress","app_id":440,"player_count":16,"max_players":24,"Bots":0,"server_type":"Dedicated","server_os":"Linux","password":true,"vac":true,"version":"7742253","steam_id":85568392924470002,"keywords":["cp","nocrits","nodmgspread","uncletopia"],"game_id":440,"stv_port":27026,"stv_name":"Uncletopia | Sydney | 2 | All Maps | STV","players":[{"user_id":694,"name":"Diavolo Diablo","steam_id":76561198166295333,"connected_time":118000000000,"state":"active","ping":161},{"user_id":695,"name":"441","steam_id":76561198098324340,"connected_time":117000000000,"state":"active","ping":44},{"user_id":691,"name":"asdad","steam_id":76561198946898233,"connected_time":152000000000,"state":"active","ping":45},{"user_id":696,"name":"OldMate","steam_id":76561198075788166,"connected_time":84000000000,"state":"active","ping":61},{"user_id":677,"name":"i know kung fu","steam_id":76561198011433474,"connected_time":1461000000000,"state":"active","ping":53},{"user_id":697,"name":"Hot Yoga Instructor","steam_id":76561199163801558,"connected_time":77000000000,"state":"active","ping":45},{"user_id":693,"name":"Pontius Pilate","steam_id":76561198025819029,"connected_time":136000000000,"state":"active","ping":46},{"user_id":699,"name":"SpaceMan","steam_id":76561199215200562,"connected_time":5000000000,"state":"connecting","ping":0},{"user_id":674,"name":"Soru","steam_id":76561198010844786,"connected_time":1601000000000,"state":"active","ping":67},{"user_id":689,"name":"LightningBlock","steam_id":76561198289997742,"connected_time":418000000000,"state":"active","ping":30},{"user_id":680,"name":"HAND BANANA","steam_id":76561197960279341,"connected_time":1356000000000,"state":"active","ping":59},{"user_id":647,"name":"Donald J. Trump","steam_id":76561198340442932,"connected_time":2539000000000,"state":"active","ping":74},{"user_id":673,"name":"z","steam_id":76561198302670452,"connected_time":1694000000000,"state":"active","ping":53},{"user_id":657,"name":"Blazey 伊達 政宗","steam_id":76561197971082275,"connected_time":2314000000000,"state":"active","ping":121},{"user_id":690,"name":"MikkyD","steam_id":76561198043452962,"connected_time":262000000000,"state":"active","ping":63},{"user_id":681,"name":"drunkspy22","steam_id":76561198042198744,"connected_time":1251000000000,"state":"active","ping":43}]},{"server_id":395,"name":"Uncletopia | Sydney | 3 | All Maps","name_short":"syd-3","host":"syd-1.au.uncletopia.com","port":27035,"enabled":true,"region":"au","cc":"au","latitude":-33.865143,"longitude":151.2099,"reserved":0,"last_update":"0001-01-01T00:00:00Z","name_a2s":"Uncletopia | Sydney | 3 | All Maps","protocol":17,"map":"cp_process_final","folder":"tf","game":"Team Fortress","app_id":440,"player_count":5,"max_players":24,"Bots":0,"server_type":"Dedicated","server_os":"Linux","password":true,"vac":true,"version":"7742253","steam_id":85568392925194467,"keywords":["cp","nocrits","nodmgspread","uncletopia"],"game_id":440,"stv_port":27036,"stv_name":"Uncletopia | Sydney | 3 | All Maps | STV","players":[{"user_id":75,"name":"OGkitCat","steam_id":76561198051662018,"connected_time":1162000000000,"state":"active","ping":99},{"user_id":77,"name":"Natan","steam_id":76561198219834515,"connected_time":1141000000000,"state":"active","ping":140},{"user_id":86,"name":"trolder","steam_id":76561198060176705,"connected_time":95000000000,"state":"active","ping":98},{"user_id":80,"name":"Tat","steam_id":76561198376568547,"connected_time":892000000000,"state":"active","ping":50},{"user_id":85,"name":"Bryos","steam_id":76561199091643381,"connected_time":200000000000,"state":"active","ping":95}]},{"server_id":396,"name":"Uncletopia | Sydney | 4 | All Maps","name_short":"syd-4","host":"syd-1.au.uncletopia.com","port":27045,"enabled":true,"region":"au","cc":"au","latitude":-33.865143,"longitude":151.2099,"reserved":0,"last_update":"0001-01-01T00:00:00Z","name_a2s":"Uncletopia | Sydney | 4 | All Maps","protocol":17,"map":"cp_mountainlab","folder":"tf","game":"Team Fortress","app_id":440,"player_count":0,"max_players":24,"Bots":0,"server_type":"Dedicated","server_os":"Linux","password":true,"vac":true,"version":"7742253","steam_id":85568392925397958,"keywords":["cp","nocrits","nodmgspread","uncletopia"],"game_id":440,"stv_port":27046,"stv_name":"Uncletopia | Sydney | 4 | All Maps | STV","players":null},{"server_id":58,"name":"Uncletopia | Sydney | 5 | Stopwatch Beta","name_short":"syd-5","host":"syd-1.au.uncletopia.com","port":27055,"enabled":true,"region":"au","cc":"au","latitude":-33.865143,"longitude":151.2099,"reserved":0,"last_update":"0001-01-01T00:00:00Z","name_a2s":"Uncletopia | Sydney | 5 | Stopwatch Beta","protocol":17,"map":"koth_highpass","folder":"tf","game":"Team Fortress","app_id":440,"player_count":0,"max_players":24,"Bots":0,"server_type":"Dedicated","server_os":"Linux","password":true,"vac":true,"version":"7742253","steam_id":85568392925397959,"keywords":["cp","nocrits","nodmgspread","uncletopia"],"game_id":440,"stv_port":27056,"stv_name":"Uncletopia | Sydney | 5 | Stopwatch Beta | STV","players":null},{"server_id":59,"name":"Uncletopia | Sydney | 6 | Community","name_short":"syd-6","host":"syd-1.au.uncletopia.com","port":27065,"enabled":true,"region":"au","cc":"au","latitude":-33.865143,"longitude":151.2099,"reserved":0,"last_update":"0001-01-01T00:00:00Z","name_a2s":"Uncletopia | Sydney | 6 | Community","protocol":17,"map":"workshop/koth_ramjam_rc1.ugc459778887","folder":"tf","game":"Team Fortress","app_id":440,"player_count":0,"max_players":24,"Bots":0,"server_type":"Dedicated","server_os":"Linux","password":true,"vac":true,"version":"7742253","steam_id":85568392925397960,"keywords":["cp","nocrits","nodmgspread","uncletopia"],"game_id":440,"stv_port":27066,"stv_name":"Uncletopia | Sydney | 6 | Community | STV","players":null},{"server_id":49,"name":"Uncletopia | Warsaw | 1 | All Maps","name_short":"waw-1","host":"waw-1.pl.uncletopia.com","port":27015,"enabled":true,"region":"eu","cc":"pl","latitude":52.2297,"longitude":21.017532,"reserved":0,"last_update":"0001-01-01T00:00:00Z","name_a2s":"","protocol":0,"map":"","folder":"","game":"","app_id":0,"player_count":0,"max_players":0,"Bots":0,"server_type":"","server_os":"","password":false,"vac":false,"version":"","steam_id":0,"keywords":null,"game_id":0,"stv_port":0,"stv_name":"","players":null},{"server_id":50,"name":"Uncletopia | Warsaw | 2 | All Maps","name_short":"waw-2","host":"waw-1.pl.uncletopia.com","port":27025,"enabled":true,"region":"eu","cc":"pl","latitude":52.2297,"longitude":21.017532,"reserved":0,"last_update":"0001-01-01T00:00:00Z","name_a2s":"Uncletopia | Warsaw | 2 | All Maps","protocol":17,"map":"cp_mountainlab","folder":"tf","game":"Team Fortress","app_id":440,"player_count":0,"max_players":24,"Bots":0,"server_type":"Dedicated","server_os":"Linux","password":true,"vac":true,"version":"7742253","steam_id":85568392925397851,"keywords":["cp","nocrits","nodmgspread","uncletopia"],"game_id":440,"stv_port":27026,"stv_name":"Uncletopia | Warsaw | 2 | All Maps | STV","players":null},{"server_id":51,"name":"Uncletopia | Warsaw | 3 | All Maps","name_short":"waw-3","host":"waw-1.pl.uncletopia.com","port":27035,"enabled":true,"region":"eu","cc":"pl","latitude":52.2297,"longitude":21.017532,"reserved":0,"last_update":"0001-01-01T00:00:00Z","name_a2s":"Uncletopia | Warsaw | 3 | All Maps","protocol":17,"map":"koth_lakeside_final","folder":"tf","game":"Team Fortress","app_id":440,"player_count":0,"max_players":24,"Bots":0,"server_type":"Dedicated","server_os":"Linux","password":true,"vac":true,"version":"7742253","steam_id":85568392925397852,"keywords":["cp","nocrits","nodmgspread","uncletopia"],"game_id":440,"stv_port":27036,"stv_name":"Uncletopia | Warsaw | 3 | All Maps | STV","players":null},{"server_id":52,"name":"Uncletopia | Warsaw | 4 | All Maps","name_short":"waw-4","host":"waw-1.pl.uncletopia.com","port":27045,"enabled":true,"region":"eu","cc":"pl","latitude":52.2297,"longitude":21.017532,"reserved":0,"last_update":"0001-01-01T00:00:00Z","name_a2s":"Uncletopia | Warsaw | 4 | All Maps","protocol":17,"map":"pl_upward","folder":"tf","game":"Team Fortress","app_id":440,"player_count":2,"max_players":24,"Bots":0,"server_type":"Dedicated","server_os":"Linux","password":true,"vac":true,"version":"7742253","steam_id":85568392925397853,"keywords":["nocrits","nodmgspread","payload","uncletopia"],"game_id":440,"stv_port":27046,"stv_name":"Uncletopia | Warsaw | 4 | All Maps | STV","players":[{"user_id":6,"name":"iatedirtANDsand","steam_id":76561199350177866,"connected_time":1051000000000,"state":"active","ping":96},{"user_id":8,"name":"lorin fortuna","steam_id":76561199202836089,"connected_time":1019000000000,"state":"active","ping":84}]},{"server_id":53,"name":"Uncletopia | Warsaw | 5 | Stopwatch Beta","name_short":"waw-5","host":"waw-1.pl.uncletopia.com","port":27055,"enabled":true,"region":"eu","cc":"pl","latitude":52.2297,"longitude":21.017532,"reserved":0,"last_update":"0001-01-01T00:00:00Z","name_a2s":"Uncletopia | Warsaw | 5 | Stopwatch Beta","protocol":17,"map":"pl_swiftwater_final1","folder":"tf","game":"Team Fortress","app_id":440,"player_count":0,"max_players":24,"Bots":0,"server_type":"Dedicated","server_os":"Linux","password":true,"vac":true,"version":"7742253","steam_id":85568392925397854,"keywords":["nocrits","nodmgspread","payload","uncletopia"],"game_id":440,"stv_port":27056,"stv_name":"Uncletopia | Warsaw | 5 | Stopwatch Beta | STV","players":null},{"server_id":54,"name":"Uncletopia | Warsaw | 6 | Community","name_short":"waw-6","host":"waw-1.pl.uncletopia.com","port":27065,"enabled":true,"region":"eu","cc":"pl","latitude":52.2297,"longitude":21.017532,"reserved":0,"last_update":"0001-01-01T00:00:00Z","name_a2s":"Uncletopia | Warsaw | 6 | Community","protocol":17,"map":"koth_highpass","folder":"tf","game":"Team Fortress","app_id":440,"player_count":0,"max_players":24,"Bots":0,"server_type":"Dedicated","server_os":"Linux","password":true,"vac":true,"version":"7742253","steam_id":85568392925397856,"keywords":["cp","nocrits","nodmgspread","uncletopia"],"game_id":440,"stv_port":27066,"stv_name":"Uncletopia | Warsaw | 6 | Community | STV","players":null}]}