{"status":true,"message":"","result":[{"server_id":9,"name":"Uncletopia | Atlanta | 1 | All Maps","name_short":"atl-1","host":"atl-1.us.uncletopia.com","port":27015,"enabled":true,"region":"us-east","cc":"us","latitude":33.753746,"longitude":-84.38633,"reserved":0,"last_update":"0001-01-01T00:00:00Z","name_a2s":"Uncletopia | Atlanta | 1 | All Maps","protocol":17,"map":"cp_gorge","folder":"tf","game":"Team Fortress","app_id":440,"player_count":20,"max_players":24,"Bots":0,"server_type":"Dedicated","server_os":"Linux","password":true,"vac":true,"version":"7961495","steam_id":85568392924469982,"keywords":["cp","nocrits","nodmgspread","uncletopia"],"game_id":440,"stv_port":27016,"stv_name":"Uncletopia | Atlanta | 1 | All Maps | STV","players":null},{"server_id":104,"name":"Uncletopia | Atlanta | 2 | All Maps","name_short":"atl-2","host":"atl-1.us.uncletopia.com","port":27025,"enabled":true,"region":"us-east","cc":"us","latitude":33.753746,"longitude":-84.38633,"reserved":0,"last_update":"0001-01-01T00:00:00Z","name_a2s":"Uncletopia | Atlanta | 2 | All Maps","protocol":17,"map":"koth_highpass","folder":"tf","game":"Team Fortress","app_id":440,"player_count":0,"max_players":24,"Bots":0,"server_type":"Dedicated","server_os":"Linux","password":true,"vac":true,"version":"7961495","steam_id":85568392924469983,"keywords":["cp","nocrits","nodmgspread","uncletopia"],"game_id":440,"stv_port":27026,"stv_name":"Uncletopia | Atlanta | 2 | All Maps | STV","players":null},{"server_id":400,"name":"Uncletopia | Atlanta | 3 | All Maps","name_short":"atl-3","host":"atl-1.us.uncletopia.com","port":27035,"enabled":true,"region":"us-east","cc":"us","latitude":33.753746,"longitude":-84.38633,"reserved":0,"last_update":"0001-01-01T00:00:00Z","name_a2s":"Uncletopia | Atlanta | 3 | All Maps","protocol":17,"map":"koth_cascade","folder":"tf","game":"Team Fortress","app_id":440,"player_count":0,"max_players":24,"Bots":0,"server_type":"Dedicated","server_os":"Linux","password":true,"vac":true,"version":"7961495","steam_id":85568392924515187,"keywords":["cp","nocrits","nodmgspread","uncletopia"],"game_id":440,"stv_port":27036,"stv_name":"Uncletopia | Atlanta | 3 | All Maps | STV","players":null},{"server_id":401,"name":"Uncletopia | Atlanta | 4 | Community","name_short":"atl-4","host":"atl-1.us.uncletopia.com","port":27045,"enabled":true,"region":"us-east","cc":"us","latitude":33.753746,"longitude":-84.38633,"reserved":0,"last_update":"0001-01-01T00:00:00Z","name_a2s":"Uncletopia | Atlanta | 4 | Community","protocol":17,"map":"cp_sunshine","folder":"tf","game":"Team Fortress","app_id":440,"player_count":0,"max_players":24,"Bots":0,"server_type":"Dedicated","server_os":"Linux","password":true,"vac":true,"version":"7961495","steam_id":85568392924515188,"keywords":["cp","nocrits","nodmgspread","uncletopia"],"game_id":440,"stv_port":27046,"stv_name":"Uncletopia | Atlanta | 4 | Community | STV","players":null},{"server_id":2,"name":"Uncletopia | Chicago | 1 | All Maps","name_short":"chi-1","host":"chi-1.us.uncletopia.com","port":27015,"enabled":true,"region":"us-central","cc":"us","latitude":41.881832,"longitude":-87.62318,"reserved":0,"last_update":"0001-01-01T00:00:00Z","name_a2s":"Uncletopia | Chicago | 1 | All Maps","protocol":17,"map":"pl_badwater","folder":"tf","game":"Team Fortress","app_id":440,"player_count":24,"max_players":24,"Bots":0,"server_type":"Dedicated","server_os":"Linux","password":true,"vac":true,"version":"7961495","steam_id":85568392924469984,"keywords":["nocrits","nodmgspread","payload","uncletopia"],"game_id":440,"stv_port":27016,"stv_name":"Uncletopia | Chicago | 1 | All Maps | STV","players":[{"user_id":159,"name":"Provocator","steam_id":76561197961830410,"connected_time":2269000000000,"state":"connecting","ping":82},{"user_id":180,"name":"Bon Gripper","steam_id":76561198090074621,"connected_time":30000000000,"state":"connecting","ping":54},{"user_id":184,"name":"Milkmur","steam_id":76561198210043821,"connected_time":17000000000,"state":"connecting","ping":76},{"user_id":177,"name":"melon","steam_id":76561199014039702,"connected_time":91000000000,"state":"connecting","ping":66},{"user_id":166,"name":"Mog","steam_id":76561198025575870,"connected_time":1733000000000,"state":"connecting","ping":127},{"user_id":181,"name":"blob","steam_id":76561198122375328,"connected_time":29000000000,"state":"connecting","ping":63},{"user_id":169,"name":"Swash","steam_id":76561197969421355,"connected_time":1422000000000,"state":"connecting","ping":89},{"user_id":182,"name":"StonedGiant","steam_id":76561197984386932,"connected_time":29000000000,"state":"connecting","ping":92},{"user_id":183,"name":"*yawns cutely*","steam_id":76561198239286750,"connected_time":22000000000,"state":"connecting","ping":77},{"user_id":153,"name":"BB Dirt Block","steam_id":76561198273008469,"connected_time":3021000000000,"state":"connecting","ping":117},{"user_id":178,"name":"Joe Family guy","steam_id":76561198065327106,"connected_time":34000000000,"state":"connecting","ping":79},{"user_id":158,"name":"Sergeant Snowflake","steam_id":76561198041474489,"connected_time":2271000000000,"state":"connecting","ping":55},{"user_id":155,"name":"feudalism (real)","steam_id":76561198057374871,"connected_time":2285000000000,"state":"connecting","ping":79},{"user_id":171,"name":"hej","steam_id":76561197996366940,"connected_time":1372000000000,"state":"connecting","ping":80},{"user_id":185,"name":"Null","steam_id":76561198062791227,"connected_time":14000000000,"state":"connecting","ping":60},{"user_id":176,"name":"gamerlegend47","steam_id":76561198122776598,"connected_time":274000000000,"state":"connecting","ping":90},{"user_id":140,"name":"󠁳 ⁧Argo","steam_id":76561198353725622,"connected_time":4233000000000,"state":"connecting","ping":99},{"user_id":165,"name":"El Wiwi","steam_id":76561199107383718,"connected_time":1944000000000,"state":"connecting","ping":80},{"user_id":174,"name":"Undertime Slopper","steam_id":76561198396789061,"connected_time":1170000000000,"state":"connecting","ping":88},{"user_id":76,"name":"ุ","steam_id":76561198118480346,"connected_time":8384000000000,"state":"connecting","ping":76},{"user_id":160,"name":"Astoriae!","steam_id":76561199090168858,"connected_time":2258000000000,"state":"connecting","ping":82},{"user_id":157,"name":"Wheaty","steam_id":76561198003553412,"connected_time":2283000000000,"state":"connecting","ping":119},{"user_id":145,"name":"Whatever404","steam_id":76561198300273120,"connected_time":3690000000000,"state":"connecting","ping":134},{"user_id":179,"name":"0100101101100001011100100110110","steam_id":76561198034028769,"connected_time":34000000000,"state":"connecting","ping":71}]},{"server_id":106,"name":"Uncletopia | Chicago | 2 | All Maps","name_short":"chi-2","host":"chi-1.us.uncletopia.com","port":27025,"enabled":true,"region":"us-central","cc":"us","latitude":41.881832,"longitude":-87.62318,"reserved":0,"last_update":"0001-01-01T00:00:00Z","name_a2s":"Uncletopia | Chicago | 2 | All Maps","protocol":17,"map":"cp_snakewater_final1","folder":"tf","game":"Team Fortress","app_id":440,"player_count":1,"max_players":24,"Bots":0,"server_type":"Dedicated","server_os":"Linux","password":true,"vac":true,"version":"7961495","steam_id":85568392924469985,"keywords":["cp","nocrits","nodmgspread","uncletopia"],"game_id":440,"stv_port":27026,"stv_name":"Uncletopia | Chicago | 2 | All Maps | STV","players":[{"user_id":12,"name":"Alexgo","steam_id":76561198044430542,"connected_time":535000000000,"state":"active","ping":90}]},{"server_id":402,"name":"Uncletopia | Chicago | 3 | All Maps","name_short":"chi-3","host":"chi-1.us.uncletopia.com","port":27035,"enabled":true,"region":"us-central","cc":"us","latitude":41.881832,"longitude":-87.62318,"reserved":0,"last_update":"0001-01-01T00:00:00Z","name_a2s":"Uncletopia | Chicago | 3 | All Maps","protocol":17,"map":"cp_dustbowl","folder":"tf","game":"Team Fortress","app_id":440,"player_count":24,"max_players":24,"Bots":0,"server_type":"Dedicated","server_os":"Linux","password":true,"vac":true,"version":"7961495","steam_id":85568392924515191,"keywords":["cp","nocrits","nodmgspread","uncletopia"],"game_id":440,"stv_port":27036,"stv_name":"Uncletopia | Chicago | 3 | All Maps | STV","players":[{"user_id":107,"name":"Zoom","steam_id":76561198139276393,"connected_time":466000000000,"state":"active","ping":104},{"user_id":7,"name":"BrickDiggity","steam_id":76561198297548684,"connected_time":7993000000000,"state":"active","ping":95},{"user_id":103,"name":"sensitize","steam_id":76561198350134869,"connected_time":1050000000000,"state":"active","ping":51},{"user_id":111,"name":"Aclexu","steam_id":76561198927090219,"connected_time":334000000000,"state":"active","ping":97},{"user_id":40,"name":"Mavrick","steam_id":76561198039678150,"connected_time":6522000000000,"state":"active","ping":57},{"user_id":112,"name":"DrD","steam_id":76561198067266383,"connected_time":162000000000,"state":"active","ping":89},{"user_id":113,"name":"Gamering_funy","steam_id":76561199006503777,"connected_time":5000000000,"state":"spawning","ping":84},{"user_id":94,"name":"evil","steam_id":76561199001918194,"connected_time":2206000000000,"state":"active","ping":114},{"user_id":81,"name":"panic","steam_id":76561198870308563,"connected_time":3302000000000,"state":"active","ping":139},{"user_id":53,"name":"MILKY","steam_id":76561198073114061,"connected_time":4683000000000,"state":"active","ping":68},{"user_id":98,"name":"corned beef","steam_id":76561199366782761,"connected_time":2053000000000,"state":"active","ping":156},{"user_id":88,"name":"Mr. Sauce","steam_id":76561198055512324,"connected_time":2875000000000,"state":"active","ping":71},{"user_id":66,"name":"Turtlin'","steam_id":76561198885096042,"connected_time":4283000000000,"state":"active","ping":77},{"user_id":92,"name":"pabloramirez1998@gmail.com","steam_id":76561198969675306,"connected_time":2234000000000,"state":"active","ping":61},{"user_id":106,"name":"gaming time","steam_id":76561198960683356,"connected_time":507000000000,"state":"active","ping":69},{"user_id":101,"name":"SoosMahBeet","steam_id":76561198178364802,"connected_time":1295000000000,"state":"active","ping":83},{"user_id":100,"name":"TheOneZoot","steam_id":76561198121944243,"connected_time":1364000000000,"state":"active","ping":69},{"user_id":54,"name":"Let ε \u003e 0","steam_id":76561198111790388,"connected_time":4671000000000,"state":"active","ping":87},{"user_id":105,"name":"thecal","steam_id":76561198307893384,"connected_time":598000000000,"state":"active","ping":50},{"user_id":102,"name":"pimbo jingus","steam_id":76561198275343583,"connected_time":1293000000000,"state":"active","ping":45},{"user_id":76,"name":"Yam Jazzy Jim","steam_id":76561198000788950,"connected_time":3787000000000,"state":"active","ping":64},{"user_id":99,"name":"Hepi","steam_id":76561199171919713,"connected_time":2048000000000,"state":"active","ping":62},{"user_id":109,"name":"The new day","steam_id":76561198855144603,"connected_time":452000000000,"state":"active","ping":58},{"user_id":71,"name":"Bibleboy","steam_id":76561198049289869,"connected_time":4033000000000,"state":"active","ping":73}]},{"server_id":403,"name":"Uncletopia | Chicago | 4 | All Maps","name_short":"chi-4","host":"chi-1.us.uncletopia.com","port":27045,"enabled":true,"region":"us-central","cc":"us","latitude":41.881832,"longitude":-87.62318,"reserved":0,"last_update":"0001-01-01T00:00:00Z","name_a2s":"Uncletopia | Chicago | 4 | All Maps","protocol":17,"map":"koth_lakeside_final","folder":"tf","game":"Team Fortress","app_id":440,"player_count":0,"max_players":24,"Bots":0,"server_type":"Dedicated","server_os":"Linux","password":true,"vac":true,"version":"7961495","steam_id":85568392924515193,"keywords":["cp","nocrits","nodmgspread","uncletopia"],"game_id":440,"stv_port":27046,"stv_name":"Uncletopia | Chicago | 4 | All Maps | STV","players":null},{"server_id":36,"name":"Uncletopia | Chicago | 5 | All Maps","name_short":"chi-5","host":"chi-2.us.uncletopia.com","port":27015,"enabled":true,"region":"us-central","cc":"us","latitude":41.881832,"longitude":-87.62318,"reserved":0,"last_update":"0001-01-01T00:00:00Z","name_a2s":"Uncletopia | Chicago | 5 | All Maps","protocol":17,"map":"pl_badwater","folder":"tf","game":"Team Fortress","app_id":440,"player_count":24,"max_players":24,"Bots":0,"server_type":"Dedicated","server_os":"Linux","password":true,"vac":true,"version":"7961495","steam_id":85568392924866362,"keywords":["nocrits","nodmgspread","payload","uncletopia"],"game_id":440,"stv_port":27016,"stv_name":"Uncletopia | Chicago | 5 | All Maps | STV","players":[{"user_id":8,"name":"cowchatty","steam_id":76561199115286789,"connected_time":1497000000000,"state":"active","ping":89},{"user_id":9,"name":"GuitarMonkey","steam_id":76561199206736268,"connected_time":1486000000000,"state":"active","ping":80},{"user_id":10,"name":"TheReal_PyroShark","steam_id":76561199388680317,"connected_time":1482000000000,"state":"active","ping":68},{"user_id":40,"name":"mete.akakin","steam_id":76561199395975595,"connected_time":650000000000,"state":"active","ping":66},{"user_id":12,"name":"BaconMan_22","steam_id":76561199095631586,"connected_time":1425000000000,"state":"active","ping":73},{"user_id":13,"name":"cinak","steam_id":76561199056855676,"connected_time":1425000000000,"state":"active","ping":69},{"user_id":14,"name":"Nolan_28","steam_id":76561198978243698,"connected_time":1413000000000,"state":"active","ping":61},{"user_id":15,"name":"MagnumMage","steam_id":76561198260479078,"connected_time":1374000000000,"state":"active","ping":82},{"user_id":16,"name":"im so fucking good","steam_id":76561198929646112,"connected_time":1331000000000,"state":"active","ping":63},{"user_id":27,"name":"banana weapon collector","steam_id":76561199381954163,"connected_time":1057000000000,"state":"active","ping":98},{"user_id":35,"name":"Homvel","steam_id":76561198000848413,"connected_time":934000000000,"state":"active","ping":73},{"user_id":28,"name":"Sprinklingmydoughnut","steam_id":76561198168009092,"connected_time":1049000000000,"state":"active","ping":85},{"user_id":23,"name":"EpicNGamerz","steam_id":76561198304292582,"connected_time":1151000000000,"state":"active","ping":104},{"user_id":24,"name":"Zoey Cakes","steam_id":76561198080247936,"connected_time":1150000000000,"state":"active","ping":101},{"user_id":25,"name":"QuasoGbx","steam_id":76561199210143526,"connected_time":1133000000000,"state":"active","ping":184},{"user_id":26,"name":"Big Time Bobby","steam_id":76561198935266162,"connected_time":1122000000000,"state":"active","ping":72},{"user_id":29,"name":"jacksonworr","steam_id":76561199013771332,"connected_time":1020000000000,"state":"active","ping":83},{"user_id":30,"name":"AllThatJazz","steam_id":76561198296914213,"connected_time":1015000000000,"state":"active","ping":68},{"user_id":31,"name":"vectorman","steam_id":76561198274544005,"connected_time":970000000000,"state":"active","ping":67},{"user_id":38,"name":"Defragmented","steam_id":76561198854210081,"connected_time":868000000000,"state":"active","ping":70},{"user_id":33,"name":"White_Wizard_Named_Corona","steam_id":76561198055652735,"connected_time":951000000000,"state":"active","ping":96},{"user_id":39,"name":"Pandora Nyx","steam_id":76561198093475054,"connected_time":707000000000,"state":"active","ping":89},{"user_id":36,"name":"Simply_Komeiji","steam_id":76561198354177703,"connected_time":933000000000,"state":"active","ping":87},{"user_id":37,"name":"imcringe","steam_id":76561199434878956,"connected_time":905000000000,"state":"active","ping":75}]},{"server_id":37,"name":"Uncletopia | Chicago | 6 | All Maps","name_short":"chi-6","host":"chi-2.us.uncletopia.com","port":27025,"enabled":true,"region":"us-central","cc":"us","latitude":41.881832,"longitude":-87.62318,"reserved":0,"last_update":"0001-01-01T00:00:00Z","name_a2s":"Uncletopia | Chicago | 6 | All Maps","protocol":17,"map":"cp_process_final","folder":"tf","game":"Team Fortress","app_id":440,"player_count":0,"max_players":24,"Bots":0,"server_type":"Dedicated","server_os":"Linux","password":true,"vac":true,"version":"7961495","steam_id":85568392924866363,"keywords":["cp","nocrits","nodmgspread","uncletopia"],"game_id":440,"stv_port":27026,"stv_name":"Uncletopia | Chicago | 6 | All Maps | STV","players":null},{"server_id":38,"name":"Uncletopia | Chicago | 7 | Stopwatch Beta","name_short":"chi-7","host":"chi-2.us.uncletopia.com","port":27035,"enabled":true,"region":"us-central","cc":"us","latitude":41.881832,"longitude":-87.62318,"reserved":0,"last_update":"0001-01-01T00:00:00Z","name_a2s":"Uncletopia | Chicago | 7 | Stopwatch Beta","protocol":17,"map":"pl_badwater","folder":"tf","game":"Team Fortress","app_id":440,"player_count":0,"max_players":24,"Bots":0,"server_type":"Dedicated","server_os":"Linux","password":true,"vac":true,"version":"7961495","steam_id":85568392924866364,"keywords":["nocrits","nodmgspread","payload","uncletopia"],"game_id":440,"stv_port":27036,"stv_name":"Uncletopia | Chicago | 7 | Stopwatch Beta | STV","players":null},{"server_id":39,"name":"Uncletopia | Chicago | 8 | Community","name_short":"chi-8","host":"chi-2.us.uncletopia.com","port":27045,"enabled":true,"region":"us-central","cc":"us","latitude":41.881832,"longitude":-87.62318,"reserved":0,"last_update":"0001-01-01T00:00:00Z","name_a2s":"Uncletopia | Chicago | 8 | Community","protocol":17,"map":"workshop/cp_glassworks_rc6a.ugc454118349","folder":"tf","game":"Team Fortress","app_id":440,"player_count":17,"max_players":24,"Bots":0,"server_type":"Dedicated","server_os":"Linux","password":true,"vac":true,"version":"7961495","steam_id":85568392924866365,"keywords":["cp","nocrits","nodmgspread","uncletopia"],"game_id":440,"stv_port":27046,"stv_name":"Uncletopia | Chicago | 8 | Community | STV","players":[{"user_id":130,"name":"Cyclops_672","steam_id":76561198080169497,"connected_time":777000000000,"state":"active","ping":61},{"user_id":68,"name":"PieTheMan","steam_id":76561198027825469,"connected_time":5236000000000,"state":"spawning","ping":158},{"user_id":101,"name":"BarrowBaron","steam_id":76561198013633236,"connected_time":3011000000000,"state":"active","ping":108},{"user_id":133,"name":"King of Ping","steam_id":76561198278737470,"connected_time":392000000000,"state":"spawning","ping":138},{"user_id":102,"name":"Terminal Brain Rot","steam_id":76561198112594672,"connected_time":3000000000000,"state":"spawning","ping":197},{"user_id":109,"name":"Poberl","steam_id":76561198823051158,"connected_time":1715000000000,"state":"active","ping":108},{"user_id":116,"name":"BS","steam_id":76561198026453272,"connected_time":1519000000000,"state":"spawning","ping":303},{"user_id":19,"name":"GalacticHero2068","steam_id":76561199063612661,"connected_time":8211000000000,"state":"active","ping":101},{"user_id":131,"name":"define ok","steam_id":76561198068190834,"connected_time":723000000000,"state":"spawning","ping":176},{"user_id":132,"name":"PyroWhale","steam_id":76561198315213642,"connected_time":495000000000,"state":"active","ping":86},{"user_id":51,"name":"pop7up","steam_id":76561198159869674,"connected_time":6425000000000,"state":"spawning","ping":356},{"user_id":118,"name":"ProjectPerodrive","steam_id":76561198354125587,"connected_time":1474000000000,"state":"active","ping":74},{"user_id":81,"name":"Butters495","steam_id":76561197998689042,"connected_time":4559000000000,"state":"active","ping":87},{"user_id":124,"name":"JambaJuice","steam_id":76561198806736231,"connected_time":1315000000000,"state":"active","ping":96},{"user_id":122,"name":"I'mWalkerHere","steam_id":76561199310055450,"connected_time":1411000000000,"state":"active","ping":85},{"user_id":78,"name":"Whompert","steam_id":76561198042939624,"connected_time":4706000000000,"state":"active","ping":94},{"user_id":123,"name":"JI-MAN BUZZ","steam_id":76561198107899101,"connected_time":1406000000000,"state":"active","ping":79}]},{"server_id":8,"name":"Uncletopia | Dallas | 1 | All Maps","name_short":"dal-1","host":"dal-1.us.uncletopia.com","port":27015,"enabled":true,"region":"us-central","cc":"us","latitude":32.779167,"longitude":-96.80889,"reserved":0,"last_update":"0001-01-01T00:00:00Z","name_a2s":"Uncletopia | Dallas | 1 | All Maps","protocol":17,"map":"pl_snowycoast","folder":"tf","game":"Team Fortress","app_id":440,"player_count":24,"max_players":24,"Bots":0,"server_type":"Dedicated","server_os":"Linux","password":true,"vac":true,"version":"7961495","steam_id":85568392924469986,"keywords":["nocrits","nodmgspread","payload","uncletopia"],"game_id":440,"stv_port":27016,"stv_name":"Uncletopia | Dallas | 1 | All Maps | STV","players":[{"user_id":4,"name":"Jerk Tryhard (roleplay)","steam_id":76561199470538309,"connected_time":13874000000000,"state":"active","ping":85},{"user_id":112,"name":"Ryzema","steam_id":76561198165594229,"connected_time":3784000000000,"state":"active","ping":88},{"user_id":6,"name":"leesh","steam_id":76561198079603938,"connected_time":13777000000000,"state":"active","ping":60},{"user_id":157,"name":"Da Baby","steam_id":76561199025980167,"connected_time":292000000000,"state":"active","ping":75},{"user_id":135,"name":"hoOmIN","steam_id":76561198334947079,"connected_time":2175000000000,"state":"active","ping":74},{"user_id":158,"name":"crispylego_","steam_id":76561199453679719,"connected_time":2000000000,"state":"spawning","ping":112},{"user_id":136,"name":"sambrozee","steam_id":76561199160733886,"connected_time":2151000000000,"state":"active","ping":69},{"user_id":94,"name":"GLG.Liz","steam_id":76561198021957956,"connected_time":4723000000000,"state":"active","ping":46},{"user_id":118,"name":"KentuckyFriedPossum","steam_id":76561198930277086,"connected_time":3081000000000,"state":"active","ping":76},{"user_id":144,"name":"Kirby.exe","steam_id":76561198242714582,"connected_time":1715000000000,"state":"active","ping":52},{"user_id":151,"name":"SmokyDank","steam_id":76561198045782886,"connected_time":1060000000000,"state":"active","ping":127},{"user_id":154,"name":"strive","steam_id":76561199020439576,"connected_time":509000000000,"state":"active","ping":99},{"user_id":137,"name":"my mom","steam_id":76561199225201569,"connected_time":2151000000000,"state":"active","ping":89},{"user_id":124,"name":"An Unhappy Clown","steam_id":76561198175516514,"connected_time":2782000000000,"state":"active","ping":50},{"user_id":145,"name":"james may","steam_id":76561198043857339,"connected_time":1702000000000,"state":"active","ping":83},{"user_id":139,"name":"FreshLord27","steam_id":76561198388697530,"connected_time":2118000000000,"state":"active","ping":74},{"user_id":125,"name":"Major Woody","steam_id":76561198835541533,"connected_time":2771000000000,"state":"active","ping":76},{"user_id":153,"name":"Darling","steam_id":76561198127525888,"connected_time":539000000000,"state":"active","ping":56},{"user_id":126,"name":"Ofi","steam_id":76561198015203816,"connected_time":2750000000000,"state":"active","ping":75},{"user_id":140,"name":"Mocanthl","steam_id":76561198043778324,"connected_time":2041000000000,"state":"active","ping":72},{"user_id":129,"name":"CheeseCake488","steam_id":76561199407617942,"connected_time":2651000000000,"state":"active","ping":103},{"user_id":156,"name":"Fox","steam_id":76561198210081927,"connected_time":392000000000,"state":"active","ping":77},{"user_id":111,"name":"Hyper Alien","steam_id":76561198183211513,"connected_time":3871000000000,"state":"active","ping":40},{"user_id":142,"name":"FanaticSalt","steam_id":76561199380123059,"connected_time":1726000000000,"state":"active","ping":46}]},{"server_id":108,"name":"Uncletopia | Dallas | 2 | All Maps","name_short":"dal-2","host":"dal-1.us.uncletopia.com","port":27025,"enabled":true,"region":"us-central","cc":"us","latitude":32.779167,"longitude":-96.80889,"reserved":0,"last_update":"0001-01-01T00:00:00Z","name_a2s":"Uncletopia | Dallas | 2 | All Maps","protocol":17,"map":"pl_pier","folder":"tf","game":"Team Fortress","app_id":440,"player_count":24,"max_players":24,"Bots":0,"server_type":"Dedicated","server_os":"Linux","password":true,"vac":true,"version":"7961495","steam_id":85568392924469988,"keywords":["nocrits","nodmgspread","payload","uncletopia"],"game_id":440,"stv_port":27026,"stv_name":"Uncletopia | Dallas | 2 | All Maps | STV","players":[{"user_id":3,"name":"dicksnip","steam_id":76561198356515396,"connected_time":5372000000000,"state":"active","ping":52},{"user_id":4,"name":"Boot Mcstink","steam_id":76561199226873917,"connected_time":5180000000000,"state":"active","ping":85},{"user_id":64,"name":"Lee?","steam_id":76561199060892634,"connected_time":527000000000,"state":"active","ping":60},{"user_id":6,"name":"andyiscolorless","steam_id":76561199239870921,"connected_time":4871000000000,"state":"active","ping":131},{"user_id":38,"name":"blue duck the 2nd","steam_id":76561198263142765,"connected_time":3065000000000,"state":"active","ping":193},{"user_id":66,"name":"Weird Frog","steam_id":76561198068570726,"connected_time":175000000000,"state":"active","ping":64},{"user_id":69,"name":"boo_thefeared","steam_id":76561198127967685,"connected_time":81000000000,"state":"active","ping":156},{"user_id":56,"name":"a hedgehog","steam_id":76561198019010682,"connected_time":1133000000000,"state":"active","ping":60},{"user_id":65,"name":"Squagol","steam_id":76561197987486159,"connected_time":357000000000,"state":"active","ping":60},{"user_id":13,"name":"GreatTimBones","steam_id":76561198409145748,"connected_time":4472000000000,"state":"active","ping":93},{"user_id":61,"name":"ビーナー","steam_id":76561199196918355,"connected_time":807000000000,"state":"active","ping":71},{"user_id":63,"name":"inzang","steam_id":76561198088318074,"connected_time":587000000000,"state":"active","ping":54},{"user_id":43,"name":"two-bit Thief","steam_id":76561199202681534,"connected_time":2557000000000,"state":"active","ping":85},{"user_id":19,"name":"HUESO","steam_id":76561198276383681,"connected_time":4245000000000,"state":"active","ping":79},{"user_id":54,"name":"humans\\group01\\male_07.mdl","steam_id":76561199068981957,"connected_time":1158000000000,"state":"active","ping":60},{"user_id":70,"name":"Xx_UrineEnjoyer_xX","steam_id":76561198397991402,"connected_time":68000000000,"state":"active","ping":96},{"user_id":60,"name":"Wan Shi Tong","steam_id":76561198076441225,"connected_time":906000000000,"state":"active","ping":89},{"user_id":49,"name":"MitcheyHD","steam_id":76561198066489645,"connected_time":1629000000000,"state":"active","ping":101},{"user_id":67,"name":"Rusty Shackleford (Real)","steam_id":76561198046841365,"connected_time":174000000000,"state":"active","ping":52},{"user_id":68,"name":"Poop Deck Joe","steam_id":76561198271397568,"connected_time":156000000000,"state":"active","ping":69},{"user_id":58,"name":"Petabuh","steam_id":76561198120618144,"connected_time":1026000000000,"state":"active","ping":79},{"user_id":29,"name":"Winter the Witchie","steam_id":76561198151971178,"connected_time":3795000000000,"state":"active","ping":91},{"user_id":34,"name":"Fred","steam_id":76561197983870604,"connected_time":3650000000000,"state":"active","ping":66},{"user_id":51,"name":"artichoke","steam_id":76561198980994364,"connected_time":1497000000000,"state":"active","ping":104}]},{"server_id":404,"name":"Uncletopia | Dallas | 3 | All Maps","name_short":"dal-3","host":"dal-1.us.uncletopia.com","port":27035,"enabled":true,"region":"us-central","cc":"us","latitude":32.779167,"longitude":-96.80889,"reserved":0,"last_update":"0001-01-01T00:00:00Z","name_a2s":"Uncletopia | Dallas | 3 | All Maps","protocol":17,"map":"pl_upward","folder":"tf","game":"Team Fortress","app_id":440,"player_count":0,"max_players":24,"Bots":0,"server_type":"Dedicated","server_os":"Linux","password":true,"vac":true,"version":"7961495","steam_id":85568392924515219,"keywords":["nocrits","nodmgspread","payload","uncletopia"],"game_id":440,"stv_port":27036,"stv_name":"Uncletopia | Dallas | 3 | All Maps | STV","players":null},{"server_id":405,"name":"Uncletopia | Dallas | 4 | Community","name_short":"dal-4","host":"dal-1.us.uncletopia.com","port":27045,"enabled":true,"region":"us-central","cc":"us","latitude":32.779167,"longitude":-96.80889,"reserved":0,"last_update":"0001-01-01T00:00:00Z","name_a2s":"Uncletopia | Dallas | 4 | Community","protocol":17,"map":"pl_badwater","folder":"tf","game":"Team Fortress","app_id":440,"player_count":0,"max_players":24,"Bots":0,"server_type":"Dedicated","server_os":"Linux","password":true,"vac":true,"version":"7961495","steam_id":85568392924515220,"keywords":["nocrits","nodmgspread","payload","uncletopia"],"game_id":440,"stv_port":27046,"stv_name":"Uncletopia | Dallas | 4 | Community | STV","players":null},{"server_id":5,"name":"Uncletopia | Frankfurt | 1 | All Maps","name_short":"frk-1","host":"frk-1.de.uncletopia.com","port":27015,"enabled":true,"region":"eu","cc":"de","latitude":50.110924,"longitude":8.682127,"reserved":0,"last_update":"0001-01-01T00:00:00Z","name_a2s":"Uncletopia | Frankfurt | 1 | All Maps","protocol":17,"map":"cp_dustbowl","folder":"tf","game":"Team Fortress","app_id":440,"player_count":23,"max_players":24,"Bots":0,"server_type":"Dedicated","server_os":"Linux","password":true,"vac":true,"version":"7961495","steam_id":85568392924469989,"keywords":["cp","nocrits","nodmgspread","uncletopia"],"game_id":440,"stv_port":27016,"stv_name":"Uncletopia | Frankfurt | 1 | All Maps | STV","players":[{"user_id":437,"name":"obscure","steam_id":76561198119532381,"connected_time":2885000000000,"state":"active","ping":71},{"user_id":466,"name":"unpronounceable","steam_id":76561198271860748,"connected_time":207000000000,"state":"active","ping":55},{"user_id":467,"name":"Woman (Real)","steam_id":76561199151823932,"connected_time":199000000000,"state":"active","ping":78},{"user_id":434,"name":"Plin Plin Plon","steam_id":76561198148359093,"connected_time":2963000000000,"state":"active","ping":45},{"user_id":404,"name":"heisenberg","steam_id":76561198988867951,"connected_time":4083000000000,"state":"active","ping":69},{"user_id":406,"name":"duplicated","steam_id":76561198344952248,"connected_time":3989000000000,"state":"active","ping":58},{"user_id":470,"name":"Joy","steam_id":76561198155314925,"connected_time":119000000000,"state":"active","ping":61},{"user_id":458,"name":"JackTEM07","steam_id":76561198085468343,"connected_time":791000000000,"state":"active","ping":81},{"user_id":428,"name":"Kjat","steam_id":76561198839433592,"connected_time":3140000000000,"state":"active","ping":52},{"user_id":459,"name":"mr_redboy2","steam_id":76561199112077406,"connected_time":789000000000,"state":"active","ping":74},{"user_id":465,"name":"Sulejman______________________\ufffd","steam_id":76561198276847676,"connected_time":579000000000,"state":"active","ping":100},{"user_id":464,"name":"knyazF","steam_id":76561198163278585,"connected_time":598000000000,"state":"active","ping":73},{"user_id":413,"name":"Portal79","steam_id":76561198095499584,"connected_time":3884000000000,"state":"active","ping":63},{"user_id":445,"name":"static","steam_id":76561198836825741,"connected_time":1395000000000,"state":"active","ping":65},{"user_id":471,"name":"󠁳⁧⁧ Kruthal","steam_id":76561198245726582,"connected_time":105000000000,"state":"active","ping":71},{"user_id":472,"name":"Dot","steam_id":76561198047299145,"connected_time":104000000000,"state":"active","ping":70},{"user_id":454,"name":"turdh","steam_id":76561198420188090,"connected_time":1274000000000,"state":"active","ping":68},{"user_id":468,"name":"Chef","steam_id":76561198392489772,"connected_time":190000000000,"state":"active","ping":87},{"user_id":444,"name":"Piox","steam_id":76561198125689157,"connected_time":1428000000000,"state":"active","ping":87},{"user_id":346,"name":"Tails8521","steam_id":76561198051747164,"connected_time":7715000000000,"state":"active","ping":57},{"user_id":441,"name":"A.D.H.|Artem","steam_id":76561198041801369,"connected_time":1796000000000,"state":"active","ping":78},{"user_id":469,"name":"BONVH","steam_id":76561199080666656,"connected_time":183000000000,"state":"active","ping":123},{"user_id":463,"name":"szagy","steam_id":76561198154148676,"connected_time":629000000000,"state":"active","ping":65}]},{"server_id":110,"name":"Uncletopia | Frankfurt | 2 | All Maps","name_short":"frk-2","host":"frk-1.de.uncletopia.com","port":27025,"enabled":true,"region":"eu","cc":"de","latitude":50.110924,"longitude":8.682127,"reserved":0,"last_update":"0001-01-01T00:00:00Z","name_a2s":"Uncletopia | Frankfurt | 2 | All Maps","protocol":17,"map":"cp_snakewater_final1","folder":"tf","game":"Team Fortress","app_id":440,"player_count":22,"max_players":24,"Bots":0,"server_type":"Dedicated","server_os":"Linux","password":true,"vac":true,"version":"7961495","steam_id":85568392924469990,"keywords":["cp","nocrits","nodmgspread","uncletopia"],"game_id":440,"stv_port":27026,"stv_name":"Uncletopia | Frankfurt | 2 | All Maps | STV","players":[{"user_id":265,"name":"PixelVader","steam_id":76561198034195553,"connected_time":97000000000,"state":"active","ping":45},{"user_id":239,"name":"Korato","steam_id":76561198045836695,"connected_time":1469000000000,"state":"active","ping":48},{"user_id":255,"name":"17","steam_id":76561198172987322,"connected_time":1150000000000,"state":"active","ping":58},{"user_id":241,"name":"pwofessionalLapsitter","steam_id":76561198053937781,"connected_time":1451000000000,"state":"active","ping":46},{"user_id":212,"name":"Acekeni™ ∤ [GMD]","steam_id":76561198352700499,"connected_time":3112000000000,"state":"active","ping":68},{"user_id":244,"name":"Rodia","steam_id":76561197968293161,"connected_time":1438000000000,"state":"active","ping":62},{"user_id":219,"name":"GermanBoy","steam_id":76561199230176650,"connected_time":2742000000000,"state":"active","ping":58},{"user_id":165,"name":"redder","steam_id":76561198168231617,"connected_time":6892000000000,"state":"active","ping":57},{"user_id":260,"name":"flr","steam_id":76561198249327786,"connected_time":262000000000,"state":"active","ping":70},{"user_id":261,"name":"Artificial.Ignorance","steam_id":76561198453090180,"connected_time":261000000000,"state":"active","ping":174},{"user_id":230,"name":"Ignot","steam_id":76561198235896754,"connected_time":2105000000000,"state":"active","ping":75},{"user_id":184,"name":"Kollegvla","steam_id":76561198058268742,"connected_time":6117000000000,"state":"active","ping":59},{"user_id":245,"name":"darke","steam_id":76561198211553036,"connected_time":1435000000000,"state":"active","ping":82},{"user_id":264,"name":"gmem","steam_id":76561198070006725,"connected_time":222000000000,"state":"active","ping":69},{"user_id":187,"name":"hhhhhh","steam_id":76561198031982574,"connected_time":5738000000000,"state":"active","ping":63},{"user_id":231,"name":"Dagoth Ur","steam_id":76561198220232352,"connected_time":2101000000000,"state":"active","ping":47},{"user_id":209,"name":"Em | Freshmeat Cup? Add me!","steam_id":76561198057911246,"connected_time":3349000000000,"state":"active","ping":74},{"user_id":254,"name":"240km/h.PEEK Mizel","steam_id":76561199226604824,"connected_time":1215000000000,"state":"active","ping":100},{"user_id":256,"name":"HUGO","steam_id":76561198317134996,"connected_time":1127000000000,"state":"active","ping":87},{"user_id":247,"name":"Vani'zaki","steam_id":76561198061424020,"connected_time":1424000000000,"state":"active","ping":65},{"user_id":248,"name":"kalechips","steam_id":76561198129569013,"connected_time":1402000000000,"state":"active","ping":85},{"user_id":235,"name":"Bajas","steam_id":76561198179339326,"connected_time":2000000000000,"state":"active","ping":77}]},{"server_id":308,"name":"Uncletopia | Frankfurt | 3 | All Maps","name_short":"frk-3","host":"frk-1.de.uncletopia.com","port":27035,"enabled":true,"region":"eu","cc":"de","latitude":50.110924,"longitude":8.682127,"reserved":0,"last_update":"0001-01-01T00:00:00Z","name_a2s":"Uncletopia | Frankfurt | 3 | All Maps","protocol":17,"map":"cp_granary","folder":"tf","game":"Team Fortress","app_id":440,"player_count":24,"max_players":24,"Bots":0,"server_type":"Dedicated","server_os":"Linux","password":true,"vac":true,"version":"7961495","steam_id":85568392924504274,"keywords":["cp","nocrits","nodmgspread","uncletopia"],"game_id":440,"stv_port":27036,"stv_name":"Uncletopia | Frankfurt | 3 | All Maps | STV","players":[{"user_id":34,"name":"hyvakii705","steam_id":76561198086630552,"connected_time":24480000000000,"state":"active","ping":91},{"user_id":388,"name":"X-tis","steam_id":76561198043837480,"connected_time":878000000000,"state":"active","ping":69},{"user_id":323,"name":"Lyncurion","steam_id":76561199260022725,"connected_time":5963000000000,"state":"active","ping":78},{"user_id":391,"name":"_Shkoot","steam_id":76561198318170398,"connected_time":509000000000,"state":"active","ping":49},{"user_id":387,"name":"finbar","steam_id":76561198056812396,"connected_time":878000000000,"state":"active","ping":85},{"user_id":390,"name":"Soerlssoelssöen","steam_id":76561197993060585,"connected_time":723000000000,"state":"active","ping":77},{"user_id":392,"name":"Lassie","steam_id":76561198131924713,"connected_time":68000000000,"state":"active","ping":46},{"user_id":337,"name":"neJ","steam_id":76561198003397488,"connected_time":5624000000000,"state":"active","ping":72},{"user_id":375,"name":"Jonathan","steam_id":76561198087988880,"connected_time":2972000000000,"state":"active","ping":45},{"user_id":381,"name":"Norbert Hallelujah","steam_id":76561198137876982,"connected_time":1763000000000,"state":"active","ping":59},{"user_id":378,"name":"Pretty Bad At Names","steam_id":76561198971575127,"connected_time":2764000000000,"state":"active","ping":203},{"user_id":364,"name":"Riordan","steam_id":76561198001346236,"connected_time":3753000000000,"state":"active","ping":64},{"user_id":355,"name":"pizda.com","steam_id":76561198179392402,"connected_time":4453000000000,"state":"active","ping":46},{"user_id":316,"name":"Redmond Nagisa","steam_id":76561198339056295,"connected_time":6552000000000,"state":"active","ping":72},{"user_id":356,"name":"fronin","steam_id":76561198189553021,"connected_time":4448000000000,"state":"active","ping":60},{"user_id":384,"name":"-rikeOo-","steam_id":76561198303995379,"connected_time":1728000000000,"state":"active","ping":68},{"user_id":373,"name":"nxt99","steam_id":76561198230933736,"connected_time":3245000000000,"state":"active","ping":82},{"user_id":369,"name":"mark","steam_id":76561198309246388,"connected_time":3607000000000,"state":"active","ping":44},{"user_id":372,"name":"Xonrus","steam_id":76561198074717396,"connected_time":3293000000000,"state":"active","ping":65},{"user_id":376,"name":"Hetmanych","steam_id":76561198870926865,"connected_time":2882000000000,"state":"active","ping":52},{"user_id":349,"name":"SuntanPikachu","steam_id":76561198121242476,"connected_time":5012000000000,"state":"active","ping":124},{"user_id":361,"name":"Fat Pigeon","steam_id":76561198817940142,"connected_time":3828000000000,"state":"active","ping":47},{"user_id":386,"name":"Jon (ebic gamer)","steam_id":76561199380849468,"connected_time":891000000000,"state":"active","ping":60},{"user_id":307,"name":"Salamdar","steam_id":76561198061910407,"connected_time":7337000000000,"state":"active","ping":50}]},{"server_id":309,"name":"Uncletopia | Frankfurt | 4 | All Maps","name_short":"frk-4","host":"frk-1.de.uncletopia.com","port":27045,"enabled":true,"region":"eu","cc":"de","latitude":50.110924,"longitude":8.682127,"reserved":0,"last_update":"0001-01-01T00:00:00Z","name_a2s":"Uncletopia | Frankfurt | 4 | All Maps","protocol":17,"map":"pl_frontier_final","folder":"tf","game":"Team Fortress","app_id":440,"player_count":24,"max_players":24,"Bots":0,"server_type":"Dedicated","server_os":"Linux","password":true,"vac":true,"version":"7961495","steam_id":85568392924504275,"keywords":["nocrits","nodmgspread","payload","uncletopia"],"game_id":440,"stv_port":27046,"stv_name":"Uncletopia | Frankfurt | 4 | All Maps | STV","players":[{"user_id":311,"name":"Borloxos","steam_id":76561198123110073,"connected_time":1088000000000,"state":"active","ping":61},{"user_id":316,"name":"Balintpalo","steam_id":76561198070882644,"connected_time":493000000000,"state":"active","ping":73},{"user_id":189,"name":"Pico","steam_id":76561198063552545,"connected_time":9427000000000,"state":"active","ping":94},{"user_id":313,"name":"JayMaloney","steam_id":76561198050173547,"connected_time":847000000000,"state":"active","ping":71},{"user_id":290,"name":"Sheen (Khang)","steam_id":76561198371062974,"connected_time":2472000000000,"state":"active","ping":83},{"user_id":315,"name":"Dispenser Diet","steam_id":76561198059937616,"connected_time":660000000000,"state":"active","ping":69},{"user_id":317,"name":"Filipesko","steam_id":76561198831347261,"connected_time":408000000000,"state":"active","ping":67},{"user_id":265,"name":"Mingo","steam_id":76561199191245650,"connected_time":4256000000000,"state":"active","ping":89},{"user_id":277,"name":"reke","steam_id":76561199149307190,"connected_time":3415000000000,"state":"active","ping":75},{"user_id":309,"name":"Grenouillator","steam_id":76561197991694500,"connected_time":1132000000000,"state":"active","ping":85},{"user_id":314,"name":"Famished Capybara","steam_id":76561198799282784,"connected_time":718000000000,"state":"active","ping":80},{"user_id":302,"name":"biohazard.pt","steam_id":76561198088367808,"connected_time":1602000000000,"state":"active","ping":75},{"user_id":312,"name":"Shlyk","steam_id":76561198333387103,"connected_time":1045000000000,"state":"active","ping":99},{"user_id":287,"name":"MrClyde","steam_id":76561198132627420,"connected_time":2560000000000,"state":"active","ping":57},{"user_id":319,"name":"LJ","steam_id":76561198026723805,"connected_time":264000000000,"state":"active","ping":61},{"user_id":230,"name":"Master Of Noob","steam_id":76561198217926783,"connected_time":6197000000000,"state":"active","ping":70},{"user_id":310,"name":"Ablativus","steam_id":76561198025698470,"connected_time":1103000000000,"state":"active","ping":64},{"user_id":304,"name":"Juliderkek","steam_id":76561198962270674,"connected_time":1587000000000,"state":"active","ping":82},{"user_id":278,"name":"kastanomata","steam_id":76561198271832763,"connected_time":3382000000000,"state":"active","ping":75},{"user_id":318,"name":"Kfer","steam_id":76561198809708638,"connected_time":347000000000,"state":"active","ping":74},{"user_id":320,"name":"Grekofun","steam_id":76561198758029808,"connected_time":242000000000,"state":"active","ping":76},{"user_id":321,"name":"Optimist 50","steam_id":76561198039631442,"connected_time":241000000000,"state":"active","ping":90},{"user_id":296,"name":"Popop","steam_id":76561198004793795,"connected_time":1703000000000,"state":"active","ping":47},{"user_id":307,"name":"LivEssense","steam_id":76561198052476979,"connected_time":1374000000000,"state":"active","ping":77}]},{"server_id":310,"name":"Uncletopia | Frankfurt | 5 | All Maps","name_short":"frk-5","host":"frk-1.de.uncletopia.com","port":27055,"enabled":true,"region":"eu","cc":"de","latitude":50.110924,"longitude":8.682127,"reserved":0,"last_update":"0001-01-01T00:00:00Z","name_a2s":"Uncletopia | Frankfurt | 5 | All Maps","protocol":17,"map":"pl_swiftwater_final1","folder":"tf","game":"Team Fortress","app_id":440,"player_count":24,"max_players":24,"Bots":0,"server_type":"Dedicated","server_os":"Linux","password":true,"vac":true,"version":"7961495","steam_id":85568392924504277,"keywords":["nocrits","nodmgspread","payload","uncletopia"],"game_id":440,"stv_port":27056,"stv_name":"Uncletopia | Frankfurt | 5 | All Maps | STV","players":[{"user_id":146,"name":"MEDiUM","steam_id":76561198112328561,"connected_time":1855000000000,"state":"active","ping":75},{"user_id":176,"name":"mendako","steam_id":76561198295305088,"connected_time":569000000000,"state":"active","ping":51},{"user_id":184,"name":"Meladoom2","steam_id":76561198086845387,"connected_time":154000000000,"state":"active","ping":76},{"user_id":116,"name":"intrusive thoughts","steam_id":76561198411107729,"connected_time":3326000000000,"state":"active","ping":83},{"user_id":133,"name":"bigmazi","steam_id":76561198133276643,"connected_time":2666000000000,"state":"active","ping":85},{"user_id":156,"name":"Säyu","steam_id":76561199275368237,"connected_time":1529000000000,"state":"active","ping":95},{"user_id":174,"name":"Kol Engigfikod","steam_id":76561199115261187,"connected_time":706000000000,"state":"active","ping":91},{"user_id":161,"name":"Toogler","steam_id":76561198172334113,"connected_time":1156000000000,"state":"active","ping":60},{"user_id":185,"name":"Dolcelatte","steam_id":76561198038501770,"connected_time":137000000000,"state":"active","ping":46},{"user_id":66,"name":"cotroD","steam_id":76561198130063938,"connected_time":6018000000000,"state":"active","ping":91},{"user_id":24,"name":"4kku","steam_id":76561198315976800,"connected_time":8753000000000,"state":"active","ping":84},{"user_id":181,"name":"G/3","steam_id":76561198234844188,"connected_time":270000000000,"state":"active","ping":58},{"user_id":157,"name":"ghenios","steam_id":76561198030011207,"connected_time":1481000000000,"state":"active","ping":99},{"user_id":27,"name":"Çanak yalayıcı","steam_id":76561198113677852,"connected_time":8731000000000,"state":"active","ping":81},{"user_id":163,"name":"Na záchodě","steam_id":76561198383952144,"connected_time":1099000000000,"state":"active","ping":135},{"user_id":164,"name":"Charged","steam_id":76561199127215130,"connected_time":1096000000000,"state":"active","ping":84},{"user_id":166,"name":"jona3838","steam_id":76561199097658195,"connected_time":1058000000000,"state":"active","ping":106},{"user_id":167,"name":"♂ Animan ♂ Studios ♂","steam_id":76561198308302932,"connected_time":1041000000000,"state":"active","ping":94},{"user_id":183,"name":"mp1mp2mp3","steam_id":76561198088967665,"connected_time":169000000000,"state":"active","ping":94},{"user_id":168,"name":"Jucatron","steam_id":76561198044259577,"connected_time":1037000000000,"state":"active","ping":89},{"user_id":169,"name":"Xam","steam_id":76561198164869318,"connected_time":1031000000000,"state":"active","ping":70},{"user_id":179,"name":"NotBadGuy101","steam_id":76561198846773415,"connected_time":373000000000,"state":"active","ping":76},{"user_id":182,"name":"cazador","steam_id":76561198123096922,"connected_time":200000000000,"state":"active","ping":92},{"user_id":124,"name":"Hexagon","steam_id":76561198151205758,"connected_time":3183000000000,"state":"active","ping":53}]},{"server_id":311,"name":"Uncletopia | Frankfurt | 6 | All Maps","name_short":"frk-6","host":"frk-1.de.uncletopia.com","port":27065,"enabled":true,"region":"eu","cc":"de","latitude":50.110924,"longitude":8.682127,"reserved":0,"last_update":"0001-01-01T00:00:00Z","name_a2s":"Uncletopia | Frankfurt | 6 | All Maps","protocol":17,"map":"koth_cascade","folder":"tf","game":"Team Fortress","app_id":440,"player_count":0,"max_players":24,"Bots":0,"server_type":"Dedicated","server_os":"Linux","password":true,"vac":true,"version":"7961495","steam_id":85568392924504278,"keywords":["cp","nocrits","nodmgspread","uncletopia"],"game_id":440,"stv_port":27066,"stv_name":"Uncletopia | Frankfurt | 6 | All Maps | STV","players":null},{"server_id":23,"name":"Uncletopia | Frankfurt | 7 | Stopwatch Beta","name_short":"frk-7","host":"frk-1.de.uncletopia.com","port":27075,"enabled":true,"region":"eu","cc":"de","latitude":50.110924,"longitude":8.682127,"reserved":0,"last_update":"0001-01-01T00:00:00Z","name_a2s":"Uncletopia | Frankfurt | 7 | Stopwatch Beta","protocol":17,"map":"pl_borneo","folder":"tf","game":"Team Fortress","app_id":440,"player_count":0,"max_players":24,"Bots":0,"server_type":"Dedicated","server_os":"Linux","password":true,"vac":true,"version":"7961495","steam_id":85568392924742827,"keywords":["nocrits","nodmgspread","payload","uncletopia"],"game_id":440,"stv_port":27076,"stv_name":"Uncletopia | Frankfurt | 7 | Stopwatch Beta | STV","players":null},{"server_id":24,"name":"Uncletopia | Frankfurt | 8 | Community","name_short":"frk-8","host":"frk-1.de.uncletopia.com","port":27085,"enabled":true,"region":"eu","cc":"de","latitude":50.110924,"longitude":8.682127,"reserved":0,"last_update":"0001-01-01T00:00:00Z","name_a2s":"Uncletopia | Frankfurt | 8 | Community","protocol":17,"map":"workshop/koth_product_final.ugc454272353","folder":"tf","game":"Team Fortress","app_id":440,"player_count":0,"max_players":24,"Bots":0,"server_type":"Dedicated","server_os":"Linux","password":true,"vac":true,"version":"7961495","steam_id":85568392924742828,"keywords":["cp","nocrits","nodmgspread","uncletopia"],"game_id":440,"stv_port":27086,"stv_name":"Uncletopia | Frankfurt | 8 | Community | STV","players":null},{"server_id":202,"name":"Uncletopia | Hong Kong | 1 | All Maps","name_short":"hgk-1","host":"hgk-1.hk.uncletopia.com","port":27015,"enabled":true,"region":"asia","cc":"hk","latitude":22.302711,"longitude":114.177216,"reserved":0,"last_update":"0001-01-01T00:00:00Z","name_a2s":"Uncletopia | Hong Kong | 1 | All Maps","protocol":17,"map":"koth_cascade","folder":"tf","game":"Team Fortress","app_id":440,"player_count":0,"max_players":24,"Bots":0,"server_type":"Dedicated","server_os":"Linux","password":true,"vac":true,"version":"7961495","steam_id":85568392924494504,"keywords":["cp","nocrits","nodmgspread","uncletopia"],"game_id":440,"stv_port":27016,"stv_name":"Uncletopia | Hong Kong | 1 | All Maps | STV","players":null},{"server_id":1,"name":"Uncletopia | Los Angeles | 1 | All Maps","name_short":"lax-1","host":"lax-1.us.uncletopia.com","port":27015,"enabled":true,"region":"us-west","cc":"us","latitude":33.94279,"longitude":-118.41004,"reserved":0,"last_update":"0001-01-01T00:00:00Z","name_a2s":"Uncletopia | Los Angeles | 1 | All Maps","protocol":17,"map":"cp_mountainlab","folder":"tf","game":"Team Fortress","app_id":440,"player_count":0,"max_players":24,"Bots":0,"server_type":"Dedicated","server_os":"Linux","password":true,"vac":true,"version":"7961495","steam_id":85568392924469991,"keywords":["cp","nocrits","nodmgspread","uncletopia"],"game_id":440,"stv_port":27016,"stv_name":"Uncletopia | Los Angeles | 1 | All Maps | STV","players":null},{"server_id":112,"name":"Uncletopia | Los Angeles | 2 | All Maps","name_short":"lax-2","host":"lax-1.us.uncletopia.com","port":27025,"enabled":true,"region":"us-west","cc":"us","latitude":33.94279,"longitude":-118.41004,"reserved":0,"last_update":"0001-01-01T00:00:00Z","name_a2s":"Uncletopia | Los Angeles | 2 | All Maps","protocol":17,"map":"pl_borneo","folder":"tf","game":"Team Fortress","app_id":440,"player_count":0,"max_players":24,"Bots":0,"server_type":"Dedicated","server_os":"Linux","password":true,"vac":true,"version":"7961495","steam_id":85568392924469992,"keywords":["nocrits","nodmgspread","payload","uncletopia"],"game_id":440,"stv_port":27026,"stv_name":"Uncletopia | Los Angeles | 2 | All Maps | STV","players":null},{"server_id":324,"name":"Uncletopia | Los Angeles | 3 | All Maps","name_short":"lax-3","host":"lax-1.us.uncletopia.com","port":27035,"enabled":true,"region":"us-west","cc":"us","latitude":33.94279,"longitude":-118.41004,"reserved":0,"last_update":"0001-01-01T00:00:00Z","name_a2s":"Uncletopia | Los Angeles | 3 | All Maps","protocol":17,"map":"pl_upward","folder":"tf","game":"Team Fortress","app_id":440,"player_count":22,"max_players":24,"Bots":0,"server_type":"Dedicated","server_os":"Linux","password":true,"vac":true,"version":"7961495","steam_id":85568392924510198,"keywords":["nocrits","nodmgspread","payload","uncletopia"],"game_id":440,"stv_port":27036,"stv_name":"Uncletopia | Los Angeles | 3 | All Maps | STV","players":[{"user_id":9,"name":"Xnopyt","steam_id":76561198052516404,"connected_time":5013000000000,"state":"active","ping":53},{"user_id":58,"name":"johan","steam_id":76561198881144114,"connected_time":2223000000000,"state":"active","ping":70},{"user_id":50,"name":"StillNotGinger","steam_id":76561198063419189,"connected_time":2366000000000,"state":"active","ping":83},{"user_id":78,"name":"Bullwinkle J. Moose","steam_id":76561198075977196,"connected_time":708000000000,"state":"active","ping":85},{"user_id":79,"name":"raccoonmanthing","steam_id":76561199042222863,"connected_time":497000000000,"state":"active","ping":54},{"user_id":67,"name":"ORANGE","steam_id":76561198000401769,"connected_time":1354000000000,"state":"active","ping":74},{"user_id":72,"name":"Aztea","steam_id":76561198982089893,"connected_time":1091000000000,"state":"active","ping":88},{"user_id":34,"name":"Speedycat","steam_id":76561198024821259,"connected_time":3625000000000,"state":"active","ping":39},{"user_id":19,"name":"Mom","steam_id":76561198207936000,"connected_time":4300000000000,"state":"active","ping":45},{"user_id":80,"name":"the pizza","steam_id":76561198221331476,"connected_time":489000000000,"state":"active","ping":44},{"user_id":65,"name":"sunny","steam_id":76561198069380992,"connected_time":1529000000000,"state":"active","ping":79},{"user_id":52,"name":"rice","steam_id":76561198037565441,"connected_time":2346000000000,"state":"active","ping":120},{"user_id":81,"name":"Ok then","steam_id":76561198891914787,"connected_time":249000000000,"state":"active","ping":60},{"user_id":73,"name":"Semen Protector (Real)","steam_id":76561199247095754,"connected_time":1051000000000,"state":"active","ping":122},{"user_id":68,"name":"IanFishooks","steam_id":76561199403427527,"connected_time":1262000000000,"state":"active","ping":107},{"user_id":60,"name":"ShadowZiki","steam_id":76561198145930013,"connected_time":2100000000000,"state":"active","ping":43},{"user_id":66,"name":"BlazedBunny","steam_id":76561198243610560,"connected_time":1378000000000,"state":"active","ping":96},{"user_id":75,"name":"NVM!!!","steam_id":76561198432721568,"connected_time":906000000000,"state":"active","ping":92},{"user_id":61,"name":"dogface","steam_id":76561198074407897,"connected_time":2004000000000,"state":"active","ping":109},{"user_id":69,"name":"Dani","steam_id":76561198348012378,"connected_time":1210000000000,"state":"active","ping":104},{"user_id":77,"name":"rawgust","steam_id":76561198004523887,"connected_time":745000000000,"state":"active","ping":81},{"user_id":45,"name":"GH578","steam_id":76561199493262585,"connected_time":3103000000000,"state":"active","ping":85}]},{"server_id":25,"name":"Uncletopia | Los Angeles | 4 | Stopwatch Beta","name_short":"lax-4","host":"lax-1.us.uncletopia.com","port":27045,"enabled":true,"region":"us-west","cc":"us","latitude":33.94279,"longitude":-118.41004,"reserved":0,"last_update":"0001-01-01T00:00:00Z","name_a2s":"Uncletopia | Los Angeles | 4 | Stopwatch Beta","protocol":17,"map":"pl_upward","folder":"tf","game":"Team Fortress","app_id":440,"player_count":1,"max_players":24,"Bots":0,"server_type":"Dedicated","server_os":"Linux","password":true,"vac":true,"version":"7961495","steam_id":85568392924510199,"keywords":["nocrits","nodmgspread","payload","uncletopia"],"game_id":440,"stv_port":27046,"stv_name":"Uncletopia | Los Angeles | 4 | Stopwatch Beta | STV","players":[{"user_id":4,"name":"Cheddar","steam_id":76561199123994392,"connected_time":45000000000,"state":"active","ping":68}]},{"server_id":11,"name":"Uncletopia | London | 1 | All Maps","name_short":"lon-1","host":"lon-1.uk.uncletopia.com","port":27015,"enabled":true,"region":"eu","cc":"gb","latitude":51.509865,"longitude":-0.118092,"reserved":0,"last_update":"0001-01-01T00:00:00Z","name_a2s":"Uncletopia | London | 1 | All Maps","protocol":17,"map":"cp_snakewater_final1","folder":"tf","game":"Team Fortress","app_id":440,"player_count":24,"max_players":24,"Bots":0,"server_type":"Dedicated","server_os":"Linux","password":true,"vac":true,"version":"7961495","steam_id":85568392924367362,"keywords":["cp","nocrits","nodmgspread","uncletopia"],"game_id":440,"stv_port":27016,"stv_name":"Uncletopia | London | 1 | All Maps | STV","players":[{"user_id":271,"name":"Snake-chan","steam_id":76561199044755854,"connected_time":16414000000000,"state":"active","ping":70},{"user_id":445,"name":"Minimi","steam_id":76561198873850443,"connected_time":2882000000000,"state":"active","ping":44},{"user_id":458,"name":"Eighth Route","steam_id":76561198531978435,"connected_time":1732000000000,"state":"active","ping":52},{"user_id":438,"name":"ein'd","steam_id":76561198152162834,"connected_time":3360000000000,"state":"active","ping":102},{"user_id":484,"name":"Fish","steam_id":76561198152128484,"connected_time":10000000000,"state":"spawning","ping":309},{"user_id":446,"name":"moseley519","steam_id":76561198045485374,"connected_time":2881000000000,"state":"active","ping":44},{"user_id":430,"name":"krayy (she/her)","steam_id":76561198035037830,"connected_time":4301000000000,"state":"active","ping":53},{"user_id":479,"name":"Pan Piotr","steam_id":76561198140016126,"connected_time":515000000000,"state":"active","ping":77},{"user_id":473,"name":"ohma","steam_id":76561198091864790,"connected_time":669000000000,"state":"active","ping":53},{"user_id":472,"name":"2fort's silliest soldier","steam_id":76561198128613675,"connected_time":690000000000,"state":"active","ping":139},{"user_id":434,"name":"Yakub","steam_id":76561198014279521,"connected_time":4177000000000,"state":"active","ping":111},{"user_id":482,"name":"Lubi Animal","steam_id":76561199041620433,"connected_time":297000000000,"state":"active","ping":60},{"user_id":478,"name":"123","steam_id":76561198113733477,"connected_time":565000000000,"state":"active","ping":65},{"user_id":435,"name":"msh","steam_id":76561198367669395,"connected_time":4151000000000,"state":"active","ping":41},{"user_id":474,"name":"Petight","steam_id":76561197999438798,"connected_time":668000000000,"state":"active","ping":30},{"user_id":481,"name":"JayKey","steam_id":76561198008847925,"connected_time":360000000000,"state":"active","ping":59},{"user_id":448,"name":"mista white","steam_id":76561199387233667,"connected_time":2814000000000,"state":"active","ping":69},{"user_id":453,"name":"Trapezoid","steam_id":76561198059369295,"connected_time":2257000000000,"state":"active","ping":71},{"user_id":480,"name":"Weebot00","steam_id":76561199479204459,"connected_time":459000000000,"state":"active","ping":58},{"user_id":468,"name":"Tummy","steam_id":76561198045654910,"connected_time":789000000000,"state":"active","ping":46},{"user_id":476,"name":"Lucky_Pierre","steam_id":76561197965662752,"connected_time":646000000000,"state":"active","ping":41},{"user_id":428,"name":"Marl Karx","steam_id":76561198396797516,"connected_time":4551000000000,"state":"active","ping":69},{"user_id":467,"name":"Lethal Leshrac","steam_id":76561197999296763,"connected_time":898000000000,"state":"active","ping":66},{"user_id":477,"name":"Jara.","steam_id":76561197992207165,"connected_time":640000000000,"state":"active","ping":101}]},{"server_id":114,"name":"Uncletopia | London | 2 | All Maps","name_short":"lon-2","host":"lon-1.uk.uncletopia.com","port":27025,"enabled":true,"region":"eu","cc":"gb","latitude":51.509865,"longitude":-0.118092,"reserved":0,"last_update":"0001-01-01T00:00:00Z","name_a2s":"Uncletopia | London | 2 | All Maps","protocol":17,"map":"pl_snowycoast","folder":"tf","game":"Team Fortress","app_id":440,"player_count":22,"max_players":24,"Bots":0,"server_type":"Dedicated","server_os":"Linux","password":true,"vac":true,"version":"7961495","steam_id":85568392924470941,"keywords":["nocrits","nodmgspread","payload","uncletopia"],"game_id":440,"stv_port":27026,"stv_name":"Uncletopia | London | 2 | All Maps | STV","players":[{"user_id":343,"name":"RiX","steam_id":76561197969053733,"connected_time":5346000000000,"state":"active","ping":67},{"user_id":346,"name":"quickfast","steam_id":76561199438900919,"connected_time":5069000000000,"state":"active","ping":44},{"user_id":396,"name":"Ziemniaczki z koperkiem","steam_id":76561198829123464,"connected_time":1246000000000,"state":"active","ping":84},{"user_id":404,"name":"Rollermine ♥","steam_id":76561199370148924,"connected_time":653000000000,"state":"active","ping":63},{"user_id":323,"name":"simeswipe","steam_id":76561198188471097,"connected_time":6607000000000,"state":"active","ping":78},{"user_id":394,"name":"pardner","steam_id":76561198451471161,"connected_time":1483000000000,"state":"active","ping":57},{"user_id":402,"name":"non_ai","steam_id":76561198270951938,"connected_time":683000000000,"state":"active","ping":116},{"user_id":405,"name":"Drinking Problem","steam_id":76561198319162953,"connected_time":645000000000,"state":"active","ping":75},{"user_id":407,"name":"Nero","steam_id":76561198339980449,"connected_time":619000000000,"state":"active","ping":70},{"user_id":395,"name":"-gunripp0r^be / Obelix^","steam_id":76561197999306879,"connected_time":1481000000000,"state":"active","ping":97},{"user_id":241,"name":"AleXandriX","steam_id":76561198035203950,"connected_time":11744000000000,"state":"active","ping":65},{"user_id":376,"name":"Spawn","steam_id":76561199119237023,"connected_time":3083000000000,"state":"active","ping":58},{"user_id":351,"name":"Pronton","steam_id":76561198082502910,"connected_time":4901000000000,"state":"active","ping":61},{"user_id":403,"name":"dumb idiot moron","steam_id":76561198053929269,"connected_time":677000000000,"state":"active","ping":89},{"user_id":354,"name":"s a i","steam_id":76561197970379754,"connected_time":4837000000000,"state":"active","ping":59},{"user_id":305,"name":"MaeMae","steam_id":76561198252524452,"connected_time":8376000000000,"state":"active","ping":48},{"user_id":386,"name":"Fredde5","steam_id":76561198102482063,"connected_time":1900000000000,"state":"active","ping":78},{"user_id":398,"name":"Stephy","steam_id":76561198796698579,"connected_time":859000000000,"state":"active","ping":84},{"user_id":389,"name":"vurtun","steam_id":76561198857395274,"connected_time":1858000000000,"state":"active","ping":56},{"user_id":406,"name":"IMAP USAY","steam_id":76561199401283123,"connected_time":639000000000,"state":"active","ping":54},{"user_id":391,"name":"adi_puscasu","steam_id":76561198817792396,"connected_time":1814000000000,"state":"active","ping":103},{"user_id":400,"name":"woodenpcwarlord","steam_id":76561198037938833,"connected_time":736000000000,"state":"active","ping":57}]},{"server_id":320,"name":"Uncletopia | London | 3 | All Maps","name_short":"lon-3","host":"lon-1.uk.uncletopia.com","port":27035,"enabled":true,"region":"eu","cc":"gb","latitude":51.509865,"longitude":-0.118092,"reserved":0,"last_update":"0001-01-01T00:00:00Z","name_a2s":"Uncletopia | London | 3 | All Maps","protocol":17,"map":"cp_process_final","folder":"tf","game":"Team Fortress","app_id":440,"player_count":13,"max_players":24,"Bots":0,"server_type":"Dedicated","server_os":"Linux","password":true,"vac":true,"version":"7961495","steam_id":85568392924510192,"keywords":["cp","nocrits","nodmgspread","uncletopia"],"game_id":440,"stv_port":27036,"stv_name":"Uncletopia | London | 3 | All Maps | STV","players":[{"user_id":190,"name":"Aarquus","steam_id":76561198006689878,"connected_time":818000000000,"state":"active","ping":57},{"user_id":191,"name":"Garth Marenghi","steam_id":76561198009830164,"connected_time":818000000000,"state":"active","ping":45},{"user_id":192,"name":"Need4Sneed","steam_id":76561198021403939,"connected_time":800000000000,"state":"active","ping":59},{"user_id":193,"name":"Leviathan","steam_id":76561198029526684,"connected_time":773000000000,"state":"active","ping":53},{"user_id":194,"name":"ThunderCluckz","steam_id":76561198055066162,"connected_time":760000000000,"state":"active","ping":63},{"user_id":195,"name":"Dirk.van.den.Broek.2008","steam_id":76561198124226614,"connected_time":529000000000,"state":"active","ping":44},{"user_id":196,"name":"armadillo","steam_id":76561198324656652,"connected_time":376000000000,"state":"active","ping":46},{"user_id":197,"name":"Ixsus\u003c3","steam_id":76561198094756869,"connected_time":324000000000,"state":"active","ping":62},{"user_id":201,"name":"m909","steam_id":76561198279621400,"connected_time":44000000000,"state":"active","ping":104},{"user_id":199,"name":"NANI?!?!?!","steam_id":76561198172078559,"connected_time":195000000000,"state":"active","ping":76},{"user_id":200,"name":"Ricey","steam_id":76561198832961307,"connected_time":182000000000,"state":"active","ping":45},{"user_id":202,"name":"mud","steam_id":76561198141497461,"connected_time":6000000000,"state":"connecting","ping":0},{"user_id":203,"name":"collin","steam_id":76561198067030681,"connected_time":0,"state":"spawning","ping":18}]},{"server_id":321,"name":"Uncletopia | London | 4 | All Maps","name_short":"lon-4","host":"lon-1.uk.uncletopia.com","port":27045,"enabled":true,"region":"eu","cc":"gb","latitude":51.509865,"longitude":-0.118092,"reserved":0,"last_update":"0001-01-01T00:00:00Z","name_a2s":"Uncletopia | London | 4 | All Maps","protocol":17,"map":"pl_upward","folder":"tf","game":"Team Fortress","app_id":440,"player_count":22,"max_players":24,"Bots":0,"server_type":"Dedicated","server_os":"Linux","password":true,"vac":true,"version":"7961495","steam_id":85568392924510193,"keywords":["nocrits","nodmgspread","payload","uncletopia"],"game_id":440,"stv_port":27046,"stv_name":"Uncletopia | London | 4 | All Maps | STV","players":[{"user_id":64,"name":"professional nonprofessional","steam_id":76561199200442395,"connected_time":1318000000000,"state":"active","ping":84},{"user_id":75,"name":"Demoman","steam_id":76561199144302768,"connected_time":425000000000,"state":"active","ping":124},{"user_id":38,"name":"PigeonGaming","steam_id":76561198823548894,"connected_time":2158000000000,"state":"active","ping":144},{"user_id":68,"name":"kornetov.vitalya","steam_id":76561199286034833,"connected_time":783000000000,"state":"active","ping":100},{"user_id":69,"name":"Kapitan Polska","steam_id":76561197968069413,"connected_time":734000000000,"state":"active","ping":75},{"user_id":70,"name":"Max Power","steam_id":76561198019269089,"connected_time":721000000000,"state":"active","ping":52},{"user_id":39,"name":"LuddeKudde","steam_id":76561198394550832,"connected_time":2132000000000,"state":"active","ping":69},{"user_id":41,"name":"Ωmega","steam_id":76561198142672787,"connected_time":2107000000000,"state":"active","ping":60},{"user_id":44,"name":"Tower","steam_id":76561198090278447,"connected_time":2087000000000,"state":"active","ping":60},{"user_id":43,"name":"dustbowl-nätverket","steam_id":76561198061248329,"connected_time":2100000000000,"state":"active","ping":61},{"user_id":45,"name":"Ferrariracer5f1","steam_id":76561199229815098,"connected_time":2080000000000,"state":"active","ping":55},{"user_id":60,"name":"Marabosha","steam_id":76561198137599173,"connected_time":1615000000000,"state":"active","ping":105},{"user_id":49,"name":"FlameTheGame","steam_id":76561198841108519,"connected_time":2025000000000,"state":"active","ping":101},{"user_id":50,"name":"cez","steam_id":76561198361380956,"connected_time":1987000000000,"state":"active","ping":56},{"user_id":62,"name":"Locke","steam_id":76561198339408300,"connected_time":1342000000000,"state":"active","ping":60},{"user_id":82,"name":"da prince that was promised","steam_id":76561199085624224,"connected_time":93000000000,"state":"active","ping":67},{"user_id":53,"name":"19037189","steam_id":76561198053960810,"connected_time":1944000000000,"state":"active","ping":155},{"user_id":80,"name":"tone","steam_id":76561197975301462,"connected_time":228000000000,"state":"active","ping":68},{"user_id":55,"name":"I hate French people","steam_id":76561199121663969,"connected_time":1939000000000,"state":"active","ping":152},{"user_id":79,"name":"Fr1Zer","steam_id":76561198357086270,"connected_time":358000000000,"state":"active","ping":105},{"user_id":72,"name":"hipster_doofus","steam_id":76561197970902697,"connected_time":663000000000,"state":"active","ping":58},{"user_id":83,"name":"BigChunk","steam_id":76561198215962313,"connected_time":66000000000,"state":"active","ping":46}]},{"server_id":21,"name":"Uncletopia | London | 5 | All Maps","name_short":"lon-5","host":"lon-1.uk.uncletopia.com","port":27055,"enabled":true,"region":"eu","cc":"gb","latitude":51.509865,"longitude":-0.118092,"reserved":0,"last_update":"0001-01-01T00:00:00Z","name_a2s":"Uncletopia | London | 5 | All Maps","protocol":17,"map":"pl_snowycoast","folder":"tf","game":"Team Fortress","app_id":440,"player_count":21,"max_players":24,"Bots":0,"server_type":"Dedicated","server_os":"Linux","password":true,"vac":true,"version":"7961495","steam_id":85568392924742829,"keywords":["nocrits","nodmgspread","payload","uncletopia"],"game_id":440,"stv_port":27056,"stv_name":"Uncletopia | London | 5 | All Maps | STV","players":[{"user_id":417,"name":"kazookid","steam_id":76561198253031465,"connected_time":603000000000,"state":"active","ping":46},{"user_id":390,"name":"MisterGQ","steam_id":76561198018415918,"connected_time":2512000000000,"state":"active","ping":55},{"user_id":424,"name":"kalika143","steam_id":76561198416895383,"connected_time":132000000000,"state":"active","ping":124},{"user_id":363,"name":"I_Forgot_My_Name","steam_id":76561198173424578,"connected_time":4759000000000,"state":"active","ping":82},{"user_id":413,"name":"Zizman","steam_id":76561198446562910,"connected_time":728000000000,"state":"active","ping":147},{"user_id":420,"name":"[CPI] bigying","steam_id":76561198000669300,"connected_time":459000000000,"state":"active","ping":56},{"user_id":402,"name":"YunikkoN","steam_id":76561198211962412,"connected_time":1332000000000,"state":"active","ping":95},{"user_id":421,"name":"Lumbago","steam_id":76561199186027250,"connected_time":438000000000,"state":"active","ping":58},{"user_id":410,"name":"fshfkr","steam_id":76561198095979282,"connected_time":1008000000000,"state":"active","ping":44},{"user_id":391,"name":"Kernel Panic","steam_id":76561198215811047,"connected_time":2390000000000,"state":"active","ping":33},{"user_id":386,"name":"mq","steam_id":76561198091888948,"connected_time":3042000000000,"state":"active","ping":50},{"user_id":418,"name":"RedFog","steam_id":76561198284713081,"connected_time":600000000000,"state":"active","ping":48},{"user_id":392,"name":"MatchaPanda","steam_id":76561198027383926,"connected_time":2385000000000,"state":"active","ping":41},{"user_id":397,"name":"TheEventGuy","steam_id":76561197972797744,"connected_time":1837000000000,"state":"active","ping":76},{"user_id":416,"name":"hud_saytext_time 0","steam_id":76561198010327228,"connected_time":641000000000,"state":"active","ping":69},{"user_id":377,"name":"Purple Soup :D","steam_id":76561198985100366,"connected_time":3955000000000,"state":"active","ping":95},{"user_id":370,"name":"Jimmy","steam_id":76561198236833426,"connected_time":4407000000000,"state":"active","ping":85},{"user_id":399,"name":"Squid","steam_id":76561198197045587,"connected_time":1797000000000,"state":"active","ping":144},{"user_id":385,"name":"emag live","steam_id":76561198047164140,"connected_time":3262000000000,"state":"active","ping":58},{"user_id":423,"name":"Royal Dutch Shell","steam_id":76561198215986979,"connected_time":239000000000,"state":"active","ping":45},{"user_id":372,"name":"Timmy","steam_id":76561198078559771,"connected_time":4399000000000,"state":"active","ping":82}]},{"server_id":22,"name":"Uncletopia | London | 6 | All Maps","name_short":"lon-6","host":"lon-1.uk.uncletopia.com","port":27065,"enabled":true,"region":"eu","cc":"gb","latitude":51.509865,"longitude":-0.118092,"reserved":0,"last_update":"0001-01-01T00:00:00Z","name_a2s":"Uncletopia | London | 6 | All Maps","protocol":17,"map":"pl_frontier_final","folder":"tf","game":"Team Fortress","app_id":440,"player_count":22,"max_players":24,"Bots":0,"server_type":"Dedicated","server_os":"Linux","password":true,"vac":true,"version":"7961495","steam_id":85568392924742830,"keywords":["nocrits","nodmgspread","payload","uncletopia"],"game_id":440,"stv_port":27066,"stv_name":"Uncletopia | London | 6 | All Maps | STV","players":[{"user_id":266,"name":"ARYZON","steam_id":76561198070705087,"connected_time":784000000000,"state":"active","ping":55},{"user_id":220,"name":"Boki","steam_id":76561198044553351,"connected_time":4393000000000,"state":"active","ping":63},{"user_id":243,"name":"TheFluffyCrano","steam_id":76561198058832960,"connected_time":2659000000000,"state":"active","ping":46},{"user_id":226,"name":"akakez","steam_id":76561198095432821,"connected_time":3589000000000,"state":"active","ping":119},{"user_id":257,"name":"Skippie","steam_id":76561198102029146,"connected_time":2066000000000,"state":"active","ping":84},{"user_id":252,"name":"kris","steam_id":76561198120575694,"connected_time":2223000000000,"state":"active","ping":64},{"user_id":230,"name":"mixxxa_french","steam_id":76561198085098243,"connected_time":3485000000000,"state":"active","ping":121},{"user_id":251,"name":"Jasperatus","steam_id":76561198196733750,"connected_time":2233000000000,"state":"active","ping":98},{"user_id":265,"name":"alien","steam_id":76561197968892194,"connected_time":796000000000,"state":"active","ping":49},{"user_id":221,"name":"Luuk","steam_id":76561198088266026,"connected_time":4383000000000,"state":"active","ping":44},{"user_id":260,"name":"Thors","steam_id":76561197968739075,"connected_time":1507000000000,"state":"active","ping":45},{"user_id":246,"name":"The last Maggot alive","steam_id":76561199075532033,"connected_time":2590000000000,"state":"active","ping":82},{"user_id":273,"name":"Andrew Tate","steam_id":76561199494692041,"connected_time":245000000000,"state":"active","ping":112},{"user_id":240,"name":"Rocadinis","steam_id":76561198095910616,"connected_time":2821000000000,"state":"active","ping":82},{"user_id":259,"name":"Brett Clement","steam_id":76561198096199871,"connected_time":1949000000000,"state":"active","ping":57},{"user_id":250,"name":"Malina, The Sour Demon","steam_id":76561198127874126,"connected_time":2282000000000,"state":"active","ping":60},{"user_id":274,"name":"mt","steam_id":76561197961319303,"connected_time":219000000000,"state":"active","ping":53},{"user_id":253,"name":"Not a dolphin #savetf2","steam_id":76561199119369490,"connected_time":2219000000000,"state":"active","ping":76},{"user_id":272,"name":"Vergil5403","steam_id":76561198058600535,"connected_time":307000000000,"state":"active","ping":70},{"user_id":275,"name":"Milk Drinker","steam_id":76561198203140640,"connected_time":128000000000,"state":"active","ping":74},{"user_id":256,"name":"richard","steam_id":76561199229436391,"connected_time":2168000000000,"state":"active","ping":55},{"user_id":264,"name":"Insain Bolt!","steam_id":76561198025687726,"connected_time":1123000000000,"state":"active","ping":72}]},{"server_id":40,"name":"Uncletopia | London | 7 | No Payload","name_short":"lon-7","host":"lon-1.uk.uncletopia.com","port":27075,"enabled":true,"region":"eu","cc":"gb","latitude":51.509865,"longitude":-0.118092,"reserved":0,"last_update":"0001-01-01T00:00:00Z","name_a2s":"Uncletopia | London | 7 | No Payload","protocol":17,"map":"cp_mercenarypark","folder":"tf","game":"Team Fortress","app_id":440,"player_count":0,"max_players":24,"Bots":0,"server_type":"Dedicated","server_os":"Linux","password":true,"vac":true,"version":"7961495","steam_id":85568392924964314,"keywords":["cp","nocrits","nodmgspread","uncletopia"],"game_id":440,"stv_port":27076,"stv_name":"Uncletopia | London | 7 | No Payload | STV","players":null},{"server_id":41,"name":"Uncletopia | London | 8 | Community","name_short":"lon-8","host":"lon-1.uk.uncletopia.com","port":27085,"enabled":true,"region":"eu","cc":"gb","latitude":51.509865,"longitude":-0.118092,"reserved":0,"last_update":"0001-01-01T00:00:00Z","name_a2s":"Uncletopia | London | 8 | Community","protocol":17,"map":"workshop/cp_glacier_rc6.ugc2905735376","folder":"tf","game":"Team Fortress","app_id":440,"player_count":0,"max_players":24,"Bots":0,"server_type":"Dedicated","server_os":"Linux","password":true,"vac":true,"version":"7961495","steam_id":85568392924964315,"keywords":["cp","nocrits","nodmgspread","uncletopia"],"game_id":440,"stv_port":27086,"stv_name":"Uncletopia | London | 8 | Community | STV","players":null},{"server_id":300,"name":"Uncletopia | Montréal | 1 | All Maps","name_short":"mtl-1","host":"mtl-1.ca.uncletopia.com","port":27015,"enabled":true,"region":"us-east","cc":"ca","latitude":45.50889,"longitude":-73.56167,"reserved":0,"last_update":"0001-01-01T00:00:00Z","name_a2s":"","protocol":0,"map":"","folder":"","game":"","app_id":0,"player_count":21,"max_players":0,"Bots":0,"server_type":"","server_os":"","password":false,"vac":false,"version":"","steam_id":0,"keywords":null,"game_id":0,"stv_port":0,"stv_name":"","players":[{"user_id":186,"name":"Shuu","steam_id":76561199199180558,"connected_time":2435000000000,"state":"active","ping":52},{"user_id":198,"name":"Chezaus","steam_id":76561198317397837,"connected_time":2210000000000,"state":"active","ping":57},{"user_id":215,"name":"Squope","steam_id":76561198983129293,"connected_time":1462000000000,"state":"active","ping":60},{"user_id":232,"name":"fish","steam_id":76561199121664265,"connected_time":13000000000,"state":"spawning","ping":77},{"user_id":187,"name":"NerdyEnforcement","steam_id":76561198437710820,"connected_time":2409000000000,"state":"active","ping":80},{"user_id":201,"name":"The Incredible Fem Boy","steam_id":76561198355754259,"connected_time":2077000000000,"state":"active","ping":64},{"user_id":216,"name":"zabloinkus","steam_id":76561198069967245,"connected_time":1361000000000,"state":"active","ping":79},{"user_id":230,"name":"Eggcracker","steam_id":76561199274850641,"connected_time":169000000000,"state":"active","ping":157},{"user_id":158,"name":"Yummy Kabobz","steam_id":76561198067661705,"connected_time":4229000000000,"state":"active","ping":76},{"user_id":170,"name":"LittleFieryOne","steam_id":76561198107463724,"connected_time":3799000000000,"state":"active","ping":72},{"user_id":151,"name":"Buppy","steam_id":76561199182586547,"connected_time":4722000000000,"state":"active","ping":74},{"user_id":217,"name":"farmerwithashotgun2002","steam_id":76561199493948764,"connected_time":1336000000000,"state":"active","ping":78},{"user_id":218,"name":"mop in a bucket","steam_id":76561199207457676,"connected_time":1271000000000,"state":"active","ping":95},{"user_id":190,"name":"A-150 Gaming","steam_id":76561199382783363,"connected_time":2355000000000,"state":"active","ping":107},{"user_id":191,"name":"Pun Gun","steam_id":76561199229784344,"connected_time":2353000000000,"state":"active","ping":74},{"user_id":219,"name":"hazel (she/her)","steam_id":76561198879911815,"connected_time":1094000000000,"state":"active","ping":60},{"user_id":193,"name":"ThePyroCone","steam_id":76561199217854104,"connected_time":2269000000000,"state":"active","ping":70},{"user_id":213,"name":"Nephi","steam_id":76561198031525122,"connected_time":1682000000000,"state":"active","ping":69},{"user_id":226,"name":"Geck","steam_id":76561198109072653,"connected_time":678000000000,"state":"active","ping":78},{"user_id":209,"name":"Kdash","steam_id":76561198043829155,"connected_time":1815000000000,"state":"active","ping":90},{"user_id":223,"name":"gideon nav my beloved","steam_id":76561198259092181,"connected_time":1071000000000,"state":"active","ping":52}]},{"server_id":301,"name":"Uncletopia | Montréal | 2 | All Maps","name_short":"mtl-2","host":"mtl-1.ca.uncletopia.com","port":27025,"enabled":true,"region":"us-east","cc":"ca","latitude":45.50889,"longitude":-73.56167,"reserved":0,"last_update":"0001-01-01T00:00:00Z","name_a2s":"","protocol":0,"map":"","folder":"","game":"","app_id":0,"player_count":3,"max_players":0,"Bots":0,"server_type":"","server_os":"","password":false,"vac":false,"version":"","steam_id":0,"keywords":null,"game_id":0,"stv_port":0,"stv_name":"","players":[{"user_id":4,"name":"BEES","steam_id":76561198811545874,"connected_time":1608000000000,"state":"active","ping":48},{"user_id":5,"name":"Triple-Edged","steam_id":76561198308472155,"connected_time":1602000000000,"state":"active","ping":45},{"user_id":6,"name":"franz","steam_id":76561199384188496,"connected_time":744000000000,"state":"active","ping":108}]},{"server_id":302,"name":"Uncletopia | Montréal | 3 | All Maps","name_short":"mtl-3","host":"mtl-1.ca.uncletopia.com","port":27035,"enabled":true,"region":"us-east","cc":"ca","latitude":45.50889,"longitude":-73.56167,"reserved":0,"last_update":"0001-01-01T00:00:00Z","name_a2s":"","protocol":0,"map":"","folder":"","game":"","app_id":0,"player_count":0,"max_players":0,"Bots":0,"server_type":"","server_os":"","password":false,"vac":false,"version":"","steam_id":0,"keywords":null,"game_id":0,"stv_port":0,"stv_name":"","players":null},{"server_id":303,"name":"Uncletopia | Montréal | 4 | No Payload","name_short":"mtl-4","host":"mtl-1.ca.uncletopia.com","port":27045,"enabled":true,"region":"us-east","cc":"ca","latitude":45.50889,"longitude":-73.56167,"reserved":0,"last_update":"0001-01-01T00:00:00Z","name_a2s":"","protocol":0,"map":"","folder":"","game":"","app_id":0,"player_count":0,"max_players":0,"Bots":0,"server_type":"","server_os":"","password":false,"vac":false,"version":"","steam_id":0,"keywords":null,"game_id":0,"stv_port":0,"stv_name":"","players":null},{"server_id":13,"name":"Uncletopia | New York City | 1 | All Maps","name_short":"nyc-1","host":"nyc-1.us.uncletopia.com","port":27015,"enabled":true,"region":"us-east","cc":"us","latitude":40.73061,"longitude":-73.93524,"reserved":0,"last_update":"0001-01-01T00:00:00Z","name_a2s":"Uncletopia | New York City | 1 | All Maps","protocol":17,"map":"koth_lakeside_final","folder":"tf","game":"Team Fortress","app_id":440,"player_count":24,"max_players":24,"Bots":0,"server_type":"Dedicated","server_os":"Linux","password":true,"vac":true,"version":"7961495","steam_id":85568392924469993,"keywords":["cp","nocrits","nodmgspread","uncletopia"],"game_id":440,"stv_port":27016,"stv_name":"Uncletopia | New York City | 1 | All Maps | STV","players":[{"user_id":156,"name":"stink","steam_id":76561198099318923,"connected_time":766000000000,"state":"active","ping":70},{"user_id":177,"name":"I Punch Babies","steam_id":76561199224644358,"connected_time":118000000000,"state":"active","ping":74},{"user_id":161,"name":"Porvolt","steam_id":76561198101366567,"connected_time":658000000000,"state":"active","ping":60},{"user_id":170,"name":"sheep man shaun","steam_id":76561198994349483,"connected_time":307000000000,"state":"active","ping":114},{"user_id":166,"name":"Λlex","steam_id":76561198024967421,"connected_time":433000000000,"state":"active","ping":106},{"user_id":174,"name":"Sandwich","steam_id":76561198303689896,"connected_time":250000000000,"state":"active","ping":75},{"user_id":151,"name":"Sire Salty","steam_id":76561198079639072,"connected_time":1138000000000,"state":"active","ping":48},{"user_id":101,"name":"ahegao dude","steam_id":76561199220611274,"connected_time":4931000000000,"state":"active","ping":56},{"user_id":175,"name":"ven the foreskin haver","steam_id":76561198880428283,"connected_time":220000000000,"state":"active","ping":55},{"user_id":167,"name":"AndrewP","steam_id":76561198991129355,"connected_time":389000000000,"state":"active","ping":82},{"user_id":176,"name":"Candy Sparkles","steam_id":76561198126871264,"connected_time":133000000000,"state":"active","ping":71},{"user_id":173,"name":"TRx AxIon2","steam_id":76561198980931557,"connected_time":263000000000,"state":"active","ping":49},{"user_id":132,"name":"TopHatWearingKoala","steam_id":76561198068192599,"connected_time":2523000000000,"state":"active","ping":70},{"user_id":105,"name":"Ata","steam_id":76561198349085545,"connected_time":4669000000000,"state":"active","ping":88},{"user_id":163,"name":"Sh3ba Spaniel","steam_id":76561198047412394,"connected_time":614000000000,"state":"active","ping":79},{"user_id":160,"name":"FIREPOW","steam_id":76561198111259720,"connected_time":677000000000,"state":"active","ping":79},{"user_id":178,"name":"cosmic ambiance","steam_id":76561198042788986,"connected_time":112000000000,"state":"active","ping":66},{"user_id":109,"name":"Doey","steam_id":76561198356353805,"connected_time":3914000000000,"state":"active","ping":58},{"user_id":171,"name":"ErenJenga54","steam_id":76561199066185761,"connected_time":285000000000,"state":"active","ping":133},{"user_id":130,"name":"Kritzburgh","steam_id":76561198149466938,"connected_time":2566000000000,"state":"active","ping":53},{"user_id":154,"name":"Nice21","steam_id":76561199427548141,"connected_time":973000000000,"state":"active","ping":74},{"user_id":164,"name":"harold (RIP Rick May)","steam_id":76561199016285746,"connected_time":602000000000,"state":"active","ping":102},{"user_id":179,"name":"maxxuss [AiRe]","steam_id":76561197999155912,"connected_time":106000000000,"state":"active","ping":44},{"user_id":180,"name":"SA","steam_id":76561198384777375,"connected_time":90000000000,"state":"active","ping":81}]},{"server_id":14,"name":"Uncletopia | New York City | 2 | All Maps","name_short":"nyc-2","host":"nyc-1.us.uncletopia.com","port":27025,"enabled":true,"region":"us-east","cc":"us","latitude":40.73061,"longitude":-73.93524,"reserved":0,"last_update":"0001-01-01T00:00:00Z","name_a2s":"Uncletopia | New York City | 2 | All Maps","protocol":17,"map":"koth_cascade","folder":"tf","game":"Team Fortress","app_id":440,"player_count":22,"max_players":24,"Bots":0,"server_type":"Dedicated","server_os":"Linux","password":true,"vac":true,"version":"7961495","steam_id":85568392924469994,"keywords":["cp","nocrits","nodmgspread","uncletopia"],"game_id":440,"stv_port":27026,"stv_name":"Uncletopia | New York City | 2 | All Maps | STV","players":[{"user_id":159,"name":"Jfrvl Gvl","steam_id":76561199013465852,"connected_time":1781000000000,"state":"active","ping":53},{"user_id":166,"name":"Primal","steam_id":76561197983118203,"connected_time":1206000000000,"state":"active","ping":82},{"user_id":190,"name":"space creep","steam_id":76561198025668545,"connected_time":7000000000,"state":"spawning","ping":37},{"user_id":185,"name":"ChickenShred","steam_id":76561198867897841,"connected_time":203000000000,"state":"active","ping":98},{"user_id":177,"name":"Big Yoshi","steam_id":76561199160576376,"connected_time":568000000000,"state":"active","ping":131},{"user_id":145,"name":"Broadsword #LGM","steam_id":76561198011160411,"connected_time":3319000000000,"state":"active","ping":81},{"user_id":188,"name":"WesyUWU (The mini crit pig)","steam_id":76561198069188177,"connected_time":85000000000,"state":"active","ping":92},{"user_id":121,"name":"1-800-GHOST-DANCE","steam_id":76561198835430429,"connected_time":4821000000000,"state":"active","ping":60},{"user_id":154,"name":"taylor_pink_blob","steam_id":76561198796412358,"connected_time":2521000000000,"state":"active","ping":102},{"user_id":174,"name":"femtofarad™","steam_id":76561198308583053,"connected_time":683000000000,"state":"active","ping":61},{"user_id":164,"name":"the gay bud light can","steam_id":76561199491889281,"connected_time":1302000000000,"state":"active","ping":82},{"user_id":171,"name":"Apple","steam_id":76561199013374861,"connected_time":925000000000,"state":"active","ping":65},{"user_id":165,"name":"unironically eating arby's","steam_id":76561199466028149,"connected_time":1210000000000,"state":"active","ping":71},{"user_id":179,"name":"i love men","steam_id":76561199493883721,"connected_time":413000000000,"state":"active","ping":36},{"user_id":176,"name":"acid","steam_id":76561198055855408,"connected_time":623000000000,"state":"active","ping":56},{"user_id":180,"name":"Xuen/5x55","steam_id":76561198098571456,"connected_time":397000000000,"state":"active","ping":77},{"user_id":170,"name":"SALTYDOLPHIN96","steam_id":76561199164887355,"connected_time":948000000000,"state":"active","ping":87},{"user_id":182,"name":"Christian Bonnie","steam_id":76561199194702127,"connected_time":337000000000,"state":"active","ping":111},{"user_id":187,"name":"PiRA","steam_id":76561197962440292,"connected_time":175000000000,"state":"active","ping":59},{"user_id":189,"name":"Okpar","steam_id":76561199221067945,"connected_time":83000000000,"state":"active","ping":86},{"user_id":156,"name":"salt water sand","steam_id":76561198188110989,"connected_time":2472000000000,"state":"active","ping":50},{"user_id":157,"name":"Yodakage Kira","steam_id":76561198440570859,"connected_time":2444000000000,"state":"active","ping":130}]},{"server_id":15,"name":"Uncletopia | New York City | 3 | Stopwatch Beta","name_short":"nyc-3","host":"nyc-1.us.uncletopia.com","port":27035,"enabled":true,"region":"us-east","cc":"us","latitude":40.73061,"longitude":-73.93524,"reserved":0,"last_update":"0001-01-01T00:00:00Z","name_a2s":"Uncletopia | New York City | 3 | Stopwatch Beta","protocol":17,"map":"workshop/koth_product_final.ugc454272353","folder":"tf","game":"Team Fortress","app_id":440,"player_count":0,"max_players":24,"Bots":0,"server_type":"Dedicated","server_os":"Linux","password":true,"vac":true,"version":"7961495","steam_id":85568392924742820,"keywords":["cp","nocrits","nodmgspread","uncletopia"],"game_id":440,"stv_port":27036,"stv_name":"Uncletopia | New York City | 3 | Stopwatch Beta | STV","players":null},{"server_id":16,"name":"Uncletopia | New York City | 4 | Community","name_short":"nyc-4","host":"nyc-1.us.uncletopia.com","port":27045,"enabled":true,"region":"us-east","cc":"us","latitude":40.73061,"longitude":-73.93524,"reserved":0,"last_update":"0001-01-01T00:00:00Z","name_a2s":"Uncletopia | New York City | 4 | Community","protocol":17,"map":"koth_lakeside_final","folder":"tf","game":"Team Fortress","app_id":440,"player_count":0,"max_players":24,"Bots":0,"server_type":"Dedicated","server_os":"Linux","password":true,"vac":true,"version":"7961495","steam_id":85568392924742821,"keywords":["cp","nocrits","nodmgspread","uncletopia"],"game_id":440,"stv_port":27046,"stv_name":"Uncletopia | New York City | 4 | Community | STV","players":null},{"server_id":142,"name":"Uncletopia | São Paulo | 1 | All Maps","name_short":"sao-1","host":"sao-1.br.uncletopia.com","port":27015,"enabled":true,"region":"sa","cc":"br","latitude":-23.533773,"longitude":-46.62529,"reserved":0,"last_update":"0001-01-01T00:00:00Z","name_a2s":"Uncletopia | São Paulo | 1 | All Maps","protocol":17,"map":"koth_highpass","folder":"tf","game":"Team Fortress","app_id":440,"player_count":0,"max_players":24,"Bots":0,"server_type":"Dedicated","server_os":"Linux","password":true,"vac":true,"version":"7961495","steam_id":85568392924469996,"keywords":["cp","nocrits","nodmgspread","uncletopia"],"game_id":440,"stv_port":27016,"stv_name":"Uncletopia | São Paulo | 1 | All Maps | STV","players":null},{"server_id":143,"name":"Uncletopia | São Paulo | 2 | Community","name_short":"sao-2","host":"sao-2.br.uncletopia.com","port":27015,"enabled":true,"region":"sa","cc":"br","latitude":-23.533773,"longitude":-46.62529,"reserved":0,"last_update":"0001-01-01T00:00:00Z","name_a2s":"Uncletopia | São Paulo | 2 | Community","protocol":17,"map":"workshop/cp_villa_b19.ugc2113052569","folder":"tf","game":"Team Fortress","app_id":440,"player_count":0,"max_players":24,"Bots":0,"server_type":"Dedicated","server_os":"Linux","password":true,"vac":true,"version":"7961495","steam_id":85568392924485349,"keywords":["cp","nocrits","nodmgspread","uncletopia"],"game_id":440,"stv_port":27016,"stv_name":"Uncletopia | São Paulo | 2 | Community | STV","players":null},{"server_id":7,"name":"Uncletopia | Seattle | 1 | All Maps","name_short":"sea-1","host":"sea-1.us.uncletopia.com","port":27015,"enabled":true,"region":"us-west","cc":"us","latitude":47.608013,"longitude":-122.33517,"reserved":0,"last_update":"0001-01-01T00:00:00Z","name_a2s":"Uncletopia | Seattle | 1 | All Maps","protocol":17,"map":"koth_lakeside_final","folder":"tf","game":"Team Fortress","app_id":440,"player_count":9,"max_players":24,"Bots":0,"server_type":"Dedicated","server_os":"Linux","password":true,"vac":true,"version":"7961495","steam_id":85568392924469997,"keywords":["cp","nocrits","nodmgspread","uncletopia"],"game_id":440,"stv_port":27016,"stv_name":"Uncletopia | Seattle | 1 | All Maps | STV","players":[{"user_id":12,"name":"The Janitor","steam_id":76561198292180883,"connected_time":981000000000,"state":"active","ping":83},{"user_id":13,"name":"SeeNik","steam_id":76561198149499817,"connected_time":916000000000,"state":"active","ping":62},{"user_id":14,"name":"C Sharp Minor","steam_id":76561199185191710,"connected_time":759000000000,"state":"active","ping":130},{"user_id":15,"name":"watchfull","steam_id":76561198433266742,"connected_time":473000000000,"state":"active","ping":56},{"user_id":16,"name":"goblin64 sub-tick","steam_id":76561198969156830,"connected_time":307000000000,"state":"active","ping":81},{"user_id":17,"name":"Coffeemelon","steam_id":76561198285891257,"connected_time":229000000000,"state":"active","ping":80},{"user_id":18,"name":"Kobicha","steam_id":76561198144970720,"connected_time":190000000000,"state":"active","ping":132},{"user_id":20,"name":"dillpickle","steam_id":76561198156957191,"connected_time":104000000000,"state":"active","ping":45},{"user_id":21,"name":"echelon","steam_id":76561198139172979,"connected_time":77000000000,"state":"active","ping":59}]},{"server_id":119,"name":"Uncletopia | Seattle | 2 | All Maps","name_short":"sea-2","host":"sea-1.us.uncletopia.com","port":27025,"enabled":true,"region":"us-west","cc":"us","latitude":47.608013,"longitude":-122.33517,"reserved":0,"last_update":"0001-01-01T00:00:00Z","name_a2s":"Uncletopia | Seattle | 2 | All Maps","protocol":17,"map":"cp_process_final","folder":"tf","game":"Team Fortress","app_id":440,"player_count":0,"max_players":24,"Bots":0,"server_type":"Dedicated","server_os":"Linux","password":true,"vac":true,"version":"7961495","steam_id":85568392924469998,"keywords":["cp","nocrits","nodmgspread","uncletopia"],"game_id":440,"stv_port":27026,"stv_name":"Uncletopia | Seattle | 2 | All Maps | STV","players":null},{"server_id":406,"name":"Uncletopia | Seattle | 3 | Stopwatch Beta","name_short":"sea-3","host":"sea-1.us.uncletopia.com","port":27035,"enabled":true,"region":"us-west","cc":"us","latitude":47.608013,"longitude":-122.33517,"reserved":0,"last_update":"0001-01-01T00:00:00Z","name_a2s":"Uncletopia | Seattle | 3 | Stopwatch Beta","protocol":17,"map":"workshop/pl_vigil_rc9.ugc1266210012","folder":"tf","game":"Team Fortress","app_id":440,"player_count":1,"max_players":24,"Bots":0,"server_type":"Dedicated","server_os":"Linux","password":true,"vac":true,"version":"7961495","steam_id":85568392924515217,"keywords":["nocrits","nodmgspread","payload","uncletopia"],"game_id":440,"stv_port":27036,"stv_name":"Uncletopia | Seattle | 3 | Stopwatch Beta | STV","players":[{"user_id":4,"name":"innocent iraqi children","steam_id":76561198885217827,"connected_time":70000000000,"state":"spawning","ping":62}]},{"server_id":17,"name":"Uncletopia | San Francisco | 1 | All Maps","name_short":"sfo-1","host":"sfo-1.us.uncletopia.com","port":27015,"enabled":true,"region":"us-west","cc":"us","latitude":37.77397,"longitude":-122.4313,"reserved":0,"last_update":"0001-01-01T00:00:00Z","name_a2s":"Uncletopia | San Francisco | 1 | All Maps","protocol":17,"map":"cp_process_final","folder":"tf","game":"Team Fortress","app_id":440,"player_count":0,"max_players":24,"Bots":0,"server_type":"Dedicated","server_os":"Linux","password":true,"vac":true,"version":"7961495","steam_id":85568392924469999,"keywords":["cp","nocrits","nodmgspread","uncletopia"],"game_id":440,"stv_port":27016,"stv_name":"Uncletopia | San Francisco | 1 | All Maps | STV","players":null},{"server_id":18,"name":"Uncletopia | San Francisco | 2 | All Maps","name_short":"sfo-2","host":"sfo-1.us.uncletopia.com","port":27025,"enabled":true,"region":"us-west","cc":"us","latitude":37.77397,"longitude":-122.4313,"reserved":0,"last_update":"0001-01-01T00:00:00Z","name_a2s":"Uncletopia | San Francisco | 2 | All Maps","protocol":17,"map":"cp_steel","folder":"tf","game":"Team Fortress","app_id":440,"player_count":24,"max_players":24,"Bots":0,"server_type":"Dedicated","server_os":"Linux","password":true,"vac":true,"version":"7961495","steam_id":85568392924470000,"keywords":["cp","nocrits","nodmgspread","uncletopia"],"game_id":440,"stv_port":27026,"stv_name":"Uncletopia | San Francisco | 2 | All Maps | STV","players":[{"user_id":124,"name":"Little Linguine","steam_id":76561198816986370,"connected_time":792000000000,"state":"active","ping":72},{"user_id":87,"name":"Cool for Cats","steam_id":76561199046667189,"connected_time":3448000000000,"state":"active","ping":125},{"user_id":90,"name":"Pepperest ((\u003eω\u003c ))","steam_id":76561199200969139,"connected_time":2260000000000,"state":"active","ping":117},{"user_id":88,"name":"Nibotshooter","steam_id":76561199284825579,"connected_time":2703000000000,"state":"active","ping":65},{"user_id":121,"name":"turkeysarefriendsz","steam_id":76561199074521322,"connected_time":1078000000000,"state":"active","ping":68},{"user_id":92,"name":"asm_ghost","steam_id":76561199205363547,"connected_time":2087000000000,"state":"active","ping":71},{"user_id":125,"name":"TheMagicMrWaffle","steam_id":76561198104357256,"connected_time":782000000000,"state":"active","ping":61},{"user_id":95,"name":"imng","steam_id":76561198014988031,"connected_time":1915000000000,"state":"active","ping":109},{"user_id":108,"name":"bread","steam_id":76561199437897954,"connected_time":1603000000000,"state":"active","ping":102},{"user_id":128,"name":"Mak","steam_id":76561198856016840,"connected_time":739000000000,"state":"active","ping":121},{"user_id":116,"name":"rad killl raccoon","steam_id":76561198980975595,"connected_time":1447000000000,"state":"active","ping":81},{"user_id":132,"name":"Ronnie Pickering!","steam_id":76561198041842118,"connected_time":168000000000,"state":"active","ping":61},{"user_id":102,"name":"donkeyballs2007","steam_id":76561199466298683,"connected_time":1718000000000,"state":"active","ping":58},{"user_id":103,"name":"ilun","steam_id":76561198042913843,"connected_time":1680000000000,"state":"active","ping":75},{"user_id":126,"name":"UnBLiebable","steam_id":76561198080380159,"connected_time":777000000000,"state":"active","ping":60},{"user_id":114,"name":"Dr. Bubs","steam_id":76561198011696595,"connected_time":1493000000000,"state":"active","ping":56},{"user_id":110,"name":"Hydra","steam_id":76561197983856163,"connected_time":1559000000000,"state":"active","ping":118},{"user_id":111,"name":"Smitty Werbenjagermanjensen","steam_id":76561198065782439,"connected_time":1553000000000,"state":"active","ping":99},{"user_id":112,"name":"Dimple #TF2Center","steam_id":76561198980324190,"connected_time":1534000000000,"state":"active","ping":78},{"user_id":129,"name":"Ros","steam_id":76561199055963822,"connected_time":633000000000,"state":"active","ping":105},{"user_id":115,"name":"Oktayey","steam_id":76561198143213426,"connected_time":1493000000000,"state":"active","ping":47},{"user_id":117,"name":"✪ Y V E S","steam_id":76561198299479796,"connected_time":1286000000000,"state":"active","ping":46},{"user_id":133,"name":"Ghwhaine","steam_id":76561199045414702,"connected_time":92000000000,"state":"active","ping":73},{"user_id":130,"name":"TruffShuff","steam_id":76561198055869160,"connected_time":605000000000,"state":"active","ping":100}]},{"server_id":19,"name":"Uncletopia | San Francisco | 3 | Stopwatch Beta","name_short":"sfo-3","host":"sfo-1.us.uncletopia.com","port":27035,"enabled":true,"region":"us-west","cc":"us","latitude":37.77397,"longitude":-122.4313,"reserved":0,"last_update":"0001-01-01T00:00:00Z","name_a2s":"Uncletopia | San Francisco | 3 | Stopwatch Beta","protocol":17,"map":"pl_borneo","folder":"tf","game":"Team Fortress","app_id":440,"player_count":0,"max_players":24,"Bots":0,"server_type":"Dedicated","server_os":"Linux","password":true,"vac":true,"version":"7961495","steam_id":85568392924742824,"keywords":["nocrits","nodmgspread","payload","uncletopia"],"game_id":440,"stv_port":27036,"stv_name":"Uncletopia | San Francisco | 3 | Stopwatch Beta | STV","players":null},{"server_id":20,"name":"Uncletopia | San Francisco | 4 | Community","name_short":"sfo-4","host":"sfo-1.us.uncletopia.com","port":27045,"enabled":true,"region":"us-west","cc":"us","latitude":37.77397,"longitude":-122.4313,"reserved":0,"last_update":"0001-01-01T00:00:00Z","name_a2s":"Uncletopia | San Francisco | 4 | Community","protocol":17,"map":"koth_viaduct","folder":"tf","game":"Team Fortress","app_id":440,"player_count":0,"max_players":24,"Bots":0,"server_type":"Dedicated","server_os":"Linux","password":true,"vac":true,"version":"7961495","steam_id":85568392924742826,"keywords":["cp","nocrits","nodmgspread","uncletopia"],"game_id":440,"stv_port":27046,"stv_name":"Uncletopia | San Francisco | 4 | Community | STV","players":null},{"server_id":141,"name":"Uncletopia | Sydney | 1 | All Maps","name_short":"syd-1","host":"syd-1.au.uncletopia.com","port":27015,"enabled":true,"region":"au","cc":"au","latitude":-33.865143,"longitude":151.2099,"reserved":0,"last_update":"0001-01-01T00:00:00Z","name_a2s":"Uncletopia | Sydney | 1 | All Maps","protocol":17,"map":"koth_highpass","folder":"tf","game":"Team Fortress","app_id":440,"player_count":0,"max_players":24,"Bots":0,"server_type":"Dedicated","server_os":"Linux","password":true,"vac":true,"version":"7961495","steam_id":85568392924470001,"keywords":["cp","nocrits","nodmgspread","uncletopia"],"game_id":440,"stv_port":27016,"stv_name":"Uncletopia | Sydney | 1 | All Maps | STV","players":null},{"server_id":123,"name":"Uncletopia | Sydney | 2 | All Maps","name_short":"syd-2","host":"syd-1.au.uncletopia.com","port":27025,"enabled":true,"region":"au","cc":"au","latitude":-33.865143,"longitude":151.2099,"reserved":0,"last_update":"0001-01-01T00:00:00Z","name_a2s":"Uncletopia | Sydney | 2 | All Maps","protocol":17,"map":"koth_viaduct","folder":"tf","game":"Team Fortress","app_id":440,"player_count":0,"max_players":24,"Bots":0,"server_type":"Dedicated","server_os":"Linux","password":true,"vac":true,"version":"7961495","steam_id":85568392924470002,"keywords":["cp","nocrits","nodmgspread","uncletopia"],"game_id":440,"stv_port":27026,"stv_name":"Uncletopia | Sydney | 2 | All Maps | STV","players":null},{"server_id":395,"name":"Uncletopia | Sydney | 3 | All Maps","name_short":"syd-3","host":"syd-1.au.uncletopia.com","port":27035,"enabled":true,"region":"au","cc":"au","latitude":-33.865143,"longitude":151.2099,"reserved":0,"last_update":"0001-01-01T00:00:00Z","name_a2s":"Uncletopia | Sydney | 3 | All Maps","protocol":17,"map":"cp_process_final","folder":"tf","game":"Team Fortress","app_id":440,"player_count":0,"max_players":24,"Bots":0,"server_type":"Dedicated","server_os":"Linux","password":true,"vac":true,"version":"7961495","steam_id":85568392925194467,"keywords":["cp","nocrits","nodmgspread","uncletopia"],"game_id":440,"stv_port":27036,"stv_name":"Uncletopia | Sydney | 3 | All Maps | STV","players":null},{"server_id":396,"name":"Uncletopia | Sydney | 4 | All Maps","name_short":"syd-4","host":"syd-1.au.uncletopia.com","port":27045,"enabled":true,"region":"au","cc":"au","latitude":-33.865143,"longitude":151.2099,"reserved":0,"last_update":"0001-01-01T00:00:00Z","name_a2s":"Uncletopia | Sydney | 4 | All Maps","protocol":17,"map":"pl_swiftwater_final1","folder":"tf","game":"Team Fortress","app_id":440,"player_count":0,"max_players":24,"Bots":0,"server_type":"Dedicated","server_os":"Linux","password":true,"vac":true,"version":"7961495","steam_id":85568392925397958,"keywords":["nocrits","nodmgspread","payload","uncletopia"],"game_id":440,"stv_port":27046,"stv_name":"Uncletopia | Sydney | 4 | All Maps | STV","players":null},{"server_id":58,"name":"Uncletopia | Sydney | 5 | Stopwatch Beta","name_short":"syd-5","host":"syd-1.au.uncletopia.com","port":27055,"enabled":true,"region":"au","cc":"au","latitude":-33.865143,"longitude":151.2099,"reserved":0,"last_update":"0001-01-01T00:00:00Z","name_a2s":"Uncletopia | Sydney | 5 | Stopwatch Beta","protocol":17,"map":"koth_viaduct","folder":"tf","game":"Team Fortress","app_id":440,"player_count":0,"max_players":24,"Bots":0,"server_type":"Dedicated","server_os":"Linux","password":true,"vac":true,"version":"7961495","steam_id":85568392925397959,"keywords":["cp","nocrits","nodmgspread","uncletopia"],"game_id":440,"stv_port":27056,"stv_name":"Uncletopia | Sydney | 5 | Stopwatch Beta | STV","players":null},{"server_id":59,"name":"Uncletopia | Sydney | 6 | Community","name_short":"syd-6","host":"syd-1.au.uncletopia.com","port":27065,"enabled":true,"region":"au","cc":"au","latitude":-33.865143,"longitude":151.2099,"reserved":0,"last_update":"0001-01-01T00:00:00Z","name_a2s":"Uncletopia | Sydney | 6 | Community","protocol":17,"map":"koth_cascade","folder":"tf","game":"Team Fortress","app_id":440,"player_count":0,"max_players":24,"Bots":0,"server_type":"Dedicated","server_os":"Linux","password":true,"vac":true,"version":"7961495","steam_id":85568392925397960,"keywords":["cp","nocrits","nodmgspread","uncletopia"],"game_id":440,"stv_port":27066,"stv_name":"Uncletopia | Sydney | 6 | Community | STV","players":null},{"server_id":49,"name":"Uncletopia | Warsaw | 1 | All Maps","name_short":"waw-1","host":"waw-1.pl.uncletopia.com","port":27015,"enabled":true,"region":"eu","cc":"pl","latitude":52.2297,"longitude":21.017532,"reserved":0,"last_update":"0001-01-01T00:00:00Z","name_a2s":"Uncletopia | Warsaw | 1 | All Maps","protocol":17,"map":"cp_dustbowl","folder":"tf","game":"Team Fortress","app_id":440,"player_count":0,"max_players":24,"Bots":0,"server_type":"Dedicated","server_os":"Linux","password":true,"vac":true,"version":"7961495","steam_id":85568392925397850,"keywords":["cp","nocrits","nodmgspread","uncletopia"],"game_id":440,"stv_port":27016,"stv_name":"Uncletopia | Warsaw | 1 | All Maps | STV","players":null},{"server_id":50,"name":"Uncletopia | Warsaw | 2 | All Maps","name_short":"waw-2","host":"waw-1.pl.uncletopia.com","port":27025,"enabled":true,"region":"eu","cc":"pl","latitude":52.2297,"longitude":21.017532,"reserved":0,"last_update":"0001-01-01T00:00:00Z","name_a2s":"Uncletopia | Warsaw | 2 | All Maps","protocol":17,"map":"cp_dustbowl","folder":"tf","game":"Team Fortress","app_id":440,"player_count":0,"max_players":24,"Bots":0,"server_type":"Dedicated","server_os":"Linux","password":true,"vac":true,"version":"7961495","steam_id":85568392925397851,"keywords":["cp","nocrits","nodmgspread","uncletopia"],"game_id":440,"stv_port":27026,"stv_name":"Uncletopia | Warsaw | 2 | All Maps | STV","players":null},{"server_id":51,"name":"Uncletopia | Warsaw | 3 | All Maps","name_short":"waw-3","host":"waw-1.pl.uncletopia.com","port":27035,"enabled":true,"region":"eu","cc":"pl","latitude":52.2297,"longitude":21.017532,"reserved":0,"last_update":"0001-01-01T00:00:00Z","name_a2s":"Uncletopia | Warsaw | 3 | All Maps","protocol":17,"map":"cp_dustbowl","folder":"tf","game":"Team Fortress","app_id":440,"player_count":0,"max_players":24,"Bots":0,"server_type":"Dedicated","server_os":"Linux","password":true,"vac":true,"version":"7961495","steam_id":85568392925397852,"keywords":["cp","nocrits","nodmgspread","uncletopia"],"game_id":440,"stv_port":27036,"stv_name":"Uncletopia | Warsaw | 3 | All Maps | STV","players":null},{"server_id":52,"name":"Uncletopia | Warsaw | 4 | All Maps","name_short":"waw-4","host":"waw-1.pl.uncletopia.com","port":27045,"enabled":true,"region":"eu","cc":"pl","latitude":52.2297,"longitude":21.017532,"reserved":0,"last_update":"0001-01-01T00:00:00Z","name_a2s":"Uncletopia | Warsaw | 4 | All Maps","protocol":17,"map":"koth_highpass","folder":"tf","game":"Team Fortress","app_id":440,"player_count":0,"max_players":24,"Bots":0,"server_type":"Dedicated","server_os":"Linux","password":true,"vac":true,"version":"7961495","steam_id":85568392925397853,"keywords":["cp","nocrits","nodmgspread","uncletopia"],"game_id":440,"stv_port":27046,"stv_name":"Uncletopia | Warsaw | 4 | All Maps | STV","players":null},{"server_id":53,"name":"Uncletopia | Warsaw | 5 | Stopwatch Beta","name_short":"waw-5","host":"waw-1.pl.uncletopia.com","port":27055,"enabled":true,"region":"eu","cc":"pl","latitude":52.2297,"longitude":21.017532,"reserved":0,"last_update":"0001-01-01T00:00:00Z","name_a2s":"Uncletopia | Warsaw | 5 | Stopwatch Beta","protocol":17,"map":"workshop/koth_bagel_rc6.ugc2514036946","folder":"tf","game":"Team Fortress","app_id":440,"player_count":0,"max_players":24,"Bots":0,"server_type":"Dedicated","server_os":"Linux","password":true,"vac":true,"version":"7961495","steam_id":85568392925397854,"keywords":["cp","nocrits","nodmgspread","uncletopia"],"game_id":440,"stv_port":27056,"stv_name":"Uncletopia | Warsaw | 5 | Stopwatch Beta | STV","players":null},{"server_id":54,"name":"Uncletopia | Warsaw | 6 | Community","name_short":"waw-6","host":"waw-1.pl.uncletopia.com","port":27065,"enabled":true,"region":"eu","cc":"pl","latitude":52.2297,"longitude":21.017532,"reserved":0,"last_update":"0001-01-01T00:00:00Z","name_a2s":"Uncletopia | Warsaw | 6 | Community","protocol":17,"map":"workshop/pl_boundary_final1.ugc456799153","folder":"tf","game":"Team Fortress","app_id":440,"player_count":0,"max_players":24,"Bots":0,"server_type":"Dedicated","server_os":"Linux","password":true,"vac":true,"version":"7961495","steam_id":85568392925397856,"keywords":["nocrits","nodmgspread","payload","uncletopia"],"game_id":440,"stv_port":27066,"stv_name":"Uncletopia | Warsaw | 6 | Community | STV","players":null}]}