{"status":true,"message":"","result":[{"server_id":9,"name":"Uncletopia | Atlanta | 1 | All Maps","name_short":"atl-1","host":"atl-1.us.uncletopia.com","port":27015,"enabled":true,"region":"us-east","cc":"us","latitude":33.753746,"longitude":-84.38633,"reserved":0,"last_update":"0001-01-01T00:00:00Z","name_a2s":"Uncletopia | Atlanta | 1 | All Maps","protocol":17,"map":"pl_snowycoast","folder":"tf","game":"Team Fortress","app_id":440,"player_count":24,"max_players":24,"Bots":0,"server_type":"Dedicated","server_os":"Linux","password":true,"vac":true,"version":"7723704","steam_id":85568392924469982,"keywords":["nocrits","nodmgspread","payload","uncletopia"],"game_id":440,"stv_port":27016,"stv_name":"Uncletopia | Atlanta | 1 | All Maps | STV","players":[{"user_id":544,"name":"ATL1 | S4tisfactoree","steam_id":76561198088337557,"connected_time":6476000000000,"state":"active","ping":46},{"user_id":521,"name":"ATL0 Dedi Le4n!!!","steam_id":76561198045522596,"connected_time":7493000000000,"state":"active","ping":67},{"user_id":553,"name":"ATL1 | Lancer Fan Club","steam_id":76561198355495948,"connected_time":4520000000000,"state":"active","ping":84},{"user_id":653,"name":"ATL1 | Dec the halls","steam_id":76561199045608372,"connected_time":1365000000000,"state":"active","ping":69},{"user_id":671,"name":"Avo","steam_id":76561197993340494,"connected_time":869000000000,"state":"active","ping":61},{"user_id":678,"name":"Maxxycat","steam_id":76561198194062681,"connected_time":681000000000,"state":"active","ping":65},{"user_id":564,"name":"MOTORTREND TRUCK OF THE YEAR","steam_id":76561198077654131,"connected_time":2545000000000,"state":"active","ping":67},{"user_id":680,"name":"Spike","steam_id":76561198141356571,"connected_time":150000000000,"state":"active","ping":62},{"user_id":547,"name":"mommy claus","steam_id":76561199230929836,"connected_time":6025000000000,"state":"active","ping":89},{"user_id":567,"name":"Stampdawg","steam_id":76561198050500060,"connected_time":2520000000000,"state":"active","ping":90},{"user_id":654,"name":"Cloudtrotter","steam_id":76561198141975528,"connected_time":1359000000000,"state":"active","ping":83},{"user_id":565,"name":"SnowStorm","steam_id":76561198095817025,"connected_time":2541000000000,"state":"active","ping":41},{"user_id":679,"name":"nak","steam_id":76561198219028529,"connected_time":609000000000,"state":"active","ping":125},{"user_id":520,"name":"Festive Fire Starting Rock","steam_id":76561198066547582,"connected_time":7619000000000,"state":"active","ping":106},{"user_id":552,"name":"HEFTY HOG","steam_id":76561198079923652,"connected_time":4524000000000,"state":"active","ping":77},{"user_id":515,"name":"McGangBang","steam_id":76561198862379865,"connected_time":8171000000000,"state":"active","ping":97},{"user_id":490,"name":"[txc] milk and cookies","steam_id":76561198127457787,"connected_time":9838000000000,"state":"active","ping":77},{"user_id":660,"name":"Longing","steam_id":76561198838757422,"connected_time":1256000000000,"state":"active","ping":77},{"user_id":562,"name":"ComradeCatgirl","steam_id":76561198185337278,"connected_time":2553000000000,"state":"active","ping":67},{"user_id":675,"name":"xen","steam_id":76561198145959964,"connected_time":836000000000,"state":"active","ping":69},{"user_id":563,"name":"spoonful","steam_id":76561198927517471,"connected_time":2553000000000,"state":"active","ping":54},{"user_id":491,"name":"Darkdrake","steam_id":76561198107200600,"connected_time":9791000000000,"state":"active","ping":57},{"user_id":667,"name":"ATL1 | J O V A","steam_id":76561198090333536,"connected_time":937000000000,"state":"active","ping":73},{"user_id":650,"name":"Abbashea","steam_id":76561199182136969,"connected_time":1394000000000,"state":"active","ping":111}]},{"server_id":400,"name":"Uncletopia | Atlanta | 3 | All Maps","name_short":"atl-3","host":"atl-1.us.uncletopia.com","port":27035,"enabled":true,"region":"us-east","cc":"us","latitude":33.753746,"longitude":-84.38633,"reserved":0,"last_update":"0001-01-01T00:00:00Z","name_a2s":"Uncletopia | Atlanta | 3 | All Maps","protocol":17,"map":"pl_borneo","folder":"tf","game":"Team Fortress","app_id":440,"player_count":24,"max_players":24,"Bots":0,"server_type":"Dedicated","server_os":"Linux","password":true,"vac":true,"version":"7723704","steam_id":85568392924515187,"keywords":["nocrits","nodmgspread","payload","uncletopia"],"game_id":440,"stv_port":27036,"stv_name":"Uncletopia | Atlanta | 3 | All Maps | STV","players":[{"user_id":245,"name":"SapphireSundew [Lotus]","steam_id":76561198040904890,"connected_time":1563000000000,"state":"active","ping":100},{"user_id":214,"name":"NEW JERSEY ULTRA-NATIONALIST","steam_id":76561198443298608,"connected_time":3409000000000,"state":"active","ping":58},{"user_id":215,"name":"anthrax + free shipping","steam_id":76561198185980055,"connected_time":3393000000000,"state":"active","ping":92},{"user_id":259,"name":"Noodlebox","steam_id":76561197993846770,"connected_time":375000000000,"state":"active","ping":121},{"user_id":264,"name":"Goofball","steam_id":76561198061211537,"connected_time":334000000000,"state":"active","ping":74},{"user_id":235,"name":"Song_System","steam_id":76561199032245013,"connected_time":2133000000000,"state":"active","ping":68},{"user_id":257,"name":"Buttons :)","steam_id":76561198139478534,"connected_time":451000000000,"state":"active","ping":104},{"user_id":242,"name":"japanese cowboy","steam_id":76561198072105269,"connected_time":1790000000000,"state":"active","ping":66},{"user_id":253,"name":"Aristotle Voulton","steam_id":76561198100174923,"connected_time":1062000000000,"state":"active","ping":118},{"user_id":258,"name":"Warlock","steam_id":76561198801747883,"connected_time":444000000000,"state":"active","ping":93},{"user_id":265,"name":"SEV3N 72","steam_id":76561198295298438,"connected_time":27000000000,"state":"spawning","ping":2304},{"user_id":261,"name":"Firedust19","steam_id":76561198153238631,"connected_time":359000000000,"state":"active","ping":115},{"user_id":204,"name":"Inevitable","steam_id":76561198210050169,"connected_time":4765000000000,"state":"active","ping":60},{"user_id":209,"name":"Ferguson","steam_id":76561198121349387,"connected_time":4184000000000,"state":"active","ping":63},{"user_id":228,"name":"Kayak","steam_id":76561199011185438,"connected_time":2563000000000,"state":"active","ping":62},{"user_id":251,"name":"C-Chunky?!","steam_id":76561198132231011,"connected_time":1141000000000,"state":"active","ping":51},{"user_id":226,"name":"sammy","steam_id":76561199001307670,"connected_time":2660000000000,"state":"active","ping":116},{"user_id":256,"name":"Jimothy","steam_id":76561198848110907,"connected_time":685000000000,"state":"active","ping":90},{"user_id":262,"name":"「Cringe Squared」","steam_id":76561199094233443,"connected_time":355000000000,"state":"active","ping":75},{"user_id":224,"name":"pim","steam_id":76561198095163441,"connected_time":3171000000000,"state":"active","ping":65},{"user_id":230,"name":"estruli","steam_id":76561198295690725,"connected_time":2398000000000,"state":"active","ping":60},{"user_id":248,"name":"Argorat","steam_id":76561198353725622,"connected_time":1375000000000,"state":"active","ping":81},{"user_id":263,"name":"u Juan ge","steam_id":76561198096753679,"connected_time":352000000000,"state":"active","ping":61},{"user_id":254,"name":"Wildly Unprepared","steam_id":76561198073981386,"connected_time":1061000000000,"state":"active","ping":65}]},{"server_id":401,"name":"Uncletopia | Atlanta | 4 | No Payload","name_short":"atl-4","host":"atl-1.us.uncletopia.com","port":27045,"enabled":true,"region":"us-east","cc":"us","latitude":33.753746,"longitude":-84.38633,"reserved":0,"last_update":"0001-01-01T00:00:00Z","name_a2s":"Uncletopia | Atlanta | 4 | No Payload","protocol":17,"map":"cp_well","folder":"tf","game":"Team Fortress","app_id":440,"player_count":0,"max_players":24,"Bots":0,"server_type":"Dedicated","server_os":"Linux","password":true,"vac":true,"version":"7723704","steam_id":85568392924515188,"keywords":["cp","nocrits","nodmgspread","uncletopia"],"game_id":440,"stv_port":27046,"stv_name":"Uncletopia | Atlanta | 4 | No Payload | STV","players":null},{"server_id":2,"name":"Uncletopia | Chicago | 1 | All Maps","name_short":"chi-1","host":"chi-1.us.uncletopia.com","port":27015,"enabled":true,"region":"us-central","cc":"us","latitude":41.881832,"longitude":-87.62318,"reserved":0,"last_update":"0001-01-01T00:00:00Z","name_a2s":"Uncletopia | Chicago | 1 | All Maps","protocol":17,"map":"pl_wutville_event","folder":"tf","game":"Team Fortress","app_id":440,"player_count":24,"max_players":24,"Bots":0,"server_type":"Dedicated","server_os":"Linux","password":true,"vac":true,"version":"7723704","steam_id":85568392924469984,"keywords":["nocrits","nodmgspread","payload","uncletopia"],"game_id":440,"stv_port":27016,"stv_name":"Uncletopia | Chicago | 1 | All Maps | STV","players":[{"user_id":629,"name":"Erick","steam_id":76561198176406475,"connected_time":38000000000,"state":"active","ping":92},{"user_id":618,"name":"SneakySneak","steam_id":76561198064847921,"connected_time":241000000000,"state":"active","ping":80},{"user_id":575,"name":"Raniel Dicciardo","steam_id":76561198053859538,"connected_time":4785000000000,"state":"active","ping":60},{"user_id":578,"name":"[K.Y.L.L.]TSQ-05DRN18-0432 (it)","steam_id":76561198027321950,"connected_time":4771000000000,"state":"active","ping":94},{"user_id":630,"name":"Electric Camel","steam_id":76561198065589663,"connected_time":18000000000,"state":"spawning","ping":76},{"user_id":623,"name":"jrmadmallard","steam_id":76561198275994616,"connected_time":200000000000,"state":"active","ping":95},{"user_id":613,"name":"motorized bar of soap","steam_id":76561198882404753,"connected_time":1312000000000,"state":"active","ping":74},{"user_id":610,"name":"SuperKirby","steam_id":76561198058449669,"connected_time":1620000000000,"state":"active","ping":47},{"user_id":601,"name":"TallBit","steam_id":76561199059748976,"connected_time":2384000000000,"state":"active","ping":51},{"user_id":627,"name":"Violetta","steam_id":76561197999924080,"connected_time":126000000000,"state":"active","ping":62},{"user_id":598,"name":"Snom","steam_id":76561198333827920,"connected_time":2521000000000,"state":"active","ping":107},{"user_id":631,"name":"a shrieking cloud of bats","steam_id":76561198151363063,"connected_time":14000000000,"state":"spawning","ping":111},{"user_id":616,"name":"draechlein","steam_id":76561198330188918,"connected_time":557000000000,"state":"active","ping":45},{"user_id":621,"name":"The CEO of cement","steam_id":76561199107177460,"connected_time":230000000000,"state":"active","ping":92},{"user_id":624,"name":"Eye","steam_id":76561198065844668,"connected_time":195000000000,"state":"active","ping":53},{"user_id":609,"name":"Michael Scarn","steam_id":76561198035740143,"connected_time":2092000000000,"state":"active","ping":79},{"user_id":607,"name":"Gordan Timlothle","steam_id":76561198272013678,"connected_time":2211000000000,"state":"active","ping":63},{"user_id":591,"name":"Be Gay, Do Crimes, Smoke Weed!","steam_id":76561198092419868,"connected_time":3387000000000,"state":"active","ping":88},{"user_id":625,"name":"Volsung0","steam_id":76561199032737645,"connected_time":187000000000,"state":"active","ping":76},{"user_id":617,"name":"Lez B Anne","steam_id":76561198077882577,"connected_time":244000000000,"state":"active","ping":63},{"user_id":593,"name":"Ademar","steam_id":76561199391802581,"connected_time":3120000000000,"state":"active","ping":61},{"user_id":620,"name":"Derpy Banana","steam_id":76561198831085285,"connected_time":238000000000,"state":"active","ping":54},{"user_id":594,"name":"Fatcat.win(false) ;","steam_id":76561198069007806,"connected_time":3120000000000,"state":"active","ping":60},{"user_id":626,"name":"DeerKing","steam_id":76561198374199513,"connected_time":165000000000,"state":"active","ping":112}]},{"server_id":106,"name":"Uncletopia | Chicago | 2 | All Maps","name_short":"chi-2","host":"chi-1.us.uncletopia.com","port":27025,"enabled":true,"region":"us-central","cc":"us","latitude":41.881832,"longitude":-87.62318,"reserved":0,"last_update":"0001-01-01T00:00:00Z","name_a2s":"Uncletopia | Chicago | 2 | All Maps","protocol":17,"map":"pl_hoodoo_final","folder":"tf","game":"Team Fortress","app_id":440,"player_count":24,"max_players":24,"Bots":0,"server_type":"Dedicated","server_os":"Linux","password":true,"vac":true,"version":"7723704","steam_id":85568392924469985,"keywords":["nocrits","nodmgspread","payload","uncletopia"],"game_id":440,"stv_port":27026,"stv_name":"Uncletopia | Chicago | 2 | All Maps | STV","players":[{"user_id":247,"name":"osten","steam_id":76561198041354349,"connected_time":1647000000000,"state":"active","ping":62},{"user_id":180,"name":"Shipmunk","steam_id":76561198063062670,"connected_time":7133000000000,"state":"active","ping":59},{"user_id":253,"name":"Exceptionally Mediocre","steam_id":76561198054264959,"connected_time":1206000000000,"state":"active","ping":53},{"user_id":255,"name":"mr. wonderful","steam_id":76561198083175190,"connected_time":655000000000,"state":"active","ping":72},{"user_id":223,"name":"ToroKe","steam_id":76561198078873266,"connected_time":3462000000000,"state":"active","ping":89},{"user_id":237,"name":"katryna","steam_id":76561198023440304,"connected_time":2447000000000,"state":"active","ping":56},{"user_id":252,"name":"Dodge Ram Owner","steam_id":76561198039150580,"connected_time":1458000000000,"state":"active","ping":65},{"user_id":225,"name":"Cyclops_672","steam_id":76561198080169497,"connected_time":3436000000000,"state":"active","ping":57},{"user_id":234,"name":"JUST PUNCHED 4kTV off bestbuy","steam_id":76561198068190834,"connected_time":2695000000000,"state":"active","ping":105},{"user_id":250,"name":"Preston","steam_id":76561198059794321,"connected_time":1546000000000,"state":"active","ping":86},{"user_id":262,"name":"Melon","steam_id":76561198086844531,"connected_time":270000000000,"state":"active","ping":80},{"user_id":240,"name":"Lemur","steam_id":76561198065300466,"connected_time":2423000000000,"state":"active","ping":84},{"user_id":227,"name":"glonk","steam_id":76561198162544699,"connected_time":3266000000000,"state":"active","ping":61},{"user_id":266,"name":"Pineapple Guy","steam_id":76561198002329563,"connected_time":28000000000,"state":"active","ping":61},{"user_id":189,"name":"sly1","steam_id":76561198049014977,"connected_time":6120000000000,"state":"active","ping":63},{"user_id":257,"name":"rainwarden","steam_id":76561198085183458,"connected_time":627000000000,"state":"active","ping":65},{"user_id":256,"name":"LightBulbGlue #SaveTF2","steam_id":76561198329573529,"connected_time":646000000000,"state":"active","ping":68},{"user_id":232,"name":"RaddahRaddah","steam_id":76561198194462829,"connected_time":2757000000000,"state":"active","ping":59},{"user_id":248,"name":"BALL FART BARON","steam_id":76561198410061750,"connected_time":1612000000000,"state":"active","ping":229},{"user_id":221,"name":"Bap","steam_id":76561198056717319,"connected_time":3513000000000,"state":"active","ping":54},{"user_id":267,"name":"Bingus Gaming","steam_id":76561198035619419,"connected_time":3000000000,"state":"spawning","ping":119},{"user_id":258,"name":"hop","steam_id":76561198039914843,"connected_time":624000000000,"state":"active","ping":72},{"user_id":220,"name":"Gunkzilla","steam_id":76561198068228415,"connected_time":3859000000000,"state":"active","ping":66},{"user_id":265,"name":"Mossy","steam_id":76561198156401277,"connected_time":78000000000,"state":"active","ping":74}]},{"server_id":402,"name":"Uncletopia | Chicago | 3 | All Maps","name_short":"chi-3","host":"chi-1.us.uncletopia.com","port":27035,"enabled":true,"region":"us-central","cc":"us","latitude":41.881832,"longitude":-87.62318,"reserved":0,"last_update":"0001-01-01T00:00:00Z","name_a2s":"Uncletopia | Chicago | 3 | All Maps","protocol":17,"map":"cp_dustbowl","folder":"tf","game":"Team Fortress","app_id":440,"player_count":24,"max_players":24,"Bots":0,"server_type":"Dedicated","server_os":"Linux","password":true,"vac":true,"version":"7723704","steam_id":85568392924515191,"keywords":["cp","nocrits","nodmgspread","uncletopia"],"game_id":440,"stv_port":27036,"stv_name":"Uncletopia | Chicago | 3 | All Maps | STV","players":[{"user_id":490,"name":"Monsterjj","steam_id":76561198077019286,"connected_time":903000000000,"state":"active","ping":110},{"user_id":476,"name":"Slappy McHothand","steam_id":76561198183369559,"connected_time":2452000000000,"state":"active","ping":91},{"user_id":488,"name":"Smet19","steam_id":76561198118455606,"connected_time":1395000000000,"state":"active","ping":55},{"user_id":379,"name":"Horus","steam_id":76561198166215370,"connected_time":8714000000000,"state":"active","ping":105},{"user_id":458,"name":"Dino Dude","steam_id":76561198799270016,"connected_time":3215000000000,"state":"active","ping":47},{"user_id":430,"name":"MisterDanny8","steam_id":76561198048847182,"connected_time":5579000000000,"state":"active","ping":73},{"user_id":493,"name":"uneducated guess","steam_id":76561198140846580,"connected_time":853000000000,"state":"active","ping":67},{"user_id":487,"name":"Iggy","steam_id":76561198059602545,"connected_time":1734000000000,"state":"active","ping":53},{"user_id":494,"name":"gordon freeman christmas","steam_id":76561198367735460,"connected_time":847000000000,"state":"active","ping":75},{"user_id":502,"name":"Nodspine","steam_id":76561198253579994,"connected_time":345000000000,"state":"active","ping":134},{"user_id":400,"name":"rainingmudkips","steam_id":76561198018010854,"connected_time":7627000000000,"state":"active","ping":64},{"user_id":455,"name":"_Lusty_","steam_id":76561198876948142,"connected_time":3388000000000,"state":"active","ping":70},{"user_id":496,"name":"dyragu","steam_id":76561198172046883,"connected_time":842000000000,"state":"active","ping":61},{"user_id":370,"name":"Assilio","steam_id":76561198371102414,"connected_time":9392000000000,"state":"active","ping":72},{"user_id":500,"name":"LerN","steam_id":76561198083463877,"connected_time":787000000000,"state":"active","ping":66},{"user_id":504,"name":"Owl Pacino","steam_id":76561197979970666,"connected_time":242000000000,"state":"active","ping":58},{"user_id":498,"name":"JaegerB4","steam_id":76561199225138429,"connected_time":838000000000,"state":"active","ping":73},{"user_id":452,"name":"كندوز","steam_id":76561198326987939,"connected_time":3756000000000,"state":"active","ping":86},{"user_id":485,"name":"faxxy","steam_id":76561198079621240,"connected_time":2051000000000,"state":"active","ping":62},{"user_id":483,"name":"Guy From Canada","steam_id":76561199190195411,"connected_time":2129000000000,"state":"active","ping":72},{"user_id":499,"name":"Vagrant","steam_id":76561198242536886,"connected_time":804000000000,"state":"active","ping":123},{"user_id":484,"name":"DenDa","steam_id":76561198321944154,"connected_time":2122000000000,"state":"active","ping":48},{"user_id":421,"name":"Rein","steam_id":76561198300340427,"connected_time":5769000000000,"state":"active","ping":69},{"user_id":491,"name":"God of bread","steam_id":76561198373688035,"connected_time":888000000000,"state":"active","ping":67}]},{"server_id":403,"name":"Uncletopia | Chicago | 4 | All Maps","name_short":"chi-4","host":"chi-1.us.uncletopia.com","port":27045,"enabled":true,"region":"us-central","cc":"us","latitude":41.881832,"longitude":-87.62318,"reserved":0,"last_update":"0001-01-01T00:00:00Z","name_a2s":"Uncletopia | Chicago | 4 | All Maps","protocol":17,"map":"pl_borneo","folder":"tf","game":"Team Fortress","app_id":440,"player_count":24,"max_players":24,"Bots":0,"server_type":"Dedicated","server_os":"Linux","password":true,"vac":true,"version":"7723704","steam_id":85568392924515193,"keywords":["nocrits","nodmgspread","payload","uncletopia"],"game_id":440,"stv_port":27046,"stv_name":"Uncletopia | Chicago | 4 | All Maps | STV","players":[{"user_id":661,"name":"Discourse","steam_id":76561198984286678,"connected_time":1008000000000,"state":"active","ping":48},{"user_id":625,"name":"pablo.gonzales.2004","steam_id":76561199217620385,"connected_time":1653000000000,"state":"active","ping":72},{"user_id":639,"name":"Kyaaaaa!!!","steam_id":76561198066384337,"connected_time":1454000000000,"state":"active","ping":57},{"user_id":621,"name":"c00kie","steam_id":76561198418178297,"connected_time":1875000000000,"state":"active","ping":45},{"user_id":573,"name":"Rose","steam_id":76561198095059249,"connected_time":3000000000000,"state":"active","ping":75},{"user_id":574,"name":"Breadford","steam_id":76561198260882352,"connected_time":2979000000000,"state":"active","ping":58},{"user_id":675,"name":"Lumpy","steam_id":76561198058840585,"connected_time":790000000000,"state":"active","ping":77},{"user_id":576,"name":"MilkShake","steam_id":76561198105640206,"connected_time":2908000000000,"state":"active","ping":74},{"user_id":577,"name":"EvilMrPotoo ｡◕‿◕｡","steam_id":76561198012566870,"connected_time":2902000000000,"state":"active","ping":56},{"user_id":578,"name":"CHODIE LAND","steam_id":76561198057116531,"connected_time":2897000000000,"state":"active","ping":55},{"user_id":579,"name":"bobby peanstalk","steam_id":76561198040495463,"connected_time":2895000000000,"state":"active","ping":73},{"user_id":681,"name":"nelly modelo","steam_id":76561198044875206,"connected_time":730000000000,"state":"active","ping":83},{"user_id":583,"name":"KNOWLEDGE","steam_id":76561198093152302,"connected_time":2788000000000,"state":"active","ping":65},{"user_id":618,"name":"UMAKFA","steam_id":76561198283982668,"connected_time":1988000000000,"state":"active","ping":82},{"user_id":709,"name":"A Fruit","steam_id":76561198951830050,"connected_time":286000000000,"state":"active","ping":73},{"user_id":587,"name":"motherfucker 2.0","steam_id":76561198141189209,"connected_time":2739000000000,"state":"active","ping":63},{"user_id":640,"name":"Rex","steam_id":76561198138365053,"connected_time":1435000000000,"state":"active","ping":129},{"user_id":617,"name":"Blargian Snagglebeast","steam_id":76561198115831507,"connected_time":2009000000000,"state":"active","ping":51},{"user_id":656,"name":"howboutdat","steam_id":76561198286122351,"connected_time":1093000000000,"state":"active","ping":74},{"user_id":713,"name":"cheated on the pregnancy test","steam_id":76561199107068627,"connected_time":193000000000,"state":"active","ping":44},{"user_id":592,"name":"Ronnie James Dio","steam_id":76561197978515373,"connected_time":2692000000000,"state":"active","ping":74},{"user_id":664,"name":"{ST} chunkyMerchant","steam_id":76561198318701494,"connected_time":971000000000,"state":"active","ping":69},{"user_id":598,"name":"AAAAA","steam_id":76561198132637556,"connected_time":2441000000000,"state":"active","ping":66},{"user_id":708,"name":"CrimsonUltra","steam_id":76561198163475615,"connected_time":302000000000,"state":"active","ping":76}]},{"server_id":36,"name":"Uncletopia | Chicago | 5 | All Maps","name_short":"chi-5","host":"chi-2.us.uncletopia.com","port":27015,"enabled":true,"region":"us-central","cc":"us","latitude":41.881832,"longitude":-87.62318,"reserved":0,"last_update":"0001-01-01T00:00:00Z","name_a2s":"Uncletopia | Chicago | 5 | All Maps","protocol":17,"map":"pl_snowycoast","folder":"tf","game":"Team Fortress","app_id":440,"player_count":24,"max_players":24,"Bots":0,"server_type":"Dedicated","server_os":"Linux","password":true,"vac":true,"version":"7723704","steam_id":85568392924866362,"keywords":["nocrits","nodmgspread","payload","uncletopia"],"game_id":440,"stv_port":27016,"stv_name":"Uncletopia | Chicago | 5 | All Maps | STV","players":[{"user_id":240,"name":"cologne","steam_id":76561198069600113,"connected_time":295000000000,"state":"active","ping":57},{"user_id":245,"name":"SHADOW (he/him)","steam_id":76561198207768148,"connected_time":206000000000,"state":"active","ping":114},{"user_id":229,"name":"Res","steam_id":76561198167207112,"connected_time":1131000000000,"state":"active","ping":78},{"user_id":221,"name":"Method","steam_id":76561198159176620,"connected_time":1561000000000,"state":"active","ping":92},{"user_id":190,"name":"austin lego island xtreme stunt","steam_id":76561198045655893,"connected_time":3314000000000,"state":"active","ping":62},{"user_id":233,"name":"kametro4","steam_id":76561198835430429,"connected_time":609000000000,"state":"active","ping":105},{"user_id":234,"name":"stump","steam_id":76561198012653832,"connected_time":605000000000,"state":"active","ping":53},{"user_id":158,"name":"ck_blue1","steam_id":76561198076797151,"connected_time":5301000000000,"state":"active","ping":74},{"user_id":235,"name":"j4miecl4rk","steam_id":76561198404312721,"connected_time":579000000000,"state":"active","ping":51},{"user_id":236,"name":"boneyard","steam_id":76561199080454140,"connected_time":579000000000,"state":"active","ping":64},{"user_id":242,"name":"impossible whopper from burger ","steam_id":76561198026589960,"connected_time":274000000000,"state":"active","ping":46},{"user_id":206,"name":"Coup de Grass","steam_id":76561198011643226,"connected_time":2836000000000,"state":"active","ping":83},{"user_id":246,"name":"TheGhostThatWas","steam_id":76561198055836483,"connected_time":172000000000,"state":"active","ping":62},{"user_id":230,"name":"Dr. Nobotnik","steam_id":76561198357339092,"connected_time":1063000000000,"state":"active","ping":86},{"user_id":244,"name":"anton ego","steam_id":76561199019583362,"connected_time":237000000000,"state":"active","ping":110},{"user_id":238,"name":"Rudy","steam_id":76561198013456828,"connected_time":547000000000,"state":"active","ping":62},{"user_id":226,"name":"engie","steam_id":76561199229629045,"connected_time":1501000000000,"state":"active","ping":115},{"user_id":231,"name":"Spybro","steam_id":76561198218690991,"connected_time":986000000000,"state":"active","ping":54},{"user_id":232,"name":"[DATS➡] Sugar Meowth","steam_id":76561197995251793,"connected_time":850000000000,"state":"active","ping":90},{"user_id":225,"name":"TC_Zephyr","steam_id":76561199059189394,"connected_time":1506000000000,"state":"active","ping":68},{"user_id":137,"name":"asfd","steam_id":76561198012566405,"connected_time":6255000000000,"state":"active","ping":67},{"user_id":201,"name":"Queen Frau the Round","steam_id":76561197999942134,"connected_time":3143000000000,"state":"active","ping":48},{"user_id":220,"name":"Jitters","steam_id":76561198078898336,"connected_time":1611000000000,"state":"active","ping":48},{"user_id":197,"name":"Vivi","steam_id":76561198141001353,"connected_time":3241000000000,"state":"active","ping":48}]},{"server_id":37,"name":"Uncletopia | Chicago | 6 | All Maps","name_short":"chi-6","host":"chi-2.us.uncletopia.com","port":27025,"enabled":true,"region":"us-central","cc":"us","latitude":41.881832,"longitude":-87.62318,"reserved":0,"last_update":"0001-01-01T00:00:00Z","name_a2s":"Uncletopia | Chicago | 6 | All Maps","protocol":17,"map":"pl_barnblitz","folder":"tf","game":"Team Fortress","app_id":440,"player_count":0,"max_players":24,"Bots":0,"server_type":"Dedicated","server_os":"Linux","password":true,"vac":true,"version":"7723704","steam_id":85568392924866363,"keywords":["nocrits","nodmgspread","payload","uncletopia"],"game_id":440,"stv_port":27026,"stv_name":"Uncletopia | Chicago | 6 | All Maps | STV","players":null},{"server_id":38,"name":"Uncletopia | Chicago | 7 | Stopwatch (test)","name_short":"chi-7","host":"chi-2.us.uncletopia.com","port":27035,"enabled":true,"region":"us-central","cc":"us","latitude":41.881832,"longitude":-87.62318,"reserved":0,"last_update":"0001-01-01T00:00:00Z","name_a2s":"Uncletopia | Chicago | 7 | Stopwatch (test)","protocol":17,"map":"workshop/koth_clearcut_b15.ugc2107050255","folder":"tf","game":"Team Fortress","app_id":440,"player_count":0,"max_players":24,"Bots":0,"server_type":"Dedicated","server_os":"Linux","password":true,"vac":true,"version":"7723704","steam_id":85568392924866364,"keywords":["cp","nocrits","nodmgspread","uncletopia"],"game_id":440,"stv_port":27036,"stv_name":"Uncletopia | Chicago | 7 | Stopwatch (test) | STV","players":null},{"server_id":39,"name":"Uncletopia | Chicago | 8 | Community","name_short":"chi-8","host":"chi-2.us.uncletopia.com","port":27045,"enabled":true,"region":"us-central","cc":"us","latitude":41.881832,"longitude":-87.62318,"reserved":0,"last_update":"0001-01-01T00:00:00Z","name_a2s":"Uncletopia | Chicago | 8 | Community","protocol":17,"map":"workshop/cp_caldera_rc2.ugc2834196889","folder":"tf","game":"Team Fortress","app_id":440,"player_count":0,"max_players":24,"Bots":0,"server_type":"Dedicated","server_os":"Linux","password":true,"vac":true,"version":"7723704","steam_id":85568392924866365,"keywords":["cp","nocrits","nodmgspread","uncletopia"],"game_id":440,"stv_port":27046,"stv_name":"Uncletopia | Chicago | 8 | Community | STV","players":null},{"server_id":8,"name":"Uncletopia | Dallas | 1 | All Maps","name_short":"dal-1","host":"dal-1.us.uncletopia.com","port":27015,"enabled":true,"region":"us-central","cc":"us","latitude":32.779167,"longitude":-96.80889,"reserved":0,"last_update":"0001-01-01T00:00:00Z","name_a2s":"Uncletopia | Dallas | 1 | All Maps","protocol":17,"map":"pl_barnblitz","folder":"tf","game":"Team Fortress","app_id":440,"player_count":24,"max_players":24,"Bots":0,"server_type":"Dedicated","server_os":"Linux","password":true,"vac":true,"version":"7723704","steam_id":85568392924469986,"keywords":["nocrits","nodmgspread","payload","uncletopia"],"game_id":440,"stv_port":27016,"stv_name":"Uncletopia | Dallas | 1 | All Maps | STV","players":[{"user_id":777,"name":"effy","steam_id":76561198087137066,"connected_time":1399000000000,"state":"active","ping":66},{"user_id":741,"name":"Tree52","steam_id":76561198046763622,"connected_time":3084000000000,"state":"active","ping":82},{"user_id":753,"name":"George Soros","steam_id":76561198043485035,"connected_time":2486000000000,"state":"active","ping":81},{"user_id":760,"name":"InFLicTedToast","steam_id":76561198074322651,"connected_time":2369000000000,"state":"active","ping":83},{"user_id":769,"name":"zogs","steam_id":76561198323491654,"connected_time":1953000000000,"state":"active","ping":45},{"user_id":749,"name":"El Benjador","steam_id":76561198345883103,"connected_time":2862000000000,"state":"active","ping":60},{"user_id":766,"name":"rice","steam_id":76561199218614311,"connected_time":2320000000000,"state":"active","ping":181},{"user_id":787,"name":"civic100","steam_id":76561198139654948,"connected_time":405000000000,"state":"active","ping":62},{"user_id":790,"name":"Atlas","steam_id":76561199071658126,"connected_time":367000000000,"state":"active","ping":73},{"user_id":786,"name":"Goofy Goober","steam_id":76561198128299594,"connected_time":423000000000,"state":"active","ping":104},{"user_id":788,"name":"inzang","steam_id":76561198088318074,"connected_time":391000000000,"state":"active","ping":51},{"user_id":767,"name":"A Hard Boiled Egg","steam_id":76561197979078330,"connected_time":2314000000000,"state":"active","ping":85},{"user_id":789,"name":"Tripp","steam_id":76561198411779080,"connected_time":385000000000,"state":"active","ping":95},{"user_id":721,"name":"Akrin","steam_id":76561199254804349,"connected_time":4789000000000,"state":"active","ping":74},{"user_id":762,"name":"Fuzzy Toast","steam_id":76561198028067781,"connected_time":2353000000000,"state":"active","ping":154},{"user_id":751,"name":"Heliodor","steam_id":76561198070465874,"connected_time":2859000000000,"state":"active","ping":90},{"user_id":729,"name":"RokkitFrog","steam_id":76561198046465850,"connected_time":4305000000000,"state":"active","ping":50},{"user_id":785,"name":"Falleax","steam_id":76561198021154908,"connected_time":516000000000,"state":"active","ping":55},{"user_id":791,"name":"fat tits haver","steam_id":76561198081681647,"connected_time":338000000000,"state":"active","ping":64},{"user_id":793,"name":"Doey Jiaz","steam_id":76561198286695275,"connected_time":111000000000,"state":"active","ping":93},{"user_id":784,"name":"papi","steam_id":76561198294281809,"connected_time":586000000000,"state":"active","ping":70},{"user_id":765,"name":"corviraptor (\u003c-- awesome)","steam_id":76561198058284392,"connected_time":2328000000000,"state":"active","ping":55},{"user_id":768,"name":"Wso1123","steam_id":76561198048040111,"connected_time":2192000000000,"state":"active","ping":74},{"user_id":782,"name":"Chirp","steam_id":76561198240780230,"connected_time":694000000000,"state":"active","ping":87}]},{"server_id":108,"name":"Uncletopia | Dallas | 2 | All Maps","name_short":"dal-2","host":"dal-1.us.uncletopia.com","port":27025,"enabled":true,"region":"us-central","cc":"us","latitude":32.779167,"longitude":-96.80889,"reserved":0,"last_update":"0001-01-01T00:00:00Z","name_a2s":"Uncletopia | Dallas | 2 | All Maps","protocol":17,"map":"pl_badwater","folder":"tf","game":"Team Fortress","app_id":440,"player_count":24,"max_players":24,"Bots":0,"server_type":"Dedicated","server_os":"Linux","password":true,"vac":true,"version":"7723704","steam_id":85568392924469988,"keywords":["nocrits","nodmgspread","payload","uncletopia"],"game_id":440,"stv_port":27026,"stv_name":"Uncletopia | Dallas | 2 | All Maps | STV","players":[{"user_id":272,"name":"Silvercoat's Stargazer","steam_id":76561198399525329,"connected_time":5432000000000,"state":"active","ping":83},{"user_id":390,"name":"Navigatxr","steam_id":76561199185153789,"connected_time":686000000000,"state":"active","ping":84},{"user_id":403,"name":"The Ultimate Coomer","steam_id":76561199128833757,"connected_time":0,"state":"spawning","ping":0},{"user_id":191,"name":"My controller broke","steam_id":76561198157280577,"connected_time":7878000000000,"state":"active","ping":53},{"user_id":388,"name":"The Squid Gamer™","steam_id":76561198340621517,"connected_time":701000000000,"state":"active","ping":95},{"user_id":321,"name":"J The Jounin","steam_id":76561198034583622,"connected_time":4064000000000,"state":"active","ping":74},{"user_id":400,"name":"Triwq","steam_id":76561198054810406,"connected_time":81000000000,"state":"active","ping":44},{"user_id":387,"name":"Puppeteerxerxes","steam_id":76561197991780208,"connected_time":705000000000,"state":"active","ping":70},{"user_id":380,"name":"boxagon","steam_id":76561198307845869,"connected_time":2410000000000,"state":"active","ping":90},{"user_id":391,"name":"Reed","steam_id":76561198048226025,"connected_time":679000000000,"state":"active","ping":73},{"user_id":98,"name":"Gundam Guy","steam_id":76561198178453993,"connected_time":13821000000000,"state":"active","ping":80},{"user_id":398,"name":"Jarated","steam_id":76561198352187445,"connected_time":486000000000,"state":"active","ping":73},{"user_id":381,"name":"Caoticaos","steam_id":76561198114800227,"connected_time":2408000000000,"state":"active","ping":128},{"user_id":396,"name":"self sufficient kitten","steam_id":76561197960592612,"connected_time":498000000000,"state":"active","ping":90},{"user_id":392,"name":"amyroseWHOA","steam_id":76561198284518326,"connected_time":665000000000,"state":"active","ping":82},{"user_id":393,"name":"Frongus","steam_id":76561197979056451,"connected_time":651000000000,"state":"active","ping":100},{"user_id":402,"name":"czarchasm","steam_id":76561198055712749,"connected_time":33000000000,"state":"active","ping":47},{"user_id":395,"name":"jalapeno handjob","steam_id":76561198123298824,"connected_time":650000000000,"state":"active","ping":77},{"user_id":320,"name":"Jolly evil little man","steam_id":76561198311053471,"connected_time":4097000000000,"state":"active","ping":52},{"user_id":386,"name":"Jynx Ovr2","steam_id":76561198136487957,"connected_time":730000000000,"state":"active","ping":63},{"user_id":303,"name":"bitmappu","steam_id":76561199000786530,"connected_time":4611000000000,"state":"active","ping":73},{"user_id":327,"name":"Heida","steam_id":76561198298468550,"connected_time":3971000000000,"state":"active","ping":77},{"user_id":379,"name":"CrackedSanity","steam_id":76561198279841251,"connected_time":2626000000000,"state":"active","ping":75},{"user_id":271,"name":"The Winter Medic","steam_id":76561198197112922,"connected_time":5451000000000,"state":"active","ping":88}]},{"server_id":5,"name":"Uncletopia | Frankfurt | 1 | All Maps","name_short":"frk-1","host":"frk-1.de.uncletopia.com","port":27015,"enabled":true,"region":"eu","cc":"de","latitude":50.110924,"longitude":8.682127,"reserved":0,"last_update":"0001-01-01T00:00:00Z","name_a2s":"Uncletopia | Frankfurt | 1 | All Maps","protocol":17,"map":"cp_mossrock","folder":"tf","game":"Team Fortress","app_id":440,"player_count":10,"max_players":24,"Bots":0,"server_type":"Dedicated","server_os":"Linux","password":true,"vac":true,"version":"7723704","steam_id":85568392924469989,"keywords":["cp","nocrits","nodmgspread","uncletopia"],"game_id":440,"stv_port":27016,"stv_name":"Uncletopia | Frankfurt | 1 | All Maps | STV","players":[{"user_id":719,"name":"twitch.tv/inviter","steam_id":76561198100268434,"connected_time":1926000000000,"state":"active","ping":68},{"user_id":731,"name":"Bubble!","steam_id":76561198257052187,"connected_time":790000000000,"state":"active","ping":70},{"user_id":739,"name":"ACG_Dubsy","steam_id":76561198797308565,"connected_time":339000000000,"state":"active","ping":57},{"user_id":736,"name":"tf2pam","steam_id":76561198946788727,"connected_time":559000000000,"state":"active","ping":50},{"user_id":724,"name":"Kanny","steam_id":76561198058810184,"connected_time":1587000000000,"state":"active","ping":57},{"user_id":711,"name":"MrClyde","steam_id":76561198132627420,"connected_time":2471000000000,"state":"active","ping":62},{"user_id":725,"name":"Revelation 20:7-10","steam_id":76561198999493859,"connected_time":1570000000000,"state":"active","ping":133},{"user_id":740,"name":"Vladimir Chirgin","steam_id":76561198170035235,"connected_time":229000000000,"state":"active","ping":150},{"user_id":728,"name":"Omnom143","steam_id":76561198097838265,"connected_time":1074000000000,"state":"active","ping":135},{"user_id":737,"name":"pickels_64","steam_id":76561199439523600,"connected_time":544000000000,"state":"active","ping":184}]},{"server_id":110,"name":"Uncletopia | Frankfurt | 2 | All Maps","name_short":"frk-2","host":"frk-1.de.uncletopia.com","port":27025,"enabled":true,"region":"eu","cc":"de","latitude":50.110924,"longitude":8.682127,"reserved":0,"last_update":"0001-01-01T00:00:00Z","name_a2s":"Uncletopia | Frankfurt | 2 | All Maps","protocol":17,"map":"cp_dustbowl","folder":"tf","game":"Team Fortress","app_id":440,"player_count":0,"max_players":24,"Bots":0,"server_type":"Dedicated","server_os":"Linux","password":true,"vac":true,"version":"7723704","steam_id":85568392924469990,"keywords":["cp","nocrits","nodmgspread","uncletopia"],"game_id":440,"stv_port":27026,"stv_name":"Uncletopia | Frankfurt | 2 | All Maps | STV","players":null},{"server_id":308,"name":"Uncletopia | Frankfurt | 3 | All Maps","name_short":"frk-3","host":"frk-1.de.uncletopia.com","port":27035,"enabled":true,"region":"eu","cc":"de","latitude":50.110924,"longitude":8.682127,"reserved":0,"last_update":"0001-01-01T00:00:00Z","name_a2s":"Uncletopia | Frankfurt | 3 | All Maps","protocol":17,"map":"koth_cascade","folder":"tf","game":"Team Fortress","app_id":440,"player_count":0,"max_players":24,"Bots":0,"server_type":"Dedicated","server_os":"Linux","password":true,"vac":true,"version":"7723704","steam_id":85568392924504274,"keywords":["cp","nocrits","nodmgspread","uncletopia"],"game_id":440,"stv_port":27036,"stv_name":"Uncletopia | Frankfurt | 3 | All Maps | STV","players":null},{"server_id":309,"name":"Uncletopia | Frankfurt | 4 | All Maps","name_short":"frk-4","host":"frk-1.de.uncletopia.com","port":27045,"enabled":true,"region":"eu","cc":"de","latitude":50.110924,"longitude":8.682127,"reserved":0,"last_update":"0001-01-01T00:00:00Z","name_a2s":"Uncletopia | Frankfurt | 4 | All Maps","protocol":17,"map":"koth_lakeside_final","folder":"tf","game":"Team Fortress","app_id":440,"player_count":0,"max_players":24,"Bots":0,"server_type":"Dedicated","server_os":"Linux","password":true,"vac":true,"version":"7723704","steam_id":85568392924504275,"keywords":["cp","nocrits","nodmgspread","uncletopia"],"game_id":440,"stv_port":27046,"stv_name":"Uncletopia | Frankfurt | 4 | All Maps | STV","players":null},{"server_id":310,"name":"Uncletopia | Frankfurt | 5 | All Maps","name_short":"frk-5","host":"frk-1.de.uncletopia.com","port":27055,"enabled":true,"region":"eu","cc":"de","latitude":50.110924,"longitude":8.682127,"reserved":0,"last_update":"0001-01-01T00:00:00Z","name_a2s":"Uncletopia | Frankfurt | 5 | All Maps","protocol":17,"map":"plr_hightower","folder":"tf","game":"Team Fortress","app_id":440,"player_count":0,"max_players":24,"Bots":0,"server_type":"Dedicated","server_os":"Linux","password":true,"vac":true,"version":"7723704","steam_id":85568392924504277,"keywords":["nocrits","nodmgspread","payload","uncletopia"],"game_id":440,"stv_port":27056,"stv_name":"Uncletopia | Frankfurt | 5 | All Maps | STV","players":null},{"server_id":311,"name":"Uncletopia | Frankfurt | 6 | All Maps","name_short":"frk-6","host":"frk-1.de.uncletopia.com","port":27065,"enabled":true,"region":"eu","cc":"de","latitude":50.110924,"longitude":8.682127,"reserved":0,"last_update":"0001-01-01T00:00:00Z","name_a2s":"Uncletopia | Frankfurt | 6 | All Maps","protocol":17,"map":"pl_frontier_final","folder":"tf","game":"Team Fortress","app_id":440,"player_count":0,"max_players":24,"Bots":0,"server_type":"Dedicated","server_os":"Linux","password":true,"vac":true,"version":"7723704","steam_id":85568392924504278,"keywords":["nocrits","nodmgspread","payload","uncletopia"],"game_id":440,"stv_port":27066,"stv_name":"Uncletopia | Frankfurt | 6 | All Maps | STV","players":null},{"server_id":23,"name":"Uncletopia | Frankfurt | 7 | No Payload","name_short":"frk-7","host":"frk-1.de.uncletopia.com","port":27075,"enabled":true,"region":"eu","cc":"de","latitude":50.110924,"longitude":8.682127,"reserved":0,"last_update":"0001-01-01T00:00:00Z","name_a2s":"Uncletopia | Frankfurt | 7 | No Payload","protocol":17,"map":"cp_mountainlab","folder":"tf","game":"Team Fortress","app_id":440,"player_count":0,"max_players":24,"Bots":0,"server_type":"Dedicated","server_os":"Linux","password":true,"vac":true,"version":"7723704","steam_id":85568392924742827,"keywords":["cp","nocrits","nodmgspread","uncletopia"],"game_id":440,"stv_port":27076,"stv_name":"Uncletopia | Frankfurt | 7 | No Payload | STV","players":null},{"server_id":24,"name":"Uncletopia | Frankfurt | 8 | Community","name_short":"frk-8","host":"frk-1.de.uncletopia.com","port":27085,"enabled":true,"region":"eu","cc":"de","latitude":50.110924,"longitude":8.682127,"reserved":0,"last_update":"0001-01-01T00:00:00Z","name_a2s":"Uncletopia | Frankfurt | 8 | Community","protocol":17,"map":"workshop/cp_sulfur_rc2.ugc619869471","folder":"tf","game":"Team Fortress","app_id":440,"player_count":0,"max_players":24,"Bots":0,"server_type":"Dedicated","server_os":"Linux","password":true,"vac":true,"version":"7723704","steam_id":85568392924742828,"keywords":["cp","nocrits","nodmgspread","uncletopia"],"game_id":440,"stv_port":27086,"stv_name":"Uncletopia | Frankfurt | 8 | Community | STV","players":null},{"server_id":202,"name":"Uncletopia | Hong Kong | 1 | All Maps","name_short":"hgk-1","host":"hgk-1.hk.uncletopia.com","port":27015,"enabled":true,"region":"asia","cc":"hk","latitude":22.302711,"longitude":114.177216,"reserved":0,"last_update":"0001-01-01T00:00:00Z","name_a2s":"Uncletopia | Hong Kong | 1 | All Maps","protocol":17,"map":"cp_mountainlab","folder":"tf","game":"Team Fortress","app_id":440,"player_count":2,"max_players":24,"Bots":0,"server_type":"Dedicated","server_os":"Linux","password":true,"vac":true,"version":"7723704","steam_id":85568392924494504,"keywords":["cp","nocrits","nodmgspread","uncletopia"],"game_id":440,"stv_port":27016,"stv_name":"Uncletopia | Hong Kong | 1 | All Maps | STV","players":[{"user_id":20,"name":"Catalyst","steam_id":76561199230196794,"connected_time":318000000000,"state":"active","ping":166},{"user_id":17,"name":"MAGNUS","steam_id":76561198208990721,"connected_time":584000000000,"state":"active","ping":124}]},{"server_id":1,"name":"Uncletopia | Los Angeles | 1 | All Maps","name_short":"lax-1","host":"lax-1.us.uncletopia.com","port":27015,"enabled":true,"region":"us-west","cc":"us","latitude":33.94279,"longitude":-118.41004,"reserved":0,"last_update":"0001-01-01T00:00:00Z","name_a2s":"Uncletopia | Los Angeles | 1 | All Maps","protocol":17,"map":"pl_thundermountain","folder":"tf","game":"Team Fortress","app_id":440,"player_count":24,"max_players":24,"Bots":0,"server_type":"Dedicated","server_os":"Linux","password":true,"vac":true,"version":"7723704","steam_id":85568392924469991,"keywords":["nocrits","nodmgspread","payload","uncletopia"],"game_id":440,"stv_port":27016,"stv_name":"Uncletopia | Los Angeles | 1 | All Maps | STV","players":[{"user_id":149,"name":"Len","steam_id":76561199141913673,"connected_time":2590000000000,"state":"active","ping":35},{"user_id":161,"name":"MinusSoup918","steam_id":76561198060902773,"connected_time":2029000000000,"state":"active","ping":59},{"user_id":162,"name":"bappo del taco","steam_id":76561199068510270,"connected_time":2003000000000,"state":"active","ping":55},{"user_id":180,"name":"Delta","steam_id":76561198021957971,"connected_time":407000000000,"state":"active","ping":59},{"user_id":153,"name":"Squatter1","steam_id":76561198078987734,"connected_time":2198000000000,"state":"active","ping":71},{"user_id":114,"name":"SKULL GOODMAN","steam_id":76561198062560907,"connected_time":4926000000000,"state":"active","ping":104},{"user_id":176,"name":"walrooos ✿","steam_id":76561198024521839,"connected_time":1142000000000,"state":"active","ping":52},{"user_id":164,"name":"Chi-Chia","steam_id":76561198067955987,"connected_time":1995000000000,"state":"active","ping":74},{"user_id":181,"name":"gamer_hater","steam_id":76561198973306314,"connected_time":280000000000,"state":"active","ping":56},{"user_id":173,"name":"Mino","steam_id":76561198320732270,"connected_time":1558000000000,"state":"active","ping":54},{"user_id":131,"name":"emerge","steam_id":76561198186882891,"connected_time":3527000000000,"state":"active","ping":111},{"user_id":133,"name":"Altruisticailuridae","steam_id":76561198335295596,"connected_time":3410000000000,"state":"active","ping":53},{"user_id":166,"name":"Pollychan","steam_id":76561197966271275,"connected_time":1979000000000,"state":"active","ping":77},{"user_id":179,"name":"TüCold","steam_id":76561198111278197,"connected_time":563000000000,"state":"active","ping":57},{"user_id":96,"name":"ingjess09","steam_id":76561199339732059,"connected_time":5845000000000,"state":"active","ping":84},{"user_id":150,"name":"dewey","steam_id":76561198132791511,"connected_time":2417000000000,"state":"active","ping":51},{"user_id":174,"name":"kbharcher","steam_id":76561198200138614,"connected_time":1493000000000,"state":"active","ping":98},{"user_id":177,"name":"yellow","steam_id":76561198366474647,"connected_time":1092000000000,"state":"active","ping":44},{"user_id":117,"name":"Pyrotek⁴","steam_id":76561198072747672,"connected_time":4783000000000,"state":"active","ping":45},{"user_id":178,"name":"Blackbeard","steam_id":76561198046952265,"connected_time":897000000000,"state":"active","ping":71},{"user_id":151,"name":"Bosmeroya","steam_id":76561198069454860,"connected_time":2401000000000,"state":"active","ping":46},{"user_id":167,"name":"Wilhelmktx","steam_id":76561198158102295,"connected_time":1968000000000,"state":"active","ping":102},{"user_id":132,"name":"Strawburrr","steam_id":76561199208694620,"connected_time":3513000000000,"state":"active","ping":109},{"user_id":169,"name":"nori_420","steam_id":76561199117134203,"connected_time":1880000000000,"state":"active","ping":68}]},{"server_id":112,"name":"Uncletopia | Los Angeles | 2 | All Maps","name_short":"lax-2","host":"lax-1.us.uncletopia.com","port":27025,"enabled":true,"region":"us-west","cc":"us","latitude":33.94279,"longitude":-118.41004,"reserved":0,"last_update":"0001-01-01T00:00:00Z","name_a2s":"Uncletopia | Los Angeles | 2 | All Maps","protocol":17,"map":"pl_barnblitz","folder":"tf","game":"Team Fortress","app_id":440,"player_count":0,"max_players":24,"Bots":0,"server_type":"Dedicated","server_os":"Linux","password":true,"vac":true,"version":"7723704","steam_id":85568392924469992,"keywords":["nocrits","nodmgspread","payload","uncletopia"],"game_id":440,"stv_port":27026,"stv_name":"Uncletopia | Los Angeles | 2 | All Maps | STV","players":null},{"server_id":324,"name":"Uncletopia | Los Angeles | 3 | All Maps","name_short":"lax-3","host":"lax-1.us.uncletopia.com","port":27035,"enabled":true,"region":"us-west","cc":"us","latitude":33.94279,"longitude":-118.41004,"reserved":0,"last_update":"0001-01-01T00:00:00Z","name_a2s":"Uncletopia | Los Angeles | 3 | All Maps","protocol":17,"map":"pl_badwater","folder":"tf","game":"Team Fortress","app_id":440,"player_count":23,"max_players":24,"Bots":0,"server_type":"Dedicated","server_os":"Linux","password":true,"vac":true,"version":"7723704","steam_id":85568392924510198,"keywords":["nocrits","nodmgspread","payload","uncletopia"],"game_id":440,"stv_port":27036,"stv_name":"Uncletopia | Los Angeles | 3 | All Maps | STV","players":[{"user_id":178,"name":"demomanfan2008","steam_id":76561198077030486,"connected_time":3273000000000,"state":"active","ping":75},{"user_id":238,"name":"DragoDuck","steam_id":76561198385685683,"connected_time":89000000000,"state":"spawning","ping":89},{"user_id":168,"name":"BoX_hEaD101","steam_id":76561198200875467,"connected_time":4017000000000,"state":"active","ping":58},{"user_id":239,"name":"Just a Random Dood","steam_id":76561198101538371,"connected_time":18000000000,"state":"active","ping":118},{"user_id":216,"name":"Squishybrick","steam_id":76561198029526606,"connected_time":1721000000000,"state":"active","ping":85},{"user_id":201,"name":"Goeffrey Portillo","steam_id":76561198162117215,"connected_time":2068000000000,"state":"active","ping":80},{"user_id":236,"name":"al.vasiglev","steam_id":76561198307359545,"connected_time":273000000000,"state":"active","ping":67},{"user_id":213,"name":"maximusbabaximus","steam_id":76561198419378913,"connected_time":1800000000000,"state":"active","ping":53},{"user_id":110,"name":"45 Cent","steam_id":76561198048690188,"connected_time":8081000000000,"state":"active","ping":107},{"user_id":151,"name":"Soap Man","steam_id":76561198000490235,"connected_time":5380000000000,"state":"active","ping":85},{"user_id":231,"name":"Saturn Gaming |Spying Mafia|","steam_id":76561199131086763,"connected_time":770000000000,"state":"active","ping":75},{"user_id":217,"name":"hedroN","steam_id":76561198175864490,"connected_time":1713000000000,"state":"active","ping":104},{"user_id":209,"name":"dave strider","steam_id":76561198065112186,"connected_time":1872000000000,"state":"active","ping":75},{"user_id":223,"name":"ויהי אור","steam_id":76561198212421513,"connected_time":1623000000000,"state":"active","ping":45},{"user_id":240,"name":"fallin","steam_id":76561198205386960,"connected_time":14000000000,"state":"active","ping":123},{"user_id":230,"name":"Pemalon","steam_id":76561198389661782,"connected_time":940000000000,"state":"active","ping":52},{"user_id":241,"name":"Lots0","steam_id":76561198043143145,"connected_time":6000000000,"state":"spawning","ping":107},{"user_id":227,"name":"Sinn","steam_id":76561199013434543,"connected_time":1159000000000,"state":"active","ping":56},{"user_id":119,"name":"ToughGuy311","steam_id":76561198131458027,"connected_time":7626000000000,"state":"active","ping":106},{"user_id":219,"name":"uskthedwarf","steam_id":76561199076096095,"connected_time":1699000000000,"state":"active","ping":71},{"user_id":234,"name":"space lady","steam_id":76561198088778979,"connected_time":686000000000,"state":"active","ping":75},{"user_id":232,"name":"SesataPomang","steam_id":76561198145133059,"connected_time":761000000000,"state":"active","ping":94},{"user_id":228,"name":"Moshi Man","steam_id":76561198038249762,"connected_time":1149000000000,"state":"active","ping":107}]},{"server_id":25,"name":"Uncletopia | Los Angeles | 4 | No Payload","name_short":"lax-4","host":"lax-1.us.uncletopia.com","port":27045,"enabled":true,"region":"us-west","cc":"us","latitude":33.94279,"longitude":-118.41004,"reserved":0,"last_update":"0001-01-01T00:00:00Z","name_a2s":"Uncletopia | Los Angeles | 4 | No Payload","protocol":17,"map":"cp_mountainlab","folder":"tf","game":"Team Fortress","app_id":440,"player_count":0,"max_players":24,"Bots":0,"server_type":"Dedicated","server_os":"Linux","password":true,"vac":true,"version":"7723704","steam_id":85568392924510199,"keywords":["cp","nocrits","nodmgspread","uncletopia"],"game_id":440,"stv_port":27046,"stv_name":"Uncletopia | Los Angeles | 4 | No Payload | STV","players":null},{"server_id":11,"name":"Uncletopia | London | 1 | All Maps","name_short":"lon-1","host":"lon-1.uk.uncletopia.com","port":27015,"enabled":true,"region":"eu","cc":"gb","latitude":51.509865,"longitude":-0.118092,"reserved":0,"last_update":"0001-01-01T00:00:00Z","name_a2s":"Uncletopia | London | 1 | All Maps","protocol":17,"map":"koth_cascade","folder":"tf","game":"Team Fortress","app_id":440,"player_count":0,"max_players":24,"Bots":0,"server_type":"Dedicated","server_os":"Linux","password":true,"vac":true,"version":"7723704","steam_id":85568392924367362,"keywords":["cp","nocrits","nodmgspread","uncletopia"],"game_id":440,"stv_port":27016,"stv_name":"Uncletopia | London | 1 | All Maps | STV","players":null},{"server_id":114,"name":"Uncletopia | London | 2 | All Maps","name_short":"lon-2","host":"lon-1.uk.uncletopia.com","port":27025,"enabled":true,"region":"eu","cc":"gb","latitude":51.509865,"longitude":-0.118092,"reserved":0,"last_update":"0001-01-01T00:00:00Z","name_a2s":"Uncletopia | London | 2 | All Maps","protocol":17,"map":"pl_pier","folder":"tf","game":"Team Fortress","app_id":440,"player_count":24,"max_players":24,"Bots":0,"server_type":"Dedicated","server_os":"Linux","password":true,"vac":true,"version":"7723704","steam_id":85568392924470941,"keywords":["nocrits","nodmgspread","payload","uncletopia"],"game_id":440,"stv_port":27026,"stv_name":"Uncletopia | London | 2 | All Maps | STV","players":[{"user_id":455,"name":"800A","steam_id":76561199233979726,"connected_time":518000000000,"state":"active","ping":91},{"user_id":434,"name":"Infantile Pillock","steam_id":76561198283851362,"connected_time":2022000000000,"state":"active","ping":60},{"user_id":411,"name":"MarsCream","steam_id":76561198069037449,"connected_time":4304000000000,"state":"active","ping":65},{"user_id":456,"name":"Plastic","steam_id":76561198026307715,"connected_time":496000000000,"state":"active","ping":61},{"user_id":337,"name":"cinny","steam_id":76561198832112629,"connected_time":8909000000000,"state":"active","ping":84},{"user_id":458,"name":"Hermit not Kermit","steam_id":76561198106182525,"connected_time":103000000000,"state":"active","ping":195},{"user_id":385,"name":"medick","steam_id":76561199380849468,"connected_time":5885000000000,"state":"active","ping":59},{"user_id":419,"name":"wieto","steam_id":76561198050626427,"connected_time":3902000000000,"state":"active","ping":62},{"user_id":448,"name":"Fire","steam_id":76561198156047154,"connected_time":1136000000000,"state":"active","ping":59},{"user_id":431,"name":"Труп Володя","steam_id":76561198035718457,"connected_time":2391000000000,"state":"active","ping":91},{"user_id":436,"name":"TaiDni","steam_id":76561198087750392,"connected_time":1974000000000,"state":"active","ping":48},{"user_id":449,"name":"Saristan","steam_id":76561198093346048,"connected_time":1129000000000,"state":"active","ping":117},{"user_id":433,"name":"Mex","steam_id":76561198108279631,"connected_time":2196000000000,"state":"active","ping":75},{"user_id":442,"name":"Ruben Zo","steam_id":76561198063855616,"connected_time":1695000000000,"state":"active","ping":84},{"user_id":450,"name":"Torngate","steam_id":76561198131152948,"connected_time":1107000000000,"state":"active","ping":118},{"user_id":357,"name":"r0la","steam_id":76561198128315340,"connected_time":7508000000000,"state":"active","ping":77},{"user_id":410,"name":"vani","steam_id":76561197991778291,"connected_time":4313000000000,"state":"active","ping":75},{"user_id":428,"name":"peruna","steam_id":76561198000721196,"connected_time":2976000000000,"state":"active","ping":75},{"user_id":427,"name":"stun","steam_id":76561198276681691,"connected_time":3386000000000,"state":"active","ping":89},{"user_id":440,"name":"got that right","steam_id":76561198064656601,"connected_time":1773000000000,"state":"active","ping":52},{"user_id":441,"name":"dorak","steam_id":76561198818037965,"connected_time":1753000000000,"state":"active","ping":109},{"user_id":420,"name":"gagalak","steam_id":76561198089979108,"connected_time":3848000000000,"state":"active","ping":105},{"user_id":457,"name":"ＴrendyＬemon","steam_id":76561198158957324,"connected_time":325000000000,"state":"active","ping":39},{"user_id":425,"name":"Greg","steam_id":76561198014131702,"connected_time":3428000000000,"state":"active","ping":111}]},{"server_id":320,"name":"Uncletopia | London | 3 | All Maps","name_short":"lon-3","host":"lon-1.uk.uncletopia.com","port":27035,"enabled":true,"region":"eu","cc":"gb","latitude":51.509865,"longitude":-0.118092,"reserved":0,"last_update":"0001-01-01T00:00:00Z","name_a2s":"Uncletopia | London | 3 | All Maps","protocol":17,"map":"cp_dustbowl","folder":"tf","game":"Team Fortress","app_id":440,"player_count":0,"max_players":24,"Bots":0,"server_type":"Dedicated","server_os":"Linux","password":true,"vac":true,"version":"7723704","steam_id":85568392924510192,"keywords":["cp","nocrits","nodmgspread","uncletopia"],"game_id":440,"stv_port":27036,"stv_name":"Uncletopia | London | 3 | All Maps | STV","players":null},{"server_id":321,"name":"Uncletopia | London | 4 | All Maps","name_short":"lon-4","host":"lon-1.uk.uncletopia.com","port":27045,"enabled":true,"region":"eu","cc":"gb","latitude":51.509865,"longitude":-0.118092,"reserved":0,"last_update":"0001-01-01T00:00:00Z","name_a2s":"Uncletopia | London | 4 | All Maps","protocol":17,"map":"koth_cascade","folder":"tf","game":"Team Fortress","app_id":440,"player_count":0,"max_players":24,"Bots":0,"server_type":"Dedicated","server_os":"Linux","password":true,"vac":true,"version":"7723704","steam_id":85568392924510193,"keywords":["cp","nocrits","nodmgspread","uncletopia"],"game_id":440,"stv_port":27046,"stv_name":"Uncletopia | London | 4 | All Maps | STV","players":null},{"server_id":21,"name":"Uncletopia | London | 5 | All Maps","name_short":"lon-5","host":"lon-1.uk.uncletopia.com","port":27055,"enabled":true,"region":"eu","cc":"gb","latitude":51.509865,"longitude":-0.118092,"reserved":0,"last_update":"0001-01-01T00:00:00Z","name_a2s":"Uncletopia | London | 5 | All Maps","protocol":17,"map":"koth_lakeside_final","folder":"tf","game":"Team Fortress","app_id":440,"player_count":0,"max_players":24,"Bots":0,"server_type":"Dedicated","server_os":"Linux","password":true,"vac":true,"version":"7723704","steam_id":85568392924742829,"keywords":["cp","nocrits","nodmgspread","uncletopia"],"game_id":440,"stv_port":27056,"stv_name":"Uncletopia | London | 5 | All Maps | STV","players":null},{"server_id":22,"name":"Uncletopia | London | 6 | All Maps","name_short":"lon-6","host":"lon-1.uk.uncletopia.com","port":27065,"enabled":true,"region":"eu","cc":"gb","latitude":51.509865,"longitude":-0.118092,"reserved":0,"last_update":"0001-01-01T00:00:00Z","name_a2s":"Uncletopia | London | 6 | All Maps","protocol":17,"map":"cp_dustbowl","folder":"tf","game":"Team Fortress","app_id":440,"player_count":0,"max_players":24,"Bots":0,"server_type":"Dedicated","server_os":"Linux","password":true,"vac":true,"version":"7723704","steam_id":85568392924742830,"keywords":["cp","nocrits","nodmgspread","uncletopia"],"game_id":440,"stv_port":27066,"stv_name":"Uncletopia | London | 6 | All Maps | STV","players":null},{"server_id":40,"name":"Uncletopia | London | 7 | No Payload","name_short":"lon-7","host":"lon-1.uk.uncletopia.com","port":27075,"enabled":true,"region":"eu","cc":"gb","latitude":51.509865,"longitude":-0.118092,"reserved":0,"last_update":"0001-01-01T00:00:00Z","name_a2s":"Uncletopia | London | 7 | No Payload","protocol":17,"map":"koth_cascade","folder":"tf","game":"Team Fortress","app_id":440,"player_count":0,"max_players":24,"Bots":0,"server_type":"Dedicated","server_os":"Linux","password":true,"vac":true,"version":"7723704","steam_id":85568392924964314,"keywords":["cp","nocrits","nodmgspread","uncletopia"],"game_id":440,"stv_port":27076,"stv_name":"Uncletopia | London | 7 | No Payload | STV","players":null},{"server_id":41,"name":"Uncletopia | London | 8 | Community","name_short":"lon-8","host":"lon-1.uk.uncletopia.com","port":27085,"enabled":true,"region":"eu","cc":"gb","latitude":51.509865,"longitude":-0.118092,"reserved":0,"last_update":"0001-01-01T00:00:00Z","name_a2s":"Uncletopia | London | 8 | Community","protocol":17,"map":"workshop/koth_ramjam_v2_b2.ugc2865676487","folder":"tf","game":"Team Fortress","app_id":440,"player_count":0,"max_players":24,"Bots":0,"server_type":"Dedicated","server_os":"Linux","password":true,"vac":true,"version":"7723704","steam_id":85568392924964315,"keywords":["cp","nocrits","nodmgspread","uncletopia"],"game_id":440,"stv_port":27086,"stv_name":"Uncletopia | London | 8 | Community | STV","players":null},{"server_id":300,"name":"Uncletopia | Montréal | 1 | All Maps","name_short":"mtl-1","host":"mtl-1.ca.uncletopia.com","port":27015,"enabled":true,"region":"us-east","cc":"ca","latitude":45.50889,"longitude":-73.56167,"reserved":0,"last_update":"0001-01-01T00:00:00Z","name_a2s":"Uncletopia | Montréal | 1 | All Maps","protocol":17,"map":"koth_highpass","folder":"tf","game":"Team Fortress","app_id":440,"player_count":0,"max_players":24,"Bots":0,"server_type":"Dedicated","server_os":"Linux","password":true,"vac":true,"version":"7723704","steam_id":85568392924500087,"keywords":["cp","nocrits","nodmgspread","uncletopia"],"game_id":440,"stv_port":27016,"stv_name":"Uncletopia | Montréal | 1 | All Maps | STV","players":null},{"server_id":301,"name":"Uncletopia | Montréal | 2 | All Maps","name_short":"mtl-2","host":"mtl-1.ca.uncletopia.com","port":27025,"enabled":true,"region":"us-east","cc":"ca","latitude":45.50889,"longitude":-73.56167,"reserved":0,"last_update":"0001-01-01T00:00:00Z","name_a2s":"Uncletopia | Montréal | 2 | All Maps","protocol":17,"map":"cp_sunshine","folder":"tf","game":"Team Fortress","app_id":440,"player_count":0,"max_players":24,"Bots":0,"server_type":"Dedicated","server_os":"Linux","password":true,"vac":true,"version":"7723704","steam_id":85568392924500088,"keywords":["cp","nocrits","nodmgspread","uncletopia"],"game_id":440,"stv_port":27026,"stv_name":"Uncletopia | Montréal | 2 | All Maps | STV","players":null},{"server_id":302,"name":"Uncletopia | Montréal | 3 | All Maps","name_short":"mtl-3","host":"mtl-1.ca.uncletopia.com","port":27035,"enabled":true,"region":"us-east","cc":"ca","latitude":45.50889,"longitude":-73.56167,"reserved":0,"last_update":"0001-01-01T00:00:00Z","name_a2s":"Uncletopia | Montréal | 3 | All Maps","protocol":17,"map":"cp_dustbowl","folder":"tf","game":"Team Fortress","app_id":440,"player_count":0,"max_players":24,"Bots":0,"server_type":"Dedicated","server_os":"Linux","password":true,"vac":true,"version":"7723704","steam_id":85568392924500089,"keywords":["cp","nocrits","nodmgspread","uncletopia"],"game_id":440,"stv_port":27036,"stv_name":"Uncletopia | Montréal | 3 | All Maps | STV","players":null},{"server_id":303,"name":"Uncletopia | Montréal | 4 | No Payload","name_short":"mtl-4","host":"mtl-1.ca.uncletopia.com","port":27045,"enabled":true,"region":"us-east","cc":"ca","latitude":45.50889,"longitude":-73.56167,"reserved":0,"last_update":"0001-01-01T00:00:00Z","name_a2s":"Uncletopia | Montréal | 4 | No Payload","protocol":17,"map":"koth_nucleus","folder":"tf","game":"Team Fortress","app_id":440,"player_count":0,"max_players":24,"Bots":0,"server_type":"Dedicated","server_os":"Linux","password":true,"vac":true,"version":"7723704","steam_id":85568392924500090,"keywords":["cp","nocrits","nodmgspread","uncletopia"],"game_id":440,"stv_port":27046,"stv_name":"Uncletopia | Montréal | 4 | No Payload | STV","players":null},{"server_id":13,"name":"Uncletopia | New York City | 1 | All Maps","name_short":"nyc-1","host":"nyc-1.us.uncletopia.com","port":27015,"enabled":true,"region":"us-east","cc":"us","latitude":40.73061,"longitude":-73.93524,"reserved":0,"last_update":"0001-01-01T00:00:00Z","name_a2s":"Uncletopia | New York City | 1 | All Maps","protocol":17,"map":"pl_barnblitz","folder":"tf","game":"Team Fortress","app_id":440,"player_count":24,"max_players":24,"Bots":0,"server_type":"Dedicated","server_os":"Linux","password":true,"vac":true,"version":"7723704","steam_id":85568392924469993,"keywords":["nocrits","nodmgspread","payload","uncletopia"],"game_id":440,"stv_port":27016,"stv_name":"Uncletopia | New York City | 1 | All Maps | STV","players":[{"user_id":584,"name":"Vet7ar","steam_id":76561198958199655,"connected_time":107000000000,"state":"active","ping":68},{"user_id":488,"name":"kairOs.fk","steam_id":76561197972421260,"connected_time":9718000000000,"state":"active","ping":47},{"user_id":412,"name":"Ether","steam_id":76561198054806528,"connected_time":13601000000000,"state":"active","ping":51},{"user_id":585,"name":"huge monster cock","steam_id":76561197994492154,"connected_time":103000000000,"state":"active","ping":147},{"user_id":500,"name":"Amogus The Sussy Baka ඞ","steam_id":76561198008577961,"connected_time":8189000000000,"state":"active","ping":74},{"user_id":586,"name":"The Collective","steam_id":76561198170423483,"connected_time":82000000000,"state":"active","ping":71},{"user_id":546,"name":"ventus51701","steam_id":76561198207372741,"connected_time":3475000000000,"state":"active","ping":45},{"user_id":578,"name":"rikka","steam_id":76561197987763785,"connected_time":526000000000,"state":"active","ping":59},{"user_id":581,"name":"cellogamer","steam_id":76561198016937098,"connected_time":339000000000,"state":"active","ping":50},{"user_id":565,"name":"Fudgely","steam_id":76561198039425862,"connected_time":1601000000000,"state":"active","ping":59},{"user_id":520,"name":"Pork Tenderloin","steam_id":76561198138663842,"connected_time":6318000000000,"state":"active","ping":46},{"user_id":568,"name":"Omega E ^The Player^","steam_id":76561198092321592,"connected_time":1571000000000,"state":"active","ping":125},{"user_id":555,"name":"leumas","steam_id":76561198240408540,"connected_time":2946000000000,"state":"active","ping":47},{"user_id":569,"name":"Bondforged LuigiFan45","steam_id":76561198153245848,"connected_time":1546000000000,"state":"active","ping":92},{"user_id":573,"name":"Wallem","steam_id":76561198052361822,"connected_time":1358000000000,"state":"active","ping":52},{"user_id":499,"name":"you are loved","steam_id":76561198108524571,"connected_time":8490000000000,"state":"active","ping":61},{"user_id":571,"name":"Brendan","steam_id":76561198041079914,"connected_time":1509000000000,"state":"active","ping":55},{"user_id":583,"name":"trobin120","steam_id":76561199122420273,"connected_time":195000000000,"state":"active","ping":109},{"user_id":580,"name":"Fudge_Cake","steam_id":76561198059218167,"connected_time":366000000000,"state":"active","ping":74},{"user_id":582,"name":"A Festive G J W","steam_id":76561198123359692,"connected_time":272000000000,"state":"active","ping":46},{"user_id":557,"name":"Crazed Man(?)","steam_id":76561198816922136,"connected_time":2693000000000,"state":"active","ping":59},{"user_id":576,"name":"-W3E- grim10465","steam_id":76561198045698581,"connected_time":995000000000,"state":"active","ping":33},{"user_id":556,"name":"your xmas forecast","steam_id":76561198042243083,"connected_time":2935000000000,"state":"active","ping":54},{"user_id":562,"name":"Nuclearlala","steam_id":76561198009342477,"connected_time":1920000000000,"state":"active","ping":61}]},{"server_id":14,"name":"Uncletopia | New York City | 2 | All Maps","name_short":"nyc-2","host":"nyc-1.us.uncletopia.com","port":27025,"enabled":true,"region":"us-east","cc":"us","latitude":40.73061,"longitude":-73.93524,"reserved":0,"last_update":"0001-01-01T00:00:00Z","name_a2s":"Uncletopia | New York City | 2 | All Maps","protocol":17,"map":"pl_frontier_final","folder":"tf","game":"Team Fortress","app_id":440,"player_count":22,"max_players":24,"Bots":0,"server_type":"Dedicated","server_os":"Linux","password":true,"vac":true,"version":"7723704","steam_id":85568392924469994,"keywords":["nocrits","nodmgspread","payload","uncletopia"],"game_id":440,"stv_port":27026,"stv_name":"Uncletopia | New York City | 2 | All Maps | STV","players":[{"user_id":333,"name":"Dr.BendyBones","steam_id":76561198048846641,"connected_time":692000000000,"state":"active","ping":50},{"user_id":303,"name":"CorbanClyffe","steam_id":76561198154114994,"connected_time":2846000000000,"state":"active","ping":43},{"user_id":320,"name":"KRELLAH","steam_id":76561198287045069,"connected_time":1837000000000,"state":"active","ping":60},{"user_id":328,"name":"ndvr","steam_id":76561199379200102,"connected_time":1237000000000,"state":"active","ping":51},{"user_id":338,"name":"Heropon","steam_id":76561198105224481,"connected_time":312000000000,"state":"active","ping":60},{"user_id":341,"name":"Citius","steam_id":76561198079970751,"connected_time":112000000000,"state":"active","ping":67},{"user_id":331,"name":"Mr. Rogers","steam_id":76561198296190438,"connected_time":1029000000000,"state":"active","ping":51},{"user_id":317,"name":"StuartBell511","steam_id":76561198060931721,"connected_time":2031000000000,"state":"active","ping":59},{"user_id":313,"name":"Fancy","steam_id":76561198039712024,"connected_time":2407000000000,"state":"active","ping":40},{"user_id":315,"name":"carrion goat","steam_id":76561198262064871,"connected_time":2225000000000,"state":"active","ping":45},{"user_id":319,"name":"MidSobbes08","steam_id":76561199013101925,"connected_time":1958000000000,"state":"active","ping":177},{"user_id":330,"name":"[BBC] Time Child","steam_id":76561198016095410,"connected_time":1034000000000,"state":"active","ping":51},{"user_id":311,"name":"Walmart Employee","steam_id":76561198840373909,"connected_time":2421000000000,"state":"active","ping":90},{"user_id":339,"name":"Fishman_200","steam_id":76561198152455167,"connected_time":305000000000,"state":"active","ping":54},{"user_id":321,"name":"SPF420","steam_id":76561198083991705,"connected_time":1800000000000,"state":"active","ping":79},{"user_id":335,"name":"BucketOfGondor","steam_id":76561198313660223,"connected_time":470000000000,"state":"active","ping":78},{"user_id":289,"name":"goated-gamer_37","steam_id":76561198072826791,"connected_time":3838000000000,"state":"active","ping":53},{"user_id":316,"name":"Josh","steam_id":76561198055691099,"connected_time":2191000000000,"state":"active","ping":65},{"user_id":279,"name":"FrostStorm","steam_id":76561198142685151,"connected_time":4998000000000,"state":"active","ping":82},{"user_id":340,"name":"hoboways","steam_id":76561198168035195,"connected_time":298000000000,"state":"active","ping":86},{"user_id":337,"name":"legostego","steam_id":76561198096562569,"connected_time":404000000000,"state":"active","ping":51},{"user_id":327,"name":"mineblast99","steam_id":76561199065648954,"connected_time":1446000000000,"state":"active","ping":89}]},{"server_id":15,"name":"Uncletopia | New York City | 3 | All Maps","name_short":"nyc-3","host":"nyc-1.us.uncletopia.com","port":27035,"enabled":true,"region":"us-east","cc":"us","latitude":40.73061,"longitude":-73.93524,"reserved":0,"last_update":"0001-01-01T00:00:00Z","name_a2s":"Uncletopia | New York City | 3 | All Maps","protocol":17,"map":"pl_pier","folder":"tf","game":"Team Fortress","app_id":440,"player_count":24,"max_players":24,"Bots":0,"server_type":"Dedicated","server_os":"Linux","password":true,"vac":true,"version":"7723704","steam_id":85568392924742820,"keywords":["nocrits","nodmgspread","payload","uncletopia"],"game_id":440,"stv_port":27036,"stv_name":"Uncletopia | New York City | 3 | All Maps | STV","players":[{"user_id":12,"name":"Skeleton Bones Ghoulie","steam_id":76561199138772722,"connected_time":4543000000000,"state":"active","ping":96},{"user_id":13,"name":"APP","steam_id":76561198964370718,"connected_time":4543000000000,"state":"active","ping":114},{"user_id":80,"name":"Do Moose go Moo?","steam_id":76561198073550620,"connected_time":67000000000,"state":"active","ping":60},{"user_id":47,"name":"Raincool","steam_id":76561198042953645,"connected_time":2545000000000,"state":"active","ping":48},{"user_id":16,"name":"triangleman","steam_id":76561198972733542,"connected_time":4123000000000,"state":"active","ping":77},{"user_id":52,"name":"Dreamzapp","steam_id":76561199084936632,"connected_time":2210000000000,"state":"active","ping":123},{"user_id":53,"name":"Ozone-flavored Starburst","steam_id":76561199163688421,"connected_time":2182000000000,"state":"active","ping":99},{"user_id":20,"name":"Monsterjessy","steam_id":76561198035630985,"connected_time":3807000000000,"state":"active","ping":53},{"user_id":65,"name":"willy longenharde","steam_id":76561198000564263,"connected_time":1825000000000,"state":"active","ping":75},{"user_id":74,"name":"big guapo","steam_id":76561198103228695,"connected_time":799000000000,"state":"active","ping":52},{"user_id":73,"name":"jolo","steam_id":76561198042831480,"connected_time":822000000000,"state":"active","ping":73},{"user_id":66,"name":"Doominic","steam_id":76561198259172209,"connected_time":1585000000000,"state":"active","ping":75},{"user_id":67,"name":"King","steam_id":76561198010019214,"connected_time":1565000000000,"state":"active","ping":34},{"user_id":68,"name":"Graham Crackers","steam_id":76561198089314125,"connected_time":1291000000000,"state":"active","ping":79},{"user_id":77,"name":"java","steam_id":76561198030276792,"connected_time":764000000000,"state":"active","ping":61},{"user_id":71,"name":"Fredorando","steam_id":76561198242546842,"connected_time":937000000000,"state":"active","ping":90},{"user_id":75,"name":"sheep","steam_id":76561198172943006,"connected_time":796000000000,"state":"active","ping":62},{"user_id":35,"name":"Unlicensed","steam_id":76561199036186433,"connected_time":3420000000000,"state":"active","ping":72},{"user_id":60,"name":"hashmap","steam_id":76561198043794014,"connected_time":2056000000000,"state":"active","ping":67},{"user_id":76,"name":"Full Middle Malcolmist","steam_id":76561198111291908,"connected_time":788000000000,"state":"active","ping":59},{"user_id":78,"name":"workin for snapple","steam_id":76561198013732450,"connected_time":704000000000,"state":"active","ping":65},{"user_id":61,"name":"JellyParrot","steam_id":76561199190990163,"connected_time":2053000000000,"state":"active","ping":82},{"user_id":79,"name":"Ghost","steam_id":76561198110914180,"connected_time":228000000000,"state":"active","ping":160},{"user_id":44,"name":"Nexusuxen","steam_id":76561198117547131,"connected_time":2879000000000,"state":"active","ping":64}]},{"server_id":16,"name":"Uncletopia | New York City | 4 | Community","name_short":"nyc-4","host":"nyc-1.us.uncletopia.com","port":27045,"enabled":true,"region":"us-east","cc":"us","latitude":40.73061,"longitude":-73.93524,"reserved":0,"last_update":"0001-01-01T00:00:00Z","name_a2s":"Uncletopia | New York City | 4 | Community","protocol":17,"map":"workshop/koth_product_final.ugc454272353","folder":"tf","game":"Team Fortress","app_id":440,"player_count":0,"max_players":24,"Bots":0,"server_type":"Dedicated","server_os":"Linux","password":true,"vac":true,"version":"7723704","steam_id":85568392924742821,"keywords":["cp","nocrits","nodmgspread","uncletopia"],"game_id":440,"stv_port":27046,"stv_name":"Uncletopia | New York City | 4 | Community | STV","players":null},{"server_id":142,"name":"Uncletopia | São Paulo | 1 | All Maps","name_short":"sao-1","host":"sao-1.br.uncletopia.com","port":27015,"enabled":true,"region":"sa","cc":"br","latitude":-23.533773,"longitude":-46.62529,"reserved":0,"last_update":"0001-01-01T00:00:00Z","name_a2s":"Uncletopia | São Paulo | 1 | All Maps","protocol":17,"map":"koth_lakeside_final","folder":"tf","game":"Team Fortress","app_id":440,"player_count":12,"max_players":24,"Bots":0,"server_type":"Dedicated","server_os":"Linux","password":true,"vac":true,"version":"7723704","steam_id":85568392924469996,"keywords":["cp","nocrits","nodmgspread","uncletopia"],"game_id":440,"stv_port":27016,"stv_name":"Uncletopia | São Paulo | 1 | All Maps | STV","players":[{"user_id":379,"name":"PureCringe","steam_id":76561199059708225,"connected_time":2025000000000,"state":"active","ping":109},{"user_id":318,"name":"Perão","steam_id":76561198044655726,"connected_time":7074000000000,"state":"active","ping":51},{"user_id":380,"name":"Bellesi","steam_id":76561198056750369,"connected_time":1485000000000,"state":"active","ping":60},{"user_id":304,"name":"flamingo","steam_id":76561198854099251,"connected_time":7913000000000,"state":"active","ping":64},{"user_id":383,"name":"Retro","steam_id":76561199245375089,"connected_time":807000000000,"state":"active","ping":62},{"user_id":384,"name":"Dakomando","steam_id":76561198299492397,"connected_time":746000000000,"state":"active","ping":222},{"user_id":386,"name":"Kawamurae21","steam_id":76561198881947045,"connected_time":413000000000,"state":"active","ping":51},{"user_id":385,"name":"Elijah","steam_id":76561198206051721,"connected_time":705000000000,"state":"active","ping":183},{"user_id":388,"name":"Elfuegosxd24","steam_id":76561199415874382,"connected_time":322000000000,"state":"active","ping":135},{"user_id":389,"name":"BL@CKCAT13","steam_id":76561199062117613,"connected_time":269000000000,"state":"active","ping":41},{"user_id":390,"name":"Blood Feast","steam_id":76561198857687153,"connected_time":167000000000,"state":"active","ping":186},{"user_id":391,"name":"J. Trailblazing","steam_id":76561199411677481,"connected_time":123000000000,"state":"active","ping":390}]},{"server_id":143,"name":"Uncletopia | São Paulo | 2 | All Maps","name_short":"sao-2","host":"sao-2.br.uncletopia.com","port":27015,"enabled":true,"region":"sa","cc":"br","latitude":-23.533773,"longitude":-46.62529,"reserved":0,"last_update":"0001-01-01T00:00:00Z","name_a2s":"Uncletopia | São Paulo | 2 | All Maps","protocol":17,"map":"koth_lakeside_final","folder":"tf","game":"Team Fortress","app_id":440,"player_count":0,"max_players":24,"Bots":0,"server_type":"Dedicated","server_os":"Linux","password":true,"vac":true,"version":"7723704","steam_id":85568392924485349,"keywords":["cp","nocrits","nodmgspread","uncletopia"],"game_id":440,"stv_port":27016,"stv_name":"Uncletopia | São Paulo | 2 | All Maps | STV","players":null},{"server_id":7,"name":"Uncletopia | Seattle | 1 | All Maps","name_short":"sea-1","host":"sea-1.us.uncletopia.com","port":27015,"enabled":true,"region":"us-west","cc":"us","latitude":47.608013,"longitude":-122.33517,"reserved":0,"last_update":"0001-01-01T00:00:00Z","name_a2s":"Uncletopia | Seattle | 1 | All Maps","protocol":17,"map":"pl_barnblitz","folder":"tf","game":"Team Fortress","app_id":440,"player_count":24,"max_players":24,"Bots":0,"server_type":"Dedicated","server_os":"Linux","password":true,"vac":true,"version":"7723704","steam_id":85568392924469997,"keywords":["nocrits","nodmgspread","payload","uncletopia"],"game_id":440,"stv_port":27016,"stv_name":"Uncletopia | Seattle | 1 | All Maps | STV","players":[{"user_id":351,"name":"Ascendance","steam_id":76561198065357068,"connected_time":1182000000000,"state":"active","ping":82},{"user_id":331,"name":"sleepy","steam_id":76561198288663776,"connected_time":3355000000000,"state":"active","ping":58},{"user_id":338,"name":"LIN♡","steam_id":76561199411560141,"connected_time":2679000000000,"state":"active","ping":50},{"user_id":362,"name":"Saiopun","steam_id":76561199011832069,"connected_time":801000000000,"state":"active","ping":93},{"user_id":346,"name":"Mr.Thirteen","steam_id":76561198047468836,"connected_time":1855000000000,"state":"active","ping":69},{"user_id":349,"name":"Moon Seal","steam_id":76561198095827608,"connected_time":1672000000000,"state":"active","ping":133},{"user_id":348,"name":"Smiles","steam_id":76561198107197973,"connected_time":1747000000000,"state":"active","ping":71},{"user_id":350,"name":"Sonata","steam_id":76561198088165440,"connected_time":1448000000000,"state":"active","ping":83},{"user_id":357,"name":"I want Bionicles for Smissmas","steam_id":76561198056496183,"connected_time":1112000000000,"state":"active","ping":117},{"user_id":367,"name":"D34dR4bbit","steam_id":76561198167411455,"connected_time":537000000000,"state":"active","ping":52},{"user_id":353,"name":"Wet Socks","steam_id":76561198170054969,"connected_time":1168000000000,"state":"active","ping":105},{"user_id":352,"name":"elfy","steam_id":76561198061637177,"connected_time":1180000000000,"state":"active","ping":79},{"user_id":343,"name":"Morse","steam_id":76561198039944542,"connected_time":1868000000000,"state":"active","ping":52},{"user_id":337,"name":"11 lbs. of wax","steam_id":76561198112705880,"connected_time":2765000000000,"state":"active","ping":68},{"user_id":354,"name":"Sol","steam_id":76561198803824764,"connected_time":1155000000000,"state":"active","ping":83},{"user_id":243,"name":"MCman","steam_id":76561198412110305,"connected_time":9060000000000,"state":"active","ping":78},{"user_id":345,"name":"TheCowledWiz","steam_id":76561198016735868,"connected_time":1866000000000,"state":"active","ping":66},{"user_id":259,"name":"E4Estrogen","steam_id":76561198085813708,"connected_time":7915000000000,"state":"active","ping":111},{"user_id":361,"name":"warrior","steam_id":76561198361999761,"connected_time":871000000000,"state":"active","ping":87},{"user_id":358,"name":"JacenHan","steam_id":76561198077796718,"connected_time":1070000000000,"state":"active","ping":63},{"user_id":365,"name":"Level 1 Crook","steam_id":76561198441098132,"connected_time":731000000000,"state":"active","ping":106},{"user_id":261,"name":"Huggernaut","steam_id":76561198043998084,"connected_time":7537000000000,"state":"active","ping":74},{"user_id":356,"name":"Zell Da Sheepy","steam_id":76561198978753666,"connected_time":1154000000000,"state":"active","ping":92}]},{"server_id":119,"name":"Uncletopia | Seattle | 2 | All Maps","name_short":"sea-2","host":"sea-1.us.uncletopia.com","port":27025,"enabled":true,"region":"us-west","cc":"us","latitude":47.608013,"longitude":-122.33517,"reserved":0,"last_update":"0001-01-01T00:00:00Z","name_a2s":"Uncletopia | Seattle | 2 | All Maps","protocol":17,"map":"pl_barnblitz","folder":"tf","game":"Team Fortress","app_id":440,"player_count":24,"max_players":24,"Bots":0,"server_type":"Dedicated","server_os":"Linux","password":true,"vac":true,"version":"7723704","steam_id":85568392924469998,"keywords":["nocrits","nodmgspread","payload","uncletopia"],"game_id":440,"stv_port":27026,"stv_name":"Uncletopia | Seattle | 2 | All Maps | STV","players":[{"user_id":234,"name":"Mignyanne :3","steam_id":76561198048754056,"connected_time":153000000000,"state":"active","ping":63},{"user_id":241,"name":"Loogie","steam_id":76561198858732642,"connected_time":76000000000,"state":"active","ping":59},{"user_id":209,"name":"dust","steam_id":76561198045218909,"connected_time":2982000000000,"state":"active","ping":38},{"user_id":211,"name":"kronk","steam_id":76561198054623686,"connected_time":2508000000000,"state":"active","ping":84},{"user_id":201,"name":"soup","steam_id":76561198043209046,"connected_time":3278000000000,"state":"active","ping":77},{"user_id":237,"name":"ice cream (冰淇淋)","steam_id":76561198976530881,"connected_time":140000000000,"state":"active","ping":60},{"user_id":227,"name":"Mr.Pan","steam_id":76561198069030613,"connected_time":768000000000,"state":"active","ping":74},{"user_id":217,"name":"gabberGirl99","steam_id":76561198131166135,"connected_time":1868000000000,"state":"active","ping":45},{"user_id":232,"name":"Fajita Master","steam_id":76561198329150962,"connected_time":289000000000,"state":"active","ping":78},{"user_id":235,"name":"\"Gay Panic\"","steam_id":76561198132531594,"connected_time":149000000000,"state":"active","ping":87},{"user_id":238,"name":"crumbles","steam_id":76561198168707036,"connected_time":127000000000,"state":"active","ping":67},{"user_id":214,"name":"LegendaryR'QA","steam_id":76561198049660110,"connected_time":2199000000000,"state":"active","ping":74},{"user_id":240,"name":"All Smiles","steam_id":76561198033317990,"connected_time":115000000000,"state":"active","ping":100},{"user_id":242,"name":"level 7 firemancer","steam_id":76561198209571677,"connected_time":65000000000,"state":"active","ping":128},{"user_id":224,"name":"Strength!!","steam_id":76561198001241984,"connected_time":1195000000000,"state":"active","ping":54},{"user_id":243,"name":"Dimple","steam_id":76561198980324190,"connected_time":63000000000,"state":"active","ping":61},{"user_id":222,"name":"ThePriceIsRice","steam_id":76561198079069543,"connected_time":1251000000000,"state":"active","ping":62},{"user_id":226,"name":"shiver splatoon","steam_id":76561198035698704,"connected_time":1179000000000,"state":"active","ping":68},{"user_id":233,"name":"Jiggling for Justice","steam_id":76561198077272494,"connected_time":288000000000,"state":"active","ping":92},{"user_id":244,"name":"Beep","steam_id":76561198166649901,"connected_time":58000000000,"state":"active","ping":63},{"user_id":220,"name":"big car","steam_id":76561198067082350,"connected_time":1811000000000,"state":"active","ping":69},{"user_id":162,"name":"Lambchop","steam_id":76561198043900363,"connected_time":5729000000000,"state":"active","ping":75},{"user_id":204,"name":"riley","steam_id":76561198133142520,"connected_time":3251000000000,"state":"active","ping":123},{"user_id":231,"name":"dyke","steam_id":76561198079111954,"connected_time":432000000000,"state":"active","ping":50}]},{"server_id":17,"name":"Uncletopia | San Francisco | 1 | All Maps","name_short":"sfo-1","host":"sfo-1.us.uncletopia.com","port":27015,"enabled":true,"region":"us-west","cc":"us","latitude":37.77397,"longitude":-122.4313,"reserved":0,"last_update":"0001-01-01T00:00:00Z","name_a2s":"Uncletopia | San Francisco | 1 | All Maps","protocol":17,"map":"koth_viaduct","folder":"tf","game":"Team Fortress","app_id":440,"player_count":0,"max_players":24,"Bots":0,"server_type":"Dedicated","server_os":"Linux","password":true,"vac":true,"version":"7723704","steam_id":85568392924469999,"keywords":["cp","nocrits","nodmgspread","uncletopia"],"game_id":440,"stv_port":27016,"stv_name":"Uncletopia | San Francisco | 1 | All Maps | STV","players":null},{"server_id":18,"name":"Uncletopia | San Francisco | 2 | All Maps","name_short":"sfo-2","host":"sfo-1.us.uncletopia.com","port":27025,"enabled":true,"region":"us-west","cc":"us","latitude":37.77397,"longitude":-122.4313,"reserved":0,"last_update":"0001-01-01T00:00:00Z","name_a2s":"Uncletopia | San Francisco | 2 | All Maps","protocol":17,"map":"cp_altitude","folder":"tf","game":"Team Fortress","app_id":440,"player_count":3,"max_players":24,"Bots":0,"server_type":"Dedicated","server_os":"Linux","password":true,"vac":true,"version":"7723704","steam_id":85568392924470000,"keywords":["cp","nocrits","nodmgspread","uncletopia"],"game_id":440,"stv_port":27026,"stv_name":"Uncletopia | San Francisco | 2 | All Maps | STV","players":[{"user_id":8,"name":"Dragonox","steam_id":76561198160796640,"connected_time":329000000000,"state":"active","ping":54},{"user_id":9,"name":"Zorxhero","steam_id":76561198285507723,"connected_time":316000000000,"state":"active","ping":55},{"user_id":10,"name":"chod choward","steam_id":76561198217724012,"connected_time":178000000000,"state":"active","ping":52}]},{"server_id":19,"name":"Uncletopia | San Francisco | 3 | No Payload","name_short":"sfo-3","host":"sfo-1.us.uncletopia.com","port":27035,"enabled":true,"region":"us-west","cc":"us","latitude":37.77397,"longitude":-122.4313,"reserved":0,"last_update":"0001-01-01T00:00:00Z","name_a2s":"Uncletopia | San Francisco | 3 | No Payload","protocol":17,"map":"cp_foundry","folder":"tf","game":"Team Fortress","app_id":440,"player_count":0,"max_players":24,"Bots":0,"server_type":"Dedicated","server_os":"Linux","password":true,"vac":true,"version":"7723704","steam_id":85568392924742824,"keywords":["cp","nocrits","nodmgspread","uncletopia"],"game_id":440,"stv_port":27036,"stv_name":"Uncletopia | San Francisco | 3 | No Payload | STV","players":null},{"server_id":20,"name":"Uncletopia | San Francisco | 4 | Community","name_short":"sfo-4","host":"sfo-1.us.uncletopia.com","port":27045,"enabled":true,"region":"us-west","cc":"us","latitude":37.77397,"longitude":-122.4313,"reserved":0,"last_update":"0001-01-01T00:00:00Z","name_a2s":"Uncletopia | San Francisco | 4 | Community","protocol":17,"map":"workshop/cp_villa_b19.ugc2113052569","folder":"tf","game":"Team Fortress","app_id":440,"player_count":0,"max_players":24,"Bots":0,"server_type":"Dedicated","server_os":"Linux","password":true,"vac":true,"version":"7723704","steam_id":85568392924742826,"keywords":["cp","nocrits","nodmgspread","uncletopia"],"game_id":440,"stv_port":27046,"stv_name":"Uncletopia | San Francisco | 4 | Community | STV","players":null},{"server_id":141,"name":"Uncletopia | Sydney | 1 | All Maps","name_short":"syd-1","host":"syd-1.au.uncletopia.com","port":27015,"enabled":true,"region":"au","cc":"au","latitude":-33.865143,"longitude":151.2099,"reserved":0,"last_update":"0001-01-01T00:00:00Z","name_a2s":"Uncletopia | Sydney | 1 | All Maps","protocol":17,"map":"pl_badwater","folder":"tf","game":"Team Fortress","app_id":440,"player_count":24,"max_players":24,"Bots":0,"server_type":"Dedicated","server_os":"Linux","password":true,"vac":true,"version":"7723704","steam_id":85568392924470001,"keywords":["nocrits","nodmgspread","payload","uncletopia"],"game_id":440,"stv_port":27016,"stv_name":"Uncletopia | Sydney | 1 | All Maps | STV","players":[{"user_id":98,"name":"HazDaddySlim","steam_id":76561198140262325,"connected_time":3951000000000,"state":"active","ping":47},{"user_id":122,"name":"Val","steam_id":76561198024788967,"connected_time":2430000000000,"state":"active","ping":65},{"user_id":113,"name":"normans on sabbatical honey","steam_id":76561198082423230,"connected_time":2975000000000,"state":"active","ping":74},{"user_id":107,"name":"RandomGuy1085","steam_id":76561199053910995,"connected_time":3412000000000,"state":"active","ping":140},{"user_id":135,"name":"Spicy Baguette","steam_id":76561198238030210,"connected_time":1324000000000,"state":"active","ping":49},{"user_id":146,"name":"Altara","steam_id":76561198022306164,"connected_time":726000000000,"state":"active","ping":55},{"user_id":78,"name":"ziah","steam_id":76561198159375596,"connected_time":5533000000000,"state":"active","ping":53},{"user_id":126,"name":"Zoey","steam_id":76561198126153554,"connected_time":2159000000000,"state":"active","ping":79},{"user_id":111,"name":"Mr. Blop","steam_id":76561198072273373,"connected_time":3137000000000,"state":"active","ping":59},{"user_id":145,"name":"FriskyPotato","steam_id":76561198061320611,"connected_time":831000000000,"state":"active","ping":52},{"user_id":124,"name":"AfroNinja","steam_id":76561198120372011,"connected_time":2396000000000,"state":"active","ping":63},{"user_id":136,"name":"Fatass Yoshi","steam_id":76561198033784848,"connected_time":1181000000000,"state":"active","ping":54},{"user_id":149,"name":"EmmArrGus","steam_id":76561198106343847,"connected_time":419000000000,"state":"active","ping":46},{"user_id":109,"name":"DIY Miracle","steam_id":76561198046228152,"connected_time":3309000000000,"state":"active","ping":60},{"user_id":132,"name":"lemur","steam_id":76561198278239170,"connected_time":1604000000000,"state":"active","ping":81},{"user_id":137,"name":"gave my love to a shooting star","steam_id":76561197990537324,"connected_time":1044000000000,"state":"active","ping":105},{"user_id":115,"name":"The Gaming","steam_id":76561198914415738,"connected_time":2817000000000,"state":"active","ping":57},{"user_id":148,"name":"El Barto","steam_id":76561198442434674,"connected_time":529000000000,"state":"active","ping":75},{"user_id":129,"name":"ᴉɯɯᴉp","steam_id":76561198038225943,"connected_time":1903000000000,"state":"active","ping":54},{"user_id":130,"name":"waggers","steam_id":76561198061496635,"connected_time":1884000000000,"state":"active","ping":51},{"user_id":118,"name":"Jazbae","steam_id":76561198350910486,"connected_time":2756000000000,"state":"active","ping":94},{"user_id":150,"name":"Egg","steam_id":76561198191266994,"connected_time":268000000000,"state":"active","ping":182},{"user_id":151,"name":"floop flub","steam_id":76561198418968979,"connected_time":114000000000,"state":"active","ping":93},{"user_id":144,"name":"jcoll444","steam_id":76561198143025380,"connected_time":868000000000,"state":"active","ping":60}]},{"server_id":123,"name":"Uncletopia | Sydney | 2 | All Maps","name_short":"syd-2","host":"syd-1.au.uncletopia.com","port":27025,"enabled":true,"region":"au","cc":"au","latitude":-33.865143,"longitude":151.2099,"reserved":0,"last_update":"0001-01-01T00:00:00Z","name_a2s":"Uncletopia | Sydney | 2 | All Maps","protocol":17,"map":"koth_viaduct","folder":"tf","game":"Team Fortress","app_id":440,"player_count":0,"max_players":24,"Bots":0,"server_type":"Dedicated","server_os":"Linux","password":true,"vac":true,"version":"7723704","steam_id":85568392924470002,"keywords":["cp","nocrits","nodmgspread","uncletopia"],"game_id":440,"stv_port":27026,"stv_name":"Uncletopia | Sydney | 2 | All Maps | STV","players":null},{"server_id":395,"name":"Uncletopia | Sydney | 3 | All Maps","name_short":"syd-3","host":"syd-1.au.uncletopia.com","port":27035,"enabled":true,"region":"au","cc":"au","latitude":-33.865143,"longitude":151.2099,"reserved":0,"last_update":"0001-01-01T00:00:00Z","name_a2s":"Uncletopia | Sydney | 3 | All Maps","protocol":17,"map":"pl_wutville_event","folder":"tf","game":"Team Fortress","app_id":440,"player_count":2,"max_players":24,"Bots":0,"server_type":"Dedicated","server_os":"Linux","password":true,"vac":true,"version":"7723704","steam_id":85568392925194467,"keywords":["nocrits","nodmgspread","payload","uncletopia"],"game_id":440,"stv_port":27036,"stv_name":"Uncletopia | Sydney | 3 | All Maps | STV","players":[{"user_id":7,"name":"Dissapointment","steam_id":76561199229100980,"connected_time":54000000000,"state":"active","ping":63},{"user_id":6,"name":"Mama Origami","steam_id":76561198330338645,"connected_time":136000000000,"state":"active","ping":66}]},{"server_id":396,"name":"Uncletopia | Sydney | 4 | All Maps","name_short":"syd-4","host":"syd-1.au.uncletopia.com","port":27045,"enabled":true,"region":"au","cc":"au","latitude":-33.865143,"longitude":151.2099,"reserved":0,"last_update":"0001-01-01T00:00:00Z","name_a2s":"Uncletopia | Sydney | 4 | All Maps","protocol":17,"map":"pl_wutville_event","folder":"tf","game":"Team Fortress","app_id":440,"player_count":0,"max_players":24,"Bots":0,"server_type":"Dedicated","server_os":"Linux","password":true,"vac":true,"version":"7723704","steam_id":85568392925397958,"keywords":["nocrits","nodmgspread","payload","uncletopia"],"game_id":440,"stv_port":27046,"stv_name":"Uncletopia | Sydney | 4 | All Maps | STV","players":null},{"server_id":58,"name":"Uncletopia | Sydney | 5 | No Payload","name_short":"syd-5","host":"syd-1.au.uncletopia.com","port":27055,"enabled":true,"region":"au","cc":"au","latitude":-33.865143,"longitude":151.2099,"reserved":0,"last_update":"0001-01-01T00:00:00Z","name_a2s":"Uncletopia | Sydney | 5 | No Payload","protocol":17,"map":"koth_sawmill","folder":"tf","game":"Team Fortress","app_id":440,"player_count":0,"max_players":24,"Bots":0,"server_type":"Dedicated","server_os":"Linux","password":true,"vac":true,"version":"7723704","steam_id":85568392925397959,"keywords":["cp","nocrits","nodmgspread","uncletopia"],"game_id":440,"stv_port":27056,"stv_name":"Uncletopia | Sydney | 5 | No Payload | STV","players":null},{"server_id":59,"name":"Uncletopia | Sydney | 6 | Community","name_short":"syd-6","host":"syd-1.au.uncletopia.com","port":27065,"enabled":true,"region":"au","cc":"au","latitude":-33.865143,"longitude":151.2099,"reserved":0,"last_update":"0001-01-01T00:00:00Z","name_a2s":"Uncletopia | Sydney | 6 | Community","protocol":17,"map":"workshop/rd_asteroid_redux_rc9.ugc2154902912","folder":"tf","game":"Team Fortress","app_id":440,"player_count":0,"max_players":24,"Bots":0,"server_type":"Dedicated","server_os":"Linux","password":true,"vac":true,"version":"7723704","steam_id":85568392925397960,"keywords":["beta","nocrits","nodmgspread","rd","uncletopia"],"game_id":440,"stv_port":27066,"stv_name":"Uncletopia | Sydney | 6 | Community | STV","players":null},{"server_id":49,"name":"Uncletopia | Warsaw | 1 | All Maps","name_short":"waw-1","host":"waw-1.pl.uncletopia.com","port":27015,"enabled":true,"region":"eu","cc":"pl","latitude":52.2297,"longitude":21.017532,"reserved":0,"last_update":"0001-01-01T00:00:00Z","name_a2s":"Uncletopia | Warsaw | 1 | All Maps","protocol":17,"map":"koth_cascade","folder":"tf","game":"Team Fortress","app_id":440,"player_count":0,"max_players":24,"Bots":0,"server_type":"Dedicated","server_os":"Linux","password":true,"vac":true,"version":"7723704","steam_id":85568392925397850,"keywords":["cp","nocrits","nodmgspread","uncletopia"],"game_id":440,"stv_port":27016,"stv_name":"Uncletopia | Warsaw | 1 | All Maps | STV","players":null},{"server_id":50,"name":"Uncletopia | Warsaw | 2 | All Maps","name_short":"waw-2","host":"waw-1.pl.uncletopia.com","port":27025,"enabled":true,"region":"eu","cc":"pl","latitude":52.2297,"longitude":21.017532,"reserved":0,"last_update":"0001-01-01T00:00:00Z","name_a2s":"Uncletopia | Warsaw | 2 | All Maps","protocol":17,"map":"koth_highpass","folder":"tf","game":"Team Fortress","app_id":440,"player_count":0,"max_players":24,"Bots":0,"server_type":"Dedicated","server_os":"Linux","password":true,"vac":true,"version":"7723704","steam_id":85568392925397851,"keywords":["cp","nocrits","nodmgspread","uncletopia"],"game_id":440,"stv_port":27026,"stv_name":"Uncletopia | Warsaw | 2 | All Maps | STV","players":null},{"server_id":51,"name":"Uncletopia | Warsaw | 3 | All Maps","name_short":"waw-3","host":"waw-1.pl.uncletopia.com","port":27035,"enabled":true,"region":"eu","cc":"pl","latitude":52.2297,"longitude":21.017532,"reserved":0,"last_update":"0001-01-01T00:00:00Z","name_a2s":"Uncletopia | Warsaw | 3 | All Maps","protocol":17,"map":"koth_lakeside_final","folder":"tf","game":"Team Fortress","app_id":440,"player_count":0,"max_players":24,"Bots":0,"server_type":"Dedicated","server_os":"Linux","password":true,"vac":true,"version":"7723704","steam_id":85568392925397852,"keywords":["cp","nocrits","nodmgspread","uncletopia"],"game_id":440,"stv_port":27036,"stv_name":"Uncletopia | Warsaw | 3 | All Maps | STV","players":null},{"server_id":52,"name":"Uncletopia | Warsaw | 4 | All Maps","name_short":"waw-4","host":"waw-1.pl.uncletopia.com","port":27045,"enabled":true,"region":"eu","cc":"pl","latitude":52.2297,"longitude":21.017532,"reserved":0,"last_update":"0001-01-01T00:00:00Z","name_a2s":"Uncletopia | Warsaw | 4 | All Maps","protocol":17,"map":"pl_frontier_final","folder":"tf","game":"Team Fortress","app_id":440,"player_count":0,"max_players":24,"Bots":0,"server_type":"Dedicated","server_os":"Linux","password":true,"vac":true,"version":"7723704","steam_id":85568392925397853,"keywords":["nocrits","nodmgspread","payload","uncletopia"],"game_id":440,"stv_port":27046,"stv_name":"Uncletopia | Warsaw | 4 | All Maps | STV","players":null},{"server_id":53,"name":"Uncletopia | Warsaw | 5 | No Payload","name_short":"waw-5","host":"waw-1.pl.uncletopia.com","port":27055,"enabled":true,"region":"eu","cc":"pl","latitude":52.2297,"longitude":21.017532,"reserved":0,"last_update":"0001-01-01T00:00:00Z","name_a2s":"Uncletopia | Warsaw | 5 | No Payload","protocol":17,"map":"koth_highpass","folder":"tf","game":"Team Fortress","app_id":440,"player_count":0,"max_players":24,"Bots":0,"server_type":"Dedicated","server_os":"Linux","password":true,"vac":true,"version":"7723704","steam_id":85568392925397854,"keywords":["cp","nocrits","nodmgspread","uncletopia"],"game_id":440,"stv_port":27056,"stv_name":"Uncletopia | Warsaw | 5 | No Payload | STV","players":null},{"server_id":54,"name":"Uncletopia | Warsaw | 6 | Community","name_short":"waw-6","host":"waw-1.pl.uncletopia.com","port":27065,"enabled":true,"region":"eu","cc":"pl","latitude":52.2297,"longitude":21.017532,"reserved":0,"last_update":"0001-01-01T00:00:00Z","name_a2s":"Uncletopia | Warsaw | 6 | Community","protocol":17,"map":"workshop/pl_fifthcurve_rc1.ugc648227046","folder":"tf","game":"Team Fortress","app_id":440,"player_count":0,"max_players":24,"Bots":0,"server_type":"Dedicated","server_os":"Linux","password":true,"vac":true,"version":"7723704","steam_id":85568392925397856,"keywords":["nocrits","nodmgspread","payload","uncletopia"],"game_id":440,"stv_port":27066,"stv_name":"Uncletopia | Warsaw | 6 | Community | STV","players":null}]}