{"status":true,"message":"","result":[{"server_id":9,"name":"Uncletopia | Atlanta | 1 | All Maps","name_short":"atl-1","host":"atl-1.us.uncletopia.com","port":27015,"enabled":true,"region":"us-east","cc":"us","latitude":33.753746,"longitude":-84.38633,"reserved":0,"last_update":"0001-01-01T00:00:00Z","name_a2s":"Uncletopia | Atlanta | 1 | All Maps","protocol":17,"map":"koth_viaduct","folder":"tf","game":"Team Fortress","app_id":440,"player_count":0,"max_players":24,"Bots":0,"server_type":"Dedicated","server_os":"Linux","password":true,"vac":true,"version":"7757534","steam_id":85568392924469982,"keywords":["cp","nocrits","nodmgspread","uncletopia"],"game_id":440,"stv_port":27016,"stv_name":"Uncletopia | Atlanta | 1 | All Maps | STV","players":null},{"server_id":104,"name":"Uncletopia | Atlanta | 2 | All Maps","name_short":"atl-2","host":"atl-1.us.uncletopia.com","port":27025,"enabled":true,"region":"us-east","cc":"us","latitude":33.753746,"longitude":-84.38633,"reserved":0,"last_update":"0001-01-01T00:00:00Z","name_a2s":"Uncletopia | Atlanta | 2 | All Maps","protocol":17,"map":"pl_pier","folder":"tf","game":"Team Fortress","app_id":440,"player_count":0,"max_players":24,"Bots":0,"server_type":"Dedicated","server_os":"Linux","password":true,"vac":true,"version":"7757534","steam_id":85568392924469983,"keywords":["nocrits","nodmgspread","payload","uncletopia"],"game_id":440,"stv_port":27026,"stv_name":"Uncletopia | Atlanta | 2 | All Maps | STV","players":null},{"server_id":400,"name":"Uncletopia | Atlanta | 3 | Community","name_short":"atl-3","host":"atl-1.us.uncletopia.com","port":27035,"enabled":true,"region":"us-east","cc":"us","latitude":33.753746,"longitude":-84.38633,"reserved":0,"last_update":"0001-01-01T00:00:00Z","name_a2s":"Uncletopia | Atlanta | 3 | Community","protocol":17,"map":"cp_mountainlab","folder":"tf","game":"Team Fortress","app_id":440,"player_count":0,"max_players":24,"Bots":0,"server_type":"Dedicated","server_os":"Linux","password":true,"vac":true,"version":"7757534","steam_id":85568392924515187,"keywords":["cp","nocrits","nodmgspread","uncletopia"],"game_id":440,"stv_port":27036,"stv_name":"Uncletopia | Atlanta | 3 | Community | STV","players":null},{"server_id":401,"name":"Uncletopia | Atlanta | 4 | No Payload","name_short":"atl-4","host":"atl-1.us.uncletopia.com","port":27045,"enabled":true,"region":"us-east","cc":"us","latitude":33.753746,"longitude":-84.38633,"reserved":0,"last_update":"0001-01-01T00:00:00Z","name_a2s":"","protocol":0,"map":"","folder":"","game":"","app_id":0,"player_count":0,"max_players":0,"Bots":0,"server_type":"","server_os":"","password":false,"vac":false,"version":"","steam_id":0,"keywords":null,"game_id":0,"stv_port":0,"stv_name":"","players":null},{"server_id":2,"name":"Uncletopia | Chicago | 1 | All Maps","name_short":"chi-1","host":"chi-1.us.uncletopia.com","port":27015,"enabled":true,"region":"us-central","cc":"us","latitude":41.881832,"longitude":-87.62318,"reserved":0,"last_update":"0001-01-01T00:00:00Z","name_a2s":"Uncletopia | Chicago | 1 | All Maps","protocol":17,"map":"koth_cascade","folder":"tf","game":"Team Fortress","app_id":440,"player_count":24,"max_players":24,"Bots":0,"server_type":"Dedicated","server_os":"Linux","password":true,"vac":true,"version":"7757534","steam_id":85568392924469984,"keywords":["cp","nocrits","nodmgspread","uncletopia"],"game_id":440,"stv_port":27016,"stv_name":"Uncletopia | Chicago | 1 | All Maps | STV","players":[{"user_id":119,"name":"Legit_Jaxer","steam_id":76561198172234053,"connected_time":100000000000,"state":"active","ping":129},{"user_id":105,"name":"Watt Dafuq","steam_id":76561198194402925,"connected_time":1101000000000,"state":"active","ping":82},{"user_id":94,"name":"William Wallace","steam_id":76561199343316814,"connected_time":1593000000000,"state":"active","ping":69},{"user_id":113,"name":"Ta5K","steam_id":76561198939558155,"connected_time":484000000000,"state":"active","ping":43},{"user_id":61,"name":"HOODEDLAWYER285","steam_id":76561198156496197,"connected_time":4871000000000,"state":"active","ping":50},{"user_id":106,"name":"Goober","steam_id":76561198105930089,"connected_time":1097000000000,"state":"active","ping":66},{"user_id":72,"name":"-Cheezy-","steam_id":76561198081953846,"connected_time":4107000000000,"state":"active","ping":56},{"user_id":110,"name":"PenguinSafe","steam_id":76561198330002534,"connected_time":844000000000,"state":"active","ping":74},{"user_id":107,"name":"Gongus","steam_id":76561199199194177,"connected_time":1081000000000,"state":"active","ping":78},{"user_id":103,"name":"yitz","steam_id":76561198375575841,"connected_time":1240000000000,"state":"active","ping":53},{"user_id":95,"name":"richard clock","steam_id":76561198048455671,"connected_time":1593000000000,"state":"active","ping":60},{"user_id":116,"name":"you have no swag!!!!!!!!","steam_id":76561198143132686,"connected_time":403000000000,"state":"active","ping":86},{"user_id":115,"name":"Nave","steam_id":76561198152862549,"connected_time":422000000000,"state":"active","ping":52},{"user_id":56,"name":"Garfield","steam_id":76561198037803087,"connected_time":5115000000000,"state":"active","ping":70},{"user_id":96,"name":"Dude bro","steam_id":76561198249916746,"connected_time":1593000000000,"state":"active","ping":77},{"user_id":84,"name":"Astoriae!","steam_id":76561199090168858,"connected_time":3016000000000,"state":"active","ping":74},{"user_id":87,"name":"donatello ツ","steam_id":76561198091157081,"connected_time":2507000000000,"state":"active","ping":60},{"user_id":118,"name":"Pwnedbyfatty - PMKBB","steam_id":76561197995037409,"connected_time":239000000000,"state":"active","ping":67},{"user_id":111,"name":"rip muhammad ali","steam_id":76561198072640720,"connected_time":837000000000,"state":"active","ping":72},{"user_id":99,"name":"Drunkard Bocchi","steam_id":76561198025668771,"connected_time":1555000000000,"state":"active","ping":114},{"user_id":114,"name":"ThatGuyFromClass","steam_id":76561198445601688,"connected_time":453000000000,"state":"active","ping":66},{"user_id":86,"name":"Dale","steam_id":76561198095794136,"connected_time":2809000000000,"state":"active","ping":94},{"user_id":117,"name":"Stinkin' Up The Waiting Room","steam_id":76561198011675372,"connected_time":333000000000,"state":"active","ping":106},{"user_id":112,"name":"banana man","steam_id":76561199385170644,"connected_time":761000000000,"state":"active","ping":47}]},{"server_id":106,"name":"Uncletopia | Chicago | 2 | All Maps","name_short":"chi-2","host":"chi-1.us.uncletopia.com","port":27025,"enabled":true,"region":"us-central","cc":"us","latitude":41.881832,"longitude":-87.62318,"reserved":0,"last_update":"0001-01-01T00:00:00Z","name_a2s":"Uncletopia | Chicago | 2 | All Maps","protocol":17,"map":"pl_swiftwater_final1","folder":"tf","game":"Team Fortress","app_id":440,"player_count":0,"max_players":24,"Bots":0,"server_type":"Dedicated","server_os":"Linux","password":true,"vac":true,"version":"7757534","steam_id":85568392924469985,"keywords":["nocrits","nodmgspread","payload","uncletopia"],"game_id":440,"stv_port":27026,"stv_name":"Uncletopia | Chicago | 2 | All Maps | STV","players":null},{"server_id":402,"name":"Uncletopia | Chicago | 3 | All Maps","name_short":"chi-3","host":"chi-1.us.uncletopia.com","port":27035,"enabled":true,"region":"us-central","cc":"us","latitude":41.881832,"longitude":-87.62318,"reserved":0,"last_update":"0001-01-01T00:00:00Z","name_a2s":"Uncletopia | Chicago | 3 | All Maps","protocol":17,"map":"koth_cascade","folder":"tf","game":"Team Fortress","app_id":440,"player_count":0,"max_players":24,"Bots":0,"server_type":"Dedicated","server_os":"Linux","password":true,"vac":true,"version":"7757534","steam_id":85568392924515191,"keywords":["cp","nocrits","nodmgspread","uncletopia"],"game_id":440,"stv_port":27036,"stv_name":"Uncletopia | Chicago | 3 | All Maps | STV","players":null},{"server_id":403,"name":"Uncletopia | Chicago | 4 | All Maps","name_short":"chi-4","host":"chi-1.us.uncletopia.com","port":27045,"enabled":true,"region":"us-central","cc":"us","latitude":41.881832,"longitude":-87.62318,"reserved":0,"last_update":"0001-01-01T00:00:00Z","name_a2s":"Uncletopia | Chicago | 4 | All Maps","protocol":17,"map":"koth_cascade","folder":"tf","game":"Team Fortress","app_id":440,"player_count":16,"max_players":24,"Bots":0,"server_type":"Dedicated","server_os":"Linux","password":true,"vac":true,"version":"7757534","steam_id":85568392924515193,"keywords":["cp","nocrits","nodmgspread","uncletopia"],"game_id":440,"stv_port":27046,"stv_name":"Uncletopia | Chicago | 4 | All Maps | STV","players":[{"user_id":6,"name":"SoundslikeJustice","steam_id":76561198963640645,"connected_time":1518000000000,"state":"active","ping":76},{"user_id":5,"name":"Mr.Bady","steam_id":76561199094651706,"connected_time":1577000000000,"state":"active","ping":61},{"user_id":7,"name":"Walkiing","steam_id":76561198074473413,"connected_time":645000000000,"state":"active","ping":36},{"user_id":8,"name":"AutoCon17","steam_id":76561198209977473,"connected_time":620000000000,"state":"active","ping":44},{"user_id":9,"name":"Robin","steam_id":76561198121165149,"connected_time":586000000000,"state":"active","ping":27},{"user_id":10,"name":"chuckleberry","steam_id":76561197987025017,"connected_time":573000000000,"state":"active","ping":90},{"user_id":11,"name":"CORONA™ and friends","steam_id":76561198342011115,"connected_time":539000000000,"state":"active","ping":58},{"user_id":14,"name":"TechnoFlare","steam_id":76561198067720081,"connected_time":480000000000,"state":"active","ping":76},{"user_id":16,"name":"fyg","steam_id":76561198027610614,"connected_time":182000000000,"state":"active","ping":59},{"user_id":18,"name":"reigh","steam_id":76561198090337076,"connected_time":132000000000,"state":"active","ping":60},{"user_id":19,"name":"Velocircopter","steam_id":76561198847582048,"connected_time":131000000000,"state":"active","ping":76},{"user_id":20,"name":"Chicken","steam_id":76561198220970932,"connected_time":111000000000,"state":"active","ping":118},{"user_id":21,"name":"Romsvo","steam_id":76561199108904770,"connected_time":95000000000,"state":"active","ping":159},{"user_id":22,"name":"JestinJester","steam_id":76561198411846094,"connected_time":63000000000,"state":"active","ping":76},{"user_id":23,"name":"Huey","steam_id":76561198972816386,"connected_time":59000000000,"state":"active","ping":77},{"user_id":24,"name":"tkeati","steam_id":76561198056356574,"connected_time":39000000000,"state":"active","ping":86}]},{"server_id":36,"name":"Uncletopia | Chicago | 5 | All Maps","name_short":"chi-5","host":"chi-2.us.uncletopia.com","port":27015,"enabled":true,"region":"us-central","cc":"us","latitude":41.881832,"longitude":-87.62318,"reserved":0,"last_update":"0001-01-01T00:00:00Z","name_a2s":"Uncletopia | Chicago | 5 | All Maps","protocol":17,"map":"koth_lakeside_final","folder":"tf","game":"Team Fortress","app_id":440,"player_count":0,"max_players":24,"Bots":0,"server_type":"Dedicated","server_os":"Linux","password":true,"vac":true,"version":"7757534","steam_id":85568392924866362,"keywords":["cp","nocrits","nodmgspread","uncletopia"],"game_id":440,"stv_port":27016,"stv_name":"Uncletopia | Chicago | 5 | All Maps | STV","players":null},{"server_id":37,"name":"Uncletopia | Chicago | 6 | All Maps","name_short":"chi-6","host":"chi-2.us.uncletopia.com","port":27025,"enabled":true,"region":"us-central","cc":"us","latitude":41.881832,"longitude":-87.62318,"reserved":0,"last_update":"0001-01-01T00:00:00Z","name_a2s":"Uncletopia | Chicago | 6 | All Maps","protocol":17,"map":"pl_barnblitz","folder":"tf","game":"Team Fortress","app_id":440,"player_count":0,"max_players":24,"Bots":0,"server_type":"Dedicated","server_os":"Linux","password":true,"vac":true,"version":"7757534","steam_id":85568392924866363,"keywords":["nocrits","nodmgspread","payload","uncletopia"],"game_id":440,"stv_port":27026,"stv_name":"Uncletopia | Chicago | 6 | All Maps | STV","players":null},{"server_id":38,"name":"Uncletopia | Chicago | 7 | Stopwatch Beta","name_short":"chi-7","host":"chi-2.us.uncletopia.com","port":27035,"enabled":true,"region":"us-central","cc":"us","latitude":41.881832,"longitude":-87.62318,"reserved":0,"last_update":"0001-01-01T00:00:00Z","name_a2s":"Uncletopia | Chicago | 7 | Stopwatch Beta","protocol":17,"map":"koth_viaduct","folder":"tf","game":"Team Fortress","app_id":440,"player_count":0,"max_players":24,"Bots":0,"server_type":"Dedicated","server_os":"Linux","password":true,"vac":true,"version":"7757534","steam_id":85568392924866364,"keywords":["cp","nocrits","nodmgspread","uncletopia"],"game_id":440,"stv_port":27036,"stv_name":"Uncletopia | Chicago | 7 | Stopwatch Beta | STV","players":null},{"server_id":39,"name":"Uncletopia | Chicago | 8 | Community","name_short":"chi-8","host":"chi-2.us.uncletopia.com","port":27045,"enabled":true,"region":"us-central","cc":"us","latitude":41.881832,"longitude":-87.62318,"reserved":0,"last_update":"0001-01-01T00:00:00Z","name_a2s":"Uncletopia | Chicago | 8 | Community","protocol":17,"map":"koth_lakeside_final","folder":"tf","game":"Team Fortress","app_id":440,"player_count":0,"max_players":24,"Bots":0,"server_type":"Dedicated","server_os":"Linux","password":true,"vac":true,"version":"7757534","steam_id":85568392924866365,"keywords":["cp","nocrits","nodmgspread","uncletopia"],"game_id":440,"stv_port":27046,"stv_name":"Uncletopia | Chicago | 8 | Community | STV","players":null},{"server_id":8,"name":"Uncletopia | Dallas | 1 | All Maps","name_short":"dal-1","host":"dal-1.us.uncletopia.com","port":27015,"enabled":true,"region":"us-central","cc":"us","latitude":32.779167,"longitude":-96.80889,"reserved":0,"last_update":"0001-01-01T00:00:00Z","name_a2s":"Uncletopia | Dallas | 1 | All Maps","protocol":17,"map":"koth_lakeside_final","folder":"tf","game":"Team Fortress","app_id":440,"player_count":0,"max_players":24,"Bots":0,"server_type":"Dedicated","server_os":"Linux","password":true,"vac":true,"version":"7757534","steam_id":85568392924469986,"keywords":["cp","nocrits","nodmgspread","uncletopia"],"game_id":440,"stv_port":27016,"stv_name":"Uncletopia | Dallas | 1 | All Maps | STV","players":null},{"server_id":108,"name":"Uncletopia | Dallas | 2 | All Maps","name_short":"dal-2","host":"dal-1.us.uncletopia.com","port":27025,"enabled":true,"region":"us-central","cc":"us","latitude":32.779167,"longitude":-96.80889,"reserved":0,"last_update":"0001-01-01T00:00:00Z","name_a2s":"Uncletopia | Dallas | 2 | All Maps","protocol":17,"map":"pl_swiftwater_final1","folder":"tf","game":"Team Fortress","app_id":440,"player_count":23,"max_players":24,"Bots":0,"server_type":"Dedicated","server_os":"Linux","password":true,"vac":true,"version":"7757534","steam_id":85568392924469988,"keywords":["nocrits","nodmgspread","payload","uncletopia"],"game_id":440,"stv_port":27026,"stv_name":"Uncletopia | Dallas | 2 | All Maps | STV","players":[{"user_id":110,"name":"BrainTumorino","steam_id":76561198146413517,"connected_time":467000000000,"state":"active","ping":81},{"user_id":98,"name":"Kanway Shitty","steam_id":76561198031440230,"connected_time":1036000000000,"state":"active","ping":75},{"user_id":112,"name":"floofy","steam_id":76561198389769098,"connected_time":31000000000,"state":"spawning","ping":82},{"user_id":58,"name":"Koffy","steam_id":76561198184386039,"connected_time":3945000000000,"state":"active","ping":99},{"user_id":68,"name":"Fusion","steam_id":76561199161175949,"connected_time":3300000000000,"state":"active","ping":93},{"user_id":109,"name":"Avizzo","steam_id":76561198127023219,"connected_time":609000000000,"state":"active","ping":50},{"user_id":46,"name":"Ramadan Steve","steam_id":76561198138568488,"connected_time":4657000000000,"state":"active","ping":82},{"user_id":24,"name":"SOULDOG","steam_id":76561199212057006,"connected_time":5469000000000,"state":"active","ping":185},{"user_id":103,"name":"mtn.dewdrinker1999","steam_id":76561198021308963,"connected_time":943000000000,"state":"active","ping":60},{"user_id":99,"name":"Vlashen","steam_id":76561197960788563,"connected_time":1018000000000,"state":"active","ping":77},{"user_id":104,"name":"STEVE","steam_id":76561198063475894,"connected_time":901000000000,"state":"active","ping":67},{"user_id":82,"name":"dmdr1969","steam_id":76561198080469611,"connected_time":2159000000000,"state":"active","ping":75},{"user_id":111,"name":"Brunch","steam_id":76561198253384918,"connected_time":290000000000,"state":"active","ping":72},{"user_id":75,"name":"momb","steam_id":76561198142234038,"connected_time":3103000000000,"state":"active","ping":85},{"user_id":105,"name":"frozenwasanokmovie","steam_id":76561198157407952,"connected_time":847000000000,"state":"active","ping":76},{"user_id":100,"name":"chikin.sauce","steam_id":76561198042464635,"connected_time":1013000000000,"state":"active","ping":60},{"user_id":106,"name":"mrbeast109385079350229083479082","steam_id":76561198370687830,"connected_time":839000000000,"state":"active","ping":95},{"user_id":43,"name":"chanoc","steam_id":76561198026734746,"connected_time":4703000000000,"state":"active","ping":87},{"user_id":95,"name":"Doc{MDW}","steam_id":76561198075049640,"connected_time":1376000000000,"state":"active","ping":75},{"user_id":84,"name":"Team Fortress Forever","steam_id":76561199192132061,"connected_time":2137000000000,"state":"active","ping":78},{"user_id":107,"name":"hola","steam_id":76561198873043242,"connected_time":813000000000,"state":"active","ping":134},{"user_id":108,"name":"catrinaisahuman","steam_id":76561198281355729,"connected_time":675000000000,"state":"active","ping":60},{"user_id":55,"name":"_Lusty_","steam_id":76561198876948142,"connected_time":4368000000000,"state":"active","ping":62}]},{"server_id":5,"name":"Uncletopia | Frankfurt | 1 | All Maps","name_short":"frk-1","host":"frk-1.de.uncletopia.com","port":27015,"enabled":true,"region":"eu","cc":"de","latitude":50.110924,"longitude":8.682127,"reserved":0,"last_update":"0001-01-01T00:00:00Z","name_a2s":"Uncletopia | Frankfurt | 1 | All Maps","protocol":17,"map":"koth_suijin","folder":"tf","game":"Team Fortress","app_id":440,"player_count":0,"max_players":24,"Bots":0,"server_type":"Dedicated","server_os":"Linux","password":true,"vac":true,"version":"7757534","steam_id":85568392924469989,"keywords":["cp","nocrits","nodmgspread","uncletopia"],"game_id":440,"stv_port":27016,"stv_name":"Uncletopia | Frankfurt | 1 | All Maps | STV","players":null},{"server_id":110,"name":"Uncletopia | Frankfurt | 2 | All Maps","name_short":"frk-2","host":"frk-1.de.uncletopia.com","port":27025,"enabled":true,"region":"eu","cc":"de","latitude":50.110924,"longitude":8.682127,"reserved":0,"last_update":"0001-01-01T00:00:00Z","name_a2s":"Uncletopia | Frankfurt | 2 | All Maps","protocol":17,"map":"cp_mountainlab","folder":"tf","game":"Team Fortress","app_id":440,"player_count":6,"max_players":24,"Bots":0,"server_type":"Dedicated","server_os":"Linux","password":true,"vac":true,"version":"7757534","steam_id":85568392924469990,"keywords":["cp","nocrits","nodmgspread","uncletopia"],"game_id":440,"stv_port":27026,"stv_name":"Uncletopia | Frankfurt | 2 | All Maps | STV","players":[{"user_id":30,"name":"Dorfde","steam_id":76561199013373515,"connected_time":649000000000,"state":"active","ping":77},{"user_id":35,"name":"hourglass","steam_id":76561198166613799,"connected_time":218000000000,"state":"active","ping":99},{"user_id":24,"name":"antlionguard","steam_id":76561198072747143,"connected_time":1371000000000,"state":"active","ping":91},{"user_id":41,"name":"Francis Crabb","steam_id":76561198259082154,"connected_time":123000000000,"state":"active","ping":85},{"user_id":28,"name":"☆MiNTERRRRR☆","steam_id":76561198799866156,"connected_time":1071000000000,"state":"active","ping":115},{"user_id":42,"name":"Bne sop","steam_id":76561198136135436,"connected_time":93000000000,"state":"active","ping":92}]},{"server_id":308,"name":"Uncletopia | Frankfurt | 3 | All Maps","name_short":"frk-3","host":"frk-1.de.uncletopia.com","port":27035,"enabled":true,"region":"eu","cc":"de","latitude":50.110924,"longitude":8.682127,"reserved":0,"last_update":"0001-01-01T00:00:00Z","name_a2s":"Uncletopia | Frankfurt | 3 | All Maps","protocol":17,"map":"koth_suijin","folder":"tf","game":"Team Fortress","app_id":440,"player_count":0,"max_players":24,"Bots":0,"server_type":"Dedicated","server_os":"Linux","password":true,"vac":true,"version":"7757534","steam_id":85568392924504274,"keywords":["cp","nocrits","nodmgspread","uncletopia"],"game_id":440,"stv_port":27036,"stv_name":"Uncletopia | Frankfurt | 3 | All Maps | STV","players":null},{"server_id":309,"name":"Uncletopia | Frankfurt | 4 | All Maps","name_short":"frk-4","host":"frk-1.de.uncletopia.com","port":27045,"enabled":true,"region":"eu","cc":"de","latitude":50.110924,"longitude":8.682127,"reserved":0,"last_update":"0001-01-01T00:00:00Z","name_a2s":"Uncletopia | Frankfurt | 4 | All Maps","protocol":17,"map":"koth_suijin","folder":"tf","game":"Team Fortress","app_id":440,"player_count":0,"max_players":24,"Bots":0,"server_type":"Dedicated","server_os":"Linux","password":true,"vac":true,"version":"7757534","steam_id":85568392924504275,"keywords":["cp","nocrits","nodmgspread","uncletopia"],"game_id":440,"stv_port":27046,"stv_name":"Uncletopia | Frankfurt | 4 | All Maps | STV","players":null},{"server_id":310,"name":"Uncletopia | Frankfurt | 5 | All Maps","name_short":"frk-5","host":"frk-1.de.uncletopia.com","port":27055,"enabled":true,"region":"eu","cc":"de","latitude":50.110924,"longitude":8.682127,"reserved":0,"last_update":"0001-01-01T00:00:00Z","name_a2s":"Uncletopia | Frankfurt | 5 | All Maps","protocol":17,"map":"pl_upward","folder":"tf","game":"Team Fortress","app_id":440,"player_count":24,"max_players":24,"Bots":0,"server_type":"Dedicated","server_os":"Linux","password":true,"vac":true,"version":"7757534","steam_id":85568392924504277,"keywords":["nocrits","nodmgspread","payload","uncletopia"],"game_id":440,"stv_port":27056,"stv_name":"Uncletopia | Frankfurt | 5 | All Maps | STV","players":[{"user_id":168,"name":"Hey, I´m Andy!","steam_id":76561198060337777,"connected_time":57000000000,"state":"active","ping":74},{"user_id":140,"name":"HayLeX","steam_id":76561198130997343,"connected_time":2256000000000,"state":"active","ping":85},{"user_id":154,"name":"H1SM43L","steam_id":76561198133168564,"connected_time":1315000000000,"state":"active","ping":53},{"user_id":139,"name":"Taez","steam_id":76561198261820803,"connected_time":2260000000000,"state":"active","ping":74},{"user_id":145,"name":"Remi_16","steam_id":76561199034362210,"connected_time":2049000000000,"state":"active","ping":166},{"user_id":103,"name":"baro.ricky","steam_id":76561198172204039,"connected_time":4643000000000,"state":"active","ping":70},{"user_id":162,"name":"Rex","steam_id":76561199474556920,"connected_time":896000000000,"state":"active","ping":91},{"user_id":153,"name":"блин!","steam_id":76561198808819694,"connected_time":1380000000000,"state":"active","ping":45},{"user_id":123,"name":"5KY13R","steam_id":76561198027603266,"connected_time":2916000000000,"state":"active","ping":144},{"user_id":155,"name":"MEDiUM","steam_id":76561198112328561,"connected_time":1242000000000,"state":"active","ping":83},{"user_id":163,"name":"Cosmonaut","steam_id":76561198239514504,"connected_time":756000000000,"state":"active","ping":55},{"user_id":115,"name":"Spectral Sloth","steam_id":76561198170083139,"connected_time":3747000000000,"state":"active","ping":83},{"user_id":169,"name":"I am piss man","steam_id":76561198039209685,"connected_time":12000000000,"state":"spawning","ping":70},{"user_id":156,"name":"Doriian","steam_id":76561198071438810,"connected_time":1240000000000,"state":"active","ping":75},{"user_id":160,"name":"i2sanrio","steam_id":76561199471752602,"connected_time":1088000000000,"state":"active","ping":64},{"user_id":166,"name":"Bastard'Nick","steam_id":76561198044044651,"connected_time":253000000000,"state":"active","ping":70},{"user_id":134,"name":"1couver","steam_id":76561198168553215,"connected_time":2501000000000,"state":"active","ping":104},{"user_id":158,"name":"Gio'sMonkey","steam_id":76561198892432223,"connected_time":1195000000000,"state":"active","ping":81},{"user_id":74,"name":"MoistMomMauler","steam_id":76561198069359049,"connected_time":5926000000000,"state":"active","ping":89},{"user_id":159,"name":"Viksen","steam_id":76561198071290317,"connected_time":1195000000000,"state":"active","ping":60},{"user_id":131,"name":"Vollys","steam_id":76561198018077773,"connected_time":2766000000000,"state":"active","ping":57},{"user_id":161,"name":"[P-roc] Cmm Bert","steam_id":76561198016658674,"connected_time":989000000000,"state":"active","ping":76},{"user_id":102,"name":"Chopperson_","steam_id":76561198873728497,"connected_time":4658000000000,"state":"active","ping":112},{"user_id":132,"name":"Anti_Dragon","steam_id":76561198969060607,"connected_time":2764000000000,"state":"active","ping":101}]},{"server_id":311,"name":"Uncletopia | Frankfurt | 6 | All Maps","name_short":"frk-6","host":"frk-1.de.uncletopia.com","port":27065,"enabled":true,"region":"eu","cc":"de","latitude":50.110924,"longitude":8.682127,"reserved":0,"last_update":"0001-01-01T00:00:00Z","name_a2s":"Uncletopia | Frankfurt | 6 | All Maps","protocol":17,"map":"pl_borneo","folder":"tf","game":"Team Fortress","app_id":440,"player_count":24,"max_players":24,"Bots":0,"server_type":"Dedicated","server_os":"Linux","password":true,"vac":true,"version":"7757534","steam_id":85568392924504278,"keywords":["nocrits","nodmgspread","payload","uncletopia"],"game_id":440,"stv_port":27066,"stv_name":"Uncletopia | Frankfurt | 6 | All Maps | STV","players":[{"user_id":87,"name":"Trebox78","steam_id":76561198071963357,"connected_time":134000000000,"state":"active","ping":76},{"user_id":69,"name":"SeductiveOctopus","steam_id":76561198011036516,"connected_time":1148000000000,"state":"active","ping":67},{"user_id":16,"name":"Lordware","steam_id":76561198022011299,"connected_time":4707000000000,"state":"active","ping":79},{"user_id":65,"name":"Assassin Heavy","steam_id":76561198064474215,"connected_time":1762000000000,"state":"active","ping":179},{"user_id":53,"name":"CAMON ENGELAND","steam_id":76561198054301125,"connected_time":2342000000000,"state":"active","ping":97},{"user_id":20,"name":"zombaka123 (F2P)","steam_id":76561198895525987,"connected_time":4192000000000,"state":"active","ping":63},{"user_id":51,"name":"Gordon","steam_id":76561198088042034,"connected_time":2609000000000,"state":"active","ping":106},{"user_id":72,"name":"Sebdet9","steam_id":76561199077463864,"connected_time":913000000000,"state":"active","ping":75},{"user_id":63,"name":"Brainlet","steam_id":76561198862617163,"connected_time":2094000000000,"state":"active","ping":84},{"user_id":52,"name":"The Wolf Leader","steam_id":76561198038007462,"connected_time":2369000000000,"state":"active","ping":65},{"user_id":47,"name":"Solymr ibn Wali Barad","steam_id":76561198044008976,"connected_time":2923000000000,"state":"active","ping":74},{"user_id":29,"name":"SantiTzePug","steam_id":76561199049615996,"connected_time":3617000000000,"state":"active","ping":73},{"user_id":85,"name":"Leibeigener","steam_id":76561199275478305,"connected_time":252000000000,"state":"active","ping":41},{"user_id":31,"name":"Lieutenant Lead","steam_id":76561198336867604,"connected_time":3577000000000,"state":"active","ping":51},{"user_id":66,"name":"♥ Emma ♥","steam_id":76561198046796406,"connected_time":1441000000000,"state":"active","ping":45},{"user_id":68,"name":"twitch.tv/vision515","steam_id":76561198065293729,"connected_time":1179000000000,"state":"active","ping":168},{"user_id":86,"name":"Rui","steam_id":76561198263735498,"connected_time":251000000000,"state":"active","ping":84},{"user_id":35,"name":"oepidus","steam_id":76561198963841479,"connected_time":3505000000000,"state":"active","ping":86},{"user_id":70,"name":"Packet","steam_id":76561199173195875,"connected_time":1145000000000,"state":"active","ping":100},{"user_id":58,"name":"Over here saw bones","steam_id":76561198320506848,"connected_time":2327000000000,"state":"active","ping":50},{"user_id":44,"name":"tét.","steam_id":76561198146309367,"connected_time":3004000000000,"state":"active","ping":94},{"user_id":45,"name":"Meg Thomas","steam_id":76561198308266951,"connected_time":2997000000000,"state":"active","ping":60},{"user_id":62,"name":"spuugen hauer","steam_id":76561198004186922,"connected_time":2113000000000,"state":"active","ping":75},{"user_id":64,"name":"jt7","steam_id":76561198073655162,"connected_time":2094000000000,"state":"active","ping":68}]},{"server_id":23,"name":"Uncletopia | Frankfurt | 7 | Stopwatch Beta","name_short":"frk-7","host":"frk-1.de.uncletopia.com","port":27075,"enabled":true,"region":"eu","cc":"de","latitude":50.110924,"longitude":8.682127,"reserved":0,"last_update":"0001-01-01T00:00:00Z","name_a2s":"Uncletopia | Frankfurt | 7 | Stopwatch Beta","protocol":17,"map":"pl_borneo","folder":"tf","game":"Team Fortress","app_id":440,"player_count":0,"max_players":24,"Bots":0,"server_type":"Dedicated","server_os":"Linux","password":true,"vac":true,"version":"7757534","steam_id":85568392924742827,"keywords":["nocrits","nodmgspread","payload","uncletopia"],"game_id":440,"stv_port":27076,"stv_name":"Uncletopia | Frankfurt | 7 | Stopwatch Beta | STV","players":null},{"server_id":24,"name":"Uncletopia | Frankfurt | 8 | Community","name_short":"frk-8","host":"frk-1.de.uncletopia.com","port":27085,"enabled":true,"region":"eu","cc":"de","latitude":50.110924,"longitude":8.682127,"reserved":0,"last_update":"0001-01-01T00:00:00Z","name_a2s":"Uncletopia | Frankfurt | 8 | Community","protocol":17,"map":"koth_viaduct","folder":"tf","game":"Team Fortress","app_id":440,"player_count":0,"max_players":24,"Bots":0,"server_type":"Dedicated","server_os":"Linux","password":true,"vac":true,"version":"7757534","steam_id":85568392924742828,"keywords":["cp","nocrits","nodmgspread","uncletopia"],"game_id":440,"stv_port":27086,"stv_name":"Uncletopia | Frankfurt | 8 | Community | STV","players":null},{"server_id":202,"name":"Uncletopia | Hong Kong | 1 | All Maps","name_short":"hgk-1","host":"hgk-1.hk.uncletopia.com","port":27015,"enabled":true,"region":"asia","cc":"hk","latitude":22.302711,"longitude":114.177216,"reserved":0,"last_update":"0001-01-01T00:00:00Z","name_a2s":"Uncletopia | Hong Kong | 1 | All Maps","protocol":17,"map":"pl_barnblitz","folder":"tf","game":"Team Fortress","app_id":440,"player_count":4,"max_players":24,"Bots":0,"server_type":"Dedicated","server_os":"Linux","password":true,"vac":true,"version":"7757534","steam_id":85568392924494504,"keywords":["nocrits","nodmgspread","payload","uncletopia"],"game_id":440,"stv_port":27016,"stv_name":"Uncletopia | Hong Kong | 1 | All Maps | STV","players":[{"user_id":378,"name":"animal loverr (NOT FURRY)","steam_id":76561198963382881,"connected_time":712000000000,"state":"active","ping":107},{"user_id":361,"name":"luthfihar","steam_id":76561198180821050,"connected_time":2538000000000,"state":"active","ping":108},{"user_id":374,"name":"DresatCouchonion","steam_id":76561199388364553,"connected_time":1351000000000,"state":"active","ping":128},{"user_id":166,"name":"Bertengkar","steam_id":76561198213031155,"connected_time":18485000000000,"state":"active","ping":90}]},{"server_id":1,"name":"Uncletopia | Los Angeles | 1 | All Maps","name_short":"lax-1","host":"lax-1.us.uncletopia.com","port":27015,"enabled":true,"region":"us-west","cc":"us","latitude":33.94279,"longitude":-118.41004,"reserved":0,"last_update":"0001-01-01T00:00:00Z","name_a2s":"Uncletopia | Los Angeles | 1 | All Maps","protocol":17,"map":"koth_harvest_final","folder":"tf","game":"Team Fortress","app_id":440,"player_count":0,"max_players":24,"Bots":0,"server_type":"Dedicated","server_os":"Linux","password":true,"vac":true,"version":"7757534","steam_id":85568392924469991,"keywords":["cp","nocrits","nodmgspread","uncletopia"],"game_id":440,"stv_port":27016,"stv_name":"Uncletopia | Los Angeles | 1 | All Maps | STV","players":null},{"server_id":112,"name":"Uncletopia | Los Angeles | 2 | All Maps","name_short":"lax-2","host":"lax-1.us.uncletopia.com","port":27025,"enabled":true,"region":"us-west","cc":"us","latitude":33.94279,"longitude":-118.41004,"reserved":0,"last_update":"0001-01-01T00:00:00Z","name_a2s":"Uncletopia | Los Angeles | 2 | All Maps","protocol":17,"map":"koth_viaduct","folder":"tf","game":"Team Fortress","app_id":440,"player_count":0,"max_players":24,"Bots":0,"server_type":"Dedicated","server_os":"Linux","password":true,"vac":true,"version":"7757534","steam_id":85568392924469992,"keywords":["cp","nocrits","nodmgspread","uncletopia"],"game_id":440,"stv_port":27026,"stv_name":"Uncletopia | Los Angeles | 2 | All Maps | STV","players":null},{"server_id":324,"name":"Uncletopia | Los Angeles | 3 | All Maps","name_short":"lax-3","host":"lax-1.us.uncletopia.com","port":27035,"enabled":true,"region":"us-west","cc":"us","latitude":33.94279,"longitude":-118.41004,"reserved":0,"last_update":"0001-01-01T00:00:00Z","name_a2s":"Uncletopia | Los Angeles | 3 | All Maps","protocol":17,"map":"cp_altitude","folder":"tf","game":"Team Fortress","app_id":440,"player_count":0,"max_players":24,"Bots":0,"server_type":"Dedicated","server_os":"Linux","password":true,"vac":true,"version":"7757534","steam_id":85568392924510198,"keywords":["cp","nocrits","nodmgspread","uncletopia"],"game_id":440,"stv_port":27036,"stv_name":"Uncletopia | Los Angeles | 3 | All Maps | STV","players":null},{"server_id":25,"name":"Uncletopia | Los Angeles | 4 | Stopwatch Beta","name_short":"lax-4","host":"lax-1.us.uncletopia.com","port":27045,"enabled":true,"region":"us-west","cc":"us","latitude":33.94279,"longitude":-118.41004,"reserved":0,"last_update":"0001-01-01T00:00:00Z","name_a2s":"Uncletopia | Los Angeles | 4 | Stopwatch Beta","protocol":17,"map":"cp_dustbowl","folder":"tf","game":"Team Fortress","app_id":440,"player_count":0,"max_players":24,"Bots":0,"server_type":"Dedicated","server_os":"Linux","password":true,"vac":true,"version":"7757534","steam_id":85568392924510199,"keywords":["cp","nocrits","nodmgspread","uncletopia"],"game_id":440,"stv_port":27046,"stv_name":"Uncletopia | Los Angeles | 4 | Stopwatch Beta | STV","players":null},{"server_id":11,"name":"Uncletopia | London | 1 | All Maps","name_short":"lon-1","host":"lon-1.uk.uncletopia.com","port":27015,"enabled":true,"region":"eu","cc":"gb","latitude":51.509865,"longitude":-0.118092,"reserved":0,"last_update":"0001-01-01T00:00:00Z","name_a2s":"Uncletopia | London | 1 | All Maps","protocol":17,"map":"cp_altitude","folder":"tf","game":"Team Fortress","app_id":440,"player_count":23,"max_players":24,"Bots":0,"server_type":"Dedicated","server_os":"Linux","password":true,"vac":true,"version":"7757534","steam_id":85568392924367362,"keywords":["cp","nocrits","nodmgspread","uncletopia"],"game_id":440,"stv_port":27016,"stv_name":"Uncletopia | London | 1 | All Maps | STV","players":[{"user_id":259,"name":"ldshwt","steam_id":76561198090364357,"connected_time":7207000000000,"state":"active","ping":62},{"user_id":351,"name":"murderwow","steam_id":76561198024566944,"connected_time":14000000000,"state":"spawning","ping":103},{"user_id":315,"name":"Umbro","steam_id":76561198087930438,"connected_time":3514000000000,"state":"active","ping":80},{"user_id":337,"name":"Serton♝","steam_id":76561198011061126,"connected_time":692000000000,"state":"active","ping":72},{"user_id":332,"name":"Matteo Besho","steam_id":76561199159657855,"connected_time":1869000000000,"state":"active","ping":83},{"user_id":349,"name":"JMS","steam_id":76561198067913295,"connected_time":117000000000,"state":"active","ping":86},{"user_id":336,"name":"Umberto Bossi","steam_id":76561198136150267,"connected_time":1409000000000,"state":"active","ping":62},{"user_id":313,"name":"Lucker","steam_id":76561198079469430,"connected_time":3749000000000,"state":"active","ping":52},{"user_id":345,"name":"JimJam","steam_id":76561199002957746,"connected_time":304000000000,"state":"active","ping":65},{"user_id":294,"name":"METhOphetamine","steam_id":76561198068216224,"connected_time":5085000000000,"state":"active","ping":60},{"user_id":331,"name":"Скряга Мак Дак","steam_id":76561198274366137,"connected_time":1878000000000,"state":"active","ping":114},{"user_id":338,"name":"JeanCorben","steam_id":76561197965133561,"connected_time":592000000000,"state":"active","ping":44},{"user_id":347,"name":"jimmy bob","steam_id":76561198319583692,"connected_time":155000000000,"state":"active","ping":58},{"user_id":286,"name":"Der Herr Doktor","steam_id":76561198119476089,"connected_time":5298000000000,"state":"active","ping":73},{"user_id":339,"name":"Silent Person","steam_id":76561198107763537,"connected_time":577000000000,"state":"active","ping":67},{"user_id":291,"name":"Moonlightexel","steam_id":76561198262044897,"connected_time":5173000000000,"state":"active","ping":97},{"user_id":335,"name":"Cuthbert","steam_id":76561198204649481,"connected_time":1816000000000,"state":"active","ping":105},{"user_id":334,"name":"jail or the grave","steam_id":76561198274105878,"connected_time":1855000000000,"state":"active","ping":96},{"user_id":350,"name":"DrippinFat","steam_id":76561198018170682,"connected_time":97000000000,"state":"active","ping":116},{"user_id":328,"name":"EdSuedi","steam_id":76561199387956486,"connected_time":2244000000000,"state":"active","ping":62},{"user_id":344,"name":"Mantis Toboggan, M.D","steam_id":76561197963562704,"connected_time":393000000000,"state":"active","ping":93},{"user_id":333,"name":"Vince","steam_id":76561199103000131,"connected_time":1869000000000,"state":"active","ping":45},{"user_id":326,"name":"LarsInABox","steam_id":76561198028329262,"connected_time":2782000000000,"state":"active","ping":73}]},{"server_id":114,"name":"Uncletopia | London | 2 | All Maps","name_short":"lon-2","host":"lon-1.uk.uncletopia.com","port":27025,"enabled":true,"region":"eu","cc":"gb","latitude":51.509865,"longitude":-0.118092,"reserved":0,"last_update":"0001-01-01T00:00:00Z","name_a2s":"Uncletopia | London | 2 | All Maps","protocol":17,"map":"koth_lakeside_final","folder":"tf","game":"Team Fortress","app_id":440,"player_count":1,"max_players":24,"Bots":0,"server_type":"Dedicated","server_os":"Linux","password":true,"vac":true,"version":"7757534","steam_id":85568392924470941,"keywords":["cp","nocrits","nodmgspread","uncletopia"],"game_id":440,"stv_port":27026,"stv_name":"Uncletopia | London | 2 | All Maps | STV","players":[{"user_id":13,"name":"INKA","steam_id":76561198352479900,"connected_time":229000000000,"state":"active","ping":61}]},{"server_id":320,"name":"Uncletopia | London | 3 | All Maps","name_short":"lon-3","host":"lon-1.uk.uncletopia.com","port":27035,"enabled":true,"region":"eu","cc":"gb","latitude":51.509865,"longitude":-0.118092,"reserved":0,"last_update":"0001-01-01T00:00:00Z","name_a2s":"Uncletopia | London | 3 | All Maps","protocol":17,"map":"cp_steel","folder":"tf","game":"Team Fortress","app_id":440,"player_count":24,"max_players":24,"Bots":0,"server_type":"Dedicated","server_os":"Linux","password":true,"vac":true,"version":"7757534","steam_id":85568392924510192,"keywords":["cp","nocrits","nodmgspread","uncletopia"],"game_id":440,"stv_port":27036,"stv_name":"Uncletopia | London | 3 | All Maps | STV","players":[{"user_id":128,"name":"Congress Of Vienna","steam_id":76561198846784757,"connected_time":4395000000000,"state":"active","ping":82},{"user_id":169,"name":"hud_saytext_time 0","steam_id":76561198010327228,"connected_time":1155000000000,"state":"active","ping":69},{"user_id":134,"name":"SCHLURP","steam_id":76561199150903062,"connected_time":3853000000000,"state":"active","ping":89},{"user_id":129,"name":"Egor Pomidor","steam_id":76561199175688390,"connected_time":4376000000000,"state":"active","ping":82},{"user_id":175,"name":"Kotlet schabowy","steam_id":76561198048983509,"connected_time":830000000000,"state":"active","ping":82},{"user_id":186,"name":"onion knight","steam_id":76561198328543549,"connected_time":167000000000,"state":"active","ping":99},{"user_id":185,"name":"Azor","steam_id":76561198340344220,"connected_time":168000000000,"state":"active","ping":87},{"user_id":84,"name":"PowerKAT [TTV] Emptiness_CTS","steam_id":76561198182129870,"connected_time":7327000000000,"state":"active","ping":92},{"user_id":187,"name":"DraGOs512","steam_id":76561198438519964,"connected_time":163000000000,"state":"active","ping":82},{"user_id":141,"name":"Hartlotte","steam_id":76561198314270417,"connected_time":3145000000000,"state":"active","ping":47},{"user_id":181,"name":"ZANNABLUKE","steam_id":76561198013534336,"connected_time":727000000000,"state":"active","ping":60},{"user_id":157,"name":"Avitz","steam_id":76561197986150359,"connected_time":1384000000000,"state":"active","ping":46},{"user_id":188,"name":"テイルス","steam_id":76561198022403271,"connected_time":159000000000,"state":"active","ping":52},{"user_id":173,"name":"Meddler","steam_id":76561198033001402,"connected_time":975000000000,"state":"active","ping":44},{"user_id":144,"name":"silicon based life form","steam_id":76561199127121346,"connected_time":3014000000000,"state":"active","ping":57},{"user_id":189,"name":"Jackleg Joel","steam_id":76561198271636476,"connected_time":153000000000,"state":"active","ping":65},{"user_id":190,"name":"Max","steam_id":76561198138959361,"connected_time":150000000000,"state":"active","ping":60},{"user_id":159,"name":"Noob_with_source","steam_id":76561198870362103,"connected_time":1379000000000,"state":"active","ping":55},{"user_id":179,"name":"im not cheating","steam_id":76561199476246162,"connected_time":746000000000,"state":"active","ping":75},{"user_id":191,"name":"pain","steam_id":76561198066287297,"connected_time":143000000000,"state":"active","ping":45},{"user_id":192,"name":"Dooble donk man look at me donk","steam_id":76561198225523596,"connected_time":121000000000,"state":"active","ping":67},{"user_id":161,"name":"Leszy","steam_id":76561198372172135,"connected_time":1356000000000,"state":"active","ping":73},{"user_id":193,"name":"THVG","steam_id":76561199156685368,"connected_time":90000000000,"state":"active","ping":75},{"user_id":194,"name":"Jara.","steam_id":76561197992207165,"connected_time":66000000000,"state":"active","ping":106}]},{"server_id":321,"name":"Uncletopia | London | 4 | All Maps","name_short":"lon-4","host":"lon-1.uk.uncletopia.com","port":27045,"enabled":true,"region":"eu","cc":"gb","latitude":51.509865,"longitude":-0.118092,"reserved":0,"last_update":"0001-01-01T00:00:00Z","name_a2s":"Uncletopia | London | 4 | All Maps","protocol":17,"map":"pl_snowycoast","folder":"tf","game":"Team Fortress","app_id":440,"player_count":24,"max_players":24,"Bots":0,"server_type":"Dedicated","server_os":"Linux","password":true,"vac":true,"version":"7757534","steam_id":85568392924510193,"keywords":["nocrits","nodmgspread","payload","uncletopia"],"game_id":440,"stv_port":27046,"stv_name":"Uncletopia | London | 4 | All Maps | STV","players":[{"user_id":246,"name":"Faxter","steam_id":76561198011771605,"connected_time":2195000000000,"state":"active","ping":74},{"user_id":219,"name":"/ffª rilookp","steam_id":76561198143529110,"connected_time":3603000000000,"state":"active","ping":46},{"user_id":226,"name":"Princess Fuzz","steam_id":76561198025783000,"connected_time":3125000000000,"state":"active","ping":40},{"user_id":265,"name":"MrQuestion","steam_id":76561197996492622,"connected_time":971000000000,"state":"active","ping":86},{"user_id":157,"name":"New","steam_id":76561198402195911,"connected_time":7128000000000,"state":"active","ping":114},{"user_id":270,"name":"sareena","steam_id":76561198810194062,"connected_time":555000000000,"state":"active","ping":64},{"user_id":212,"name":"Uncle Terry","steam_id":76561198396415736,"connected_time":3976000000000,"state":"active","ping":50},{"user_id":199,"name":"Carrot Arc","steam_id":76561198164957006,"connected_time":4368000000000,"state":"active","ping":85},{"user_id":154,"name":"quickfast","steam_id":76561199438900919,"connected_time":7189000000000,"state":"active","ping":44},{"user_id":252,"name":"painting4","steam_id":76561198067554256,"connected_time":1822000000000,"state":"active","ping":50},{"user_id":235,"name":"Femboy Gaming","steam_id":76561199230209215,"connected_time":2884000000000,"state":"active","ping":63},{"user_id":261,"name":"Hindmost","steam_id":76561199081837220,"connected_time":1589000000000,"state":"active","ping":173},{"user_id":264,"name":"Haggabah,WhoPliesTheUmbralPath","steam_id":76561198846984399,"connected_time":991000000000,"state":"active","ping":88},{"user_id":248,"name":"Knösta","steam_id":76561198143422139,"connected_time":2039000000000,"state":"active","ping":106},{"user_id":274,"name":"ultrandz10","steam_id":76561199119523123,"connected_time":203000000000,"state":"active","ping":115},{"user_id":256,"name":"Davey","steam_id":76561198256879107,"connected_time":1769000000000,"state":"active","ping":76},{"user_id":267,"name":"sex haver","steam_id":76561198798892497,"connected_time":962000000000,"state":"active","ping":57},{"user_id":263,"name":"outin","steam_id":76561198137734730,"connected_time":1178000000000,"state":"active","ping":67},{"user_id":273,"name":"ParvekeFilosofi","steam_id":76561198203140640,"connected_time":342000000000,"state":"active","ping":70},{"user_id":262,"name":"on1on (roughly chopped)","steam_id":76561197995304137,"connected_time":1329000000000,"state":"active","ping":74},{"user_id":259,"name":"Glitchpower64","steam_id":76561198994710718,"connected_time":1731000000000,"state":"active","ping":62},{"user_id":272,"name":"Blackstar","steam_id":76561198169039095,"connected_time":417000000000,"state":"active","ping":153},{"user_id":268,"name":"KnorbertD","steam_id":76561198175745541,"connected_time":942000000000,"state":"active","ping":79},{"user_id":242,"name":"Pelaxis","steam_id":76561198180030121,"connected_time":2659000000000,"state":"active","ping":82}]},{"server_id":21,"name":"Uncletopia | London | 5 | All Maps","name_short":"lon-5","host":"lon-1.uk.uncletopia.com","port":27055,"enabled":true,"region":"eu","cc":"gb","latitude":51.509865,"longitude":-0.118092,"reserved":0,"last_update":"0001-01-01T00:00:00Z","name_a2s":"Uncletopia | London | 5 | All Maps","protocol":17,"map":"pl_barnblitz","folder":"tf","game":"Team Fortress","app_id":440,"player_count":24,"max_players":24,"Bots":0,"server_type":"Dedicated","server_os":"Linux","password":true,"vac":true,"version":"7757534","steam_id":85568392924742829,"keywords":["nocrits","nodmgspread","payload","uncletopia"],"game_id":440,"stv_port":27056,"stv_name":"Uncletopia | London | 5 | All Maps | STV","players":[{"user_id":349,"name":"Draco37","steam_id":76561198949647786,"connected_time":3398000000000,"state":"active","ping":146},{"user_id":389,"name":"Itai","steam_id":76561198804555329,"connected_time":283000000000,"state":"active","ping":109},{"user_id":231,"name":"fetus eater #savetf2","steam_id":76561198294366854,"connected_time":11761000000000,"state":"active","ping":138},{"user_id":281,"name":"Zerfesh","steam_id":76561198117534358,"connected_time":8021000000000,"state":"active","ping":89},{"user_id":381,"name":"lumiukko","steam_id":76561199103891073,"connected_time":431000000000,"state":"active","ping":90},{"user_id":364,"name":"Icaras","steam_id":76561198416724843,"connected_time":1378000000000,"state":"active","ping":34},{"user_id":393,"name":"lore","steam_id":76561198120984188,"connected_time":72000000000,"state":"active","ping":73},{"user_id":382,"name":"$t@lker_Tim","steam_id":76561198963658042,"connected_time":426000000000,"state":"active","ping":126},{"user_id":394,"name":"Annie Wilkes","steam_id":76561198071210041,"connected_time":47000000000,"state":"active","ping":42},{"user_id":352,"name":"PizzaPete123","steam_id":76561198089478290,"connected_time":2756000000000,"state":"active","ping":42},{"user_id":265,"name":"Topme","steam_id":76561198091734693,"connected_time":9805000000000,"state":"active","ping":61},{"user_id":378,"name":"a sticky situation","steam_id":76561198011692496,"connected_time":441000000000,"state":"active","ping":77},{"user_id":322,"name":"After8","steam_id":76561198090750865,"connected_time":5788000000000,"state":"active","ping":77},{"user_id":339,"name":"NLSAM","steam_id":76561199111154916,"connected_time":3983000000000,"state":"active","ping":69},{"user_id":369,"name":"Demoknight tf2","steam_id":76561198133041874,"connected_time":1215000000000,"state":"active","ping":56},{"user_id":383,"name":"glyph","steam_id":76561197980736364,"connected_time":416000000000,"state":"active","ping":81},{"user_id":395,"name":"DribSitoop","steam_id":76561198020597104,"connected_time":37000000000,"state":"active","ping":76},{"user_id":342,"name":"EagleFire","steam_id":76561198352938403,"connected_time":3910000000000,"state":"active","ping":47},{"user_id":390,"name":"relic_","steam_id":76561199053114167,"connected_time":251000000000,"state":"active","ping":74},{"user_id":392,"name":"Skuld","steam_id":76561198064734905,"connected_time":232000000000,"state":"active","ping":102},{"user_id":264,"name":"Fat Pigeon","steam_id":76561198817940142,"connected_time":9849000000000,"state":"active","ping":48},{"user_id":368,"name":"lvl. 50 honkler","steam_id":76561198061688660,"connected_time":1267000000000,"state":"active","ping":114},{"user_id":387,"name":"KaasKrans","steam_id":76561198240451972,"connected_time":331000000000,"state":"active","ping":60},{"user_id":359,"name":"pansexual","steam_id":76561198047778351,"connected_time":2491000000000,"state":"active","ping":45}]},{"server_id":22,"name":"Uncletopia | London | 6 | All Maps","name_short":"lon-6","host":"lon-1.uk.uncletopia.com","port":27065,"enabled":true,"region":"eu","cc":"gb","latitude":51.509865,"longitude":-0.118092,"reserved":0,"last_update":"0001-01-01T00:00:00Z","name_a2s":"Uncletopia | London | 6 | All Maps","protocol":17,"map":"koth_highpass","folder":"tf","game":"Team Fortress","app_id":440,"player_count":0,"max_players":24,"Bots":0,"server_type":"Dedicated","server_os":"Linux","password":true,"vac":true,"version":"7757534","steam_id":85568392924742830,"keywords":["cp","nocrits","nodmgspread","uncletopia"],"game_id":440,"stv_port":27066,"stv_name":"Uncletopia | London | 6 | All Maps | STV","players":null},{"server_id":40,"name":"Uncletopia | London | 7 | No Payload","name_short":"lon-7","host":"lon-1.uk.uncletopia.com","port":27075,"enabled":true,"region":"eu","cc":"gb","latitude":51.509865,"longitude":-0.118092,"reserved":0,"last_update":"0001-01-01T00:00:00Z","name_a2s":"Uncletopia | London | 7 | No Payload","protocol":17,"map":"koth_highpass","folder":"tf","game":"Team Fortress","app_id":440,"player_count":0,"max_players":24,"Bots":0,"server_type":"Dedicated","server_os":"Linux","password":true,"vac":true,"version":"7757534","steam_id":85568392924964314,"keywords":["cp","nocrits","nodmgspread","uncletopia"],"game_id":440,"stv_port":27076,"stv_name":"Uncletopia | London | 7 | No Payload | STV","players":null},{"server_id":41,"name":"Uncletopia | London | 8 | Community","name_short":"lon-8","host":"lon-1.uk.uncletopia.com","port":27085,"enabled":true,"region":"eu","cc":"gb","latitude":51.509865,"longitude":-0.118092,"reserved":0,"last_update":"0001-01-01T00:00:00Z","name_a2s":"Uncletopia | London | 8 | Community","protocol":17,"map":"workshop/cp_reckoner_rc6.ugc674719999","folder":"tf","game":"Team Fortress","app_id":440,"player_count":0,"max_players":24,"Bots":0,"server_type":"Dedicated","server_os":"Linux","password":true,"vac":true,"version":"7757534","steam_id":85568392924964315,"keywords":["cp","nocrits","nodmgspread","uncletopia"],"game_id":440,"stv_port":27086,"stv_name":"Uncletopia | London | 8 | Community | STV","players":null},{"server_id":300,"name":"Uncletopia | Montréal | 1 | All Maps","name_short":"mtl-1","host":"mtl-1.ca.uncletopia.com","port":27015,"enabled":true,"region":"us-east","cc":"ca","latitude":45.50889,"longitude":-73.56167,"reserved":0,"last_update":"0001-01-01T00:00:00Z","name_a2s":"Uncletopia | Montréal | 1 | All Maps","protocol":17,"map":"pl_pier","folder":"tf","game":"Team Fortress","app_id":440,"player_count":0,"max_players":24,"Bots":0,"server_type":"Dedicated","server_os":"Linux","password":true,"vac":true,"version":"7757534","steam_id":85568392924500087,"keywords":["nocrits","nodmgspread","payload","uncletopia"],"game_id":440,"stv_port":27016,"stv_name":"Uncletopia | Montréal | 1 | All Maps | STV","players":null},{"server_id":301,"name":"Uncletopia | Montréal | 2 | All Maps","name_short":"mtl-2","host":"mtl-1.ca.uncletopia.com","port":27025,"enabled":true,"region":"us-east","cc":"ca","latitude":45.50889,"longitude":-73.56167,"reserved":0,"last_update":"0001-01-01T00:00:00Z","name_a2s":"Uncletopia | Montréal | 2 | All Maps","protocol":17,"map":"cp_sunshine","folder":"tf","game":"Team Fortress","app_id":440,"player_count":0,"max_players":24,"Bots":0,"server_type":"Dedicated","server_os":"Linux","password":true,"vac":true,"version":"7757534","steam_id":85568392924500088,"keywords":["cp","nocrits","nodmgspread","uncletopia"],"game_id":440,"stv_port":27026,"stv_name":"Uncletopia | Montréal | 2 | All Maps | STV","players":null},{"server_id":302,"name":"Uncletopia | Montréal | 3 | All Maps","name_short":"mtl-3","host":"mtl-1.ca.uncletopia.com","port":27035,"enabled":true,"region":"us-east","cc":"ca","latitude":45.50889,"longitude":-73.56167,"reserved":0,"last_update":"0001-01-01T00:00:00Z","name_a2s":"Uncletopia | Montréal | 3 | All Maps","protocol":17,"map":"pl_snowycoast","folder":"tf","game":"Team Fortress","app_id":440,"player_count":0,"max_players":24,"Bots":0,"server_type":"Dedicated","server_os":"Linux","password":true,"vac":true,"version":"7757534","steam_id":85568392924500089,"keywords":["nocrits","nodmgspread","payload","uncletopia"],"game_id":440,"stv_port":27036,"stv_name":"Uncletopia | Montréal | 3 | All Maps | STV","players":null},{"server_id":303,"name":"Uncletopia | Montréal | 4 | No Payload","name_short":"mtl-4","host":"mtl-1.ca.uncletopia.com","port":27045,"enabled":true,"region":"us-east","cc":"ca","latitude":45.50889,"longitude":-73.56167,"reserved":0,"last_update":"0001-01-01T00:00:00Z","name_a2s":"Uncletopia | Montréal | 4 | No Payload","protocol":17,"map":"pl_pier","folder":"tf","game":"Team Fortress","app_id":440,"player_count":0,"max_players":24,"Bots":0,"server_type":"Dedicated","server_os":"Linux","password":true,"vac":true,"version":"7757534","steam_id":85568392924500090,"keywords":["nocrits","nodmgspread","payload","uncletopia"],"game_id":440,"stv_port":27046,"stv_name":"Uncletopia | Montréal | 4 | No Payload | STV","players":null},{"server_id":13,"name":"Uncletopia | New York City | 1 | All Maps","name_short":"nyc-1","host":"nyc-1.us.uncletopia.com","port":27015,"enabled":true,"region":"us-east","cc":"us","latitude":40.73061,"longitude":-73.93524,"reserved":0,"last_update":"0001-01-01T00:00:00Z","name_a2s":"Uncletopia | New York City | 1 | All Maps","protocol":17,"map":"cp_mountainlab","folder":"tf","game":"Team Fortress","app_id":440,"player_count":0,"max_players":24,"Bots":0,"server_type":"Dedicated","server_os":"Linux","password":true,"vac":true,"version":"7757534","steam_id":85568392924469993,"keywords":["cp","nocrits","nodmgspread","uncletopia"],"game_id":440,"stv_port":27016,"stv_name":"Uncletopia | New York City | 1 | All Maps | STV","players":null},{"server_id":14,"name":"Uncletopia | New York City | 2 | All Maps","name_short":"nyc-2","host":"nyc-1.us.uncletopia.com","port":27025,"enabled":true,"region":"us-east","cc":"us","latitude":40.73061,"longitude":-73.93524,"reserved":0,"last_update":"0001-01-01T00:00:00Z","name_a2s":"Uncletopia | New York City | 2 | All Maps","protocol":17,"map":"plr_pipeline","folder":"tf","game":"Team Fortress","app_id":440,"player_count":23,"max_players":24,"Bots":0,"server_type":"Dedicated","server_os":"Linux","password":true,"vac":true,"version":"7757534","steam_id":85568392924469994,"keywords":["nocrits","nodmgspread","payload","uncletopia"],"game_id":440,"stv_port":27026,"stv_name":"Uncletopia | New York City | 2 | All Maps | STV","players":[{"user_id":161,"name":"Overduecat","steam_id":76561198092452824,"connected_time":920000000000,"state":"active","ping":86},{"user_id":103,"name":"Gandalf Gaming","steam_id":76561198368151490,"connected_time":5031000000000,"state":"active","ping":45},{"user_id":151,"name":"Metapod","steam_id":76561198008725465,"connected_time":1393000000000,"state":"active","ping":64},{"user_id":166,"name":"shrimp biscuit","steam_id":76561198796398595,"connected_time":454000000000,"state":"active","ping":61},{"user_id":159,"name":"shnowshner","steam_id":76561198066450438,"connected_time":958000000000,"state":"active","ping":73},{"user_id":167,"name":"Burger Man","steam_id":76561198197096574,"connected_time":317000000000,"state":"active","ping":53},{"user_id":162,"name":"rivera","steam_id":76561198051058706,"connected_time":833000000000,"state":"active","ping":44},{"user_id":155,"name":"carrion goat she/it","steam_id":76561198262064871,"connected_time":1198000000000,"state":"active","ping":32},{"user_id":111,"name":"Ejaculation Zach","steam_id":76561198203765200,"connected_time":4126000000000,"state":"active","ping":72},{"user_id":149,"name":"Eurynomos","steam_id":76561198047503133,"connected_time":1545000000000,"state":"active","ping":58},{"user_id":147,"name":"Sebas RA","steam_id":76561198162704802,"connected_time":2359000000000,"state":"active","ping":104},{"user_id":148,"name":"ttl","steam_id":76561198142878296,"connected_time":2314000000000,"state":"active","ping":61},{"user_id":146,"name":"BryBryxd","steam_id":76561198012937115,"connected_time":2408000000000,"state":"active","ping":45},{"user_id":150,"name":"Garfield","steam_id":76561198447358116,"connected_time":1500000000000,"state":"active","ping":52},{"user_id":163,"name":"Dave The Sloth","steam_id":76561199135831355,"connected_time":833000000000,"state":"active","ping":138},{"user_id":168,"name":"Bee","steam_id":76561198074681324,"connected_time":143000000000,"state":"active","ping":72},{"user_id":164,"name":"Cuttle's Fish","steam_id":76561198280483257,"connected_time":733000000000,"state":"active","ping":75},{"user_id":130,"name":"deech","steam_id":76561198066429444,"connected_time":3668000000000,"state":"active","ping":52},{"user_id":152,"name":"Villenova","steam_id":76561198073606416,"connected_time":1356000000000,"state":"active","ping":121},{"user_id":156,"name":"Dr. Strangelove","steam_id":76561198014593467,"connected_time":1158000000000,"state":"active","ping":59},{"user_id":165,"name":"Recursive Gamer","steam_id":76561198042102952,"connected_time":606000000000,"state":"active","ping":85},{"user_id":145,"name":"Ghilo","steam_id":76561198010112441,"connected_time":2410000000000,"state":"active","ping":55},{"user_id":160,"name":"PENIS PUMP","steam_id":76561198277144184,"connected_time":956000000000,"state":"active","ping":67}]},{"server_id":15,"name":"Uncletopia | New York City | 3 | Stopwatch Beta","name_short":"nyc-3","host":"nyc-1.us.uncletopia.com","port":27035,"enabled":true,"region":"us-east","cc":"us","latitude":40.73061,"longitude":-73.93524,"reserved":0,"last_update":"0001-01-01T00:00:00Z","name_a2s":"Uncletopia | New York City | 3 | Stopwatch Beta","protocol":17,"map":"koth_cascade","folder":"tf","game":"Team Fortress","app_id":440,"player_count":0,"max_players":24,"Bots":0,"server_type":"Dedicated","server_os":"Linux","password":true,"vac":true,"version":"7757534","steam_id":85568392924742820,"keywords":["cp","nocrits","nodmgspread","uncletopia"],"game_id":440,"stv_port":27036,"stv_name":"Uncletopia | New York City | 3 | Stopwatch Beta | STV","players":null},{"server_id":16,"name":"Uncletopia | New York City | 4 | Community","name_short":"nyc-4","host":"nyc-1.us.uncletopia.com","port":27045,"enabled":true,"region":"us-east","cc":"us","latitude":40.73061,"longitude":-73.93524,"reserved":0,"last_update":"0001-01-01T00:00:00Z","name_a2s":"Uncletopia | New York City | 4 | Community","protocol":17,"map":"pl_frontier_final","folder":"tf","game":"Team Fortress","app_id":440,"player_count":0,"max_players":24,"Bots":0,"server_type":"Dedicated","server_os":"Linux","password":true,"vac":true,"version":"7757534","steam_id":85568392924742821,"keywords":["nocrits","nodmgspread","payload","uncletopia"],"game_id":440,"stv_port":27046,"stv_name":"Uncletopia | New York City | 4 | Community | STV","players":null},{"server_id":142,"name":"Uncletopia | São Paulo | 1 | All Maps","name_short":"sao-1","host":"sao-1.br.uncletopia.com","port":27015,"enabled":true,"region":"sa","cc":"br","latitude":-23.533773,"longitude":-46.62529,"reserved":0,"last_update":"0001-01-01T00:00:00Z","name_a2s":"Uncletopia | São Paulo | 1 | All Maps","protocol":17,"map":"koth_lakeside_final","folder":"tf","game":"Team Fortress","app_id":440,"player_count":0,"max_players":24,"Bots":0,"server_type":"Dedicated","server_os":"Linux","password":true,"vac":true,"version":"7757534","steam_id":85568392924469996,"keywords":["cp","nocrits","nodmgspread","uncletopia"],"game_id":440,"stv_port":27016,"stv_name":"Uncletopia | São Paulo | 1 | All Maps | STV","players":null},{"server_id":143,"name":"Uncletopia | São Paulo | 2 | All Maps","name_short":"sao-2","host":"sao-2.br.uncletopia.com","port":27015,"enabled":true,"region":"sa","cc":"br","latitude":-23.533773,"longitude":-46.62529,"reserved":0,"last_update":"0001-01-01T00:00:00Z","name_a2s":"Uncletopia | São Paulo | 2 | All Maps","protocol":17,"map":"koth_viaduct","folder":"tf","game":"Team Fortress","app_id":440,"player_count":0,"max_players":24,"Bots":0,"server_type":"Dedicated","server_os":"Linux","password":true,"vac":true,"version":"7757534","steam_id":85568392924485349,"keywords":["cp","nocrits","nodmgspread","uncletopia"],"game_id":440,"stv_port":27016,"stv_name":"Uncletopia | São Paulo | 2 | All Maps | STV","players":null},{"server_id":7,"name":"Uncletopia | Seattle | 1 | All Maps","name_short":"sea-1","host":"sea-1.us.uncletopia.com","port":27015,"enabled":true,"region":"us-west","cc":"us","latitude":47.608013,"longitude":-122.33517,"reserved":0,"last_update":"0001-01-01T00:00:00Z","name_a2s":"Uncletopia | Seattle | 1 | All Maps","protocol":17,"map":"pl_borneo","folder":"tf","game":"Team Fortress","app_id":440,"player_count":24,"max_players":24,"Bots":0,"server_type":"Dedicated","server_os":"Linux","password":true,"vac":true,"version":"7757534","steam_id":85568392924469997,"keywords":["nocrits","nodmgspread","payload","uncletopia"],"game_id":440,"stv_port":27016,"stv_name":"Uncletopia | Seattle | 1 | All Maps | STV","players":[{"user_id":147,"name":"CopperBox","steam_id":76561198068217248,"connected_time":1012000000000,"state":"active","ping":88},{"user_id":110,"name":"CheeseRocket3658","steam_id":76561198126390613,"connected_time":2638000000000,"state":"active","ping":156},{"user_id":150,"name":"Indicative","steam_id":76561199076612537,"connected_time":778000000000,"state":"active","ping":84},{"user_id":68,"name":"Crunchy","steam_id":76561198240523882,"connected_time":5671000000000,"state":"active","ping":75},{"user_id":140,"name":"Tec________________________WANG","steam_id":76561198141482152,"connected_time":1315000000000,"state":"active","ping":76},{"user_id":129,"name":"Gut125Cin","steam_id":76561198101787225,"connected_time":1980000000000,"state":"active","ping":51},{"user_id":161,"name":"PersonWhoJustDiedMaybeIDontKnow","steam_id":76561199109564855,"connected_time":287000000000,"state":"active","ping":88},{"user_id":148,"name":"A Brazen Dumbass","steam_id":76561198358757709,"connected_time":955000000000,"state":"active","ping":158},{"user_id":116,"name":"\u003c`)))))\u003c fish","steam_id":76561198410078962,"connected_time":2425000000000,"state":"active","ping":87},{"user_id":162,"name":"Average Linkin Park fan","steam_id":76561198880671191,"connected_time":194000000000,"state":"active","ping":94},{"user_id":154,"name":"Sniper no Sniping","steam_id":76561198105613110,"connected_time":654000000000,"state":"active","ping":123},{"user_id":165,"name":"iMxmories","steam_id":76561198163295584,"connected_time":22000000000,"state":"active","ping":76},{"user_id":82,"name":"Nightlygalad","steam_id":76561198170693990,"connected_time":5122000000000,"state":"active","ping":77},{"user_id":102,"name":"They/Them Rattussy","steam_id":76561198238186628,"connected_time":3490000000000,"state":"active","ping":84},{"user_id":155,"name":"joke","steam_id":76561199082274065,"connected_time":641000000000,"state":"active","ping":67},{"user_id":126,"name":"Dare","steam_id":76561198280653662,"connected_time":2112000000000,"state":"active","ping":96},{"user_id":156,"name":"gopnik gaming","steam_id":76561198064194222,"connected_time":637000000000,"state":"active","ping":72},{"user_id":163,"name":"Dr. Chad Feelgood, P.I.","steam_id":76561198454077219,"connected_time":172000000000,"state":"active","ping":119},{"user_id":157,"name":"6 million bees","steam_id":76561198400438007,"connected_time":593000000000,"state":"active","ping":113},{"user_id":159,"name":"RemisWaifu p.5","steam_id":76561198128489359,"connected_time":470000000000,"state":"active","ping":88},{"user_id":149,"name":"Jacky","steam_id":76561198097043127,"connected_time":922000000000,"state":"active","ping":63},{"user_id":104,"name":"Holiest_Warden","steam_id":76561198335360028,"connected_time":3369000000000,"state":"active","ping":130},{"user_id":136,"name":"Tostada","steam_id":76561198383206211,"connected_time":1407000000000,"state":"active","ping":158},{"user_id":158,"name":"rustyorion","steam_id":76561198439186347,"connected_time":585000000000,"state":"active","ping":64}]},{"server_id":119,"name":"Uncletopia | Seattle | 2 | All Maps","name_short":"sea-2","host":"sea-1.us.uncletopia.com","port":27025,"enabled":true,"region":"us-west","cc":"us","latitude":47.608013,"longitude":-122.33517,"reserved":0,"last_update":"0001-01-01T00:00:00Z","name_a2s":"Uncletopia | Seattle | 2 | All Maps","protocol":17,"map":"koth_harvest_final","folder":"tf","game":"Team Fortress","app_id":440,"player_count":0,"max_players":24,"Bots":0,"server_type":"Dedicated","server_os":"Linux","password":true,"vac":true,"version":"7757534","steam_id":85568392924469998,"keywords":["cp","nocrits","nodmgspread","uncletopia"],"game_id":440,"stv_port":27026,"stv_name":"Uncletopia | Seattle | 2 | All Maps | STV","players":null},{"server_id":406,"name":"Uncletopia | Seattle | 3 | Stopwatch Beta","name_short":"sea-3","host":"sea-1.us.uncletopia.com","port":27035,"enabled":true,"region":"us-west","cc":"us","latitude":47.608013,"longitude":-122.33517,"reserved":0,"last_update":"0001-01-01T00:00:00Z","name_a2s":"Uncletopia | Seattle | 3 | Stopwatch Beta","protocol":17,"map":"cp_process_final","folder":"tf","game":"Team Fortress","app_id":440,"player_count":0,"max_players":24,"Bots":0,"server_type":"Dedicated","server_os":"Linux","password":true,"vac":true,"version":"7757534","steam_id":85568392924515217,"keywords":["cp","nocrits","nodmgspread","uncletopia"],"game_id":440,"stv_port":27036,"stv_name":"Uncletopia | Seattle | 3 | Stopwatch Beta | STV","players":null},{"server_id":17,"name":"Uncletopia | San Francisco | 1 | All Maps","name_short":"sfo-1","host":"sfo-1.us.uncletopia.com","port":27015,"enabled":true,"region":"us-west","cc":"us","latitude":37.77397,"longitude":-122.4313,"reserved":0,"last_update":"0001-01-01T00:00:00Z","name_a2s":"Uncletopia | San Francisco | 1 | All Maps","protocol":17,"map":"koth_lakeside_final","folder":"tf","game":"Team Fortress","app_id":440,"player_count":0,"max_players":24,"Bots":0,"server_type":"Dedicated","server_os":"Linux","password":true,"vac":true,"version":"7757534","steam_id":85568392924469999,"keywords":["cp","nocrits","nodmgspread","uncletopia"],"game_id":440,"stv_port":27016,"stv_name":"Uncletopia | San Francisco | 1 | All Maps | STV","players":null},{"server_id":18,"name":"Uncletopia | San Francisco | 2 | All Maps","name_short":"sfo-2","host":"sfo-1.us.uncletopia.com","port":27025,"enabled":true,"region":"us-west","cc":"us","latitude":37.77397,"longitude":-122.4313,"reserved":0,"last_update":"0001-01-01T00:00:00Z","name_a2s":"Uncletopia | San Francisco | 2 | All Maps","protocol":17,"map":"koth_viaduct","folder":"tf","game":"Team Fortress","app_id":440,"player_count":0,"max_players":24,"Bots":0,"server_type":"Dedicated","server_os":"Linux","password":true,"vac":true,"version":"7757534","steam_id":85568392924470000,"keywords":["cp","nocrits","nodmgspread","uncletopia"],"game_id":440,"stv_port":27026,"stv_name":"Uncletopia | San Francisco | 2 | All Maps | STV","players":null},{"server_id":19,"name":"Uncletopia | San Francisco | 3 | Stopwatch Beta","name_short":"sfo-3","host":"sfo-1.us.uncletopia.com","port":27035,"enabled":true,"region":"us-west","cc":"us","latitude":37.77397,"longitude":-122.4313,"reserved":0,"last_update":"0001-01-01T00:00:00Z","name_a2s":"Uncletopia | San Francisco | 3 | Stopwatch Beta","protocol":17,"map":"cp_sunshine","folder":"tf","game":"Team Fortress","app_id":440,"player_count":2,"max_players":24,"Bots":0,"server_type":"Dedicated","server_os":"Linux","password":true,"vac":true,"version":"7757534","steam_id":85568392924742824,"keywords":["cp","nocrits","nodmgspread","uncletopia"],"game_id":440,"stv_port":27036,"stv_name":"Uncletopia | San Francisco | 3 | Stopwatch Beta | STV","players":[{"user_id":3,"name":"D0VE","steam_id":76561198151618566,"connected_time":163000000000,"state":"active","ping":66},{"user_id":4,"name":"nice shot mate","steam_id":76561198206922028,"connected_time":96000000000,"state":"active","ping":46}]},{"server_id":20,"name":"Uncletopia | San Francisco | 4 | Community","name_short":"sfo-4","host":"sfo-1.us.uncletopia.com","port":27045,"enabled":true,"region":"us-west","cc":"us","latitude":37.77397,"longitude":-122.4313,"reserved":0,"last_update":"0001-01-01T00:00:00Z","name_a2s":"Uncletopia | San Francisco | 4 | Community","protocol":17,"map":"pl_frontier_final","folder":"tf","game":"Team Fortress","app_id":440,"player_count":0,"max_players":24,"Bots":0,"server_type":"Dedicated","server_os":"Linux","password":true,"vac":true,"version":"7757534","steam_id":85568392924742826,"keywords":["nocrits","nodmgspread","payload","uncletopia"],"game_id":440,"stv_port":27046,"stv_name":"Uncletopia | San Francisco | 4 | Community | STV","players":null},{"server_id":141,"name":"Uncletopia | Sydney | 1 | All Maps","name_short":"syd-1","host":"syd-1.au.uncletopia.com","port":27015,"enabled":true,"region":"au","cc":"au","latitude":-33.865143,"longitude":151.2099,"reserved":0,"last_update":"0001-01-01T00:00:00Z","name_a2s":"Uncletopia | Sydney | 1 | All Maps","protocol":17,"map":"koth_nucleus","folder":"tf","game":"Team Fortress","app_id":440,"player_count":0,"max_players":24,"Bots":0,"server_type":"Dedicated","server_os":"Linux","password":true,"vac":true,"version":"7757534","steam_id":85568392924470001,"keywords":["cp","nocrits","nodmgspread","uncletopia"],"game_id":440,"stv_port":27016,"stv_name":"Uncletopia | Sydney | 1 | All Maps | STV","players":null},{"server_id":123,"name":"Uncletopia | Sydney | 2 | All Maps","name_short":"syd-2","host":"syd-1.au.uncletopia.com","port":27025,"enabled":true,"region":"au","cc":"au","latitude":-33.865143,"longitude":151.2099,"reserved":0,"last_update":"0001-01-01T00:00:00Z","name_a2s":"Uncletopia | Sydney | 2 | All Maps","protocol":17,"map":"koth_cascade","folder":"tf","game":"Team Fortress","app_id":440,"player_count":0,"max_players":24,"Bots":0,"server_type":"Dedicated","server_os":"Linux","password":true,"vac":true,"version":"7757534","steam_id":85568392924470002,"keywords":["cp","nocrits","nodmgspread","uncletopia"],"game_id":440,"stv_port":27026,"stv_name":"Uncletopia | Sydney | 2 | All Maps | STV","players":null},{"server_id":395,"name":"Uncletopia | Sydney | 3 | All Maps","name_short":"syd-3","host":"syd-1.au.uncletopia.com","port":27035,"enabled":true,"region":"au","cc":"au","latitude":-33.865143,"longitude":151.2099,"reserved":0,"last_update":"0001-01-01T00:00:00Z","name_a2s":"Uncletopia | Sydney | 3 | All Maps","protocol":17,"map":"pl_snowycoast","folder":"tf","game":"Team Fortress","app_id":440,"player_count":0,"max_players":24,"Bots":0,"server_type":"Dedicated","server_os":"Linux","password":true,"vac":true,"version":"7757534","steam_id":85568392925194467,"keywords":["nocrits","nodmgspread","payload","uncletopia"],"game_id":440,"stv_port":27036,"stv_name":"Uncletopia | Sydney | 3 | All Maps | STV","players":null},{"server_id":396,"name":"Uncletopia | Sydney | 4 | All Maps","name_short":"syd-4","host":"syd-1.au.uncletopia.com","port":27045,"enabled":true,"region":"au","cc":"au","latitude":-33.865143,"longitude":151.2099,"reserved":0,"last_update":"0001-01-01T00:00:00Z","name_a2s":"Uncletopia | Sydney | 4 | All Maps","protocol":17,"map":"koth_highpass","folder":"tf","game":"Team Fortress","app_id":440,"player_count":0,"max_players":24,"Bots":0,"server_type":"Dedicated","server_os":"Linux","password":true,"vac":true,"version":"7757534","steam_id":85568392925397958,"keywords":["cp","nocrits","nodmgspread","uncletopia"],"game_id":440,"stv_port":27046,"stv_name":"Uncletopia | Sydney | 4 | All Maps | STV","players":null},{"server_id":58,"name":"Uncletopia | Sydney | 5 | Stopwatch Beta","name_short":"syd-5","host":"syd-1.au.uncletopia.com","port":27055,"enabled":true,"region":"au","cc":"au","latitude":-33.865143,"longitude":151.2099,"reserved":0,"last_update":"0001-01-01T00:00:00Z","name_a2s":"Uncletopia | Sydney | 5 | Stopwatch Beta","protocol":17,"map":"koth_highpass","folder":"tf","game":"Team Fortress","app_id":440,"player_count":0,"max_players":24,"Bots":0,"server_type":"Dedicated","server_os":"Linux","password":true,"vac":true,"version":"7757534","steam_id":85568392925397959,"keywords":["cp","nocrits","nodmgspread","uncletopia"],"game_id":440,"stv_port":27056,"stv_name":"Uncletopia | Sydney | 5 | Stopwatch Beta | STV","players":null},{"server_id":59,"name":"Uncletopia | Sydney | 6 | Community","name_short":"syd-6","host":"syd-1.au.uncletopia.com","port":27065,"enabled":true,"region":"au","cc":"au","latitude":-33.865143,"longitude":151.2099,"reserved":0,"last_update":"0001-01-01T00:00:00Z","name_a2s":"Uncletopia | Sydney | 6 | Community","protocol":17,"map":"workshop/pl_fifthcurve_rc1.ugc648227046","folder":"tf","game":"Team Fortress","app_id":440,"player_count":0,"max_players":24,"Bots":0,"server_type":"Dedicated","server_os":"Linux","password":true,"vac":true,"version":"7757534","steam_id":85568392925397960,"keywords":["nocrits","nodmgspread","payload","uncletopia"],"game_id":440,"stv_port":27066,"stv_name":"Uncletopia | Sydney | 6 | Community | STV","players":null},{"server_id":49,"name":"Uncletopia | Warsaw | 1 | All Maps","name_short":"waw-1","host":"waw-1.pl.uncletopia.com","port":27015,"enabled":true,"region":"eu","cc":"pl","latitude":52.2297,"longitude":21.017532,"reserved":0,"last_update":"0001-01-01T00:00:00Z","name_a2s":"","protocol":0,"map":"","folder":"","game":"","app_id":0,"player_count":0,"max_players":0,"Bots":0,"server_type":"","server_os":"","password":false,"vac":false,"version":"","steam_id":0,"keywords":null,"game_id":0,"stv_port":0,"stv_name":"","players":null},{"server_id":50,"name":"Uncletopia | Warsaw | 2 | All Maps","name_short":"waw-2","host":"waw-1.pl.uncletopia.com","port":27025,"enabled":true,"region":"eu","cc":"pl","latitude":52.2297,"longitude":21.017532,"reserved":0,"last_update":"0001-01-01T00:00:00Z","name_a2s":"Uncletopia | Warsaw | 2 | All Maps","protocol":17,"map":"koth_viaduct","folder":"tf","game":"Team Fortress","app_id":440,"player_count":0,"max_players":24,"Bots":0,"server_type":"Dedicated","server_os":"Linux","password":true,"vac":true,"version":"7757534","steam_id":85568392925397851,"keywords":["cp","nocrits","nodmgspread","uncletopia"],"game_id":440,"stv_port":27026,"stv_name":"Uncletopia | Warsaw | 2 | All Maps | STV","players":null},{"server_id":51,"name":"Uncletopia | Warsaw | 3 | All Maps","name_short":"waw-3","host":"waw-1.pl.uncletopia.com","port":27035,"enabled":true,"region":"eu","cc":"pl","latitude":52.2297,"longitude":21.017532,"reserved":0,"last_update":"0001-01-01T00:00:00Z","name_a2s":"Uncletopia | Warsaw | 3 | All Maps","protocol":17,"map":"pl_barnblitz","folder":"tf","game":"Team Fortress","app_id":440,"player_count":0,"max_players":24,"Bots":0,"server_type":"Dedicated","server_os":"Linux","password":true,"vac":true,"version":"7757534","steam_id":85568392925397852,"keywords":["nocrits","nodmgspread","payload","uncletopia"],"game_id":440,"stv_port":27036,"stv_name":"Uncletopia | Warsaw | 3 | All Maps | STV","players":null},{"server_id":52,"name":"Uncletopia | Warsaw | 4 | All Maps","name_short":"waw-4","host":"waw-1.pl.uncletopia.com","port":27045,"enabled":true,"region":"eu","cc":"pl","latitude":52.2297,"longitude":21.017532,"reserved":0,"last_update":"0001-01-01T00:00:00Z","name_a2s":"Uncletopia | Warsaw | 4 | All Maps","protocol":17,"map":"cp_altitude","folder":"tf","game":"Team Fortress","app_id":440,"player_count":0,"max_players":24,"Bots":0,"server_type":"Dedicated","server_os":"Linux","password":true,"vac":true,"version":"7757534","steam_id":85568392925397853,"keywords":["cp","nocrits","nodmgspread","uncletopia"],"game_id":440,"stv_port":27046,"stv_name":"Uncletopia | Warsaw | 4 | All Maps | STV","players":null},{"server_id":53,"name":"Uncletopia | Warsaw | 5 | Stopwatch Beta","name_short":"waw-5","host":"waw-1.pl.uncletopia.com","port":27055,"enabled":true,"region":"eu","cc":"pl","latitude":52.2297,"longitude":21.017532,"reserved":0,"last_update":"0001-01-01T00:00:00Z","name_a2s":"Uncletopia | Warsaw | 5 | Stopwatch Beta","protocol":17,"map":"pl_pier","folder":"tf","game":"Team Fortress","app_id":440,"player_count":0,"max_players":24,"Bots":0,"server_type":"Dedicated","server_os":"Linux","password":true,"vac":true,"version":"7757534","steam_id":85568392925397854,"keywords":["nocrits","nodmgspread","payload","uncletopia"],"game_id":440,"stv_port":27056,"stv_name":"Uncletopia | Warsaw | 5 | Stopwatch Beta | STV","players":null},{"server_id":54,"name":"Uncletopia | Warsaw | 6 | Community","name_short":"waw-6","host":"waw-1.pl.uncletopia.com","port":27065,"enabled":true,"region":"eu","cc":"pl","latitude":52.2297,"longitude":21.017532,"reserved":0,"last_update":"0001-01-01T00:00:00Z","name_a2s":"Uncletopia | Warsaw | 6 | Community","protocol":17,"map":"koth_highpass","folder":"tf","game":"Team Fortress","app_id":440,"player_count":0,"max_players":24,"Bots":0,"server_type":"Dedicated","server_os":"Linux","password":true,"vac":true,"version":"7757534","steam_id":85568392925397856,"keywords":["cp","nocrits","nodmgspread","uncletopia"],"game_id":440,"stv_port":27066,"stv_name":"Uncletopia | Warsaw | 6 | Community | STV","players":null}]}