{"status":true,"message":"","result":[{"server_id":9,"name":"Uncletopia | Atlanta | 1 | All Maps","name_short":"atl-1","host":"atl-1.us.uncletopia.com","port":27015,"enabled":true,"region":"us-east","cc":"us","latitude":33.753746,"longitude":-84.38633,"reserved":0,"last_update":"0001-01-01T00:00:00Z","name_a2s":"Uncletopia | Atlanta | 1 | All Maps","protocol":17,"map":"pl_badwater","folder":"tf","game":"Team Fortress","app_id":440,"player_count":23,"max_players":24,"Bots":0,"server_type":"Dedicated","server_os":"Linux","password":true,"vac":true,"version":"7882260","steam_id":85568392924469982,"keywords":["nocrits","nodmgspread","payload","uncletopia"],"game_id":440,"stv_port":27016,"stv_name":"Uncletopia | Atlanta | 1 | All Maps | STV","players":[{"user_id":376,"name":"Demoman With One Joke","steam_id":76561197993467034,"connected_time":1286000000000,"state":"active","ping":66},{"user_id":380,"name":"Xuey","steam_id":76561199120960187,"connected_time":822000000000,"state":"active","ping":83},{"user_id":359,"name":"DuckMann","steam_id":76561198197058638,"connected_time":2701000000000,"state":"active","ping":45},{"user_id":381,"name":"Rockhead","steam_id":76561197995196535,"connected_time":466000000000,"state":"active","ping":70},{"user_id":352,"name":"Flint","steam_id":76561198066547582,"connected_time":3214000000000,"state":"active","ping":101},{"user_id":345,"name":"an inebriated newt fancier","steam_id":76561197985428155,"connected_time":4694000000000,"state":"active","ping":78},{"user_id":375,"name":"Jazz hates Jazz","steam_id":76561199053475022,"connected_time":1331000000000,"state":"active","ping":63},{"user_id":366,"name":"nnobi","steam_id":76561198878729277,"connected_time":1879000000000,"state":"active","ping":59},{"user_id":379,"name":"TurnupDig75","steam_id":76561198852375121,"connected_time":843000000000,"state":"active","ping":84},{"user_id":353,"name":"Viokik","steam_id":76561198408846602,"connected_time":3127000000000,"state":"active","ping":65},{"user_id":358,"name":"|-HyperCube-|","steam_id":76561198167133597,"connected_time":2931000000000,"state":"active","ping":81},{"user_id":382,"name":"SparkStorm","steam_id":76561198095817025,"connected_time":338000000000,"state":"active","ping":87},{"user_id":370,"name":"Vaudeville Villain","steam_id":76561199212093339,"connected_time":1602000000000,"state":"active","ping":97},{"user_id":347,"name":"Waddlehi","steam_id":76561198072553840,"connected_time":4244000000000,"state":"active","ping":74},{"user_id":377,"name":"Dagobah System","steam_id":76561198054236546,"connected_time":1273000000000,"state":"active","ping":73},{"user_id":367,"name":"Oddball","steam_id":76561198040440984,"connected_time":1859000000000,"state":"active","ping":88},{"user_id":373,"name":"DiGiorno's Pizza","steam_id":76561198142244035,"connected_time":1521000000000,"state":"active","ping":71},{"user_id":350,"name":"ash","steam_id":76561198127890645,"connected_time":3475000000000,"state":"active","ping":71},{"user_id":334,"name":"Donnie Blasto","steam_id":76561198043432005,"connected_time":5195000000000,"state":"active","ping":69},{"user_id":311,"name":"Pheonix","steam_id":76561199470538309,"connected_time":7579000000000,"state":"active","ping":123},{"user_id":365,"name":"scrotal recall","steam_id":76561198135945598,"connected_time":1983000000000,"state":"active","ping":74},{"user_id":378,"name":"Kuwait Grips","steam_id":76561198292689973,"connected_time":1246000000000,"state":"active","ping":69},{"user_id":296,"name":"Voyager","steam_id":76561199128786637,"connected_time":9134000000000,"state":"active","ping":87}]},{"server_id":104,"name":"Uncletopia | Atlanta | 2 | All Maps","name_short":"atl-2","host":"atl-1.us.uncletopia.com","port":27025,"enabled":true,"region":"us-east","cc":"us","latitude":33.753746,"longitude":-84.38633,"reserved":0,"last_update":"0001-01-01T00:00:00Z","name_a2s":"Uncletopia | Atlanta | 2 | All Maps","protocol":17,"map":"pl_barnblitz","folder":"tf","game":"Team Fortress","app_id":440,"player_count":24,"max_players":24,"Bots":0,"server_type":"Dedicated","server_os":"Linux","password":true,"vac":true,"version":"7882260","steam_id":85568392924469983,"keywords":["nocrits","nodmgspread","payload","uncletopia"],"game_id":440,"stv_port":27026,"stv_name":"Uncletopia | Atlanta | 2 | All Maps | STV","players":[{"user_id":55,"name":"‚ä∞Aero‚ä±","steam_id":76561198084648457,"connected_time":3944000000000,"state":"active","ping":76},{"user_id":69,"name":"Lemony Lilly (She/Her)","steam_id":76561198042479066,"connected_time":3225000000000,"state":"active","ping":63},{"user_id":81,"name":"The Spanked Monkey","steam_id":76561198128293111,"connected_time":1921000000000,"state":"active","ping":65},{"user_id":92,"name":"Wallet","steam_id":76561198081067377,"connected_time":821000000000,"state":"active","ping":48},{"user_id":94,"name":"Wayside","steam_id":76561198999627870,"connected_time":293000000000,"state":"active","ping":109},{"user_id":96,"name":"drop c enjoyer","steam_id":76561198203357580,"connected_time":275000000000,"state":"active","ping":66},{"user_id":83,"name":"Tankless Water Heater","steam_id":76561198014574925,"connected_time":1914000000000,"state":"active","ping":86},{"user_id":88,"name":"rept","steam_id":76561198022100969,"connected_time":1261000000000,"state":"active","ping":65},{"user_id":33,"name":"put my hand in the cashregister","steam_id":76561198062991744,"connected_time":4850000000000,"state":"active","ping":58},{"user_id":77,"name":"TI-83 Plus","steam_id":76561198316134443,"connected_time":2208000000000,"state":"active","ping":55},{"user_id":93,"name":"Dosa","steam_id":76561198219209367,"connected_time":681000000000,"state":"active","ping":77},{"user_id":60,"name":"erm what the scallop","steam_id":76561198983069721,"connected_time":3743000000000,"state":"active","ping":87},{"user_id":95,"name":"Jimbabwe","steam_id":76561198065373807,"connected_time":289000000000,"state":"active","ping":74},{"user_id":38,"name":"Snoozey","steam_id":76561198017120466,"connected_time":4680000000000,"state":"active","ping":63},{"user_id":39,"name":"practice practice practice","steam_id":76561198083345384,"connected_time":4655000000000,"state":"active","ping":102},{"user_id":85,"name":"Axities","steam_id":76561198278008225,"connected_time":1771000000000,"state":"active","ping":54},{"user_id":79,"name":"Falafel","steam_id":76561198111493042,"connected_time":2183000000000,"state":"active","ping":136},{"user_id":91,"name":"se√±ora","steam_id":76561199353185652,"connected_time":956000000000,"state":"active","ping":123},{"user_id":78,"name":"Milk","steam_id":76561198892311722,"connected_time":2208000000000,"state":"active","ping":77},{"user_id":51,"name":"kingjeffry2012@hotmail.com","steam_id":76561198314104415,"connected_time":4106000000000,"state":"active","ping":55},{"user_id":80,"name":"Gustavo Fring","steam_id":76561198132807405,"connected_time":2010000000000,"state":"active","ping":87},{"user_id":52,"name":"BOT T√∏fler","steam_id":76561198070606923,"connected_time":4020000000000,"state":"active","ping":159},{"user_id":59,"name":"ADRIEN BRODY","steam_id":76561198009299473,"connected_time":3821000000000,"state":"active","ping":70},{"user_id":48,"name":"B√∏hlin","steam_id":76561198089630369,"connected_time":4484000000000,"state":"active","ping":158}]},{"server_id":400,"name":"Uncletopia | Atlanta | 3 | Community","name_short":"atl-3","host":"atl-1.us.uncletopia.com","port":27035,"enabled":true,"region":"us-east","cc":"us","latitude":33.753746,"longitude":-84.38633,"reserved":0,"last_update":"0001-01-01T00:00:00Z","name_a2s":"Uncletopia | Atlanta | 3 | Community","protocol":17,"map":"workshop/pl_cashworks_final1.ugc2904065412","folder":"tf","game":"Team Fortress","app_id":440,"player_count":0,"max_players":24,"Bots":0,"server_type":"Dedicated","server_os":"Linux","password":true,"vac":true,"version":"7882260","steam_id":85568392924515187,"keywords":["nocrits","nodmgspread","payload","uncletopia"],"game_id":440,"stv_port":27036,"stv_name":"Uncletopia | Atlanta | 3 | Community | STV","players":null},{"server_id":401,"name":"Uncletopia | Atlanta | 4 | No Payload","name_short":"atl-4","host":"atl-1.us.uncletopia.com","port":27045,"enabled":true,"region":"us-east","cc":"us","latitude":33.753746,"longitude":-84.38633,"reserved":0,"last_update":"0001-01-01T00:00:00Z","name_a2s":"","protocol":0,"map":"","folder":"","game":"","app_id":0,"player_count":0,"max_players":0,"Bots":0,"server_type":"","server_os":"","password":false,"vac":false,"version":"","steam_id":0,"keywords":null,"game_id":0,"stv_port":0,"stv_name":"","players":null},{"server_id":2,"name":"Uncletopia | Chicago | 1 | All Maps","name_short":"chi-1","host":"chi-1.us.uncletopia.com","port":27015,"enabled":true,"region":"us-central","cc":"us","latitude":41.881832,"longitude":-87.62318,"reserved":0,"last_update":"0001-01-01T00:00:00Z","name_a2s":"Uncletopia | Chicago | 1 | All Maps","protocol":17,"map":"cp_snakewater_final1","folder":"tf","game":"Team Fortress","app_id":440,"player_count":24,"max_players":24,"Bots":0,"server_type":"Dedicated","server_os":"Linux","password":true,"vac":true,"version":"7882260","steam_id":85568392924469984,"keywords":["cp","nocrits","nodmgspread","uncletopia"],"game_id":440,"stv_port":27016,"stv_name":"Uncletopia | Chicago | 1 | All Maps | STV","players":[{"user_id":414,"name":"Jak(i)","steam_id":76561198076823144,"connected_time":5442000000000,"state":"active","ping":62},{"user_id":463,"name":"Famelegion","steam_id":76561198958341424,"connected_time":1188000000000,"state":"active","ping":94},{"user_id":467,"name":"[TSG] Turner's Chocolate Milk","steam_id":76561198058963288,"connected_time":854000000000,"state":"active","ping":69},{"user_id":431,"name":"Astoriae!","steam_id":76561199090168858,"connected_time":3823000000000,"state":"active","ping":63},{"user_id":415,"name":"Mindset","steam_id":76561198107074449,"connected_time":5440000000000,"state":"active","ping":46},{"user_id":452,"name":"Alecto","steam_id":76561198042476864,"connected_time":1543000000000,"state":"active","ping":44},{"user_id":457,"name":"CrazyCow","steam_id":76561198097431272,"connected_time":1361000000000,"state":"active","ping":64},{"user_id":413,"name":"Praise_to_the_Flashlight!","steam_id":76561199001728789,"connected_time":5664000000000,"state":"active","ping":60},{"user_id":475,"name":"jpuzza","steam_id":76561198035535731,"connected_time":418000000000,"state":"active","ping":67},{"user_id":476,"name":"Gnarly Shark Bite","steam_id":76561198004058342,"connected_time":222000000000,"state":"active","ping":76},{"user_id":473,"name":"nomocantgame","steam_id":76561198865074599,"connected_time":510000000000,"state":"active","ping":134},{"user_id":420,"name":"JSClinton","steam_id":76561198067487389,"connected_time":4632000000000,"state":"active","ping":60},{"user_id":474,"name":"Tealim","steam_id":76561198330085713,"connected_time":500000000000,"state":"active","ping":80},{"user_id":416,"name":"b√ºddeh","steam_id":76561198070735936,"connected_time":5259000000000,"state":"active","ping":55},{"user_id":468,"name":"LeTonzy","steam_id":76561198005806699,"connected_time":669000000000,"state":"active","ping":114},{"user_id":453,"name":"Prince Beemish","steam_id":76561199081837220,"connected_time":1530000000000,"state":"active","ping":90},{"user_id":451,"name":"Aiden939","steam_id":76561198860530097,"connected_time":1578000000000,"state":"active","ping":80},{"user_id":469,"name":"bruiseraaron","steam_id":76561198020092380,"connected_time":623000000000,"state":"active","ping":51},{"user_id":464,"name":"Dr. Robotniks Mean Bean Machine","steam_id":76561198047980627,"connected_time":1143000000000,"state":"active","ping":57},{"user_id":465,"name":"rat eater","steam_id":76561199216874750,"connected_time":942000000000,"state":"active","ping":55},{"user_id":411,"name":"Shoeshocker","steam_id":76561198174302467,"connected_time":5952000000000,"state":"active","ping":68},{"user_id":470,"name":"HumFreY","steam_id":76561198076639682,"connected_time":615000000000,"state":"active","ping":65},{"user_id":461,"name":"CuSO4","steam_id":76561199278147589,"connected_time":1292000000000,"state":"active","ping":70},{"user_id":324,"name":"Kennith","steam_id":76561198126773032,"connected_time":11649000000000,"state":"active","ping":110}]},{"server_id":106,"name":"Uncletopia | Chicago | 2 | All Maps","name_short":"chi-2","host":"chi-1.us.uncletopia.com","port":27025,"enabled":true,"region":"us-central","cc":"us","latitude":41.881832,"longitude":-87.62318,"reserved":0,"last_update":"0001-01-01T00:00:00Z","name_a2s":"Uncletopia | Chicago | 2 | All Maps","protocol":17,"map":"cp_snakewater_final1","folder":"tf","game":"Team Fortress","app_id":440,"player_count":24,"max_players":24,"Bots":0,"server_type":"Dedicated","server_os":"Linux","password":true,"vac":true,"version":"7882260","steam_id":85568392924469985,"keywords":["cp","nocrits","nodmgspread","uncletopia"],"game_id":440,"stv_port":27026,"stv_name":"Uncletopia | Chicago | 2 | All Maps | STV","players":[{"user_id":361,"name":"Nolan","steam_id":76561198169648081,"connected_time":1740000000000,"state":"active","ping":86},{"user_id":371,"name":"SuperEvilPasta","steam_id":76561198078258907,"connected_time":531000000000,"state":"active","ping":91},{"user_id":370,"name":"Smath","steam_id":76561198059050312,"connected_time":591000000000,"state":"active","ping":56},{"user_id":279,"name":"AMU","steam_id":76561198092346231,"connected_time":8315000000000,"state":"active","ping":63},{"user_id":363,"name":"Save","steam_id":76561198032740584,"connected_time":1659000000000,"state":"active","ping":74},{"user_id":327,"name":"Ruben","steam_id":76561198048508642,"connected_time":4686000000000,"state":"active","ping":103},{"user_id":372,"name":"Windup Monkey in a Human Suit","steam_id":76561198119501444,"connected_time":520000000000,"state":"active","ping":100},{"user_id":369,"name":"x_kaz","steam_id":76561198313241509,"connected_time":889000000000,"state":"active","ping":73},{"user_id":347,"name":"Gill-Man","steam_id":76561198072736830,"connected_time":2769000000000,"state":"active","ping":75},{"user_id":303,"name":"LegendaryMister151","steam_id":76561198064890524,"connected_time":6194000000000,"state":"active","ping":82},{"user_id":362,"name":"Teleporter","steam_id":76561199132214008,"connected_time":1732000000000,"state":"active","ping":95},{"user_id":324,"name":"Wallem","steam_id":76561198052361822,"connected_time":4976000000000,"state":"active","ping":76},{"user_id":346,"name":"perfectlyNormal","steam_id":76561198048007980,"connected_time":2985000000000,"state":"active","ping":101},{"user_id":336,"name":"gps","steam_id":76561198067492304,"connected_time":4365000000000,"state":"active","ping":80},{"user_id":326,"name":"Bolty","steam_id":76561198084199165,"connected_time":4690000000000,"state":"active","ping":75},{"user_id":367,"name":"Npcutz64","steam_id":76561198320867336,"connected_time":1151000000000,"state":"active","ping":73},{"user_id":374,"name":"Loleo","steam_id":76561198348132374,"connected_time":362000000000,"state":"active","ping":58},{"user_id":360,"name":"wafflehamster2000","steam_id":76561198849161820,"connected_time":1796000000000,"state":"active","ping":68},{"user_id":359,"name":"tim-","steam_id":76561199119101315,"connected_time":1961000000000,"state":"active","ping":96},{"user_id":345,"name":"BrendenMad","steam_id":76561198031250581,"connected_time":3670000000000,"state":"active","ping":59},{"user_id":351,"name":"AkimboAoki","steam_id":76561198158323058,"connected_time":2673000000000,"state":"active","ping":95},{"user_id":293,"name":"Protato","steam_id":76561198061182563,"connected_time":6949000000000,"state":"active","ping":90},{"user_id":315,"name":"Paleo","steam_id":76561198053493855,"connected_time":5914000000000,"state":"active","ping":51},{"user_id":366,"name":"jrdoran","steam_id":76561197984753094,"connected_time":1217000000000,"state":"active","ping":64}]},{"server_id":402,"name":"Uncletopia | Chicago | 3 | All Maps","name_short":"chi-3","host":"chi-1.us.uncletopia.com","port":27035,"enabled":true,"region":"us-central","cc":"us","latitude":41.881832,"longitude":-87.62318,"reserved":0,"last_update":"0001-01-01T00:00:00Z","name_a2s":"Uncletopia | Chicago | 3 | All Maps","protocol":17,"map":"cp_mountainlab","folder":"tf","game":"Team Fortress","app_id":440,"player_count":24,"max_players":24,"Bots":0,"server_type":"Dedicated","server_os":"Linux","password":true,"vac":true,"version":"7882260","steam_id":85568392924515191,"keywords":["cp","nocrits","nodmgspread","uncletopia"],"game_id":440,"stv_port":27036,"stv_name":"Uncletopia | Chicago | 3 | All Maps | STV","players":[{"user_id":425,"name":"Peter Popoff","steam_id":76561198027171160,"connected_time":2823000000000,"state":"active","ping":44},{"user_id":439,"name":"aphexjh","steam_id":76561197985854658,"connected_time":1699000000000,"state":"active","ping":58},{"user_id":432,"name":"mary","steam_id":76561198014828037,"connected_time":2616000000000,"state":"active","ping":161},{"user_id":451,"name":"Baker","steam_id":76561198055196430,"connected_time":605000000000,"state":"active","ping":77},{"user_id":323,"name":"Praise Hero","steam_id":76561198071362210,"connected_time":11033000000000,"state":"active","ping":66},{"user_id":440,"name":"Hob-Goblin Jim The IV","steam_id":76561199046650666,"connected_time":1621000000000,"state":"active","ping":52},{"user_id":428,"name":"rat 2","steam_id":76561198041277031,"connected_time":2776000000000,"state":"active","ping":77},{"user_id":419,"name":"Help! I'm Underwater!","steam_id":76561198030291655,"connected_time":3985000000000,"state":"active","ping":46},{"user_id":414,"name":"faxxy","steam_id":76561198079621240,"connected_time":4234000000000,"state":"active","ping":176},{"user_id":450,"name":"your–¥—Ä—É–≥","steam_id":76561198317927140,"connected_time":699000000000,"state":"active","ping":67},{"user_id":379,"name":"hank suckle","steam_id":76561198122622916,"connected_time":6976000000000,"state":"active","ping":48},{"user_id":437,"name":"[BALLS] r30848","steam_id":76561199123984543,"connected_time":1936000000000,"state":"active","ping":76},{"user_id":378,"name":"Melody","steam_id":76561198407789232,"connected_time":7015000000000,"state":"active","ping":116},{"user_id":429,"name":"Gaskranx","steam_id":76561198020269547,"connected_time":2747000000000,"state":"active","ping":73},{"user_id":438,"name":"Cayenne","steam_id":76561198004614086,"connected_time":1837000000000,"state":"active","ping":75},{"user_id":424,"name":"Goofball","steam_id":76561198061211537,"connected_time":3027000000000,"state":"active","ping":60},{"user_id":454,"name":"Apple CruCider","steam_id":76561198042657249,"connected_time":259000000000,"state":"active","ping":80},{"user_id":435,"name":"Chimpanzee","steam_id":76561198850387282,"connected_time":2039000000000,"state":"active","ping":85},{"user_id":442,"name":"Mehman","steam_id":76561199020244051,"connected_time":1325000000000,"state":"active","ping":102},{"user_id":453,"name":"Cedric","steam_id":76561198072090580,"connected_time":553000000000,"state":"active","ping":94},{"user_id":396,"name":"Aeonspassed","steam_id":76561198014016451,"connected_time":5911000000000,"state":"active","ping":58},{"user_id":407,"name":"Person","steam_id":76561198093244204,"connected_time":4931000000000,"state":"active","ping":73},{"user_id":420,"name":"triple_range_merge","steam_id":76561198991225026,"connected_time":3973000000000,"state":"active","ping":81},{"user_id":448,"name":"dude","steam_id":76561198323384949,"connected_time":1005000000000,"state":"active","ping":60}]},{"server_id":403,"name":"Uncletopia | Chicago | 4 | All Maps","name_short":"chi-4","host":"chi-1.us.uncletopia.com","port":27045,"enabled":true,"region":"us-central","cc":"us","latitude":41.881832,"longitude":-87.62318,"reserved":0,"last_update":"0001-01-01T00:00:00Z","name_a2s":"Uncletopia | Chicago | 4 | All Maps","protocol":17,"map":"ctf_2fort","folder":"tf","game":"Team Fortress","app_id":440,"player_count":24,"max_players":24,"Bots":0,"server_type":"Dedicated","server_os":"Linux","password":true,"vac":true,"version":"7882260","steam_id":85568392924515193,"keywords":["ctf","nocrits","nodmgspread","uncletopia"],"game_id":440,"stv_port":27046,"stv_name":"Uncletopia | Chicago | 4 | All Maps | STV","players":[{"user_id":87,"name":"izzydex","steam_id":76561199101531034,"connected_time":765000000000,"state":"active","ping":64},{"user_id":95,"name":"Yep Im Ethan","steam_id":76561199066140775,"connected_time":489000000000,"state":"active","ping":84},{"user_id":102,"name":"Tom","steam_id":76561198139202942,"connected_time":241000000000,"state":"active","ping":76},{"user_id":106,"name":"swooce","steam_id":76561198156232484,"connected_time":149000000000,"state":"active","ping":63},{"user_id":107,"name":"Im totally a hacker","steam_id":76561198888005736,"connected_time":128000000000,"state":"active","ping":63},{"user_id":57,"name":"adami","steam_id":76561198800334731,"connected_time":3212000000000,"state":"active","ping":65},{"user_id":110,"name":"Hadvar","steam_id":76561198081681234,"connected_time":42000000000,"state":"active","ping":96},{"user_id":109,"name":"Sea raider","steam_id":76561198123982355,"connected_time":90000000000,"state":"active","ping":110},{"user_id":68,"name":"MEDIC","steam_id":76561198191199554,"connected_time":2709000000000,"state":"active","ping":55},{"user_id":78,"name":"Yam Jazzy Jim","steam_id":76561198000788950,"connected_time":1946000000000,"state":"active","ping":59},{"user_id":93,"name":"SIDEWAYS BLU SOLDIER","steam_id":76561198808224331,"connected_time":644000000000,"state":"active","ping":118},{"user_id":94,"name":"1001NinjaDucks","steam_id":76561198058169660,"connected_time":640000000000,"state":"active","ping":66},{"user_id":49,"name":"violence in movies","steam_id":76561198882758067,"connected_time":3412000000000,"state":"active","ping":61},{"user_id":69,"name":"Dr Kickass","steam_id":76561198069659186,"connected_time":2700000000000,"state":"active","ping":55},{"user_id":100,"name":"Sysadmin Stress Release","steam_id":76561197997326384,"connected_time":390000000000,"state":"active","ping":75},{"user_id":52,"name":"Isaac Clarke","steam_id":76561198317662346,"connected_time":3387000000000,"state":"active","ping":79},{"user_id":84,"name":"TheSnipersHat","steam_id":76561198057684066,"connected_time":1309000000000,"state":"active","ping":54},{"user_id":98,"name":"The Fiend","steam_id":76561199229771413,"connected_time":422000000000,"state":"active","ping":89},{"user_id":80,"name":"Lieutenant Lazybones","steam_id":76561198317647978,"connected_time":1940000000000,"state":"active","ping":52},{"user_id":73,"name":"SHADY SWEATER SALESMAN","steam_id":76561198014616865,"connected_time":2665000000000,"state":"active","ping":62},{"user_id":74,"name":"whxle","steam_id":76561198253193544,"connected_time":2423000000000,"state":"active","ping":45},{"user_id":104,"name":"GLaDOS Simp","steam_id":76561198084849541,"connected_time":160000000000,"state":"active","ping":63},{"user_id":105,"name":"Ceej","steam_id":76561198416822503,"connected_time":160000000000,"state":"active","ping":89},{"user_id":108,"name":"SPF420","steam_id":76561198083991705,"connected_time":120000000000,"state":"active","ping":59}]},{"server_id":36,"name":"Uncletopia | Chicago | 5 | All Maps","name_short":"chi-5","host":"chi-2.us.uncletopia.com","port":27015,"enabled":true,"region":"us-central","cc":"us","latitude":41.881832,"longitude":-87.62318,"reserved":0,"last_update":"0001-01-01T00:00:00Z","name_a2s":"Uncletopia | Chicago | 5 | All Maps","protocol":17,"map":"pl_pier","folder":"tf","game":"Team Fortress","app_id":440,"player_count":24,"max_players":24,"Bots":0,"server_type":"Dedicated","server_os":"Linux","password":true,"vac":true,"version":"7882260","steam_id":85568392924866362,"keywords":["nocrits","nodmgspread","payload","uncletopia"],"game_id":440,"stv_port":27016,"stv_name":"Uncletopia | Chicago | 5 | All Maps | STV","players":[{"user_id":165,"name":"aoskde","steam_id":76561198366883780,"connected_time":729000000000,"state":"active","ping":128},{"user_id":166,"name":"BagelsAreDope","steam_id":76561198288641740,"connected_time":717000000000,"state":"active","ping":93},{"user_id":158,"name":"Happy Yaoi Thursday","steam_id":76561198111290441,"connected_time":1326000000000,"state":"active","ping":57},{"user_id":110,"name":"NUt","steam_id":76561198031007966,"connected_time":5578000000000,"state":"active","ping":71},{"user_id":112,"name":"Siev","steam_id":76561198000518937,"connected_time":5396000000000,"state":"active","ping":61},{"user_id":171,"name":"Belmore","steam_id":76561198009355231,"connected_time":601000000000,"state":"active","ping":112},{"user_id":180,"name":"SadVeggie","steam_id":76561198163430099,"connected_time":434000000000,"state":"active","ping":118},{"user_id":162,"name":"cold","steam_id":76561199017901552,"connected_time":942000000000,"state":"active","ping":76},{"user_id":168,"name":"‡ºò ‚ãÜÀöüéßCaffeine‚òï*Àñ¬∞","steam_id":76561199259309294,"connected_time":707000000000,"state":"active","ping":76},{"user_id":159,"name":"weeb_whacker","steam_id":76561198187098041,"connected_time":1315000000000,"state":"active","ping":59},{"user_id":169,"name":"Phatbuda","steam_id":76561198447969000,"connected_time":699000000000,"state":"active","ping":141},{"user_id":170,"name":"JohnnyGitGud","steam_id":76561198401455467,"connected_time":687000000000,"state":"active","ping":112},{"user_id":145,"name":"dave","steam_id":76561198944952153,"connected_time":2181000000000,"state":"active","ping":52},{"user_id":87,"name":"ThatGamingKiwi","steam_id":76561199170522237,"connected_time":7987000000000,"state":"active","ping":76},{"user_id":176,"name":"SpaceDonut9","steam_id":76561199013502859,"connected_time":555000000000,"state":"active","ping":50},{"user_id":157,"name":"Xraverz","steam_id":76561198008891628,"connected_time":1354000000000,"state":"active","ping":85},{"user_id":137,"name":"Mega","steam_id":76561198121258379,"connected_time":3176000000000,"state":"active","ping":73},{"user_id":183,"name":"Rezz","steam_id":76561198241801078,"connected_time":115000000000,"state":"active","ping":66},{"user_id":174,"name":"Whorse","steam_id":76561198114141445,"connected_time":570000000000,"state":"active","ping":69},{"user_id":182,"name":"anonpain","steam_id":76561198081317092,"connected_time":146000000000,"state":"active","ping":57},{"user_id":160,"name":"Mint Jelly","steam_id":76561197991286751,"connected_time":1283000000000,"state":"active","ping":47},{"user_id":179,"name":"Jammy","steam_id":76561198119652755,"connected_time":529000000000,"state":"active","ping":94},{"user_id":90,"name":"IMM0RTAL","steam_id":76561198013747901,"connected_time":7009000000000,"state":"active","ping":76},{"user_id":185,"name":"Triwq","steam_id":76561198054810406,"connected_time":100000000000,"state":"active","ping":74}]},{"server_id":37,"name":"Uncletopia | Chicago | 6 | All Maps","name_short":"chi-6","host":"chi-2.us.uncletopia.com","port":27025,"enabled":true,"region":"us-central","cc":"us","latitude":41.881832,"longitude":-87.62318,"reserved":0,"last_update":"0001-01-01T00:00:00Z","name_a2s":"Uncletopia | Chicago | 6 | All Maps","protocol":17,"map":"koth_viaduct","folder":"tf","game":"Team Fortress","app_id":440,"player_count":0,"max_players":24,"Bots":0,"server_type":"Dedicated","server_os":"Linux","password":true,"vac":true,"version":"7882260","steam_id":85568392924866363,"keywords":["cp","nocrits","nodmgspread","uncletopia"],"game_id":440,"stv_port":27026,"stv_name":"Uncletopia | Chicago | 6 | All Maps | STV","players":null},{"server_id":38,"name":"Uncletopia | Chicago | 7 | Stopwatch Beta","name_short":"chi-7","host":"chi-2.us.uncletopia.com","port":27035,"enabled":true,"region":"us-central","cc":"us","latitude":41.881832,"longitude":-87.62318,"reserved":0,"last_update":"0001-01-01T00:00:00Z","name_a2s":"Uncletopia | Chicago | 7 | Stopwatch Beta","protocol":17,"map":"pl_upward","folder":"tf","game":"Team Fortress","app_id":440,"player_count":0,"max_players":24,"Bots":0,"server_type":"Dedicated","server_os":"Linux","password":true,"vac":true,"version":"7882260","steam_id":85568392924866364,"keywords":["nocrits","nodmgspread","payload","uncletopia"],"game_id":440,"stv_port":27036,"stv_name":"Uncletopia | Chicago | 7 | Stopwatch Beta | STV","players":null},{"server_id":39,"name":"Uncletopia | Chicago | 8 | Community","name_short":"chi-8","host":"chi-2.us.uncletopia.com","port":27045,"enabled":true,"region":"us-central","cc":"us","latitude":41.881832,"longitude":-87.62318,"reserved":0,"last_update":"0001-01-01T00:00:00Z","name_a2s":"Uncletopia | Chicago | 8 | Community","protocol":17,"map":"workshop/pl_corrode_rc2.ugc546577989","folder":"tf","game":"Team Fortress","app_id":440,"player_count":0,"max_players":24,"Bots":0,"server_type":"Dedicated","server_os":"Linux","password":true,"vac":true,"version":"7882260","steam_id":85568392924866365,"keywords":["nocrits","nodmgspread","payload","uncletopia"],"game_id":440,"stv_port":27046,"stv_name":"Uncletopia | Chicago | 8 | Community | STV","players":null},{"server_id":8,"name":"Uncletopia | Dallas | 1 | All Maps","name_short":"dal-1","host":"dal-1.us.uncletopia.com","port":27015,"enabled":true,"region":"us-central","cc":"us","latitude":32.779167,"longitude":-96.80889,"reserved":0,"last_update":"0001-01-01T00:00:00Z","name_a2s":"Uncletopia | Dallas | 1 | All Maps","protocol":17,"map":"pl_pier","folder":"tf","game":"Team Fortress","app_id":440,"player_count":22,"max_players":24,"Bots":0,"server_type":"Dedicated","server_os":"Linux","password":true,"vac":true,"version":"7882260","steam_id":85568392924469986,"keywords":["nocrits","nodmgspread","payload","uncletopia"],"game_id":440,"stv_port":27016,"stv_name":"Uncletopia | Dallas | 1 | All Maps | STV","players":[{"user_id":239,"name":"Umbrella Corporation","steam_id":76561197970242110,"connected_time":717000000000,"state":"active","ping":89},{"user_id":222,"name":"iluvtoust","steam_id":76561198869269207,"connected_time":2564000000000,"state":"active","ping":45},{"user_id":240,"name":"god gamer","steam_id":76561198168149434,"connected_time":669000000000,"state":"active","ping":113},{"user_id":245,"name":"webaline","steam_id":76561199052450127,"connected_time":426000000000,"state":"active","ping":75},{"user_id":235,"name":"Kelkith","steam_id":76561197985450422,"connected_time":1267000000000,"state":"active","ping":121},{"user_id":241,"name":"Howl","steam_id":76561198199217834,"connected_time":645000000000,"state":"active","ping":86},{"user_id":238,"name":"_Lusty_","steam_id":76561198876948142,"connected_time":740000000000,"state":"active","ping":58},{"user_id":231,"name":"crayonnipple","steam_id":76561198070253331,"connected_time":1455000000000,"state":"active","ping":96},{"user_id":242,"name":"NOT Susie Deltarune (not real)","steam_id":76561199007365488,"connected_time":618000000000,"state":"active","ping":64},{"user_id":192,"name":"LalitoTV","steam_id":76561198334302951,"connected_time":4447000000000,"state":"active","ping":75},{"user_id":187,"name":"nemaxilb :3","steam_id":76561199074875663,"connected_time":4651000000000,"state":"active","ping":71},{"user_id":185,"name":"Neptune (first day out)","steam_id":76561199054203198,"connected_time":4739000000000,"state":"active","ping":72},{"user_id":232,"name":"RARE ENDANGERED CRAB SPY","steam_id":76561198964891851,"connected_time":1445000000000,"state":"active","ping":90},{"user_id":233,"name":"Simply_Komeiji","steam_id":76561198354177703,"connected_time":1444000000000,"state":"active","ping":59},{"user_id":213,"name":"Thewaffleman141","steam_id":76561198083068694,"connected_time":3406000000000,"state":"active","ping":44},{"user_id":160,"name":"Borgir","steam_id":76561198325390265,"connected_time":6070000000000,"state":"active","ping":68},{"user_id":246,"name":"ttropic_","steam_id":76561198254529565,"connected_time":76000000000,"state":"active","ping":59},{"user_id":236,"name":"qiulongtao","steam_id":76561198977558717,"connected_time":1255000000000,"state":"active","ping":87},{"user_id":224,"name":"tntexplosion","steam_id":76561199090152308,"connected_time":2434000000000,"state":"active","ping":108},{"user_id":211,"name":"Sariff","steam_id":76561198136446352,"connected_time":3654000000000,"state":"active","ping":74},{"user_id":244,"name":"Zoro01","steam_id":76561198407989540,"connected_time":591000000000,"state":"active","ping":94},{"user_id":212,"name":"Dr.Holiday","steam_id":76561198353465692,"connected_time":3629000000000,"state":"active","ping":75}]},{"server_id":108,"name":"Uncletopia | Dallas | 2 | All Maps","name_short":"dal-2","host":"dal-1.us.uncletopia.com","port":27025,"enabled":true,"region":"us-central","cc":"us","latitude":32.779167,"longitude":-96.80889,"reserved":0,"last_update":"0001-01-01T00:00:00Z","name_a2s":"Uncletopia | Dallas | 2 | All Maps","protocol":17,"map":"pl_badwater","folder":"tf","game":"Team Fortress","app_id":440,"player_count":22,"max_players":24,"Bots":0,"server_type":"Dedicated","server_os":"Linux","password":true,"vac":true,"version":"7882260","steam_id":85568392924469988,"keywords":["nocrits","nodmgspread","payload","uncletopia"],"game_id":440,"stv_port":27026,"stv_name":"Uncletopia | Dallas | 2 | All Maps | STV","players":[{"user_id":134,"name":"gromit","steam_id":76561198037746805,"connected_time":1598000000000,"state":"active","ping":92},{"user_id":98,"name":"TheSaltRobot","steam_id":76561198839739497,"connected_time":3231000000000,"state":"active","ping":67},{"user_id":22,"name":"Sup m8","steam_id":76561198081659121,"connected_time":8507000000000,"state":"active","ping":45},{"user_id":121,"name":"robot6226","steam_id":76561198849973320,"connected_time":2556000000000,"state":"active","ping":75},{"user_id":149,"name":"cloaker","steam_id":76561199453618642,"connected_time":420000000000,"state":"active","ping":101},{"user_id":135,"name":"Drakon","steam_id":76561198078210822,"connected_time":1542000000000,"state":"active","ping":91},{"user_id":132,"name":"dailydiamond","steam_id":76561199123582502,"connected_time":1875000000000,"state":"active","ping":108},{"user_id":143,"name":"lil homie gay ass","steam_id":76561198044804626,"connected_time":679000000000,"state":"active","ping":58},{"user_id":151,"name":"bean goblin #savetf2","steam_id":76561199185148234,"connected_time":352000000000,"state":"active","ping":148},{"user_id":144,"name":"The Grim Heaper","steam_id":76561197987759101,"connected_time":678000000000,"state":"active","ping":114},{"user_id":146,"name":"Carpetspill","steam_id":76561198240023406,"connected_time":664000000000,"state":"active","ping":75},{"user_id":147,"name":"Kazmirl","steam_id":76561198116008410,"connected_time":539000000000,"state":"active","ping":110},{"user_id":127,"name":"explosivekittypaws","steam_id":76561199217210697,"connected_time":2079000000000,"state":"active","ping":72},{"user_id":128,"name":"‚òÜLukey‚ò∫","steam_id":76561198072441047,"connected_time":2073000000000,"state":"active","ping":118},{"user_id":137,"name":"Nibareaux","steam_id":76561198322044169,"connected_time":1516000000000,"state":"active","ping":60},{"user_id":140,"name":"Rise for the National Spamton","steam_id":76561198138468982,"connected_time":1162000000000,"state":"active","ping":100},{"user_id":123,"name":"J.G. Klaus","steam_id":76561198001111196,"connected_time":2281000000000,"state":"active","ping":57},{"user_id":148,"name":"The Moose","steam_id":76561199002758063,"connected_time":517000000000,"state":"active","ping":80},{"user_id":150,"name":"Sableye","steam_id":76561198061247147,"connected_time":376000000000,"state":"active","ping":70},{"user_id":67,"name":"Ba-Zing-Ga","steam_id":76561198323260286,"connected_time":5561000000000,"state":"active","ping":96},{"user_id":120,"name":"White_Wizard_Named_Corona","steam_id":76561198055652735,"connected_time":2598000000000,"state":"active","ping":98},{"user_id":139,"name":"BlueBruh","steam_id":76561199078613052,"connected_time":1482000000000,"state":"active","ping":68}]},{"server_id":5,"name":"Uncletopia | Frankfurt | 1 | All Maps","name_short":"frk-1","host":"frk-1.de.uncletopia.com","port":27015,"enabled":true,"region":"eu","cc":"de","latitude":50.110924,"longitude":8.682127,"reserved":0,"last_update":"0001-01-01T00:00:00Z","name_a2s":"Uncletopia | Frankfurt | 1 | All Maps","protocol":17,"map":"pl_swiftwater_final1","folder":"tf","game":"Team Fortress","app_id":440,"player_count":24,"max_players":24,"Bots":0,"server_type":"Dedicated","server_os":"Linux","password":true,"vac":true,"version":"7882260","steam_id":85568392924469989,"keywords":["nocrits","nodmgspread","payload","uncletopia"],"game_id":440,"stv_port":27016,"stv_name":"Uncletopia | Frankfurt | 1 | All Maps | STV","players":[{"user_id":477,"name":"BrotherPotato","steam_id":76561198049948120,"connected_time":9210000000000,"state":"active","ping":72},{"user_id":571,"name":"MoonDroid","steam_id":76561198023027016,"connected_time":277000000000,"state":"active","ping":36},{"user_id":554,"name":"Ë™∞„Åã„ÅåË¶ã„Å¶„ÅÑ„Çã","steam_id":76561198834913692,"connected_time":1936000000000,"state":"active","ping":75},{"user_id":480,"name":"Lugialf","steam_id":76561198069050794,"connected_time":9054000000000,"state":"active","ping":88},{"user_id":562,"name":"Coolaman #SaveTF2","steam_id":76561198145662673,"connected_time":975000000000,"state":"active","ping":59},{"user_id":549,"name":"G.R.E","steam_id":76561197979806514,"connected_time":2912000000000,"state":"active","ping":45},{"user_id":542,"name":"dddd","steam_id":76561198007792525,"connected_time":3556000000000,"state":"active","ping":56},{"user_id":538,"name":"JeanCorben","steam_id":76561197965133561,"connected_time":3945000000000,"state":"active","ping":45},{"user_id":508,"name":"Ankle Dane","steam_id":76561198134378108,"connected_time":7325000000000,"state":"active","ping":86},{"user_id":573,"name":"remain hostile at all times","steam_id":76561198317424558,"connected_time":259000000000,"state":"active","ping":56},{"user_id":568,"name":"Zedespook","steam_id":76561198265479349,"connected_time":391000000000,"state":"active","ping":59},{"user_id":574,"name":"congo","steam_id":76561198236836866,"connected_time":242000000000,"state":"active","ping":81},{"user_id":502,"name":"oscar","steam_id":76561198079636127,"connected_time":7667000000000,"state":"active","ping":83},{"user_id":559,"name":"mangoface","steam_id":76561199028760996,"connected_time":1516000000000,"state":"active","ping":68},{"user_id":544,"name":"Popop","steam_id":76561198004793795,"connected_time":3215000000000,"state":"active","ping":50},{"user_id":563,"name":"Acheron","steam_id":76561198306593373,"connected_time":965000000000,"state":"active","ping":73},{"user_id":578,"name":"Gety0","steam_id":76561198044387185,"connected_time":68000000000,"state":"active","ping":80},{"user_id":567,"name":"Domoko","steam_id":76561199387469821,"connected_time":650000000000,"state":"active","ping":67},{"user_id":540,"name":"Raulca25","steam_id":76561199068256964,"connected_time":3902000000000,"state":"active","ping":84},{"user_id":575,"name":"Tusho","steam_id":76561198115447383,"connected_time":215000000000,"state":"active","ping":135},{"user_id":557,"name":"MAGGOTS!!BBX","steam_id":76561198326015472,"connected_time":1652000000000,"state":"active","ping":69},{"user_id":577,"name":"Repa24","steam_id":76561198033016390,"connected_time":191000000000,"state":"active","ping":71},{"user_id":531,"name":"Rainbow Sapling","steam_id":76561198127682941,"connected_time":4461000000000,"state":"active","ping":84},{"user_id":475,"name":"SpaceNut","steam_id":76561198059198302,"connected_time":9237000000000,"state":"active","ping":75}]},{"server_id":110,"name":"Uncletopia | Frankfurt | 2 | All Maps","name_short":"frk-2","host":"frk-1.de.uncletopia.com","port":27025,"enabled":true,"region":"eu","cc":"de","latitude":50.110924,"longitude":8.682127,"reserved":0,"last_update":"0001-01-01T00:00:00Z","name_a2s":"Uncletopia | Frankfurt | 2 | All Maps","protocol":17,"map":"pl_borneo","folder":"tf","game":"Team Fortress","app_id":440,"player_count":24,"max_players":24,"Bots":0,"server_type":"Dedicated","server_os":"Linux","password":true,"vac":true,"version":"7882260","steam_id":85568392924469990,"keywords":["nocrits","nodmgspread","payload","uncletopia"],"game_id":440,"stv_port":27026,"stv_name":"Uncletopia | Frankfurt | 2 | All Maps | STV","players":[{"user_id":309,"name":"E0","steam_id":76561198006634620,"connected_time":1758000000000,"state":"active","ping":55},{"user_id":324,"name":"glyph","steam_id":76561197980736364,"connected_time":935000000000,"state":"active","ping":76},{"user_id":325,"name":"Œ£O","steam_id":76561198120855213,"connected_time":934000000000,"state":"active","ping":55},{"user_id":342,"name":"Lukas","steam_id":76561198009118452,"connected_time":310000000000,"state":"active","ping":58},{"user_id":326,"name":"elliot","steam_id":76561198055010039,"connected_time":887000000000,"state":"active","ping":59},{"user_id":317,"name":"Marquis de Hoto","steam_id":76561198080687708,"connected_time":1646000000000,"state":"active","ping":67},{"user_id":296,"name":"[T]aKer","steam_id":76561198001778013,"connected_time":2705000000000,"state":"active","ping":52},{"user_id":327,"name":"Impressive Knight of Stirling","steam_id":76561197992844841,"connected_time":850000000000,"state":"active","ping":45},{"user_id":310,"name":"E√ò","steam_id":76561197993407916,"connected_time":1724000000000,"state":"active","ping":95},{"user_id":319,"name":"Panda","steam_id":76561198176342325,"connected_time":1471000000000,"state":"active","ping":98},{"user_id":343,"name":"Cabbch","steam_id":76561198045955679,"connected_time":105000000000,"state":"active","ping":56},{"user_id":307,"name":"fredu","steam_id":76561198107605938,"connected_time":1806000000000,"state":"active","ping":88},{"user_id":330,"name":"Urologist","steam_id":76561198849366474,"connected_time":740000000000,"state":"active","ping":65},{"user_id":333,"name":"WATANG!","steam_id":76561198040478926,"connected_time":582000000000,"state":"active","ping":71},{"user_id":331,"name":"Jeƒçmen","steam_id":76561198051617968,"connected_time":655000000000,"state":"active","ping":71},{"user_id":344,"name":"shits in urinals","steam_id":76561199480942903,"connected_time":4000000000,"state":"spawning","ping":60},{"user_id":290,"name":"TylowStar","steam_id":76561198357107806,"connected_time":3004000000000,"state":"active","ping":60},{"user_id":334,"name":"SHARA–ìA","steam_id":76561198145055526,"connected_time":582000000000,"state":"active","ping":141},{"user_id":335,"name":"fay","steam_id":76561197994492154,"connected_time":554000000000,"state":"active","ping":66},{"user_id":265,"name":"Le epic gamer","steam_id":76561198016657120,"connected_time":4412000000000,"state":"active","ping":111},{"user_id":318,"name":"Joe","steam_id":76561198145639903,"connected_time":1522000000000,"state":"active","ping":98},{"user_id":340,"name":"Flostro","steam_id":76561198259793697,"connected_time":430000000000,"state":"active","ping":67},{"user_id":337,"name":"pesky scoot","steam_id":76561199440029970,"connected_time":508000000000,"state":"active","ping":129},{"user_id":341,"name":"Barbiehunter #SaveTF2","steam_id":76561198071630928,"connected_time":404000000000,"state":"active","ping":60}]},{"server_id":308,"name":"Uncletopia | Frankfurt | 3 | All Maps","name_short":"frk-3","host":"frk-1.de.uncletopia.com","port":27035,"enabled":true,"region":"eu","cc":"de","latitude":50.110924,"longitude":8.682127,"reserved":0,"last_update":"0001-01-01T00:00:00Z","name_a2s":"Uncletopia | Frankfurt | 3 | All Maps","protocol":17,"map":"koth_highpass","folder":"tf","game":"Team Fortress","app_id":440,"player_count":0,"max_players":24,"Bots":0,"server_type":"Dedicated","server_os":"Linux","password":true,"vac":true,"version":"7882260","steam_id":85568392924504274,"keywords":["cp","nocrits","nodmgspread","uncletopia"],"game_id":440,"stv_port":27036,"stv_name":"Uncletopia | Frankfurt | 3 | All Maps | STV","players":null},{"server_id":309,"name":"Uncletopia | Frankfurt | 4 | All Maps","name_short":"frk-4","host":"frk-1.de.uncletopia.com","port":27045,"enabled":true,"region":"eu","cc":"de","latitude":50.110924,"longitude":8.682127,"reserved":0,"last_update":"0001-01-01T00:00:00Z","name_a2s":"Uncletopia | Frankfurt | 4 | All Maps","protocol":17,"map":"pl_pier","folder":"tf","game":"Team Fortress","app_id":440,"player_count":23,"max_players":24,"Bots":0,"server_type":"Dedicated","server_os":"Linux","password":true,"vac":true,"version":"7882260","steam_id":85568392924504275,"keywords":["nocrits","nodmgspread","payload","uncletopia"],"game_id":440,"stv_port":27046,"stv_name":"Uncletopia | Frankfurt | 4 | All Maps | STV","players":[{"user_id":256,"name":"8 Ball","steam_id":76561197960988736,"connected_time":381000000000,"state":"active","ping":61},{"user_id":225,"name":"Pepsi Man","steam_id":76561198061835461,"connected_time":4258000000000,"state":"active","ping":55},{"user_id":200,"name":"Pirkage #transrights","steam_id":76561198323002691,"connected_time":5370000000000,"state":"active","ping":86},{"user_id":261,"name":"2BCD","steam_id":76561198178254946,"connected_time":62000000000,"state":"active","ping":73},{"user_id":258,"name":"bean","steam_id":76561198161013815,"connected_time":192000000000,"state":"active","ping":60},{"user_id":217,"name":"KingofCubes","steam_id":76561198258037513,"connected_time":4767000000000,"state":"active","ping":73},{"user_id":193,"name":"Saymesal","steam_id":76561198886917393,"connected_time":5875000000000,"state":"active","ping":74},{"user_id":201,"name":"GroGroudonDu31","steam_id":76561198155106297,"connected_time":5196000000000,"state":"active","ping":64},{"user_id":259,"name":"ODanial","steam_id":76561198034854402,"connected_time":181000000000,"state":"active","ping":86},{"user_id":220,"name":"FanFish","steam_id":76561199389558024,"connected_time":4733000000000,"state":"active","ping":61},{"user_id":251,"name":"Rage spell","steam_id":76561198279952779,"connected_time":1111000000000,"state":"active","ping":161},{"user_id":199,"name":"AmssoBador Spacelot","steam_id":76561197993444617,"connected_time":5394000000000,"state":"active","ping":67},{"user_id":260,"name":"NB","steam_id":76561198079361515,"connected_time":134000000000,"state":"active","ping":68},{"user_id":253,"name":"Economic crisis","steam_id":76561198063562843,"connected_time":1090000000000,"state":"active","ping":63},{"user_id":229,"name":"Kyle","steam_id":76561198071181745,"connected_time":3430000000000,"state":"active","ping":70},{"user_id":249,"name":"Julmuri","steam_id":76561198284843949,"connected_time":1181000000000,"state":"active","ping":92},{"user_id":227,"name":"svantezch","steam_id":76561198373831657,"connected_time":3488000000000,"state":"active","ping":74},{"user_id":254,"name":"Devious","steam_id":76561198035576811,"connected_time":1045000000000,"state":"active","ping":52},{"user_id":210,"name":"Slushy_","steam_id":76561198148649945,"connected_time":4920000000000,"state":"active","ping":81},{"user_id":255,"name":"why rum gone","steam_id":76561198158484784,"connected_time":844000000000,"state":"active","ping":59},{"user_id":262,"name":"Rob","steam_id":76561198346638308,"connected_time":18000000000,"state":"active","ping":60},{"user_id":263,"name":"Arseni","steam_id":76561198042602892,"connected_time":6000000000,"state":"spawning","ping":135},{"user_id":242,"name":"PANK_Y","steam_id":76561198327715144,"connected_time":1955000000000,"state":"active","ping":82}]},{"server_id":310,"name":"Uncletopia | Frankfurt | 5 | All Maps","name_short":"frk-5","host":"frk-1.de.uncletopia.com","port":27055,"enabled":true,"region":"eu","cc":"de","latitude":50.110924,"longitude":8.682127,"reserved":0,"last_update":"0001-01-01T00:00:00Z","name_a2s":"Uncletopia | Frankfurt | 5 | All Maps","protocol":17,"map":"koth_cascade","folder":"tf","game":"Team Fortress","app_id":440,"player_count":0,"max_players":24,"Bots":0,"server_type":"Dedicated","server_os":"Linux","password":true,"vac":true,"version":"7882260","steam_id":85568392924504277,"keywords":["cp","nocrits","nodmgspread","uncletopia"],"game_id":440,"stv_port":27056,"stv_name":"Uncletopia | Frankfurt | 5 | All Maps | STV","players":null},{"server_id":311,"name":"Uncletopia | Frankfurt | 6 | All Maps","name_short":"frk-6","host":"frk-1.de.uncletopia.com","port":27065,"enabled":true,"region":"eu","cc":"de","latitude":50.110924,"longitude":8.682127,"reserved":0,"last_update":"0001-01-01T00:00:00Z","name_a2s":"Uncletopia | Frankfurt | 6 | All Maps","protocol":17,"map":"pl_borneo","folder":"tf","game":"Team Fortress","app_id":440,"player_count":24,"max_players":24,"Bots":0,"server_type":"Dedicated","server_os":"Linux","password":true,"vac":true,"version":"7882260","steam_id":85568392924504278,"keywords":["nocrits","nodmgspread","payload","uncletopia"],"game_id":440,"stv_port":27066,"stv_name":"Uncletopia | Frankfurt | 6 | All Maps | STV","players":[{"user_id":321,"name":"$n√òw","steam_id":76561198238781028,"connected_time":1500000000000,"state":"active","ping":99},{"user_id":298,"name":"axel, comp bot","steam_id":76561197992311317,"connected_time":3671000000000,"state":"active","ping":70},{"user_id":306,"name":"miiq130","steam_id":76561198188010666,"connected_time":2681000000000,"state":"active","ping":72},{"user_id":320,"name":"Vitamin Weee","steam_id":76561199183937747,"connected_time":1506000000000,"state":"active","ping":84},{"user_id":313,"name":"Tonne","steam_id":76561197970856766,"connected_time":2118000000000,"state":"active","ping":54},{"user_id":327,"name":"‚ô• trixy ‚ô•","steam_id":76561199474154775,"connected_time":949000000000,"state":"active","ping":59},{"user_id":291,"name":"gagalak","steam_id":76561198089979108,"connected_time":4135000000000,"state":"active","ping":90},{"user_id":323,"name":"Gen","steam_id":76561198021775885,"connected_time":1451000000000,"state":"active","ping":55},{"user_id":232,"name":"Mailer","steam_id":76561198062690074,"connected_time":8292000000000,"state":"active","ping":65},{"user_id":282,"name":"Tamirdadon","steam_id":76561198317551573,"connected_time":4809000000000,"state":"active","ping":90},{"user_id":270,"name":"Toasty5050","steam_id":76561198073540881,"connected_time":5548000000000,"state":"active","ping":45},{"user_id":319,"name":"Z[p_F]le.cfg","steam_id":76561198003251598,"connected_time":1665000000000,"state":"active","ping":83},{"user_id":328,"name":"aguy without amustache","steam_id":76561198397105421,"connected_time":631000000000,"state":"active","ping":60},{"user_id":272,"name":"Rimx","steam_id":76561198053034840,"connected_time":5482000000000,"state":"active","ping":92},{"user_id":310,"name":"Mysterious Stranger","steam_id":76561198061580505,"connected_time":2646000000000,"state":"active","ping":59},{"user_id":297,"name":"screenshot2020-25-09","steam_id":76561198255275650,"connected_time":3924000000000,"state":"active","ping":45},{"user_id":325,"name":"Piteras","steam_id":76561198858532207,"connected_time":1285000000000,"state":"active","ping":81},{"user_id":308,"name":"xavier","steam_id":76561198076494034,"connected_time":2673000000000,"state":"active","ping":56},{"user_id":309,"name":"materacci","steam_id":76561198213421904,"connected_time":2671000000000,"state":"active","ping":82},{"user_id":288,"name":"Skippie","steam_id":76561198102029146,"connected_time":4284000000000,"state":"active","ping":75},{"user_id":263,"name":"WICKED BARSIK","steam_id":76561198120927230,"connected_time":5879000000000,"state":"active","ping":106},{"user_id":296,"name":"YOU ARE SHITTING YOUR SELF","steam_id":76561198371719058,"connected_time":3983000000000,"state":"active","ping":69},{"user_id":275,"name":"Hellheim_Prime","steam_id":76561198379799377,"connected_time":5455000000000,"state":"active","ping":98},{"user_id":312,"name":"pharmacist","steam_id":76561198274424248,"connected_time":2260000000000,"state":"active","ping":109}]},{"server_id":23,"name":"Uncletopia | Frankfurt | 7 | Stopwatch Beta","name_short":"frk-7","host":"frk-1.de.uncletopia.com","port":27075,"enabled":true,"region":"eu","cc":"de","latitude":50.110924,"longitude":8.682127,"reserved":0,"last_update":"0001-01-01T00:00:00Z","name_a2s":"Uncletopia | Frankfurt | 7 | Stopwatch Beta","protocol":17,"map":"workshop/pl_badwater_pro_v12.ugc2142942074","folder":"tf","game":"Team Fortress","app_id":440,"player_count":0,"max_players":24,"Bots":0,"server_type":"Dedicated","server_os":"Linux","password":true,"vac":true,"version":"7882260","steam_id":85568392924742827,"keywords":["nocrits","nodmgspread","payload","uncletopia"],"game_id":440,"stv_port":27076,"stv_name":"Uncletopia | Frankfurt | 7 | Stopwatch Beta | STV","players":null},{"server_id":24,"name":"Uncletopia | Frankfurt | 8 | Community","name_short":"frk-8","host":"frk-1.de.uncletopia.com","port":27085,"enabled":true,"region":"eu","cc":"de","latitude":50.110924,"longitude":8.682127,"reserved":0,"last_update":"0001-01-01T00:00:00Z","name_a2s":"Uncletopia | Frankfurt | 8 | Community","protocol":17,"map":"workshop/koth_ashville_final.ugc2130459942","folder":"tf","game":"Team Fortress","app_id":440,"player_count":0,"max_players":24,"Bots":0,"server_type":"Dedicated","server_os":"Linux","password":true,"vac":true,"version":"7882260","steam_id":85568392924742828,"keywords":["cp","nocrits","nodmgspread","uncletopia"],"game_id":440,"stv_port":27086,"stv_name":"Uncletopia | Frankfurt | 8 | Community | STV","players":null},{"server_id":202,"name":"Uncletopia | Hong Kong | 1 | All Maps","name_short":"hgk-1","host":"hgk-1.hk.uncletopia.com","port":27015,"enabled":true,"region":"asia","cc":"hk","latitude":22.302711,"longitude":114.177216,"reserved":0,"last_update":"0001-01-01T00:00:00Z","name_a2s":"Uncletopia | Hong Kong | 1 | All Maps","protocol":17,"map":"koth_viaduct","folder":"tf","game":"Team Fortress","app_id":440,"player_count":0,"max_players":24,"Bots":0,"server_type":"Dedicated","server_os":"Linux","password":true,"vac":true,"version":"7882260","steam_id":85568392924494504,"keywords":["cp","nocrits","nodmgspread","uncletopia"],"game_id":440,"stv_port":27016,"stv_name":"Uncletopia | Hong Kong | 1 | All Maps | STV","players":null},{"server_id":1,"name":"Uncletopia | Los Angeles | 1 | All Maps","name_short":"lax-1","host":"lax-1.us.uncletopia.com","port":27015,"enabled":true,"region":"us-west","cc":"us","latitude":33.94279,"longitude":-118.41004,"reserved":0,"last_update":"0001-01-01T00:00:00Z","name_a2s":"Uncletopia | Los Angeles | 1 | All Maps","protocol":17,"map":"pl_pier","folder":"tf","game":"Team Fortress","app_id":440,"player_count":0,"max_players":24,"Bots":0,"server_type":"Dedicated","server_os":"Linux","password":true,"vac":true,"version":"7882260","steam_id":85568392924469991,"keywords":["nocrits","nodmgspread","payload","uncletopia"],"game_id":440,"stv_port":27016,"stv_name":"Uncletopia | Los Angeles | 1 | All Maps | STV","players":null},{"server_id":112,"name":"Uncletopia | Los Angeles | 2 | All Maps","name_short":"lax-2","host":"lax-1.us.uncletopia.com","port":27025,"enabled":true,"region":"us-west","cc":"us","latitude":33.94279,"longitude":-118.41004,"reserved":0,"last_update":"0001-01-01T00:00:00Z","name_a2s":"Uncletopia | Los Angeles | 2 | All Maps","protocol":17,"map":"cp_dustbowl","folder":"tf","game":"Team Fortress","app_id":440,"player_count":23,"max_players":24,"Bots":0,"server_type":"Dedicated","server_os":"Linux","password":true,"vac":true,"version":"7882260","steam_id":85568392924469992,"keywords":["cp","nocrits","nodmgspread","uncletopia"],"game_id":440,"stv_port":27026,"stv_name":"Uncletopia | Los Angeles | 2 | All Maps | STV","players":[{"user_id":439,"name":"honku honku","steam_id":76561198325760629,"connected_time":34000000000,"state":"active","ping":99},{"user_id":322,"name":"ham","steam_id":76561198130412963,"connected_time":7777000000000,"state":"active","ping":78},{"user_id":440,"name":"Ronnie Pickering!","steam_id":76561198041842118,"connected_time":27000000000,"state":"spawning","ping":88},{"user_id":413,"name":"Glar","steam_id":76561198341907150,"connected_time":1938000000000,"state":"active","ping":63},{"user_id":381,"name":"MintyFreshMentos","steam_id":76561198839944799,"connected_time":2877000000000,"state":"active","ping":56},{"user_id":426,"name":"venomew2","steam_id":76561198327081077,"connected_time":1020000000000,"state":"active","ping":99},{"user_id":415,"name":"\u003c3Elise\u003c3","steam_id":76561198146435005,"connected_time":1887000000000,"state":"active","ping":103},{"user_id":389,"name":"So horny I could scream","steam_id":76561198155294045,"connected_time":2335000000000,"state":"active","ping":91},{"user_id":435,"name":"Pizza \u003c3","steam_id":76561198087357023,"connected_time":229000000000,"state":"active","ping":73},{"user_id":432,"name":"RIP Old Man Chico :(","steam_id":76561198865172720,"connected_time":450000000000,"state":"active","ping":69},{"user_id":387,"name":"real","steam_id":76561199030879048,"connected_time":2445000000000,"state":"active","ping":113},{"user_id":424,"name":"Spruce","steam_id":76561198081684676,"connected_time":1114000000000,"state":"active","ping":91},{"user_id":378,"name":"Hector Salamanca","steam_id":76561198093836635,"connected_time":3093000000000,"state":"active","ping":70},{"user_id":422,"name":"Tmiracle","steam_id":76561198052375275,"connected_time":1283000000000,"state":"active","ping":47},{"user_id":408,"name":"dyyd7706","steam_id":76561199230461523,"connected_time":2071000000000,"state":"active","ping":130},{"user_id":433,"name":"Whisper!","steam_id":76561198119609795,"connected_time":418000000000,"state":"active","ping":50},{"user_id":429,"name":"NotAWeeb","steam_id":76561198165530739,"connected_time":851000000000,"state":"active","ping":56},{"user_id":399,"name":"TortillaSam@hotbox.gov","steam_id":76561198115699456,"connected_time":2154000000000,"state":"active","ping":112},{"user_id":402,"name":"CartoonTheToon.ttv","steam_id":76561198359882855,"connected_time":2123000000000,"state":"active","ping":63},{"user_id":428,"name":"welp ok","steam_id":76561199114829531,"connected_time":960000000000,"state":"active","ping":139},{"user_id":370,"name":"Gerbias","steam_id":76561198001002427,"connected_time":3926000000000,"state":"active","ping":58},{"user_id":436,"name":"‚úø corecore¬≤ Matador","steam_id":76561198106938500,"connected_time":225000000000,"state":"active","ping":46},{"user_id":431,"name":"MerkyWaters","steam_id":76561197998853063,"connected_time":536000000000,"state":"active","ping":63}]},{"server_id":324,"name":"Uncletopia | Los Angeles | 3 | All Maps","name_short":"lax-3","host":"lax-1.us.uncletopia.com","port":27035,"enabled":true,"region":"us-west","cc":"us","latitude":33.94279,"longitude":-118.41004,"reserved":0,"last_update":"0001-01-01T00:00:00Z","name_a2s":"Uncletopia | Los Angeles | 3 | All Maps","protocol":17,"map":"koth_highpass","folder":"tf","game":"Team Fortress","app_id":440,"player_count":0,"max_players":24,"Bots":0,"server_type":"Dedicated","server_os":"Linux","password":true,"vac":true,"version":"7882260","steam_id":85568392924510198,"keywords":["cp","nocrits","nodmgspread","uncletopia"],"game_id":440,"stv_port":27036,"stv_name":"Uncletopia | Los Angeles | 3 | All Maps | STV","players":null},{"server_id":25,"name":"Uncletopia | Los Angeles | 4 | Stopwatch Beta","name_short":"lax-4","host":"lax-1.us.uncletopia.com","port":27045,"enabled":true,"region":"us-west","cc":"us","latitude":33.94279,"longitude":-118.41004,"reserved":0,"last_update":"0001-01-01T00:00:00Z","name_a2s":"Uncletopia | Los Angeles | 4 | Stopwatch Beta","protocol":17,"map":"koth_viaduct","folder":"tf","game":"Team Fortress","app_id":440,"player_count":0,"max_players":24,"Bots":0,"server_type":"Dedicated","server_os":"Linux","password":true,"vac":true,"version":"7882260","steam_id":85568392924510199,"keywords":["cp","nocrits","nodmgspread","uncletopia"],"game_id":440,"stv_port":27046,"stv_name":"Uncletopia | Los Angeles | 4 | Stopwatch Beta | STV","players":null},{"server_id":11,"name":"Uncletopia | London | 1 | All Maps","name_short":"lon-1","host":"lon-1.uk.uncletopia.com","port":27015,"enabled":true,"region":"eu","cc":"gb","latitude":51.509865,"longitude":-0.118092,"reserved":0,"last_update":"0001-01-01T00:00:00Z","name_a2s":"Uncletopia | London | 1 | All Maps","protocol":17,"map":"cp_mountainlab","folder":"tf","game":"Team Fortress","app_id":440,"player_count":24,"max_players":24,"Bots":0,"server_type":"Dedicated","server_os":"Linux","password":true,"vac":true,"version":"7882260","steam_id":85568392924367362,"keywords":["cp","nocrits","nodmgspread","uncletopia"],"game_id":440,"stv_port":27016,"stv_name":"Uncletopia | London | 1 | All Maps | STV","players":[{"user_id":435,"name":"SERIAL_CODE","steam_id":76561197981488663,"connected_time":1354000000000,"state":"active","ping":57},{"user_id":403,"name":"Croy","steam_id":76561197972552579,"connected_time":5224000000000,"state":"active","ping":43},{"user_id":386,"name":"GuSkand","steam_id":76561198043775605,"connected_time":6177000000000,"state":"active","ping":87},{"user_id":439,"name":"Charles Darwin","steam_id":76561197973496139,"connected_time":767000000000,"state":"active","ping":63},{"user_id":360,"name":"Well, off to hang myself","steam_id":76561198053374944,"connected_time":8886000000000,"state":"active","ping":66},{"user_id":437,"name":"owo","steam_id":76561198158209651,"connected_time":890000000000,"state":"active","ping":66},{"user_id":415,"name":"Sky‚ô°","steam_id":76561199209906710,"connected_time":4105000000000,"state":"active","ping":45},{"user_id":441,"name":"Woman (Real)","steam_id":76561199151823932,"connected_time":142000000000,"state":"active","ping":90},{"user_id":424,"name":"regimiro","steam_id":76561198120457008,"connected_time":2157000000000,"state":"active","ping":46},{"user_id":358,"name":"Yuzu","steam_id":76561198121694613,"connected_time":8974000000000,"state":"active","ping":45},{"user_id":378,"name":"Akkie.","steam_id":76561198017619091,"connected_time":6772000000000,"state":"active","ping":62},{"user_id":423,"name":"trite","steam_id":76561197983765323,"connected_time":3239000000000,"state":"active","ping":51},{"user_id":440,"name":"Atlas","steam_id":76561198072189527,"connected_time":229000000000,"state":"active","ping":55},{"user_id":425,"name":".moe","steam_id":76561198153974095,"connected_time":2155000000000,"state":"active","ping":43},{"user_id":392,"name":"I'm IN your AREAAAA","steam_id":76561198193357946,"connected_time":6094000000000,"state":"active","ping":103},{"user_id":436,"name":"flappi","steam_id":76561198072892783,"connected_time":999000000000,"state":"active","ping":65},{"user_id":422,"name":"KPhii","steam_id":76561198970587061,"connected_time":3452000000000,"state":"active","ping":57},{"user_id":381,"name":"SOPHIIEE","steam_id":76561198443798981,"connected_time":6345000000000,"state":"active","ping":55},{"user_id":431,"name":"Big Smoke","steam_id":76561198118625233,"connected_time":1973000000000,"state":"active","ping":71},{"user_id":418,"name":"Kahvi","steam_id":76561198723244199,"connected_time":3951000000000,"state":"active","ping":76},{"user_id":438,"name":"Grillem Dafoe","steam_id":76561198306874574,"connected_time":804000000000,"state":"active","ping":116},{"user_id":430,"name":"dec","steam_id":76561198009660168,"connected_time":2091000000000,"state":"active","ping":57},{"user_id":432,"name":"0lloe","steam_id":76561198070861443,"connected_time":1760000000000,"state":"active","ping":54},{"user_id":420,"name":"teddy","steam_id":76561198007436837,"connected_time":3883000000000,"state":"active","ping":44}]},{"server_id":114,"name":"Uncletopia | London | 2 | All Maps","name_short":"lon-2","host":"lon-1.uk.uncletopia.com","port":27025,"enabled":true,"region":"eu","cc":"gb","latitude":51.509865,"longitude":-0.118092,"reserved":0,"last_update":"0001-01-01T00:00:00Z","name_a2s":"Uncletopia | London | 2 | All Maps","protocol":17,"map":"koth_brazil","folder":"tf","game":"Team Fortress","app_id":440,"player_count":11,"max_players":24,"Bots":0,"server_type":"Dedicated","server_os":"Linux","password":true,"vac":true,"version":"7882260","steam_id":85568392924470941,"keywords":["cp","nocrits","nodmgspread","uncletopia"],"game_id":440,"stv_port":27026,"stv_name":"Uncletopia | London | 2 | All Maps | STV","players":[{"user_id":672,"name":"Jogador de LAN","steam_id":76561198137054059,"connected_time":3093000000000,"state":"active","ping":84},{"user_id":681,"name":"ethan","steam_id":76561198119495513,"connected_time":2277000000000,"state":"active","ping":40},{"user_id":687,"name":"Mr_Pulse_","steam_id":76561198095001602,"connected_time":1005000000000,"state":"active","ping":101},{"user_id":692,"name":"fettos v√§n","steam_id":76561199258890641,"connected_time":65000000000,"state":"active","ping":69},{"user_id":691,"name":"strideŒî","steam_id":76561199007826093,"connected_time":394000000000,"state":"active","ping":74},{"user_id":535,"name":"‚ôõperry the platypus‚ôõ","steam_id":76561199379159771,"connected_time":10712000000000,"state":"active","ping":148},{"user_id":630,"name":"Cracked·¥±·µç·µç","steam_id":76561197977141367,"connected_time":5237000000000,"state":"active","ping":61},{"user_id":693,"name":"fettos andra v√§n","steam_id":76561198867619407,"connected_time":32000000000,"state":"active","ping":70},{"user_id":690,"name":"Winter","steam_id":76561198134805479,"connected_time":495000000000,"state":"active","ping":55},{"user_id":644,"name":"Rez","steam_id":76561198410598772,"connected_time":4605000000000,"state":"active","ping":56},{"user_id":684,"name":"BONA FIDE PISS","steam_id":76561198130020929,"connected_time":2151000000000,"state":"active","ping":44}]},{"server_id":320,"name":"Uncletopia | London | 3 | All Maps","name_short":"lon-3","host":"lon-1.uk.uncletopia.com","port":27035,"enabled":true,"region":"eu","cc":"gb","latitude":51.509865,"longitude":-0.118092,"reserved":0,"last_update":"0001-01-01T00:00:00Z","name_a2s":"Uncletopia | London | 3 | All Maps","protocol":17,"map":"pl_upward","folder":"tf","game":"Team Fortress","app_id":440,"player_count":24,"max_players":24,"Bots":0,"server_type":"Dedicated","server_os":"Linux","password":true,"vac":true,"version":"7882260","steam_id":85568392924510192,"keywords":["nocrits","nodmgspread","payload","uncletopia"],"game_id":440,"stv_port":27036,"stv_name":"Uncletopia | London | 3 | All Maps | STV","players":[{"user_id":709,"name":"Tickleshits","steam_id":76561198159197241,"connected_time":1467000000000,"state":"active","ping":48},{"user_id":699,"name":"Tink","steam_id":76561198118235443,"connected_time":2160000000000,"state":"active","ping":57},{"user_id":697,"name":"bombo112","steam_id":76561198059743551,"connected_time":2630000000000,"state":"active","ping":56},{"user_id":702,"name":"Desmond","steam_id":76561198151053844,"connected_time":1701000000000,"state":"active","ping":83},{"user_id":723,"name":"I Don't Know","steam_id":76561198841011430,"connected_time":633000000000,"state":"active","ping":81},{"user_id":734,"name":"‚òÅ Lou1smeister ‚òÅ","steam_id":76561198004032968,"connected_time":219000000000,"state":"active","ping":60},{"user_id":688,"name":"Erin in Soup","steam_id":76561198416493306,"connected_time":3314000000000,"state":"active","ping":51},{"user_id":737,"name":"the devil","steam_id":76561198905911729,"connected_time":52000000000,"state":"spawning","ping":62},{"user_id":722,"name":"Smilin' Wanderer","steam_id":76561198067698907,"connected_time":641000000000,"state":"active","ping":59},{"user_id":683,"name":"Nicholas Angel","steam_id":76561198434652604,"connected_time":4300000000000,"state":"active","ping":81},{"user_id":735,"name":"Vytuzas","steam_id":76561198012868436,"connected_time":205000000000,"state":"active","ping":75},{"user_id":705,"name":"Philosophos_Alpha","steam_id":76561198951264580,"connected_time":1546000000000,"state":"active","ping":128},{"user_id":725,"name":"Pizza Party","steam_id":76561198165730754,"connected_time":504000000000,"state":"active","ping":123},{"user_id":720,"name":"Deacon Dracul","steam_id":76561198046880663,"connected_time":908000000000,"state":"active","ping":89},{"user_id":707,"name":"Kestrel","steam_id":76561198144033005,"connected_time":1510000000000,"state":"active","ping":52},{"user_id":716,"name":"i eat dettol","steam_id":76561198199117446,"connected_time":1300000000000,"state":"active","ping":53},{"user_id":726,"name":"kairos.","steam_id":76561198073893018,"connected_time":470000000000,"state":"active","ping":46},{"user_id":730,"name":"‚ù§G a n K","steam_id":76561199125995565,"connected_time":371000000000,"state":"active","ping":63},{"user_id":691,"name":"Buddy","steam_id":76561198050185582,"connected_time":3169000000000,"state":"active","ping":59},{"user_id":736,"name":"beep!","steam_id":76561198111674607,"connected_time":119000000000,"state":"active","ping":51},{"user_id":728,"name":"john stick","steam_id":76561198165998678,"connected_time":417000000000,"state":"active","ping":70},{"user_id":729,"name":"mook","steam_id":76561198175543442,"connected_time":404000000000,"state":"active","ping":71},{"user_id":731,"name":"A Gmod Virgin","steam_id":76561198420637458,"connected_time":355000000000,"state":"active","ping":196},{"user_id":733,"name":"Gnarville","steam_id":76561198006373329,"connected_time":298000000000,"state":"active","ping":45}]},{"server_id":321,"name":"Uncletopia | London | 4 | All Maps","name_short":"lon-4","host":"lon-1.uk.uncletopia.com","port":27045,"enabled":true,"region":"eu","cc":"gb","latitude":51.509865,"longitude":-0.118092,"reserved":0,"last_update":"0001-01-01T00:00:00Z","name_a2s":"Uncletopia | London | 4 | All Maps","protocol":17,"map":"cp_gullywash_final1","folder":"tf","game":"Team Fortress","app_id":440,"player_count":24,"max_players":24,"Bots":0,"server_type":"Dedicated","server_os":"Linux","password":true,"vac":true,"version":"7882260","steam_id":85568392924510193,"keywords":["cp","nocrits","nodmgspread","uncletopia"],"game_id":440,"stv_port":27046,"stv_name":"Uncletopia | London | 4 | All Maps | STV","players":[{"user_id":875,"name":"Kid named download","steam_id":76561199192074448,"connected_time":940000000000,"state":"active","ping":159},{"user_id":882,"name":"madijo","steam_id":76561198012617400,"connected_time":690000000000,"state":"active","ping":72},{"user_id":876,"name":"POU cherry","steam_id":76561199006915718,"connected_time":914000000000,"state":"active","ping":62},{"user_id":883,"name":"Dougie","steam_id":76561198072245471,"connected_time":280000000000,"state":"active","ping":44},{"user_id":884,"name":"Bonnu","steam_id":76561198425104085,"connected_time":196000000000,"state":"active","ping":152},{"user_id":877,"name":"pigswill","steam_id":76561197999081865,"connected_time":892000000000,"state":"active","ping":134},{"user_id":846,"name":"alan","steam_id":76561198306947435,"connected_time":3970000000000,"state":"active","ping":66},{"user_id":825,"name":"vagina","steam_id":76561198809859945,"connected_time":5413000000000,"state":"active","ping":45},{"user_id":845,"name":"Volcyy","steam_id":76561198063979124,"connected_time":3972000000000,"state":"active","ping":52},{"user_id":872,"name":"VampiuS","steam_id":76561197998827007,"connected_time":1845000000000,"state":"active","ping":59},{"user_id":886,"name":"manKe","steam_id":76561198008564860,"connected_time":47000000000,"state":"active","ping":46},{"user_id":853,"name":"TheEventGuy","steam_id":76561197972797744,"connected_time":3329000000000,"state":"active","ping":70},{"user_id":839,"name":"The Lady","steam_id":76561198029895809,"connected_time":4353000000000,"state":"active","ping":83},{"user_id":879,"name":"CollDragon","steam_id":76561198067534450,"connected_time":859000000000,"state":"active","ping":121},{"user_id":777,"name":"penis","steam_id":76561198047359132,"connected_time":9167000000000,"state":"active","ping":68},{"user_id":880,"name":"UltimateAura","steam_id":76561198338361324,"connected_time":858000000000,"state":"active","ping":38},{"user_id":771,"name":"Where is my funny?","steam_id":76561198082502910,"connected_time":10014000000000,"state":"active","ping":61},{"user_id":856,"name":"Oki (Bon)","steam_id":76561199047748534,"connected_time":3073000000000,"state":"active","ping":54},{"user_id":874,"name":"Voidbane","steam_id":76561198060591741,"connected_time":1041000000000,"state":"active","ping":163},{"user_id":864,"name":"Anonymous47007","steam_id":76561199005211417,"connected_time":2371000000000,"state":"active","ping":81},{"user_id":852,"name":"Niko from oneshot","steam_id":76561198436817109,"connected_time":3434000000000,"state":"active","ping":58},{"user_id":865,"name":"Mega Saturn","steam_id":76561198024750500,"connected_time":2362000000000,"state":"active","ping":78},{"user_id":868,"name":"K'aax Itzam","steam_id":76561198044024509,"connected_time":2329000000000,"state":"active","ping":78},{"user_id":887,"name":"magicuserleo","steam_id":76561198418859223,"connected_time":20000000000,"state":"spawning","ping":232}]},{"server_id":21,"name":"Uncletopia | London | 5 | All Maps","name_short":"lon-5","host":"lon-1.uk.uncletopia.com","port":27055,"enabled":true,"region":"eu","cc":"gb","latitude":51.509865,"longitude":-0.118092,"reserved":0,"last_update":"0001-01-01T00:00:00Z","name_a2s":"Uncletopia | London | 5 | All Maps","protocol":17,"map":"koth_viaduct","folder":"tf","game":"Team Fortress","app_id":440,"player_count":0,"max_players":24,"Bots":0,"server_type":"Dedicated","server_os":"Linux","password":true,"vac":true,"version":"7882260","steam_id":85568392924742829,"keywords":["cp","nocrits","nodmgspread","uncletopia"],"game_id":440,"stv_port":27056,"stv_name":"Uncletopia | London | 5 | All Maps | STV","players":null},{"server_id":22,"name":"Uncletopia | London | 6 | All Maps","name_short":"lon-6","host":"lon-1.uk.uncletopia.com","port":27065,"enabled":true,"region":"eu","cc":"gb","latitude":51.509865,"longitude":-0.118092,"reserved":0,"last_update":"0001-01-01T00:00:00Z","name_a2s":"Uncletopia | London | 6 | All Maps","protocol":17,"map":"plr_nightfall_final","folder":"tf","game":"Team Fortress","app_id":440,"player_count":6,"max_players":24,"Bots":0,"server_type":"Dedicated","server_os":"Linux","password":true,"vac":true,"version":"7882260","steam_id":85568392924742830,"keywords":["nocrits","nodmgspread","payload","uncletopia"],"game_id":440,"stv_port":27066,"stv_name":"Uncletopia | London | 6 | All Maps | STV","players":[{"user_id":136,"name":"hlug2340","steam_id":76561198087970118,"connected_time":2020000000000,"state":"active","ping":100},{"user_id":148,"name":"bossievossie","steam_id":76561198836337543,"connected_time":555000000000,"state":"active","ping":72},{"user_id":149,"name":"Truegear","steam_id":76561198059511386,"connected_time":385000000000,"state":"active","ping":77},{"user_id":145,"name":"redzach","steam_id":76561198444094359,"connected_time":958000000000,"state":"active","ping":142},{"user_id":135,"name":"KeTlEr","steam_id":76561198100957443,"connected_time":2053000000000,"state":"active","ping":66}]},{"server_id":40,"name":"Uncletopia | London | 7 | No Payload","name_short":"lon-7","host":"lon-1.uk.uncletopia.com","port":27075,"enabled":true,"region":"eu","cc":"gb","latitude":51.509865,"longitude":-0.118092,"reserved":0,"last_update":"0001-01-01T00:00:00Z","name_a2s":"Uncletopia | London | 7 | No Payload","protocol":17,"map":"cp_5gorge","folder":"tf","game":"Team Fortress","app_id":440,"player_count":24,"max_players":24,"Bots":0,"server_type":"Dedicated","server_os":"Linux","password":true,"vac":true,"version":"7882260","steam_id":85568392924964314,"keywords":["cp","nocrits","nodmgspread","uncletopia"],"game_id":440,"stv_port":27076,"stv_name":"Uncletopia | London | 7 | No Payload | STV","players":[{"user_id":394,"name":"Kan0_","steam_id":76561198129596771,"connected_time":1195000000000,"state":"active","ping":65},{"user_id":412,"name":"mtdrewski gaming","steam_id":76561198033408919,"connected_time":460000000000,"state":"active","ping":31},{"user_id":403,"name":"Ashflick","steam_id":76561198342171751,"connected_time":781000000000,"state":"active","ping":136},{"user_id":405,"name":"Pain in a Box","steam_id":76561197990777173,"connected_time":721000000000,"state":"active","ping":109},{"user_id":381,"name":"TekuSP","steam_id":76561198072367754,"connected_time":2216000000000,"state":"active","ping":57},{"user_id":407,"name":"Adrheus","steam_id":76561198149775630,"connected_time":691000000000,"state":"active","ping":75},{"user_id":388,"name":"Snowmotion","steam_id":76561198075022454,"connected_time":1893000000000,"state":"active","ping":70},{"user_id":406,"name":"ender45","steam_id":76561198840955715,"connected_time":720000000000,"state":"active","ping":35},{"user_id":392,"name":"paguro","steam_id":76561198119560871,"connected_time":1315000000000,"state":"active","ping":60},{"user_id":415,"name":"40 ants doing their best","steam_id":76561198178250598,"connected_time":158000000000,"state":"active","ping":60},{"user_id":318,"name":"Mr. Sandman","steam_id":76561198281209867,"connected_time":6160000000000,"state":"active","ping":61},{"user_id":350,"name":"Bernkastel Silly","steam_id":76561198040422830,"connected_time":3617000000000,"state":"active","ping":40},{"user_id":408,"name":"Soloman","steam_id":76561199212054667,"connected_time":665000000000,"state":"active","ping":45},{"user_id":413,"name":"Mr Gnash","steam_id":76561198007410990,"connected_time":422000000000,"state":"active","ping":63},{"user_id":401,"name":"Bobo","steam_id":76561198052308399,"connected_time":856000000000,"state":"active","ping":73},{"user_id":341,"name":"Phalcon","steam_id":76561197987051394,"connected_time":4001000000000,"state":"active","ping":77},{"user_id":342,"name":"DarthMurloc_OW","steam_id":76561198075577711,"connected_time":3985000000000,"state":"active","ping":89},{"user_id":409,"name":"martin","steam_id":76561198107039012,"connected_time":646000000000,"state":"active","ping":39},{"user_id":345,"name":"Balls","steam_id":76561198086400484,"connected_time":3878000000000,"state":"active","ping":74},{"user_id":414,"name":"Torkoal","steam_id":76561198094473194,"connected_time":400000000000,"state":"active","ping":65},{"user_id":349,"name":"Mew Mew Kissy Cutie 2","steam_id":76561198334042273,"connected_time":3672000000000,"state":"active","ping":53},{"user_id":411,"name":"Peep","steam_id":76561198132508552,"connected_time":620000000000,"state":"active","ping":46},{"user_id":395,"name":"Der Herr Doktor","steam_id":76561198119476089,"connected_time":1187000000000,"state":"active","ping":68},{"user_id":396,"name":"weenus","steam_id":76561198083804272,"connected_time":1181000000000,"state":"active","ping":134}]},{"server_id":41,"name":"Uncletopia | London | 8 | Community","name_short":"lon-8","host":"lon-1.uk.uncletopia.com","port":27085,"enabled":true,"region":"eu","cc":"gb","latitude":51.509865,"longitude":-0.118092,"reserved":0,"last_update":"0001-01-01T00:00:00Z","name_a2s":"Uncletopia | London | 8 | Community","protocol":17,"map":"workshop/rd_asteroid_redux_b1.ugc2154902912","folder":"tf","game":"Team Fortress","app_id":440,"player_count":0,"max_players":24,"Bots":0,"server_type":"Dedicated","server_os":"Linux","password":true,"vac":true,"version":"7882260","steam_id":85568392924964315,"keywords":["beta","nocrits","nodmgspread","rd","uncletopia"],"game_id":440,"stv_port":27086,"stv_name":"Uncletopia | London | 8 | Community | STV","players":null},{"server_id":300,"name":"Uncletopia | Montr√©al | 1 | All Maps","name_short":"mtl-1","host":"mtl-1.ca.uncletopia.com","port":27015,"enabled":true,"region":"us-east","cc":"ca","latitude":45.50889,"longitude":-73.56167,"reserved":0,"last_update":"0001-01-01T00:00:00Z","name_a2s":"Uncletopia | Montr√©al | 1 | All Maps","protocol":17,"map":"cp_dustbowl","folder":"tf","game":"Team Fortress","app_id":440,"player_count":0,"max_players":24,"Bots":0,"server_type":"Dedicated","server_os":"Linux","password":true,"vac":true,"version":"7882260","steam_id":85568392924500087,"keywords":["cp","nocrits","nodmgspread","uncletopia"],"game_id":440,"stv_port":27016,"stv_name":"Uncletopia | Montr√©al | 1 | All Maps | STV","players":null},{"server_id":301,"name":"Uncletopia | Montr√©al | 2 | All Maps","name_short":"mtl-2","host":"mtl-1.ca.uncletopia.com","port":27025,"enabled":true,"region":"us-east","cc":"ca","latitude":45.50889,"longitude":-73.56167,"reserved":0,"last_update":"0001-01-01T00:00:00Z","name_a2s":"Uncletopia | Montr√©al | 2 | All Maps","protocol":17,"map":"koth_cascade","folder":"tf","game":"Team Fortress","app_id":440,"player_count":0,"max_players":24,"Bots":0,"server_type":"Dedicated","server_os":"Linux","password":true,"vac":true,"version":"7882260","steam_id":85568392924500088,"keywords":["cp","nocrits","nodmgspread","uncletopia"],"game_id":440,"stv_port":27026,"stv_name":"Uncletopia | Montr√©al | 2 | All Maps | STV","players":null},{"server_id":302,"name":"Uncletopia | Montr√©al | 3 | All Maps","name_short":"mtl-3","host":"mtl-1.ca.uncletopia.com","port":27035,"enabled":true,"region":"us-east","cc":"ca","latitude":45.50889,"longitude":-73.56167,"reserved":0,"last_update":"0001-01-01T00:00:00Z","name_a2s":"Uncletopia | Montr√©al | 3 | All Maps","protocol":17,"map":"cp_dustbowl","folder":"tf","game":"Team Fortress","app_id":440,"player_count":24,"max_players":24,"Bots":0,"server_type":"Dedicated","server_os":"Linux","password":true,"vac":true,"version":"7882260","steam_id":85568392924500089,"keywords":["cp","nocrits","nodmgspread","uncletopia"],"game_id":440,"stv_port":27036,"stv_name":"Uncletopia | Montr√©al | 3 | All Maps | STV","players":[{"user_id":27,"name":"Zweitonegoismus","steam_id":76561198071728831,"connected_time":932000000000,"state":"active","ping":68},{"user_id":28,"name":"JimFrel","steam_id":76561199476029852,"connected_time":915000000000,"state":"active","ping":103},{"user_id":16,"name":"Raptoria","steam_id":76561198105613110,"connected_time":1851000000000,"state":"active","ping":62},{"user_id":17,"name":"t.tv/ibbKitty‚àë:3","steam_id":76561198110858518,"connected_time":1850000000000,"state":"active","ping":39},{"user_id":18,"name":"Solstrom","steam_id":76561198313364985,"connected_time":1839000000000,"state":"active","ping":91},{"user_id":19,"name":"V!CT!M","steam_id":76561198962721502,"connected_time":1735000000000,"state":"active","ping":85},{"user_id":43,"name":"QWERTY_KKL","steam_id":76561199156419203,"connected_time":461000000000,"state":"active","ping":69},{"user_id":21,"name":"toptier","steam_id":76561199059257565,"connected_time":1529000000000,"state":"active","ping":112},{"user_id":22,"name":"PastelDisaster","steam_id":76561198205230615,"connected_time":1305000000000,"state":"active","ping":68},{"user_id":23,"name":"ZoeSoft","steam_id":76561198025772230,"connected_time":1053000000000,"state":"active","ping":52},{"user_id":24,"name":"axiomaticAnarchy","steam_id":76561198066236113,"connected_time":1027000000000,"state":"active","ping":85},{"user_id":47,"name":"MilkingRocks","steam_id":76561198106169545,"connected_time":292000000000,"state":"active","ping":66},{"user_id":49,"name":"fisherman","steam_id":76561198157435832,"connected_time":101000000000,"state":"active","ping":87},{"user_id":48,"name":"Gheeotine","steam_id":76561198010181698,"connected_time":159000000000,"state":"active","ping":90},{"user_id":30,"name":"MeAmJosh","steam_id":76561198064983436,"connected_time":882000000000,"state":"active","ping":96},{"user_id":31,"name":"meisNate","steam_id":76561198215261695,"connected_time":877000000000,"state":"active","ping":145},{"user_id":32,"name":"nifty","steam_id":76561198049707094,"connected_time":869000000000,"state":"active","ping":84},{"user_id":41,"name":"Sonia üíõ ","steam_id":76561198009198502,"connected_time":590000000000,"state":"active","ping":70},{"user_id":35,"name":"trks","steam_id":76561198233984300,"connected_time":812000000000,"state":"active","ping":61},{"user_id":42,"name":"÷Ü…®∆à”Ñ÷Ö ç÷Ö…ñ…õ","steam_id":76561198064668286,"connected_time":585000000000,"state":"active","ping":52},{"user_id":45,"name":"Sneaky_Tank","steam_id":76561198078814793,"connected_time":410000000000,"state":"active","ping":69},{"user_id":39,"name":"[BBW] Justario","steam_id":76561198016095410,"connected_time":746000000000,"state":"active","ping":58},{"user_id":44,"name":"GunsBlazing","steam_id":76561198129553166,"connected_time":439000000000,"state":"active","ping":93},{"user_id":46,"name":"bobbymcbobington","steam_id":76561199089411172,"connected_time":377000000000,"state":"active","ping":142}]},{"server_id":303,"name":"Uncletopia | Montr√©al | 4 | No Payload","name_short":"mtl-4","host":"mtl-1.ca.uncletopia.com","port":27045,"enabled":true,"region":"us-east","cc":"ca","latitude":45.50889,"longitude":-73.56167,"reserved":0,"last_update":"0001-01-01T00:00:00Z","name_a2s":"Uncletopia | Montr√©al | 4 | No Payload","protocol":17,"map":"koth_highpass","folder":"tf","game":"Team Fortress","app_id":440,"player_count":0,"max_players":24,"Bots":0,"server_type":"Dedicated","server_os":"Linux","password":true,"vac":true,"version":"7882260","steam_id":85568392924500090,"keywords":["cp","nocrits","nodmgspread","uncletopia"],"game_id":440,"stv_port":27046,"stv_name":"Uncletopia | Montr√©al | 4 | No Payload | STV","players":null},{"server_id":13,"name":"Uncletopia | New York City | 1 | All Maps","name_short":"nyc-1","host":"nyc-1.us.uncletopia.com","port":27015,"enabled":true,"region":"us-east","cc":"us","latitude":40.73061,"longitude":-73.93524,"reserved":0,"last_update":"0001-01-01T00:00:00Z","name_a2s":"Uncletopia | New York City | 1 | All Maps","protocol":17,"map":"koth_harvest_final","folder":"tf","game":"Team Fortress","app_id":440,"player_count":23,"max_players":24,"Bots":0,"server_type":"Dedicated","server_os":"Linux","password":true,"vac":true,"version":"7882260","steam_id":85568392924469993,"keywords":["cp","nocrits","nodmgspread","uncletopia"],"game_id":440,"stv_port":27016,"stv_name":"Uncletopia | New York City | 1 | All Maps | STV","players":[{"user_id":216,"name":"Goldensliv","steam_id":76561198161673891,"connected_time":3672000000000,"state":"active","ping":92},{"user_id":245,"name":"dicksnip","steam_id":76561198356515396,"connected_time":1226000000000,"state":"active","ping":98},{"user_id":254,"name":"Mecha","steam_id":76561198014927379,"connected_time":976000000000,"state":"active","ping":71},{"user_id":246,"name":"1-800-GHOST-DANCE","steam_id":76561198835430429,"connected_time":1222000000000,"state":"active","ping":62},{"user_id":249,"name":"Smoredom","steam_id":76561198082067486,"connected_time":1182000000000,"state":"active","ping":48},{"user_id":255,"name":"Goofball","steam_id":76561198074189084,"connected_time":914000000000,"state":"active","ping":32},{"user_id":239,"name":"turd ferguson","steam_id":76561198071620782,"connected_time":2415000000000,"state":"active","ping":57},{"user_id":263,"name":"Jasper Zawn","steam_id":76561198077651204,"connected_time":40000000000,"state":"active","ping":69},{"user_id":264,"name":"twix","steam_id":76561198040912048,"connected_time":26000000000,"state":"active","ping":59},{"user_id":215,"name":"TehOsprey","steam_id":76561198210598316,"connected_time":3771000000000,"state":"active","ping":70},{"user_id":265,"name":"wraith","steam_id":76561198429979731,"connected_time":2000000000,"state":"spawning","ping":107},{"user_id":163,"name":"Truly Cryo","steam_id":76561198347497484,"connected_time":8726000000000,"state":"active","ping":74},{"user_id":261,"name":"Chicken nugget consumer","steam_id":76561199121061299,"connected_time":155000000000,"state":"active","ping":93},{"user_id":222,"name":"Old man jenkins","steam_id":76561199209016136,"connected_time":3482000000000,"state":"active","ping":59},{"user_id":262,"name":"Eraserhead Baby","steam_id":76561198010968514,"connected_time":78000000000,"state":"active","ping":101},{"user_id":242,"name":"peee pee man","steam_id":76561198044979205,"connected_time":1840000000000,"state":"active","ping":57},{"user_id":241,"name":"Baron von Whoopsie","steam_id":76561197996691013,"connected_time":2032000000000,"state":"active","ping":61},{"user_id":236,"name":"Gocel","steam_id":76561198071467515,"connected_time":2917000000000,"state":"active","ping":48},{"user_id":232,"name":"SomeHobo454","steam_id":76561199093954927,"connected_time":3316000000000,"state":"active","ping":54},{"user_id":251,"name":"minecraft","steam_id":76561198104345201,"connected_time":1135000000000,"state":"active","ping":63},{"user_id":244,"name":"Zixzs","steam_id":76561198055504126,"connected_time":1252000000000,"state":"active","ping":77},{"user_id":250,"name":"Pootis Pie¬Æ","steam_id":76561199058049384,"connected_time":1173000000000,"state":"active","ping":62},{"user_id":260,"name":"carrot cake","steam_id":76561198055174915,"connected_time":395000000000,"state":"active","ping":70}]},{"server_id":14,"name":"Uncletopia | New York City | 2 | All Maps","name_short":"nyc-2","host":"nyc-1.us.uncletopia.com","port":27025,"enabled":true,"region":"us-east","cc":"us","latitude":40.73061,"longitude":-73.93524,"reserved":0,"last_update":"0001-01-01T00:00:00Z","name_a2s":"Uncletopia | New York City | 2 | All Maps","protocol":17,"map":"pl_badwater","folder":"tf","game":"Team Fortress","app_id":440,"player_count":24,"max_players":24,"Bots":0,"server_type":"Dedicated","server_os":"Linux","password":true,"vac":true,"version":"7882260","steam_id":85568392924469994,"keywords":["nocrits","nodmgspread","payload","uncletopia"],"game_id":440,"stv_port":27026,"stv_name":"Uncletopia | New York City | 2 | All Maps | STV","players":[{"user_id":247,"name":"Nic0","steam_id":76561198305690218,"connected_time":2117000000000,"state":"active","ping":63},{"user_id":191,"name":"A_Malebolgia","steam_id":76561198097722818,"connected_time":5754000000000,"state":"active","ping":87},{"user_id":268,"name":"PlanktonTheWayICumBuckets","steam_id":76561198074678273,"connected_time":764000000000,"state":"active","ping":39},{"user_id":267,"name":"Ypuoi","steam_id":76561198170203261,"connected_time":788000000000,"state":"active","ping":110},{"user_id":273,"name":"Tony hawks pro skater 2 dlc","steam_id":76561198243387974,"connected_time":61000000000,"state":"active","ping":163},{"user_id":265,"name":"KeyMaster28150","steam_id":76561199482024428,"connected_time":999000000000,"state":"active","ping":81},{"user_id":251,"name":"Tractor Trevor #farmville","steam_id":76561198138221795,"connected_time":1990000000000,"state":"active","ping":101},{"user_id":249,"name":"Auto_Correct","steam_id":76561198254988078,"connected_time":2109000000000,"state":"active","ping":71},{"user_id":245,"name":"It's Ikuyover","steam_id":76561198118776341,"connected_time":2500000000000,"state":"active","ping":45},{"user_id":239,"name":"Gamoy","steam_id":76561198036434902,"connected_time":2895000000000,"state":"active","ping":99},{"user_id":261,"name":"Versuski","steam_id":76561198085193084,"connected_time":1325000000000,"state":"active","ping":65},{"user_id":269,"name":"Jesus loves you","steam_id":76561198141858576,"connected_time":753000000000,"state":"active","ping":91},{"user_id":272,"name":"Chubzero","steam_id":76561199053727616,"connected_time":272000000000,"state":"active","ping":78},{"user_id":240,"name":"Rudy","steam_id":76561198013456828,"connected_time":2889000000000,"state":"active","ping":57},{"user_id":258,"name":"galacticdragonlord","steam_id":76561198119755801,"connected_time":1632000000000,"state":"active","ping":80},{"user_id":229,"name":"Jamiroquai","steam_id":76561198119033986,"connected_time":3367000000000,"state":"active","ping":46},{"user_id":257,"name":"The Muffin Man","steam_id":76561199088286427,"connected_time":1779000000000,"state":"active","ping":144},{"user_id":254,"name":"Trees | #1 farmville spectator","steam_id":76561198305740611,"connected_time":1900000000000,"state":"active","ping":92},{"user_id":264,"name":"good soup guy","steam_id":76561199210237835,"connected_time":1108000000000,"state":"active","ping":82},{"user_id":256,"name":"Team Fortress 2","steam_id":76561198045746493,"connected_time":1803000000000,"state":"active","ping":69},{"user_id":270,"name":"Kuai","steam_id":76561198321216513,"connected_time":753000000000,"state":"active","ping":59},{"user_id":271,"name":"Qu3soKing","steam_id":76561198262720637,"connected_time":596000000000,"state":"active","ping":54},{"user_id":250,"name":"0vii","steam_id":76561198117084598,"connected_time":2094000000000,"state":"active","ping":60},{"user_id":260,"name":"moe","steam_id":76561198929586245,"connected_time":1394000000000,"state":"active","ping":106}]},{"server_id":15,"name":"Uncletopia | New York City | 3 | Stopwatch Beta","name_short":"nyc-3","host":"nyc-1.us.uncletopia.com","port":27035,"enabled":true,"region":"us-east","cc":"us","latitude":40.73061,"longitude":-73.93524,"reserved":0,"last_update":"0001-01-01T00:00:00Z","name_a2s":"Uncletopia | New York City | 3 | Stopwatch Beta","protocol":17,"map":"workshop/koth_ashville_final.ugc2130459942","folder":"tf","game":"Team Fortress","app_id":440,"player_count":4,"max_players":24,"Bots":0,"server_type":"Dedicated","server_os":"Linux","password":true,"vac":true,"version":"7882260","steam_id":85568392924742820,"keywords":["cp","nocrits","nodmgspread","uncletopia"],"game_id":440,"stv_port":27036,"stv_name":"Uncletopia | New York City | 3 | Stopwatch Beta | STV","players":[{"user_id":18,"name":"JustJeffIguess","steam_id":76561199474207659,"connected_time":66000000000,"state":"active","ping":65},{"user_id":14,"name":"The Lord of the Lockers","steam_id":76561198328898051,"connected_time":1569000000000,"state":"active","ping":70},{"user_id":16,"name":"Centipede on a Game Boy","steam_id":76561199016285746,"connected_time":433000000000,"state":"active","ping":105},{"user_id":17,"name":"Don't Special Game","steam_id":76561199002676751,"connected_time":270000000000,"state":"active","ping":71}]},{"server_id":16,"name":"Uncletopia | New York City | 4 | Community","name_short":"nyc-4","host":"nyc-1.us.uncletopia.com","port":27045,"enabled":true,"region":"us-east","cc":"us","latitude":40.73061,"longitude":-73.93524,"reserved":0,"last_update":"0001-01-01T00:00:00Z","name_a2s":"Uncletopia | New York City | 4 | Community","protocol":17,"map":"workshop/pl_badwater_pro_v12.ugc2142942074","folder":"tf","game":"Team Fortress","app_id":440,"player_count":0,"max_players":24,"Bots":0,"server_type":"Dedicated","server_os":"Linux","password":true,"vac":true,"version":"7882260","steam_id":85568392924742821,"keywords":["nocrits","nodmgspread","payload","uncletopia"],"game_id":440,"stv_port":27046,"stv_name":"Uncletopia | New York City | 4 | Community | STV","players":null},{"server_id":142,"name":"Uncletopia | S√£o Paulo | 1 | All Maps","name_short":"sao-1","host":"sao-1.br.uncletopia.com","port":27015,"enabled":true,"region":"sa","cc":"br","latitude":-23.533773,"longitude":-46.62529,"reserved":0,"last_update":"0001-01-01T00:00:00Z","name_a2s":"Uncletopia | S√£o Paulo | 1 | All Maps","protocol":17,"map":"cp_dustbowl","folder":"tf","game":"Team Fortress","app_id":440,"player_count":0,"max_players":24,"Bots":0,"server_type":"Dedicated","server_os":"Linux","password":true,"vac":true,"version":"7882260","steam_id":85568392924469996,"keywords":["cp","nocrits","nodmgspread","uncletopia"],"game_id":440,"stv_port":27016,"stv_name":"Uncletopia | S√£o Paulo | 1 | All Maps | STV","players":null},{"server_id":143,"name":"Uncletopia | S√£o Paulo | 2 | All Maps","name_short":"sao-2","host":"sao-2.br.uncletopia.com","port":27015,"enabled":true,"region":"sa","cc":"br","latitude":-23.533773,"longitude":-46.62529,"reserved":0,"last_update":"0001-01-01T00:00:00Z","name_a2s":"Uncletopia | S√£o Paulo | 2 | All Maps","protocol":17,"map":"pl_upward","folder":"tf","game":"Team Fortress","app_id":440,"player_count":0,"max_players":24,"Bots":0,"server_type":"Dedicated","server_os":"Linux","password":true,"vac":true,"version":"7882260","steam_id":85568392924485349,"keywords":["nocrits","nodmgspread","payload","uncletopia"],"game_id":440,"stv_port":27016,"stv_name":"Uncletopia | S√£o Paulo | 2 | All Maps | STV","players":null},{"server_id":7,"name":"Uncletopia | Seattle | 1 | All Maps","name_short":"sea-1","host":"sea-1.us.uncletopia.com","port":27015,"enabled":true,"region":"us-west","cc":"us","latitude":47.608013,"longitude":-122.33517,"reserved":0,"last_update":"0001-01-01T00:00:00Z","name_a2s":"Uncletopia | Seattle | 1 | All Maps","protocol":17,"map":"pl_badwater","folder":"tf","game":"Team Fortress","app_id":440,"player_count":24,"max_players":24,"Bots":0,"server_type":"Dedicated","server_os":"Linux","password":true,"vac":true,"version":"7882260","steam_id":85568392924469997,"keywords":["nocrits","nodmgspread","payload","uncletopia"],"game_id":440,"stv_port":27016,"stv_name":"Uncletopia | Seattle | 1 | All Maps | STV","players":[{"user_id":454,"name":"D.E.O","steam_id":76561198096992957,"connected_time":1794000000000,"state":"active","ping":174},{"user_id":470,"name":"coolbananas","steam_id":76561198164460801,"connected_time":1289000000000,"state":"active","ping":30},{"user_id":484,"name":"T√ºCold","steam_id":76561198111278197,"connected_time":235000000000,"state":"active","ping":48},{"user_id":455,"name":"A Can of Arizona Green Tea","steam_id":76561198062481133,"connected_time":1782000000000,"state":"active","ping":83},{"user_id":439,"name":"Ultra Pinstinct","steam_id":76561198336604599,"connected_time":3335000000000,"state":"active","ping":70},{"user_id":480,"name":"sillymoder2005","steam_id":76561198202235495,"connected_time":453000000000,"state":"active","ping":32},{"user_id":478,"name":"Kc","steam_id":76561198210734407,"connected_time":545000000000,"state":"active","ping":109},{"user_id":457,"name":"Copy","steam_id":76561198025031590,"connected_time":1743000000000,"state":"active","ping":64},{"user_id":458,"name":"jon pickle water","steam_id":76561199036212135,"connected_time":1643000000000,"state":"active","ping":67},{"user_id":427,"name":"„Åµ„Çè„Åµ„ÇèÊØõÂ∏É","steam_id":76561198088403016,"connected_time":3537000000000,"state":"active","ping":150},{"user_id":460,"name":"DOMO_MR_ROBOTO","steam_id":76561198077108345,"connected_time":1581000000000,"state":"active","ping":99},{"user_id":449,"name":"Ira","steam_id":76561198855586261,"connected_time":2020000000000,"state":"active","ping":76},{"user_id":485,"name":"Adawnby","steam_id":76561198103057295,"connected_time":215000000000,"state":"active","ping":105},{"user_id":473,"name":"dust | she/it","steam_id":76561198045218909,"connected_time":851000000000,"state":"active","ping":31},{"user_id":474,"name":"SAD MOSCOVIA","steam_id":76561198101081520,"connected_time":838000000000,"state":"active","ping":69},{"user_id":466,"name":":Closed.","steam_id":76561198212598967,"connected_time":1449000000000,"state":"active","ping":84},{"user_id":312,"name":"Themasterman75","steam_id":76561199385573293,"connected_time":8586000000000,"state":"active","ping":72},{"user_id":467,"name":"UnusualTofu","steam_id":76561198060103750,"connected_time":1429000000000,"state":"active","ping":86},{"user_id":486,"name":"jackhillard83","steam_id":76561199057098390,"connected_time":190000000000,"state":"active","ping":125},{"user_id":476,"name":"Keamy","steam_id":76561199471434875,"connected_time":705000000000,"state":"active","ping":270},{"user_id":487,"name":"Spy on cart","steam_id":76561198025466913,"connected_time":59000000000,"state":"active","ping":52},{"user_id":479,"name":"resh","steam_id":76561198239598834,"connected_time":536000000000,"state":"active","ping":132},{"user_id":417,"name":"LProduct","steam_id":76561199442139670,"connected_time":3782000000000,"state":"active","ping":77},{"user_id":445,"name":"Fallen","steam_id":76561198206490352,"connected_time":2661000000000,"state":"active","ping":71}]},{"server_id":119,"name":"Uncletopia | Seattle | 2 | All Maps","name_short":"sea-2","host":"sea-1.us.uncletopia.com","port":27025,"enabled":true,"region":"us-west","cc":"us","latitude":47.608013,"longitude":-122.33517,"reserved":0,"last_update":"0001-01-01T00:00:00Z","name_a2s":"Uncletopia | Seattle | 2 | All Maps","protocol":17,"map":"cp_steel","folder":"tf","game":"Team Fortress","app_id":440,"player_count":4,"max_players":24,"Bots":0,"server_type":"Dedicated","server_os":"Linux","password":true,"vac":true,"version":"7882260","steam_id":85568392924469998,"keywords":["cp","nocrits","nodmgspread","uncletopia"],"game_id":440,"stv_port":27026,"stv_name":"Uncletopia | Seattle | 2 | All Maps | STV","players":[{"user_id":240,"name":"Spy of 83","steam_id":76561199062242958,"connected_time":968000000000,"state":"active","ping":74},{"user_id":243,"name":"shotgun core 2.0","steam_id":76561198871111716,"connected_time":414000000000,"state":"active","ping":124},{"user_id":242,"name":"nfseskimo","steam_id":76561198078745666,"connected_time":630000000000,"state":"active","ping":44},{"user_id":235,"name":"Cheeseoid","steam_id":76561198073836524,"connected_time":1261000000000,"state":"active","ping":99}]},{"server_id":406,"name":"Uncletopia | Seattle | 3 | Stopwatch Beta","name_short":"sea-3","host":"sea-1.us.uncletopia.com","port":27035,"enabled":true,"region":"us-west","cc":"us","latitude":47.608013,"longitude":-122.33517,"reserved":0,"last_update":"0001-01-01T00:00:00Z","name_a2s":"Uncletopia | Seattle | 3 | Stopwatch Beta","protocol":17,"map":"workshop/koth_ramjam_rc1.ugc459778887","folder":"tf","game":"Team Fortress","app_id":440,"player_count":14,"max_players":24,"Bots":0,"server_type":"Dedicated","server_os":"Linux","password":true,"vac":true,"version":"7882260","steam_id":85568392924515217,"keywords":["cp","nocrits","nodmgspread","uncletopia"],"game_id":440,"stv_port":27036,"stv_name":"Uncletopia | Seattle | 3 | Stopwatch Beta | STV","players":[{"user_id":5,"name":"TwinkGaming(Jerma)","steam_id":76561197972835907,"connected_time":3677000000000,"state":"active","ping":69},{"user_id":6,"name":"Based Jvnko Fan","steam_id":76561198355290984,"connected_time":3660000000000,"state":"active","ping":50},{"user_id":36,"name":"slude","steam_id":76561198065700596,"connected_time":169000000000,"state":"active","ping":99},{"user_id":8,"name":"Wheaties","steam_id":76561198060909578,"connected_time":3041000000000,"state":"active","ping":59},{"user_id":37,"name":"insane jester","steam_id":76561198079609974,"connected_time":87000000000,"state":"active","ping":78},{"user_id":13,"name":"Warpy","steam_id":76561198055852599,"connected_time":2288000000000,"state":"active","ping":140},{"user_id":32,"name":"dzcreeper","steam_id":76561198072250723,"connected_time":426000000000,"state":"active","ping":59},{"user_id":20,"name":"Least annoying scout player","steam_id":76561199088646500,"connected_time":1058000000000,"state":"active","ping":136},{"user_id":38,"name":"uncle red","steam_id":76561199134504087,"connected_time":41000000000,"state":"active","ping":128},{"user_id":26,"name":"Hannibal Buress","steam_id":76561198083584085,"connected_time":733000000000,"state":"active","ping":195},{"user_id":27,"name":"u know i keep","steam_id":76561198094615739,"connected_time":712000000000,"state":"active","ping":82},{"user_id":34,"name":"Evarien","steam_id":76561199137157629,"connected_time":316000000000,"state":"active","ping":190},{"user_id":35,"name":"EleventhGoose","steam_id":76561198912390211,"connected_time":242000000000,"state":"active","ping":85},{"user_id":39,"name":"American freedom bird","steam_id":76561198366142388,"connected_time":40000000000,"state":"spawning","ping":169}]},{"server_id":17,"name":"Uncletopia | San Francisco | 1 | All Maps","name_short":"sfo-1","host":"sfo-1.us.uncletopia.com","port":27015,"enabled":true,"region":"us-west","cc":"us","latitude":37.77397,"longitude":-122.4313,"reserved":0,"last_update":"0001-01-01T00:00:00Z","name_a2s":"Uncletopia | San Francisco | 1 | All Maps","protocol":17,"map":"pl_badwater","folder":"tf","game":"Team Fortress","app_id":440,"player_count":0,"max_players":24,"Bots":0,"server_type":"Dedicated","server_os":"Linux","password":true,"vac":true,"version":"7882260","steam_id":85568392924469999,"keywords":["nocrits","nodmgspread","payload","uncletopia"],"game_id":440,"stv_port":27016,"stv_name":"Uncletopia | San Francisco | 1 | All Maps | STV","players":null},{"server_id":18,"name":"Uncletopia | San Francisco | 2 | All Maps","name_short":"sfo-2","host":"sfo-1.us.uncletopia.com","port":27025,"enabled":true,"region":"us-west","cc":"us","latitude":37.77397,"longitude":-122.4313,"reserved":0,"last_update":"0001-01-01T00:00:00Z","name_a2s":"Uncletopia | San Francisco | 2 | All Maps","protocol":17,"map":"cp_sunshine","folder":"tf","game":"Team Fortress","app_id":440,"player_count":0,"max_players":24,"Bots":0,"server_type":"Dedicated","server_os":"Linux","password":true,"vac":true,"version":"7882260","steam_id":85568392924470000,"keywords":["cp","nocrits","nodmgspread","uncletopia"],"game_id":440,"stv_port":27026,"stv_name":"Uncletopia | San Francisco | 2 | All Maps | STV","players":null},{"server_id":19,"name":"Uncletopia | San Francisco | 3 | Stopwatch Beta","name_short":"sfo-3","host":"sfo-1.us.uncletopia.com","port":27035,"enabled":true,"region":"us-west","cc":"us","latitude":37.77397,"longitude":-122.4313,"reserved":0,"last_update":"0001-01-01T00:00:00Z","name_a2s":"Uncletopia | San Francisco | 3 | Stopwatch Beta","protocol":17,"map":"pl_snowycoast","folder":"tf","game":"Team Fortress","app_id":440,"player_count":0,"max_players":24,"Bots":0,"server_type":"Dedicated","server_os":"Linux","password":true,"vac":true,"version":"7882260","steam_id":85568392924742824,"keywords":["nocrits","nodmgspread","payload","uncletopia"],"game_id":440,"stv_port":27036,"stv_name":"Uncletopia | San Francisco | 3 | Stopwatch Beta | STV","players":null},{"server_id":20,"name":"Uncletopia | San Francisco | 4 | Community","name_short":"sfo-4","host":"sfo-1.us.uncletopia.com","port":27045,"enabled":true,"region":"us-west","cc":"us","latitude":37.77397,"longitude":-122.4313,"reserved":0,"last_update":"0001-01-01T00:00:00Z","name_a2s":"Uncletopia | San Francisco | 4 | Community","protocol":17,"map":"pl_swiftwater_final1","folder":"tf","game":"Team Fortress","app_id":440,"player_count":0,"max_players":24,"Bots":0,"server_type":"Dedicated","server_os":"Linux","password":true,"vac":true,"version":"7882260","steam_id":85568392924742826,"keywords":["nocrits","nodmgspread","payload","uncletopia"],"game_id":440,"stv_port":27046,"stv_name":"Uncletopia | San Francisco | 4 | Community | STV","players":null},{"server_id":141,"name":"Uncletopia | Sydney | 1 | All Maps","name_short":"syd-1","host":"syd-1.au.uncletopia.com","port":27015,"enabled":true,"region":"au","cc":"au","latitude":-33.865143,"longitude":151.2099,"reserved":0,"last_update":"0001-01-01T00:00:00Z","name_a2s":"Uncletopia | Sydney | 1 | All Maps","protocol":17,"map":"pl_frontier_final","folder":"tf","game":"Team Fortress","app_id":440,"player_count":0,"max_players":24,"Bots":0,"server_type":"Dedicated","server_os":"Linux","password":true,"vac":true,"version":"7882260","steam_id":85568392924470001,"keywords":["nocrits","nodmgspread","payload","uncletopia"],"game_id":440,"stv_port":27016,"stv_name":"Uncletopia | Sydney | 1 | All Maps | STV","players":null},{"server_id":123,"name":"Uncletopia | Sydney | 2 | All Maps","name_short":"syd-2","host":"syd-1.au.uncletopia.com","port":27025,"enabled":true,"region":"au","cc":"au","latitude":-33.865143,"longitude":151.2099,"reserved":0,"last_update":"0001-01-01T00:00:00Z","name_a2s":"Uncletopia | Sydney | 2 | All Maps","protocol":17,"map":"koth_highpass","folder":"tf","game":"Team Fortress","app_id":440,"player_count":0,"max_players":24,"Bots":0,"server_type":"Dedicated","server_os":"Linux","password":true,"vac":true,"version":"7882260","steam_id":85568392924470002,"keywords":["cp","nocrits","nodmgspread","uncletopia"],"game_id":440,"stv_port":27026,"stv_name":"Uncletopia | Sydney | 2 | All Maps | STV","players":null},{"server_id":395,"name":"Uncletopia | Sydney | 3 | All Maps","name_short":"syd-3","host":"syd-1.au.uncletopia.com","port":27035,"enabled":true,"region":"au","cc":"au","latitude":-33.865143,"longitude":151.2099,"reserved":0,"last_update":"0001-01-01T00:00:00Z","name_a2s":"Uncletopia | Sydney | 3 | All Maps","protocol":17,"map":"pl_badwater","folder":"tf","game":"Team Fortress","app_id":440,"player_count":0,"max_players":24,"Bots":0,"server_type":"Dedicated","server_os":"Linux","password":true,"vac":true,"version":"7882260","steam_id":85568392925194467,"keywords":["nocrits","nodmgspread","payload","uncletopia"],"game_id":440,"stv_port":27036,"stv_name":"Uncletopia | Sydney | 3 | All Maps | STV","players":null},{"server_id":396,"name":"Uncletopia | Sydney | 4 | All Maps","name_short":"syd-4","host":"syd-1.au.uncletopia.com","port":27045,"enabled":true,"region":"au","cc":"au","latitude":-33.865143,"longitude":151.2099,"reserved":0,"last_update":"0001-01-01T00:00:00Z","name_a2s":"Uncletopia | Sydney | 4 | All Maps","protocol":17,"map":"pl_snowycoast","folder":"tf","game":"Team Fortress","app_id":440,"player_count":0,"max_players":24,"Bots":0,"server_type":"Dedicated","server_os":"Linux","password":true,"vac":true,"version":"7882260","steam_id":85568392925397958,"keywords":["nocrits","nodmgspread","payload","uncletopia"],"game_id":440,"stv_port":27046,"stv_name":"Uncletopia | Sydney | 4 | All Maps | STV","players":null},{"server_id":58,"name":"Uncletopia | Sydney | 5 | Stopwatch Beta","name_short":"syd-5","host":"syd-1.au.uncletopia.com","port":27055,"enabled":true,"region":"au","cc":"au","latitude":-33.865143,"longitude":151.2099,"reserved":0,"last_update":"0001-01-01T00:00:00Z","name_a2s":"Uncletopia | Sydney | 5 | Stopwatch Beta","protocol":17,"map":"koth_viaduct","folder":"tf","game":"Team Fortress","app_id":440,"player_count":0,"max_players":24,"Bots":0,"server_type":"Dedicated","server_os":"Linux","password":true,"vac":true,"version":"7882260","steam_id":85568392925397959,"keywords":["cp","nocrits","nodmgspread","uncletopia"],"game_id":440,"stv_port":27056,"stv_name":"Uncletopia | Sydney | 5 | Stopwatch Beta | STV","players":null},{"server_id":59,"name":"Uncletopia | Sydney | 6 | Community","name_short":"syd-6","host":"syd-1.au.uncletopia.com","port":27065,"enabled":true,"region":"au","cc":"au","latitude":-33.865143,"longitude":151.2099,"reserved":0,"last_update":"0001-01-01T00:00:00Z","name_a2s":"Uncletopia | Sydney | 6 | Community","protocol":17,"map":"workshop/pl_corrode_rc2.ugc546577989","folder":"tf","game":"Team Fortress","app_id":440,"player_count":1,"max_players":24,"Bots":0,"server_type":"Dedicated","server_os":"Linux","password":true,"vac":true,"version":"7882260","steam_id":85568392925397960,"keywords":["nocrits","nodmgspread","payload","uncletopia"],"game_id":440,"stv_port":27066,"stv_name":"Uncletopia | Sydney | 6 | Community | STV","players":[{"user_id":6,"name":"Vortex Swagger","steam_id":76561198833527091,"connected_time":237000000000,"state":"active","ping":142}]},{"server_id":49,"name":"Uncletopia | Warsaw | 1 | All Maps","name_short":"waw-1","host":"waw-1.pl.uncletopia.com","port":27015,"enabled":true,"region":"eu","cc":"pl","latitude":52.2297,"longitude":21.017532,"reserved":0,"last_update":"0001-01-01T00:00:00Z","name_a2s":"","protocol":0,"map":"","folder":"","game":"","app_id":0,"player_count":0,"max_players":0,"Bots":0,"server_type":"","server_os":"","password":false,"vac":false,"version":"","steam_id":0,"keywords":null,"game_id":0,"stv_port":0,"stv_name":"","players":null},{"server_id":50,"name":"Uncletopia | Warsaw | 2 | All Maps","name_short":"waw-2","host":"waw-1.pl.uncletopia.com","port":27025,"enabled":true,"region":"eu","cc":"pl","latitude":52.2297,"longitude":21.017532,"reserved":0,"last_update":"0001-01-01T00:00:00Z","name_a2s":"Uncletopia | Warsaw | 2 | All Maps","protocol":17,"map":"pl_borneo","folder":"tf","game":"Team Fortress","app_id":440,"player_count":0,"max_players":24,"Bots":0,"server_type":"Dedicated","server_os":"Linux","password":true,"vac":true,"version":"7882260","steam_id":85568392925397851,"keywords":["nocrits","nodmgspread","payload","uncletopia"],"game_id":440,"stv_port":27026,"stv_name":"Uncletopia | Warsaw | 2 | All Maps | STV","players":null},{"server_id":51,"name":"Uncletopia | Warsaw | 3 | All Maps","name_short":"waw-3","host":"waw-1.pl.uncletopia.com","port":27035,"enabled":true,"region":"eu","cc":"pl","latitude":52.2297,"longitude":21.017532,"reserved":0,"last_update":"0001-01-01T00:00:00Z","name_a2s":"Uncletopia | Warsaw | 3 | All Maps","protocol":17,"map":"pl_barnblitz","folder":"tf","game":"Team Fortress","app_id":440,"player_count":0,"max_players":24,"Bots":0,"server_type":"Dedicated","server_os":"Linux","password":true,"vac":true,"version":"7882260","steam_id":85568392925397852,"keywords":["nocrits","nodmgspread","payload","uncletopia"],"game_id":440,"stv_port":27036,"stv_name":"Uncletopia | Warsaw | 3 | All Maps | STV","players":null},{"server_id":52,"name":"Uncletopia | Warsaw | 4 | All Maps","name_short":"waw-4","host":"waw-1.pl.uncletopia.com","port":27045,"enabled":true,"region":"eu","cc":"pl","latitude":52.2297,"longitude":21.017532,"reserved":0,"last_update":"0001-01-01T00:00:00Z","name_a2s":"Uncletopia | Warsaw | 4 | All Maps","protocol":17,"map":"koth_cascade","folder":"tf","game":"Team Fortress","app_id":440,"player_count":0,"max_players":24,"Bots":0,"server_type":"Dedicated","server_os":"Linux","password":true,"vac":true,"version":"7882260","steam_id":85568392925397853,"keywords":["cp","nocrits","nodmgspread","uncletopia"],"game_id":440,"stv_port":27046,"stv_name":"Uncletopia | Warsaw | 4 | All Maps | STV","players":null},{"server_id":53,"name":"Uncletopia | Warsaw | 5 | Stopwatch Beta","name_short":"waw-5","host":"waw-1.pl.uncletopia.com","port":27055,"enabled":true,"region":"eu","cc":"pl","latitude":52.2297,"longitude":21.017532,"reserved":0,"last_update":"0001-01-01T00:00:00Z","name_a2s":"Uncletopia | Warsaw | 5 | Stopwatch Beta","protocol":17,"map":"cp_dustbowl","folder":"tf","game":"Team Fortress","app_id":440,"player_count":0,"max_players":24,"Bots":0,"server_type":"Dedicated","server_os":"Linux","password":true,"vac":true,"version":"7882260","steam_id":85568392925397854,"keywords":["cp","nocrits","nodmgspread","uncletopia"],"game_id":440,"stv_port":27056,"stv_name":"Uncletopia | Warsaw | 5 | Stopwatch Beta | STV","players":null},{"server_id":54,"name":"Uncletopia | Warsaw | 6 | Community","name_short":"waw-6","host":"waw-1.pl.uncletopia.com","port":27065,"enabled":true,"region":"eu","cc":"pl","latitude":52.2297,"longitude":21.017532,"reserved":0,"last_update":"0001-01-01T00:00:00Z","name_a2s":"Uncletopia | Warsaw | 6 | Community","protocol":17,"map":"cp_dustbowl","folder":"tf","game":"Team Fortress","app_id":440,"player_count":0,"max_players":24,"Bots":0,"server_type":"Dedicated","server_os":"Linux","password":true,"vac":true,"version":"7882260","steam_id":85568392925397856,"keywords":["cp","nocrits","nodmgspread","uncletopia"],"game_id":440,"stv_port":27066,"stv_name":"Uncletopia | Warsaw | 6 | Community | STV","players":null}]}