{"status":true,"message":"","result":[{"server_id":9,"name":"Uncletopia | Atlanta | 1 | All Maps","name_short":"atl-1","host":"atl-1.us.uncletopia.com","port":27015,"enabled":true,"region":"us-east","cc":"us","latitude":33.753746,"longitude":-84.38633,"reserved":0,"last_update":"0001-01-01T00:00:00Z","name_a2s":"Uncletopia | Atlanta | 1 | All Maps","protocol":17,"map":"pl_pier","folder":"tf","game":"Team Fortress","app_id":440,"player_count":24,"max_players":24,"Bots":0,"server_type":"Dedicated","server_os":"Linux","password":true,"vac":true,"version":"7961495","steam_id":85568392924469982,"keywords":["nocrits","nodmgspread","payload","uncletopia"],"game_id":440,"stv_port":27016,"stv_name":"Uncletopia | Atlanta | 1 | All Maps | STV","players":[{"user_id":152,"name":"ADRIEN BRODY","steam_id":76561198009299473,"connected_time":157000000000,"state":"active","ping":62},{"user_id":147,"name":"Vordt","steam_id":76561198040942866,"connected_time":761000000000,"state":"active","ping":62},{"user_id":60,"name":"kohlhagen","steam_id":76561198120440587,"connected_time":6706000000000,"state":"active","ping":34},{"user_id":38,"name":"William Wallace","steam_id":76561199343316814,"connected_time":8361000000000,"state":"active","ping":60},{"user_id":74,"name":"Estrogenizing Burger King Burge","steam_id":76561198083882597,"connected_time":5436000000000,"state":"active","ping":60},{"user_id":42,"name":"Pango","steam_id":76561198069811545,"connected_time":7629000000000,"state":"active","ping":45},{"user_id":44,"name":"scboober","steam_id":76561198883304912,"connected_time":7503000000000,"state":"active","ping":140},{"user_id":116,"name":"why","steam_id":76561199059732212,"connected_time":3445000000000,"state":"active","ping":47},{"user_id":109,"name":"luxin","steam_id":76561198399383047,"connected_time":4093000000000,"state":"active","ping":50},{"user_id":141,"name":"Just PYE","steam_id":76561199439622967,"connected_time":1004000000000,"state":"active","ping":69},{"user_id":151,"name":"Brown_Dream","steam_id":76561198975766145,"connected_time":214000000000,"state":"active","ping":71},{"user_id":131,"name":"k0ka","steam_id":76561198247969962,"connected_time":1925000000000,"state":"active","ping":45},{"user_id":146,"name":"ƸӜƷMafuyulovesuƸӜƷ","steam_id":76561198111497204,"connected_time":798000000000,"state":"active","ping":75},{"user_id":143,"name":"the silly","steam_id":76561198850632709,"connected_time":990000000000,"state":"active","ping":60},{"user_id":87,"name":"freyja","steam_id":76561198249206656,"connected_time":4510000000000,"state":"active","ping":79},{"user_id":153,"name":"Disco Fever","steam_id":76561198069532215,"connected_time":147000000000,"state":"active","ping":74},{"user_id":155,"name":"PK","steam_id":76561198368722500,"connected_time":40000000000,"state":"active","ping":70},{"user_id":64,"name":"Sooch","steam_id":76561198007043697,"connected_time":6544000000000,"state":"active","ping":81},{"user_id":144,"name":"Intro Bonito","steam_id":76561198119478838,"connected_time":985000000000,"state":"active","ping":46},{"user_id":154,"name":"David De Bergerac","steam_id":76561198010306294,"connected_time":104000000000,"state":"active","ping":85},{"user_id":150,"name":"Prostate Tickler","steam_id":76561198125836361,"connected_time":305000000000,"state":"active","ping":72},{"user_id":112,"name":"I Eat Runners","steam_id":76561198308044205,"connected_time":3519000000000,"state":"active","ping":47},{"user_id":126,"name":"baedeker","steam_id":76561199081837220,"connected_time":2151000000000,"state":"active","ping":60},{"user_id":134,"name":"LOFILE","steam_id":76561198083798918,"connected_time":1901000000000,"state":"active","ping":73}]},{"server_id":104,"name":"Uncletopia | Atlanta | 2 | All Maps","name_short":"atl-2","host":"atl-1.us.uncletopia.com","port":27025,"enabled":true,"region":"us-east","cc":"us","latitude":33.753746,"longitude":-84.38633,"reserved":0,"last_update":"0001-01-01T00:00:00Z","name_a2s":"Uncletopia | Atlanta | 2 | All Maps","protocol":17,"map":"koth_cascade","folder":"tf","game":"Team Fortress","app_id":440,"player_count":0,"max_players":24,"Bots":0,"server_type":"Dedicated","server_os":"Linux","password":true,"vac":true,"version":"7961495","steam_id":85568392924469983,"keywords":["cp","nocrits","nodmgspread","uncletopia"],"game_id":440,"stv_port":27026,"stv_name":"Uncletopia | Atlanta | 2 | All Maps | STV","players":null},{"server_id":400,"name":"Uncletopia | Atlanta | 3 | Stopwatch","name_short":"atl-3","host":"atl-1.us.uncletopia.com","port":27035,"enabled":true,"region":"us-east","cc":"us","latitude":33.753746,"longitude":-84.38633,"reserved":0,"last_update":"0001-01-01T00:00:00Z","name_a2s":"Uncletopia | Atlanta | 3 | Stopwatch","protocol":17,"map":"pl_badwater","folder":"tf","game":"Team Fortress","app_id":440,"player_count":0,"max_players":24,"Bots":0,"server_type":"Dedicated","server_os":"Linux","password":true,"vac":true,"version":"7961495","steam_id":85568392924515187,"keywords":["nocrits","nodmgspread","payload","uncletopia"],"game_id":440,"stv_port":27036,"stv_name":"Uncletopia | Atlanta | 3 | Stopwatch | STV","players":null},{"server_id":401,"name":"Uncletopia | Atlanta | 4 | Community","name_short":"atl-4","host":"atl-1.us.uncletopia.com","port":27045,"enabled":true,"region":"us-east","cc":"us","latitude":33.753746,"longitude":-84.38633,"reserved":0,"last_update":"0001-01-01T00:00:00Z","name_a2s":"Uncletopia | Atlanta | 4 | Community","protocol":17,"map":"workshop/cp_sulfur_rc2.ugc619869471","folder":"tf","game":"Team Fortress","app_id":440,"player_count":0,"max_players":24,"Bots":0,"server_type":"Dedicated","server_os":"Linux","password":true,"vac":true,"version":"7961495","steam_id":85568392924515188,"keywords":["cp","nocrits","nodmgspread","uncletopia"],"game_id":440,"stv_port":27046,"stv_name":"Uncletopia | Atlanta | 4 | Community | STV","players":null},{"server_id":2,"name":"Uncletopia | Chicago | 1 | All Maps","name_short":"chi-1","host":"chi-1.us.uncletopia.com","port":27015,"enabled":true,"region":"us-central","cc":"us","latitude":41.881832,"longitude":-87.62318,"reserved":0,"last_update":"0001-01-01T00:00:00Z","name_a2s":"Uncletopia | Chicago | 1 | All Maps","protocol":17,"map":"pl_swiftwater_final1","folder":"tf","game":"Team Fortress","app_id":440,"player_count":24,"max_players":24,"Bots":0,"server_type":"Dedicated","server_os":"Linux","password":true,"vac":true,"version":"7961495","steam_id":85568392924469984,"keywords":["nocrits","nodmgspread","payload","uncletopia"],"game_id":440,"stv_port":27016,"stv_name":"Uncletopia | Chicago | 1 | All Maps | STV","players":[{"user_id":322,"name":"Terry Crews from Brooklyn 99","steam_id":76561198357806819,"connected_time":394000000000,"state":"active","ping":77},{"user_id":278,"name":"Missing Minus","steam_id":76561198120822928,"connected_time":1795000000000,"state":"active","ping":59},{"user_id":309,"name":"Captain","steam_id":76561198155723294,"connected_time":1211000000000,"state":"active","ping":59},{"user_id":286,"name":"blob","steam_id":76561198122375328,"connected_time":1584000000000,"state":"active","ping":54},{"user_id":314,"name":"Nexo Fighter","steam_id":76561199187418090,"connected_time":908000000000,"state":"active","ping":111},{"user_id":269,"name":"Filthy Acts at Reasonable Price","steam_id":76561198354615890,"connected_time":2561000000000,"state":"active","ping":55},{"user_id":315,"name":"WhrSkr","steam_id":76561198845227751,"connected_time":906000000000,"state":"active","ping":60},{"user_id":316,"name":"dillon/dylan","steam_id":76561198118054166,"connected_time":888000000000,"state":"active","ping":73},{"user_id":263,"name":"Breakaway","steam_id":76561198089308523,"connected_time":3438000000000,"state":"active","ping":85},{"user_id":272,"name":"Qwerty","steam_id":76561198023525894,"connected_time":2217000000000,"state":"active","ping":166},{"user_id":312,"name":"Shoeshocker","steam_id":76561198174302467,"connected_time":986000000000,"state":"active","ping":69},{"user_id":326,"name":"Octto","steam_id":76561198070124921,"connected_time":216000000000,"state":"active","ping":65},{"user_id":299,"name":"Nut Commander","steam_id":76561198065989058,"connected_time":1361000000000,"state":"active","ping":56},{"user_id":318,"name":"SonofaBishop","steam_id":76561198121118762,"connected_time":850000000000,"state":"active","ping":86},{"user_id":325,"name":"Comfy!","steam_id":76561198008818346,"connected_time":260000000000,"state":"active","ping":67},{"user_id":262,"name":"Villain_7","steam_id":76561198985858094,"connected_time":3463000000000,"state":"active","ping":67},{"user_id":324,"name":"◉_◉","steam_id":76561198999217575,"connected_time":343000000000,"state":"active","ping":64},{"user_id":319,"name":"THE CUMEST LORD","steam_id":76561198061412592,"connected_time":847000000000,"state":"active","ping":98},{"user_id":276,"name":"ThatOneKnight","steam_id":76561198388583650,"connected_time":2028000000000,"state":"active","ping":54},{"user_id":321,"name":"AveMoSwag","steam_id":76561198261701911,"connected_time":649000000000,"state":"active","ping":88},{"user_id":275,"name":"Cosmic Torgue","steam_id":76561198828724945,"connected_time":2159000000000,"state":"active","ping":80},{"user_id":271,"name":"Voodo133","steam_id":76561198042670351,"connected_time":2360000000000,"state":"active","ping":89},{"user_id":250,"name":"Ras","steam_id":76561198123546775,"connected_time":3666000000000,"state":"active","ping":89},{"user_id":293,"name":"Bussy Bandit","steam_id":76561198034028769,"connected_time":1434000000000,"state":"active","ping":65}]},{"server_id":106,"name":"Uncletopia | Chicago | 2 | All Maps","name_short":"chi-2","host":"chi-1.us.uncletopia.com","port":27025,"enabled":true,"region":"us-central","cc":"us","latitude":41.881832,"longitude":-87.62318,"reserved":0,"last_update":"0001-01-01T00:00:00Z","name_a2s":"Uncletopia | Chicago | 2 | All Maps","protocol":17,"map":"pl_frontier_final","folder":"tf","game":"Team Fortress","app_id":440,"player_count":24,"max_players":24,"Bots":0,"server_type":"Dedicated","server_os":"Linux","password":true,"vac":true,"version":"7961495","steam_id":85568392924469985,"keywords":["nocrits","nodmgspread","payload","uncletopia"],"game_id":440,"stv_port":27026,"stv_name":"Uncletopia | Chicago | 2 | All Maps | STV","players":[{"user_id":87,"name":"AshMouse","steam_id":76561198151145819,"connected_time":2067000000000,"state":"active","ping":71},{"user_id":111,"name":"Ghost","steam_id":76561198110914180,"connected_time":935000000000,"state":"active","ping":166},{"user_id":118,"name":"harusrl :3","steam_id":76561199013638132,"connected_time":426000000000,"state":"active","ping":59},{"user_id":122,"name":"L to the OG","steam_id":76561199215811448,"connected_time":331000000000,"state":"active","ping":85},{"user_id":21,"name":"Hektur Salmondchonka","steam_id":76561198136982572,"connected_time":4909000000000,"state":"active","ping":102},{"user_id":121,"name":"bob","steam_id":76561198274522348,"connected_time":359000000000,"state":"active","ping":59},{"user_id":120,"name":"Ta5K","steam_id":76561198939558155,"connected_time":377000000000,"state":"active","ping":45},{"user_id":123,"name":"wool","steam_id":76561198332704108,"connected_time":325000000000,"state":"active","ping":54},{"user_id":91,"name":"Braspooky","steam_id":76561198275170070,"connected_time":1981000000000,"state":"active","ping":69},{"user_id":126,"name":"VioletSpecs (She/Her)","steam_id":76561198089366466,"connected_time":199000000000,"state":"active","ping":70},{"user_id":103,"name":"Ziggy Stardust","steam_id":76561198226531404,"connected_time":1599000000000,"state":"active","ping":74},{"user_id":52,"name":"cbv eagwsewdaefsd","steam_id":76561198304661367,"connected_time":4156000000000,"state":"active","ping":78},{"user_id":115,"name":"Ejaculation Zach","steam_id":76561198203765200,"connected_time":714000000000,"state":"active","ping":58},{"user_id":116,"name":"DaNuke","steam_id":76561198067866914,"connected_time":698000000000,"state":"active","ping":74},{"user_id":81,"name":"ItsThatKindaNight","steam_id":76561198883206743,"connected_time":2394000000000,"state":"active","ping":69},{"user_id":96,"name":"Ceige LFT","steam_id":76561198068538473,"connected_time":1909000000000,"state":"active","ping":75},{"user_id":110,"name":"stall","steam_id":76561199152861652,"connected_time":950000000000,"state":"active","ping":59},{"user_id":105,"name":"Workwaffle","steam_id":76561198088775748,"connected_time":1162000000000,"state":"active","ping":75},{"user_id":124,"name":"Ceiling Man","steam_id":76561198003959902,"connected_time":321000000000,"state":"active","ping":65},{"user_id":79,"name":"dunk","steam_id":76561198132476501,"connected_time":2459000000000,"state":"active","ping":53},{"user_id":125,"name":"1920","steam_id":76561198111669774,"connected_time":295000000000,"state":"active","ping":45},{"user_id":102,"name":"Bogg","steam_id":76561198111417325,"connected_time":1703000000000,"state":"active","ping":58},{"user_id":100,"name":"Fluffeline","steam_id":76561198352909489,"connected_time":1851000000000,"state":"active","ping":148},{"user_id":101,"name":"SawyerSaur","steam_id":76561198872835142,"connected_time":1851000000000,"state":"active","ping":92}]},{"server_id":402,"name":"Uncletopia | Chicago | 3 | All Maps","name_short":"chi-3","host":"chi-1.us.uncletopia.com","port":27035,"enabled":true,"region":"us-central","cc":"us","latitude":41.881832,"longitude":-87.62318,"reserved":0,"last_update":"0001-01-01T00:00:00Z","name_a2s":"Uncletopia | Chicago | 3 | All Maps","protocol":17,"map":"ctf_2fort","folder":"tf","game":"Team Fortress","app_id":440,"player_count":0,"max_players":24,"Bots":0,"server_type":"Dedicated","server_os":"Linux","password":true,"vac":true,"version":"7961495","steam_id":85568392924515191,"keywords":["ctf","nocrits","nodmgspread","uncletopia"],"game_id":440,"stv_port":27036,"stv_name":"Uncletopia | Chicago | 3 | All Maps | STV","players":null},{"server_id":403,"name":"Uncletopia | Chicago | 4 | All Maps","name_short":"chi-4","host":"chi-1.us.uncletopia.com","port":27045,"enabled":true,"region":"us-central","cc":"us","latitude":41.881832,"longitude":-87.62318,"reserved":0,"last_update":"0001-01-01T00:00:00Z","name_a2s":"Uncletopia | Chicago | 4 | All Maps","protocol":17,"map":"ctf_2fort","folder":"tf","game":"Team Fortress","app_id":440,"player_count":0,"max_players":24,"Bots":0,"server_type":"Dedicated","server_os":"Linux","password":true,"vac":true,"version":"7961495","steam_id":85568392924515193,"keywords":["ctf","nocrits","nodmgspread","uncletopia"],"game_id":440,"stv_port":27046,"stv_name":"Uncletopia | Chicago | 4 | All Maps | STV","players":null},{"server_id":36,"name":"Uncletopia | Chicago | 5 | All Maps","name_short":"chi-5","host":"chi-2.us.uncletopia.com","port":27015,"enabled":true,"region":"us-central","cc":"us","latitude":41.881832,"longitude":-87.62318,"reserved":0,"last_update":"0001-01-01T00:00:00Z","name_a2s":"Uncletopia | Chicago | 5 | All Maps","protocol":17,"map":"ctf_2fort","folder":"tf","game":"Team Fortress","app_id":440,"player_count":0,"max_players":24,"Bots":0,"server_type":"Dedicated","server_os":"Linux","password":true,"vac":true,"version":"7961495","steam_id":85568392924866362,"keywords":["ctf","nocrits","nodmgspread","uncletopia"],"game_id":440,"stv_port":27016,"stv_name":"Uncletopia | Chicago | 5 | All Maps | STV","players":null},{"server_id":37,"name":"Uncletopia | Chicago | 6 | All Maps","name_short":"chi-6","host":"chi-2.us.uncletopia.com","port":27025,"enabled":true,"region":"us-central","cc":"us","latitude":41.881832,"longitude":-87.62318,"reserved":0,"last_update":"0001-01-01T00:00:00Z","name_a2s":"Uncletopia | Chicago | 6 | All Maps","protocol":17,"map":"ctf_2fort","folder":"tf","game":"Team Fortress","app_id":440,"player_count":0,"max_players":24,"Bots":0,"server_type":"Dedicated","server_os":"Linux","password":true,"vac":true,"version":"7961495","steam_id":85568392924866363,"keywords":["ctf","nocrits","nodmgspread","uncletopia"],"game_id":440,"stv_port":27026,"stv_name":"Uncletopia | Chicago | 6 | All Maps | STV","players":null},{"server_id":38,"name":"Uncletopia | Chicago | 7 | Stopwatch","name_short":"chi-7","host":"chi-2.us.uncletopia.com","port":27035,"enabled":true,"region":"us-central","cc":"us","latitude":41.881832,"longitude":-87.62318,"reserved":0,"last_update":"0001-01-01T00:00:00Z","name_a2s":"Uncletopia | Chicago | 7 | Stopwatch","protocol":17,"map":"pl_borneo","folder":"tf","game":"Team Fortress","app_id":440,"player_count":17,"max_players":24,"Bots":0,"server_type":"Dedicated","server_os":"Linux","password":true,"vac":true,"version":"7961495","steam_id":85568392924866364,"keywords":["nocrits","nodmgspread","payload","uncletopia"],"game_id":440,"stv_port":27036,"stv_name":"Uncletopia | Chicago | 7 | Stopwatch | STV","players":[{"user_id":207,"name":"CHUNKY","steam_id":76561199275071037,"connected_time":78000000000,"state":"active","ping":61},{"user_id":169,"name":"RestingImmortal","steam_id":76561198254240564,"connected_time":3028000000000,"state":"active","ping":72},{"user_id":209,"name":"Smol Nezuko","steam_id":76561198122759831,"connected_time":51000000000,"state":"active","ping":52},{"user_id":196,"name":"Thequirka","steam_id":76561198968058652,"connected_time":1030000000000,"state":"active","ping":95},{"user_id":210,"name":"Another Neko Weeb","steam_id":76561198051785884,"connected_time":12000000000,"state":"spawning","ping":98},{"user_id":197,"name":"TJGSASQUATCH","steam_id":76561198077806921,"connected_time":995000000000,"state":"active","ping":76},{"user_id":160,"name":"Jonah Hill from 21 Jump Street","steam_id":76561198811130843,"connected_time":3824000000000,"state":"active","ping":73},{"user_id":195,"name":"RaptorJesus","steam_id":76561198451096442,"connected_time":1086000000000,"state":"active","ping":60},{"user_id":203,"name":"ThatScarfDude #NekoIsLife","steam_id":76561198140963271,"connected_time":274000000000,"state":"active","ping":70},{"user_id":154,"name":"SanitysEdge","steam_id":76561198130732813,"connected_time":4101000000000,"state":"active","ping":94},{"user_id":118,"name":"An Engineer","steam_id":76561198110381643,"connected_time":5934000000000,"state":"active","ping":72},{"user_id":208,"name":":3","steam_id":76561198058574934,"connected_time":63000000000,"state":"active","ping":75},{"user_id":189,"name":"Daddy Topps","steam_id":76561198203594332,"connected_time":1308000000000,"state":"active","ping":81},{"user_id":198,"name":"ADUMSAND","steam_id":76561198146955512,"connected_time":986000000000,"state":"active","ping":58},{"user_id":177,"name":"opossum","steam_id":76561198148905570,"connected_time":1912000000000,"state":"active","ping":68},{"user_id":192,"name":"bobbymcbobington","steam_id":76561199089411172,"connected_time":1249000000000,"state":"active","ping":122},{"user_id":193,"name":"professional idiot.™","steam_id":76561199233175473,"connected_time":1239000000000,"state":"active","ping":72}]},{"server_id":39,"name":"Uncletopia | Chicago | 8 | Community","name_short":"chi-8","host":"chi-2.us.uncletopia.com","port":27045,"enabled":true,"region":"us-central","cc":"us","latitude":41.881832,"longitude":-87.62318,"reserved":0,"last_update":"0001-01-01T00:00:00Z","name_a2s":"Uncletopia | Chicago | 8 | Community","protocol":17,"map":"workshop/koth_kemptown_rc1.ugc767410655","folder":"tf","game":"Team Fortress","app_id":440,"player_count":0,"max_players":24,"Bots":0,"server_type":"Dedicated","server_os":"Linux","password":true,"vac":true,"version":"7961495","steam_id":85568392924866365,"keywords":["cp","nocrits","nodmgspread","uncletopia"],"game_id":440,"stv_port":27046,"stv_name":"Uncletopia | Chicago | 8 | Community | STV","players":null},{"server_id":8,"name":"Uncletopia | Dallas | 1 | All Maps","name_short":"dal-1","host":"dal-1.us.uncletopia.com","port":27015,"enabled":true,"region":"us-central","cc":"us","latitude":32.779167,"longitude":-96.80889,"reserved":0,"last_update":"0001-01-01T00:00:00Z","name_a2s":"Uncletopia | Dallas | 1 | All Maps","protocol":17,"map":"cp_dustbowl","folder":"tf","game":"Team Fortress","app_id":440,"player_count":15,"max_players":24,"Bots":0,"server_type":"Dedicated","server_os":"Linux","password":true,"vac":true,"version":"7961495","steam_id":85568392924469986,"keywords":["cp","nocrits","nodmgspread","uncletopia"],"game_id":440,"stv_port":27016,"stv_name":"Uncletopia | Dallas | 1 | All Maps | STV","players":[{"user_id":171,"name":"Zetta","steam_id":76561198045710113,"connected_time":33000000000,"state":"active","ping":72},{"user_id":159,"name":"popfulmail","steam_id":76561198865971290,"connected_time":1026000000000,"state":"active","ping":97},{"user_id":172,"name":"-W3E- grim10465","steam_id":76561198045698581,"connected_time":21000000000,"state":"active","ping":75},{"user_id":173,"name":"Neptune˖⁺｡˚⋆˙♥","steam_id":76561199054203198,"connected_time":16000000000,"state":"spawning","ping":62},{"user_id":130,"name":"Lyricalnoot","steam_id":76561199164905065,"connected_time":3143000000000,"state":"active","ping":55},{"user_id":168,"name":"Thrasher","steam_id":76561197977801547,"connected_time":469000000000,"state":"active","ping":100},{"user_id":131,"name":"CHEF","steam_id":76561199028833327,"connected_time":3113000000000,"state":"active","ping":61},{"user_id":152,"name":"The Doc","steam_id":76561198121604602,"connected_time":1777000000000,"state":"active","ping":66},{"user_id":165,"name":"nathan285364","steam_id":76561199194292887,"connected_time":822000000000,"state":"active","ping":89},{"user_id":66,"name":"Beantama","steam_id":76561198986811476,"connected_time":9121000000000,"state":"active","ping":56},{"user_id":170,"name":"Fargo","steam_id":76561198130849438,"connected_time":384000000000,"state":"active","ping":64},{"user_id":155,"name":"SaaxoM","steam_id":76561198208256603,"connected_time":1251000000000,"state":"active","ping":85},{"user_id":164,"name":"shnowshner","steam_id":76561198066450438,"connected_time":979000000000,"state":"active","ping":93},{"user_id":122,"name":"Kiradias777","steam_id":76561198067176309,"connected_time":3966000000000,"state":"active","ping":85},{"user_id":169,"name":"Axis","steam_id":76561197969568037,"connected_time":428000000000,"state":"active","ping":77}]},{"server_id":108,"name":"Uncletopia | Dallas | 2 | All Maps","name_short":"dal-2","host":"dal-1.us.uncletopia.com","port":27025,"enabled":true,"region":"us-central","cc":"us","latitude":32.779167,"longitude":-96.80889,"reserved":0,"last_update":"0001-01-01T00:00:00Z","name_a2s":"Uncletopia | Dallas | 2 | All Maps","protocol":17,"map":"cp_mountainlab","folder":"tf","game":"Team Fortress","app_id":440,"player_count":1,"max_players":24,"Bots":0,"server_type":"Dedicated","server_os":"Linux","password":true,"vac":true,"version":"7961495","steam_id":85568392924469988,"keywords":["cp","nocrits","nodmgspread","uncletopia"],"game_id":440,"stv_port":27026,"stv_name":"Uncletopia | Dallas | 2 | All Maps | STV","players":[{"user_id":4,"name":"fasterbum","steam_id":76561198142577444,"connected_time":1439000000000,"state":"active","ping":70}]},{"server_id":404,"name":"Uncletopia | Dallas | 3 | All Maps","name_short":"dal-3","host":"dal-1.us.uncletopia.com","port":27035,"enabled":true,"region":"us-central","cc":"us","latitude":32.779167,"longitude":-96.80889,"reserved":0,"last_update":"0001-01-01T00:00:00Z","name_a2s":"Uncletopia | Dallas | 3 | All Maps","protocol":17,"map":"ctf_2fort","folder":"tf","game":"Team Fortress","app_id":440,"player_count":0,"max_players":24,"Bots":0,"server_type":"Dedicated","server_os":"Linux","password":true,"vac":true,"version":"7961495","steam_id":85568392924515219,"keywords":["ctf","nocrits","nodmgspread","uncletopia"],"game_id":440,"stv_port":27036,"stv_name":"Uncletopia | Dallas | 3 | All Maps | STV","players":null},{"server_id":405,"name":"Uncletopia | Dallas | 4 | Community","name_short":"dal-4","host":"dal-1.us.uncletopia.com","port":27045,"enabled":true,"region":"us-central","cc":"us","latitude":32.779167,"longitude":-96.80889,"reserved":0,"last_update":"0001-01-01T00:00:00Z","name_a2s":"Uncletopia | Dallas | 4 | Community","protocol":17,"map":"pl_pier","folder":"tf","game":"Team Fortress","app_id":440,"player_count":0,"max_players":24,"Bots":0,"server_type":"Dedicated","server_os":"Linux","password":true,"vac":true,"version":"7961495","steam_id":85568392924515220,"keywords":["nocrits","nodmgspread","payload","uncletopia"],"game_id":440,"stv_port":27046,"stv_name":"Uncletopia | Dallas | 4 | Community | STV","players":null},{"server_id":5,"name":"Uncletopia | Frankfurt | 1 | All Maps","name_short":"frk-1","host":"frk-1.de.uncletopia.com","port":27015,"enabled":true,"region":"eu","cc":"de","latitude":50.110924,"longitude":8.682127,"reserved":0,"last_update":"0001-01-01T00:00:00Z","name_a2s":"Uncletopia | Frankfurt | 1 | All Maps","protocol":17,"map":"pl_swiftwater_final1","folder":"tf","game":"Team Fortress","app_id":440,"player_count":24,"max_players":24,"Bots":0,"server_type":"Dedicated","server_os":"Linux","password":true,"vac":true,"version":"7961495","steam_id":85568392924469989,"keywords":["nocrits","nodmgspread","payload","uncletopia"],"game_id":440,"stv_port":27016,"stv_name":"Uncletopia | Frankfurt | 1 | All Maps | STV","players":[{"user_id":307,"name":"gunter_funnyman","steam_id":76561198298432099,"connected_time":909000000000,"state":"active","ping":86},{"user_id":312,"name":"Zazou","steam_id":76561198028076362,"connected_time":745000000000,"state":"active","ping":60},{"user_id":317,"name":"m","steam_id":76561198417778798,"connected_time":13000000000,"state":"spawning","ping":73},{"user_id":269,"name":"Flal","steam_id":76561198453819816,"connected_time":4140000000000,"state":"active","ping":56},{"user_id":279,"name":"pah","steam_id":76561198961008868,"connected_time":3176000000000,"state":"active","ping":61},{"user_id":197,"name":"CumbustiblePunda","steam_id":76561197974274677,"connected_time":9116000000000,"state":"active","ping":54},{"user_id":306,"name":"Darth Falcon","steam_id":76561199033727636,"connected_time":1328000000000,"state":"active","ping":183},{"user_id":280,"name":"anders McFlanders","steam_id":76561198022811995,"connected_time":3172000000000,"state":"active","ping":63},{"user_id":301,"name":"howabe","steam_id":76561197996486818,"connected_time":1749000000000,"state":"active","ping":50},{"user_id":281,"name":"Gravy Davy","steam_id":76561198880308858,"connected_time":3168000000000,"state":"active","ping":85},{"user_id":305,"name":"jermany (not jerma)","steam_id":76561198126599355,"connected_time":1443000000000,"state":"active","ping":71},{"user_id":282,"name":"Mighty Med","steam_id":76561198292249571,"connected_time":3167000000000,"state":"active","ping":77},{"user_id":250,"name":"antlionguard","steam_id":76561198072747143,"connected_time":5895000000000,"state":"active","ping":102},{"user_id":275,"name":"Mr Clean","steam_id":76561198355128010,"connected_time":3515000000000,"state":"active","ping":76},{"user_id":311,"name":"Femboy Thighs","steam_id":76561198115496457,"connected_time":825000000000,"state":"active","ping":45},{"user_id":318,"name":"Rubi","steam_id":76561198139410003,"connected_time":10000000000,"state":"active","ping":89},{"user_id":231,"name":"Conan the Librarian","steam_id":76561198007224654,"connected_time":6812000000000,"state":"active","ping":59},{"user_id":291,"name":"vetzakski","steam_id":76561198988041775,"connected_time":2892000000000,"state":"active","ping":76},{"user_id":298,"name":"NBlast","steam_id":76561197994904389,"connected_time":2017000000000,"state":"active","ping":68},{"user_id":296,"name":"hasky","steam_id":76561197986052798,"connected_time":2119000000000,"state":"active","ping":85},{"user_id":276,"name":"Powki","steam_id":76561198974462268,"connected_time":3366000000000,"state":"active","ping":84},{"user_id":309,"name":"Deacon Dracul","steam_id":76561198046880663,"connected_time":859000000000,"state":"active","ping":91},{"user_id":294,"name":"Naty","steam_id":76561198083488307,"connected_time":2310000000000,"state":"active","ping":70},{"user_id":315,"name":"chillrend_morphs_high_lod6","steam_id":76561198452963141,"connected_time":717000000000,"state":"active","ping":75}]},{"server_id":110,"name":"Uncletopia | Frankfurt | 2 | All Maps","name_short":"frk-2","host":"frk-1.de.uncletopia.com","port":27025,"enabled":true,"region":"eu","cc":"de","latitude":50.110924,"longitude":8.682127,"reserved":0,"last_update":"0001-01-01T00:00:00Z","name_a2s":"Uncletopia | Frankfurt | 2 | All Maps","protocol":17,"map":"pl_badwater","folder":"tf","game":"Team Fortress","app_id":440,"player_count":24,"max_players":24,"Bots":0,"server_type":"Dedicated","server_os":"Linux","password":true,"vac":true,"version":"7961495","steam_id":85568392924469990,"keywords":["nocrits","nodmgspread","payload","uncletopia"],"game_id":440,"stv_port":27026,"stv_name":"Uncletopia | Frankfurt | 2 | All Maps | STV","players":[{"user_id":381,"name":"8 Ball","steam_id":76561197960988736,"connected_time":1007000000000,"state":"active","ping":60},{"user_id":296,"name":"Ziomek","steam_id":76561199131735098,"connected_time":5849000000000,"state":"active","ping":73},{"user_id":377,"name":"Senor Ding Dong","steam_id":76561198102702616,"connected_time":1136000000000,"state":"active","ping":75},{"user_id":342,"name":"Latgaul","steam_id":76561199009145544,"connected_time":3442000000000,"state":"active","ping":99},{"user_id":379,"name":"lun","steam_id":76561198321709121,"connected_time":1036000000000,"state":"active","ping":70},{"user_id":373,"name":"Mr.J","steam_id":76561199127439080,"connected_time":1276000000000,"state":"active","ping":78},{"user_id":384,"name":"Littleyoshifan","steam_id":76561198445491045,"connected_time":946000000000,"state":"active","ping":54},{"user_id":380,"name":"\\3quruc90","steam_id":76561198314576132,"connected_time":1035000000000,"state":"active","ping":89},{"user_id":382,"name":"Moffy The Femboy ❤","steam_id":76561199068915917,"connected_time":985000000000,"state":"active","ping":77},{"user_id":352,"name":"Dmitry Kerman","steam_id":76561198300020540,"connected_time":2967000000000,"state":"active","ping":102},{"user_id":392,"name":"Narvhalø","steam_id":76561198147495474,"connected_time":770000000000,"state":"active","ping":63},{"user_id":385,"name":"blubl","steam_id":76561199128037566,"connected_time":931000000000,"state":"active","ping":54},{"user_id":366,"name":"Sergeant_cross","steam_id":76561198148270425,"connected_time":2029000000000,"state":"active","ping":69},{"user_id":337,"name":"void","steam_id":76561198035831433,"connected_time":3631000000000,"state":"active","ping":68},{"user_id":393,"name":"direct","steam_id":76561198300798948,"connected_time":6000000000,"state":"spawning","ping":61},{"user_id":353,"name":"Puhaur","steam_id":76561198404557509,"connected_time":2966000000000,"state":"active","ping":46},{"user_id":390,"name":"Asocial","steam_id":76561198328594578,"connected_time":872000000000,"state":"active","ping":104},{"user_id":346,"name":"aKENTich","steam_id":76561198062861198,"connected_time":3387000000000,"state":"active","ping":113},{"user_id":355,"name":"BGH1009","steam_id":76561198894761820,"connected_time":2950000000000,"state":"active","ping":69},{"user_id":371,"name":"an idiot","steam_id":76561198172542535,"connected_time":1488000000000,"state":"active","ping":72},{"user_id":321,"name":"gamerkiddo","steam_id":76561198047380360,"connected_time":5115000000000,"state":"active","ping":56},{"user_id":391,"name":"Magos","steam_id":76561198885792320,"connected_time":840000000000,"state":"active","ping":77},{"user_id":387,"name":"Pegasir™","steam_id":76561198041376808,"connected_time":920000000000,"state":"active","ping":58},{"user_id":333,"name":"radu","steam_id":76561198067346802,"connected_time":4144000000000,"state":"active","ping":54}]},{"server_id":308,"name":"Uncletopia | Frankfurt | 3 | All Maps","name_short":"frk-3","host":"frk-1.de.uncletopia.com","port":27035,"enabled":true,"region":"eu","cc":"de","latitude":50.110924,"longitude":8.682127,"reserved":0,"last_update":"0001-01-01T00:00:00Z","name_a2s":"Uncletopia | Frankfurt | 3 | All Maps","protocol":17,"map":"pl_frontier_final","folder":"tf","game":"Team Fortress","app_id":440,"player_count":22,"max_players":24,"Bots":0,"server_type":"Dedicated","server_os":"Linux","password":true,"vac":true,"version":"7961495","steam_id":85568392924504274,"keywords":["nocrits","nodmgspread","payload","uncletopia"],"game_id":440,"stv_port":27036,"stv_name":"Uncletopia | Frankfurt | 3 | All Maps | STV","players":[{"user_id":234,"name":"ling ling","steam_id":76561198043546256,"connected_time":258000000000,"state":"active","ping":69},{"user_id":204,"name":"Billen Boer Bart","steam_id":76561198854111713,"connected_time":2904000000000,"state":"active","ping":49},{"user_id":244,"name":"Tammrock","steam_id":76561198029322294,"connected_time":50000000000,"state":"active","ping":75},{"user_id":237,"name":"vipRLH","steam_id":76561198103030238,"connected_time":120000000000,"state":"active","ping":46},{"user_id":147,"name":"azzy","steam_id":76561198061293740,"connected_time":6502000000000,"state":"active","ping":80},{"user_id":208,"name":"Tynnyri","steam_id":76561198075516541,"connected_time":2700000000000,"state":"active","ping":108},{"user_id":246,"name":"RistleyPristley","steam_id":76561198129583229,"connected_time":17000000000,"state":"active","ping":77},{"user_id":236,"name":"loremantes","steam_id":76561198013132313,"connected_time":129000000000,"state":"active","ping":60},{"user_id":215,"name":"Hexagon","steam_id":76561198151205758,"connected_time":1883000000000,"state":"active","ping":46},{"user_id":218,"name":"w⁣n⁣⁣g","steam_id":76561198049105916,"connected_time":1509000000000,"state":"active","ping":75},{"user_id":220,"name":"Farmercy","steam_id":76561198000038039,"connected_time":1462000000000,"state":"active","ping":58},{"user_id":190,"name":"fluffy474","steam_id":76561198375486320,"connected_time":3114000000000,"state":"active","ping":69},{"user_id":238,"name":"Musquid","steam_id":76561198102748333,"connected_time":116000000000,"state":"active","ping":67},{"user_id":227,"name":"Francis","steam_id":76561198987134265,"connected_time":1189000000000,"state":"active","ping":70},{"user_id":185,"name":"Snaky","steam_id":76561199000954430,"connected_time":3658000000000,"state":"active","ping":116},{"user_id":247,"name":"sad monkey","steam_id":76561198116530769,"connected_time":0,"state":"spawning","ping":22},{"user_id":107,"name":"professionell pojkmodare","steam_id":76561198163615254,"connected_time":9379000000000,"state":"active","ping":60},{"user_id":144,"name":"IT'S OVER","steam_id":76561198094268619,"connected_time":6535000000000,"state":"active","ping":60},{"user_id":210,"name":"Mr. Mundy","steam_id":76561198132008918,"connected_time":2658000000000,"state":"active","ping":70},{"user_id":135,"name":"DUMBFUCK!!! :3","steam_id":76561198311044984,"connected_time":7200000000000,"state":"active","ping":60},{"user_id":230,"name":"ZeBelgianMedic","steam_id":76561199037517027,"connected_time":809000000000,"state":"active","ping":71},{"user_id":192,"name":"♿jo♿jo♿","steam_id":76561198985467797,"connected_time":3104000000000,"state":"active","ping":67}]},{"server_id":309,"name":"Uncletopia | Frankfurt | 4 | All Maps","name_short":"frk-4","host":"frk-1.de.uncletopia.com","port":27045,"enabled":true,"region":"eu","cc":"de","latitude":50.110924,"longitude":8.682127,"reserved":0,"last_update":"0001-01-01T00:00:00Z","name_a2s":"Uncletopia | Frankfurt | 4 | All Maps","protocol":17,"map":"pl_pier","folder":"tf","game":"Team Fortress","app_id":440,"player_count":24,"max_players":24,"Bots":0,"server_type":"Dedicated","server_os":"Linux","password":true,"vac":true,"version":"7961495","steam_id":85568392924504275,"keywords":["nocrits","nodmgspread","payload","uncletopia"],"game_id":440,"stv_port":27046,"stv_name":"Uncletopia | Frankfurt | 4 | All Maps | STV","players":[{"user_id":208,"name":"Skarpy","steam_id":76561198034398376,"connected_time":4269000000000,"state":"active","ping":46},{"user_id":227,"name":"Tomex999","steam_id":76561198049587675,"connected_time":2804000000000,"state":"active","ping":75},{"user_id":273,"name":"finbar","steam_id":76561198056812396,"connected_time":520000000000,"state":"active","ping":75},{"user_id":205,"name":"Cranjis McBasketball","steam_id":76561198051290193,"connected_time":4523000000000,"state":"active","ping":63},{"user_id":258,"name":"Vidrox","steam_id":76561199217854983,"connected_time":1107000000000,"state":"active","ping":94},{"user_id":221,"name":"Mafew","steam_id":76561198119993886,"connected_time":3090000000000,"state":"active","ping":72},{"user_id":216,"name":"rada❤ #newrat","steam_id":76561198062362168,"connected_time":3530000000000,"state":"active","ping":60},{"user_id":224,"name":"tsubonyan★","steam_id":76561198120653445,"connected_time":2987000000000,"state":"active","ping":56},{"user_id":248,"name":"Yrusul","steam_id":76561198044655711,"connected_time":1605000000000,"state":"active","ping":48},{"user_id":269,"name":"Cillian","steam_id":76561199471571148,"connected_time":720000000000,"state":"active","ping":83},{"user_id":261,"name":"Michael","steam_id":76561198003146906,"connected_time":1053000000000,"state":"active","ping":59},{"user_id":275,"name":"Largo","steam_id":76561198844368927,"connected_time":352000000000,"state":"active","ping":74},{"user_id":270,"name":"[HOL] Solringen","steam_id":76561198003584681,"connected_time":675000000000,"state":"active","ping":73},{"user_id":255,"name":"AI | Davidoscki","steam_id":76561198129166046,"connected_time":1339000000000,"state":"active","ping":115},{"user_id":274,"name":"kastanomata","steam_id":76561198271832763,"connected_time":462000000000,"state":"active","ping":67},{"user_id":264,"name":"Fuvuk","steam_id":76561198044458593,"connected_time":967000000000,"state":"active","ping":86},{"user_id":267,"name":"guru{Hari}","steam_id":76561197997001681,"connected_time":908000000000,"state":"active","ping":70},{"user_id":271,"name":"Dr. Senpai","steam_id":76561199217893562,"connected_time":529000000000,"state":"active","ping":70},{"user_id":243,"name":"Carter","steam_id":76561198005243938,"connected_time":2163000000000,"state":"active","ping":74},{"user_id":276,"name":"Lyra","steam_id":76561198043601838,"connected_time":245000000000,"state":"active","ping":60},{"user_id":252,"name":"[FTT]King","steam_id":76561198034600307,"connected_time":1503000000000,"state":"active","ping":66},{"user_id":272,"name":"lulu","steam_id":76561199147764133,"connected_time":524000000000,"state":"active","ping":68},{"user_id":265,"name":"INVALID","steam_id":76561198151605740,"connected_time":956000000000,"state":"active","ping":88},{"user_id":240,"name":"kid bean","steam_id":76561198063328792,"connected_time":2250000000000,"state":"active","ping":131}]},{"server_id":310,"name":"Uncletopia | Frankfurt | 5 | All Maps","name_short":"frk-5","host":"frk-1.de.uncletopia.com","port":27055,"enabled":true,"region":"eu","cc":"de","latitude":50.110924,"longitude":8.682127,"reserved":0,"last_update":"0001-01-01T00:00:00Z","name_a2s":"Uncletopia | Frankfurt | 5 | All Maps","protocol":17,"map":"cp_altitude","folder":"tf","game":"Team Fortress","app_id":440,"player_count":24,"max_players":24,"Bots":0,"server_type":"Dedicated","server_os":"Linux","password":true,"vac":true,"version":"7961495","steam_id":85568392924504277,"keywords":["cp","nocrits","nodmgspread","uncletopia"],"game_id":440,"stv_port":27056,"stv_name":"Uncletopia | Frankfurt | 5 | All Maps | STV","players":[{"user_id":17,"name":"Jesse Dinkman","steam_id":76561198262996078,"connected_time":7863000000000,"state":"active","ping":92},{"user_id":18,"name":"Hostile neighborhood femboy","steam_id":76561198799133372,"connected_time":7855000000000,"state":"active","ping":75},{"user_id":79,"name":"Jessen2002","steam_id":76561198119503211,"connected_time":1883000000000,"state":"active","ping":57},{"user_id":86,"name":"Sotija","steam_id":76561198141712034,"connected_time":994000000000,"state":"active","ping":70},{"user_id":21,"name":"Just Navlis","steam_id":76561198090479609,"connected_time":6625000000000,"state":"active","ping":46},{"user_id":97,"name":"Gamer_X","steam_id":76561198085349286,"connected_time":363000000000,"state":"active","ping":76},{"user_id":98,"name":"Mr.Shpee","steam_id":76561198158701474,"connected_time":352000000000,"state":"active","ping":75},{"user_id":27,"name":"Piesel","steam_id":76561198985453063,"connected_time":5585000000000,"state":"active","ping":78},{"user_id":92,"name":"Koomikko John","steam_id":76561198350647057,"connected_time":417000000000,"state":"active","ping":72},{"user_id":76,"name":"qualiTY","steam_id":76561198011909737,"connected_time":2264000000000,"state":"active","ping":61},{"user_id":101,"name":"Spy","steam_id":76561198863963256,"connected_time":188000000000,"state":"active","ping":66},{"user_id":95,"name":"flutterravie","steam_id":76561198020935990,"connected_time":393000000000,"state":"active","ping":123},{"user_id":100,"name":"randem_","steam_id":76561198338793755,"connected_time":306000000000,"state":"active","ping":53},{"user_id":83,"name":"monocle chicken","steam_id":76561199020106029,"connected_time":1313000000000,"state":"active","ping":100},{"user_id":77,"name":"PanPatrik","steam_id":76561198293331527,"connected_time":2256000000000,"state":"active","ping":56},{"user_id":53,"name":"Tortgamer","steam_id":76561198423709756,"connected_time":4176000000000,"state":"active","ping":68},{"user_id":88,"name":"Fizik","steam_id":76561198065548086,"connected_time":552000000000,"state":"active","ping":56},{"user_id":65,"name":"Sincerelion23","steam_id":76561199467879038,"connected_time":3479000000000,"state":"active","ping":60},{"user_id":96,"name":"Reiyo the Interloper","steam_id":76561198155092485,"connected_time":390000000000,"state":"active","ping":52},{"user_id":93,"name":"penis scout","steam_id":76561198371527078,"connected_time":414000000000,"state":"active","ping":83},{"user_id":75,"name":"Tekky☻","steam_id":76561197990987315,"connected_time":2610000000000,"state":"active","ping":57},{"user_id":102,"name":"Visphiric","steam_id":76561198071938027,"connected_time":58000000000,"state":"active","ping":50},{"user_id":56,"name":"T A N G !","steam_id":76561198090481990,"connected_time":3976000000000,"state":"active","ping":75},{"user_id":90,"name":"b4ckSTARRRR","steam_id":76561198007389768,"connected_time":445000000000,"state":"active","ping":57}]},{"server_id":311,"name":"Uncletopia | Frankfurt | 6 | All Maps","name_short":"frk-6","host":"frk-1.de.uncletopia.com","port":27065,"enabled":true,"region":"eu","cc":"de","latitude":50.110924,"longitude":8.682127,"reserved":0,"last_update":"0001-01-01T00:00:00Z","name_a2s":"Uncletopia | Frankfurt | 6 | All Maps","protocol":17,"map":"pl_barnblitz","folder":"tf","game":"Team Fortress","app_id":440,"player_count":23,"max_players":24,"Bots":0,"server_type":"Dedicated","server_os":"Linux","password":true,"vac":true,"version":"7961495","steam_id":85568392924504278,"keywords":["nocrits","nodmgspread","payload","uncletopia"],"game_id":440,"stv_port":27066,"stv_name":"Uncletopia | Frankfurt | 6 | All Maps | STV","players":[{"user_id":559,"name":"GoatLord1","steam_id":76561198157964544,"connected_time":5205000000000,"state":"active","ping":61},{"user_id":598,"name":"m8","steam_id":76561198004717254,"connected_time":2757000000000,"state":"active","ping":62},{"user_id":558,"name":"Zembis","steam_id":76561198008017918,"connected_time":5232000000000,"state":"active","ping":86},{"user_id":636,"name":"Saucisse","steam_id":76561198119955969,"connected_time":38000000000,"state":"active","ping":72},{"user_id":613,"name":"spurdala","steam_id":76561198886546942,"connected_time":1889000000000,"state":"active","ping":66},{"user_id":567,"name":"Soerlssoelssöen","steam_id":76561197993060585,"connected_time":4514000000000,"state":"active","ping":68},{"user_id":622,"name":"DwarfInYou","steam_id":76561198966341795,"connected_time":1409000000000,"state":"active","ping":55},{"user_id":628,"name":"LOBZIK","steam_id":76561198114830120,"connected_time":714000000000,"state":"active","ping":77},{"user_id":599,"name":"Trank2","steam_id":76561198065225852,"connected_time":2754000000000,"state":"active","ping":43},{"user_id":616,"name":"Ketich","steam_id":76561198021772703,"connected_time":1755000000000,"state":"active","ping":72},{"user_id":630,"name":"mossad sponsored intel backdoor","steam_id":76561198071882999,"connected_time":632000000000,"state":"active","ping":76},{"user_id":627,"name":"Pilaarius","steam_id":76561198120273212,"connected_time":971000000000,"state":"active","ping":97},{"user_id":629,"name":"Hej sokoły!","steam_id":76561198406300604,"connected_time":698000000000,"state":"active","ping":176},{"user_id":611,"name":"Yeetr","steam_id":76561198322726257,"connected_time":1999000000000,"state":"active","ping":83},{"user_id":637,"name":"Doriian","steam_id":76561198071438810,"connected_time":3000000000,"state":"spawning","ping":71},{"user_id":619,"name":"laser","steam_id":76561198036030697,"connected_time":1620000000000,"state":"active","ping":59},{"user_id":635,"name":"Bobirulez","steam_id":76561198009125458,"connected_time":117000000000,"state":"active","ping":60},{"user_id":591,"name":"ScampSixteen","steam_id":76561198021771000,"connected_time":3130000000000,"state":"active","ping":68},{"user_id":603,"name":"лайфхак","steam_id":76561198320336543,"connected_time":2704000000000,"state":"active","ping":90},{"user_id":625,"name":"Delere","steam_id":76561198061309755,"connected_time":1000000000000,"state":"active","ping":130},{"user_id":607,"name":"Solymr ibn Wali Barad","steam_id":76561198044008976,"connected_time":2318000000000,"state":"active","ping":77},{"user_id":557,"name":"sareena","steam_id":76561198810194062,"connected_time":5237000000000,"state":"active","ping":82},{"user_id":610,"name":"Citler","steam_id":76561199115241703,"connected_time":2082000000000,"state":"active","ping":89}]},{"server_id":23,"name":"Uncletopia | Frankfurt | 7 | Stopwatch","name_short":"frk-7","host":"frk-1.de.uncletopia.com","port":27075,"enabled":true,"region":"eu","cc":"de","latitude":50.110924,"longitude":8.682127,"reserved":0,"last_update":"0001-01-01T00:00:00Z","name_a2s":"Uncletopia | Frankfurt | 7 | Stopwatch","protocol":17,"map":"workshop/koth_product_final.ugc454272353","folder":"tf","game":"Team Fortress","app_id":440,"player_count":14,"max_players":24,"Bots":0,"server_type":"Dedicated","server_os":"Linux","password":true,"vac":true,"version":"7961495","steam_id":85568392924742827,"keywords":["cp","nocrits","nodmgspread","uncletopia"],"game_id":440,"stv_port":27076,"stv_name":"Uncletopia | Frankfurt | 7 | Stopwatch | STV","players":[{"user_id":728,"name":"alice","steam_id":76561198269200388,"connected_time":5383000000000,"state":"active","ping":74},{"user_id":828,"name":"fam.nybye","steam_id":76561198164060152,"connected_time":48000000000,"state":"active","ping":56},{"user_id":791,"name":"greezelag","steam_id":76561198053015949,"connected_time":2287000000000,"state":"active","ping":65},{"user_id":816,"name":"Rez","steam_id":76561198410598772,"connected_time":875000000000,"state":"active","ping":44},{"user_id":829,"name":"Bill Carr","steam_id":76561198110033943,"connected_time":38000000000,"state":"active","ping":48},{"user_id":809,"name":"Spurt","steam_id":76561198078523852,"connected_time":1456000000000,"state":"active","ping":57},{"user_id":818,"name":"dinomit","steam_id":76561198208317517,"connected_time":824000000000,"state":"active","ping":70},{"user_id":821,"name":"Stan Marsh","steam_id":76561199152484286,"connected_time":800000000000,"state":"active","ping":45},{"user_id":781,"name":"F4.exe","steam_id":76561198278822807,"connected_time":2709000000000,"state":"active","ping":59},{"user_id":827,"name":"Snd","steam_id":76561198010816408,"connected_time":266000000000,"state":"active","ping":105},{"user_id":798,"name":"Bootylicious42069","steam_id":76561199380849468,"connected_time":1949000000000,"state":"active","ping":59},{"user_id":826,"name":"erenom09","steam_id":76561199017383513,"connected_time":380000000000,"state":"active","ping":91},{"user_id":805,"name":"Alice (artificial)","steam_id":76561198052410860,"connected_time":1847000000000,"state":"active","ping":140},{"user_id":825,"name":"elmstJP ₪ F4.exe","steam_id":76561197997909480,"connected_time":551000000000,"state":"active","ping":69}]},{"server_id":24,"name":"Uncletopia | Frankfurt | 8 | Community","name_short":"frk-8","host":"frk-1.de.uncletopia.com","port":27085,"enabled":true,"region":"eu","cc":"de","latitude":50.110924,"longitude":8.682127,"reserved":0,"last_update":"0001-01-01T00:00:00Z","name_a2s":"Uncletopia | Frankfurt | 8 | Community","protocol":17,"map":"workshop/cp_alloy_rc3.ugc592805587","folder":"tf","game":"Team Fortress","app_id":440,"player_count":0,"max_players":24,"Bots":0,"server_type":"Dedicated","server_os":"Linux","password":true,"vac":true,"version":"7961495","steam_id":85568392924742828,"keywords":["cp","nocrits","nodmgspread","uncletopia"],"game_id":440,"stv_port":27086,"stv_name":"Uncletopia | Frankfurt | 8 | Community | STV","players":null},{"server_id":202,"name":"Uncletopia | Hong Kong | 1 | All Maps","name_short":"hgk-1","host":"hgk-1.hk.uncletopia.com","port":27015,"enabled":true,"region":"asia","cc":"hk","latitude":22.302711,"longitude":114.177216,"reserved":0,"last_update":"0001-01-01T00:00:00Z","name_a2s":"Uncletopia | Hong Kong | 1 | All Maps","protocol":17,"map":"koth_highpass","folder":"tf","game":"Team Fortress","app_id":440,"player_count":0,"max_players":24,"Bots":0,"server_type":"Dedicated","server_os":"Linux","password":true,"vac":true,"version":"7961495","steam_id":85568392924494504,"keywords":["cp","nocrits","nodmgspread","uncletopia"],"game_id":440,"stv_port":27016,"stv_name":"Uncletopia | Hong Kong | 1 | All Maps | STV","players":null},{"server_id":1,"name":"Uncletopia | Los Angeles | 1 | All Maps","name_short":"lax-1","host":"lax-1.us.uncletopia.com","port":27015,"enabled":true,"region":"us-west","cc":"us","latitude":33.94279,"longitude":-118.41004,"reserved":0,"last_update":"0001-01-01T00:00:00Z","name_a2s":"Uncletopia | Los Angeles | 1 | All Maps","protocol":17,"map":"koth_viaduct","folder":"tf","game":"Team Fortress","app_id":440,"player_count":0,"max_players":24,"Bots":0,"server_type":"Dedicated","server_os":"Linux","password":true,"vac":true,"version":"7961495","steam_id":85568392924469991,"keywords":["cp","nocrits","nodmgspread","uncletopia"],"game_id":440,"stv_port":27016,"stv_name":"Uncletopia | Los Angeles | 1 | All Maps | STV","players":null},{"server_id":112,"name":"Uncletopia | Los Angeles | 2 | All Maps","name_short":"lax-2","host":"lax-1.us.uncletopia.com","port":27025,"enabled":true,"region":"us-west","cc":"us","latitude":33.94279,"longitude":-118.41004,"reserved":0,"last_update":"0001-01-01T00:00:00Z","name_a2s":"Uncletopia | Los Angeles | 2 | All Maps","protocol":17,"map":"pl_pier","folder":"tf","game":"Team Fortress","app_id":440,"player_count":22,"max_players":24,"Bots":0,"server_type":"Dedicated","server_os":"Linux","password":true,"vac":true,"version":"7961495","steam_id":85568392924469992,"keywords":["nocrits","nodmgspread","payload","uncletopia"],"game_id":440,"stv_port":27026,"stv_name":"Uncletopia | Los Angeles | 2 | All Maps | STV","players":[{"user_id":57,"name":"broge","steam_id":76561198110002068,"connected_time":338000000000,"state":"active","ping":45},{"user_id":55,"name":"🅜🅔🅔🅚🅢🅣🅔\ufffd\ufffd\ufffd","steam_id":76561197999748343,"connected_time":390000000000,"state":"active","ping":70},{"user_id":56,"name":"Blitzy","steam_id":76561198149472890,"connected_time":383000000000,"state":"active","ping":95},{"user_id":58,"name":"Jawbone17","steam_id":76561198043939302,"connected_time":311000000000,"state":"active","ping":74},{"user_id":69,"name":"shitass (Reaping and Sowing)","steam_id":76561198210572481,"connected_time":111000000000,"state":"active","ping":45},{"user_id":37,"name":"MonkeyMage101","steam_id":76561198354192200,"connected_time":1310000000000,"state":"active","ping":67},{"user_id":66,"name":"Wiggs is the Shiggs","steam_id":76561198078379719,"connected_time":167000000000,"state":"active","ping":59},{"user_id":43,"name":"Chad the Sex Haver","steam_id":76561198058236528,"connected_time":1054000000000,"state":"active","ping":48},{"user_id":60,"name":"Clubs","steam_id":76561198119619513,"connected_time":289000000000,"state":"active","ping":59},{"user_id":61,"name":"LerN","steam_id":76561198083463877,"connected_time":277000000000,"state":"active","ping":105},{"user_id":62,"name":"LiterallyDJ","steam_id":76561198030293743,"connected_time":270000000000,"state":"active","ping":70},{"user_id":40,"name":"Outrider","steam_id":76561198148385743,"connected_time":1154000000000,"state":"active","ping":133},{"user_id":73,"name":"Just_Do_It!","steam_id":76561199033576433,"connected_time":20000000000,"state":"spawning","ping":319},{"user_id":46,"name":"messenger zidgeon","steam_id":76561198098770013,"connected_time":782000000000,"state":"active","ping":43},{"user_id":44,"name":"1995 Cooler ranch Doritos","steam_id":76561199006526991,"connected_time":1043000000000,"state":"active","ping":46},{"user_id":63,"name":"Healing Weapons Guy","steam_id":76561198005608047,"connected_time":266000000000,"state":"active","ping":101},{"user_id":49,"name":"Dmonic Plays","steam_id":76561198006572380,"connected_time":667000000000,"state":"active","ping":115},{"user_id":72,"name":"my name jeff","steam_id":76561198179816898,"connected_time":55000000000,"state":"active","ping":130},{"user_id":53,"name":"Killer-Of-Night","steam_id":76561198054038830,"connected_time":456000000000,"state":"active","ping":67},{"user_id":65,"name":"Sgt. Screwball","steam_id":76561198307963570,"connected_time":207000000000,"state":"active","ping":71},{"user_id":70,"name":"Thicket","steam_id":76561198371066702,"connected_time":110000000000,"state":"active","ping":49},{"user_id":71,"name":"Wizard With No Mana","steam_id":76561197970938285,"connected_time":93000000000,"state":"active","ping":85}]},{"server_id":324,"name":"Uncletopia | Los Angeles | 3 | All Maps","name_short":"lax-3","host":"lax-1.us.uncletopia.com","port":27035,"enabled":true,"region":"us-west","cc":"us","latitude":33.94279,"longitude":-118.41004,"reserved":0,"last_update":"0001-01-01T00:00:00Z","name_a2s":"Uncletopia | Los Angeles | 3 | All Maps","protocol":17,"map":"pl_frontier_final","folder":"tf","game":"Team Fortress","app_id":440,"player_count":0,"max_players":24,"Bots":0,"server_type":"Dedicated","server_os":"Linux","password":true,"vac":true,"version":"7961495","steam_id":85568392924510198,"keywords":["nocrits","nodmgspread","payload","uncletopia"],"game_id":440,"stv_port":27036,"stv_name":"Uncletopia | Los Angeles | 3 | All Maps | STV","players":null},{"server_id":25,"name":"Uncletopia | Los Angeles | 4 | Stopwatch","name_short":"lax-4","host":"lax-1.us.uncletopia.com","port":27045,"enabled":true,"region":"us-west","cc":"us","latitude":33.94279,"longitude":-118.41004,"reserved":0,"last_update":"0001-01-01T00:00:00Z","name_a2s":"Uncletopia | Los Angeles | 4 | Stopwatch","protocol":17,"map":"pl_barnblitz","folder":"tf","game":"Team Fortress","app_id":440,"player_count":0,"max_players":24,"Bots":0,"server_type":"Dedicated","server_os":"Linux","password":true,"vac":true,"version":"7961495","steam_id":85568392924510199,"keywords":["nocrits","nodmgspread","payload","uncletopia"],"game_id":440,"stv_port":27046,"stv_name":"Uncletopia | Los Angeles | 4 | Stopwatch | STV","players":null},{"server_id":11,"name":"Uncletopia | London | 1 | All Maps","name_short":"lon-1","host":"lon-1.uk.uncletopia.com","port":27015,"enabled":true,"region":"eu","cc":"gb","latitude":51.509865,"longitude":-0.118092,"reserved":0,"last_update":"0001-01-01T00:00:00Z","name_a2s":"Uncletopia | London | 1 | All Maps","protocol":17,"map":"pl_barnblitz","folder":"tf","game":"Team Fortress","app_id":440,"player_count":24,"max_players":24,"Bots":0,"server_type":"Dedicated","server_os":"Linux","password":true,"vac":true,"version":"7961495","steam_id":85568392924367362,"keywords":["nocrits","nodmgspread","payload","uncletopia"],"game_id":440,"stv_port":27016,"stv_name":"Uncletopia | London | 1 | All Maps | STV","players":[{"user_id":265,"name":"lark","steam_id":76561198091724522,"connected_time":6557000000000,"state":"active","ping":58},{"user_id":329,"name":"GGabe","steam_id":76561198117199068,"connected_time":1756000000000,"state":"active","ping":68},{"user_id":340,"name":"Gorgeous George","steam_id":76561198144256544,"connected_time":155000000000,"state":"active","ping":50},{"user_id":341,"name":"Joo ♦","steam_id":76561197987609203,"connected_time":144000000000,"state":"active","ping":74},{"user_id":330,"name":"ArtuDitu303","steam_id":76561199093639498,"connected_time":1748000000000,"state":"active","ping":77},{"user_id":322,"name":"Jara.","steam_id":76561197992207165,"connected_time":1835000000000,"state":"active","ping":102},{"user_id":319,"name":"rachel aldana's massive milkers","steam_id":76561198025916703,"connected_time":1851000000000,"state":"active","ping":64},{"user_id":328,"name":"Scobra","steam_id":76561198000734400,"connected_time":1767000000000,"state":"active","ping":112},{"user_id":339,"name":"maxwilliam1705","steam_id":76561199035679156,"connected_time":261000000000,"state":"active","ping":67},{"user_id":321,"name":"Dogdigger","steam_id":76561198032893130,"connected_time":1840000000000,"state":"active","ping":95},{"user_id":335,"name":"free back real estate","steam_id":76561197999437155,"connected_time":1354000000000,"state":"active","ping":51},{"user_id":236,"name":"png.png","steam_id":76561198444446521,"connected_time":8914000000000,"state":"active","ping":110},{"user_id":314,"name":"Finem Belli","steam_id":76561198227177976,"connected_time":2378000000000,"state":"active","ping":45},{"user_id":295,"name":"kilo","steam_id":76561198015641339,"connected_time":4078000000000,"state":"active","ping":87},{"user_id":342,"name":"Greg_M74","steam_id":76561198823492311,"connected_time":106000000000,"state":"active","ping":120},{"user_id":338,"name":"Karahieb","steam_id":76561197972670214,"connected_time":514000000000,"state":"active","ping":69},{"user_id":325,"name":"ein","steam_id":76561198152162834,"connected_time":1819000000000,"state":"active","ping":106},{"user_id":336,"name":"Glowstick Muncher","steam_id":76561198066282859,"connected_time":989000000000,"state":"active","ping":45},{"user_id":343,"name":"Level","steam_id":76561198330505781,"connected_time":84000000000,"state":"active","ping":74},{"user_id":258,"name":"Rx07","steam_id":76561199013720618,"connected_time":7650000000000,"state":"active","ping":90},{"user_id":337,"name":"KnugenIV","steam_id":76561198127091993,"connected_time":586000000000,"state":"active","ping":61},{"user_id":289,"name":"Alpaca","steam_id":76561198029839079,"connected_time":4870000000000,"state":"active","ping":49},{"user_id":331,"name":"cropping","steam_id":76561198026586456,"connected_time":1709000000000,"state":"active","ping":61},{"user_id":334,"name":"GamerPanda","steam_id":76561198061454277,"connected_time":1395000000000,"state":"active","ping":74}]},{"server_id":114,"name":"Uncletopia | London | 2 | All Maps","name_short":"lon-2","host":"lon-1.uk.uncletopia.com","port":27025,"enabled":true,"region":"eu","cc":"gb","latitude":51.509865,"longitude":-0.118092,"reserved":0,"last_update":"0001-01-01T00:00:00Z","name_a2s":"Uncletopia | London | 2 | All Maps","protocol":17,"map":"koth_viaduct","folder":"tf","game":"Team Fortress","app_id":440,"player_count":20,"max_players":24,"Bots":0,"server_type":"Dedicated","server_os":"Linux","password":true,"vac":true,"version":"7961495","steam_id":85568392924470941,"keywords":["cp","nocrits","nodmgspread","uncletopia"],"game_id":440,"stv_port":27026,"stv_name":"Uncletopia | London | 2 | All Maps | STV","players":[{"user_id":87,"name":"Sodsboy","steam_id":76561198030482006,"connected_time":75000000000,"state":"active","ping":39},{"user_id":82,"name":"whyamialive","steam_id":76561199070008862,"connected_time":367000000000,"state":"active","ping":20},{"user_id":45,"name":"OOF","steam_id":76561199486823632,"connected_time":1960000000000,"state":"active","ping":72},{"user_id":40,"name":"Rummin","steam_id":76561198064739834,"connected_time":2208000000000,"state":"active","ping":56},{"user_id":88,"name":"siriusplay116","steam_id":76561199403847433,"connected_time":56000000000,"state":"active","ping":61},{"user_id":91,"name":"jerkwaterberg","steam_id":76561198134165667,"connected_time":5000000000,"state":"spawning","ping":46},{"user_id":67,"name":"Zetself","steam_id":76561198085251568,"connected_time":1350000000000,"state":"active","ping":62},{"user_id":76,"name":"☸Koala99☸","steam_id":76561198375591154,"connected_time":929000000000,"state":"active","ping":44},{"user_id":50,"name":"Dungdil","steam_id":76561198351930639,"connected_time":1862000000000,"state":"active","ping":64},{"user_id":83,"name":"Mr Gnash","steam_id":76561198007410990,"connected_time":336000000000,"state":"active","ping":59},{"user_id":84,"name":"Dromeka","steam_id":76561198963557200,"connected_time":242000000000,"state":"active","ping":57},{"user_id":78,"name":"Imperial City Guard","steam_id":76561198083355845,"connected_time":883000000000,"state":"active","ping":55},{"user_id":56,"name":"❤G a n K","steam_id":76561199125995565,"connected_time":1744000000000,"state":"active","ping":79},{"user_id":57,"name":"Arasey","steam_id":76561198996948426,"connected_time":1732000000000,"state":"active","ping":88},{"user_id":90,"name":"Zonddey","steam_id":76561198134885222,"connected_time":18000000000,"state":"spawning","ping":50},{"user_id":59,"name":"Cabanos","steam_id":76561198285337328,"connected_time":1701000000000,"state":"active","ping":65},{"user_id":79,"name":"armadillo","steam_id":76561198324656652,"connected_time":814000000000,"state":"active","ping":46},{"user_id":77,"name":"Oviraptor Supreme","steam_id":76561198044262534,"connected_time":920000000000,"state":"active","ping":155},{"user_id":65,"name":"vicente.eze2","steam_id":76561199153979429,"connected_time":1447000000000,"state":"active","ping":85},{"user_id":63,"name":"yardy","steam_id":76561198079410772,"connected_time":1643000000000,"state":"active","ping":67}]},{"server_id":320,"name":"Uncletopia | London | 3 | All Maps","name_short":"lon-3","host":"lon-1.uk.uncletopia.com","port":27035,"enabled":true,"region":"eu","cc":"gb","latitude":51.509865,"longitude":-0.118092,"reserved":0,"last_update":"0001-01-01T00:00:00Z","name_a2s":"Uncletopia | London | 3 | All Maps","protocol":17,"map":"cp_steel","folder":"tf","game":"Team Fortress","app_id":440,"player_count":23,"max_players":24,"Bots":0,"server_type":"Dedicated","server_os":"Linux","password":true,"vac":true,"version":"7961495","steam_id":85568392924510192,"keywords":["cp","nocrits","nodmgspread","uncletopia"],"game_id":440,"stv_port":27036,"stv_name":"Uncletopia | London | 3 | All Maps | STV","players":[{"user_id":14,"name":"onionmai","steam_id":76561198217786075,"connected_time":3864000000000,"state":"active","ping":62},{"user_id":102,"name":"MNKY","steam_id":76561198057125058,"connected_time":174000000000,"state":"active","ping":68},{"user_id":75,"name":"Butcher My Jokes","steam_id":76561198112720511,"connected_time":1223000000000,"state":"active","ping":54},{"user_id":72,"name":"Larry Penus","steam_id":76561198207546233,"connected_time":1447000000000,"state":"active","ping":45},{"user_id":55,"name":"cheese_man_","steam_id":76561198086617728,"connected_time":2123000000000,"state":"active","ping":57},{"user_id":104,"name":"Favi","steam_id":76561198013236935,"connected_time":3000000000,"state":"spawning","ping":65},{"user_id":76,"name":"Szeregowy LowiRyb","steam_id":76561198855967762,"connected_time":1215000000000,"state":"active","ping":101},{"user_id":92,"name":"Kowi","steam_id":76561198005872735,"connected_time":422000000000,"state":"active","ping":91},{"user_id":85,"name":"MostSereneDogeBestDoge","steam_id":76561198061196566,"connected_time":941000000000,"state":"active","ping":68},{"user_id":28,"name":"toomas2018","steam_id":76561199105796083,"connected_time":3081000000000,"state":"active","ping":75},{"user_id":84,"name":"Wobblyboyz","steam_id":76561198289356209,"connected_time":991000000000,"state":"active","ping":46},{"user_id":71,"name":"pardner","steam_id":76561198451471161,"connected_time":1459000000000,"state":"active","ping":60},{"user_id":50,"name":"sheytain01","steam_id":76561198120738825,"connected_time":2560000000000,"state":"active","ping":123},{"user_id":77,"name":"Super George","steam_id":76561197997723960,"connected_time":1190000000000,"state":"active","ping":63},{"user_id":103,"name":"French Cereal Killer :^)","steam_id":76561198084447725,"connected_time":144000000000,"state":"active","ping":45},{"user_id":93,"name":"JimblyJamblyTheWamblyMan","steam_id":76561198398540112,"connected_time":387000000000,"state":"active","ping":49},{"user_id":78,"name":"Marabosha","steam_id":76561198137599173,"connected_time":1163000000000,"state":"active","ping":114},{"user_id":89,"name":"hyvakii705","steam_id":76561198086630552,"connected_time":812000000000,"state":"active","ping":87},{"user_id":90,"name":"I have","steam_id":76561199184873889,"connected_time":805000000000,"state":"active","ping":72},{"user_id":41,"name":"ambiwalentna","steam_id":76561199010825303,"connected_time":2781000000000,"state":"active","ping":76},{"user_id":42,"name":"soder.","steam_id":76561199294336405,"connected_time":2772000000000,"state":"active","ping":100},{"user_id":46,"name":"rosepinkyfuzz","steam_id":76561198018546334,"connected_time":2623000000000,"state":"active","ping":75},{"user_id":91,"name":"Xydran","steam_id":76561198042397402,"connected_time":582000000000,"state":"active","ping":46}]},{"server_id":321,"name":"Uncletopia | London | 4 | All Maps","name_short":"lon-4","host":"lon-1.uk.uncletopia.com","port":27045,"enabled":true,"region":"eu","cc":"gb","latitude":51.509865,"longitude":-0.118092,"reserved":0,"last_update":"0001-01-01T00:00:00Z","name_a2s":"Uncletopia | London | 4 | All Maps","protocol":17,"map":"pl_badwater","folder":"tf","game":"Team Fortress","app_id":440,"player_count":24,"max_players":24,"Bots":0,"server_type":"Dedicated","server_os":"Linux","password":true,"vac":true,"version":"7961495","steam_id":85568392924510193,"keywords":["nocrits","nodmgspread","payload","uncletopia"],"game_id":440,"stv_port":27046,"stv_name":"Uncletopia | London | 4 | All Maps | STV","players":[{"user_id":432,"name":"Sonnakai","steam_id":76561198051688749,"connected_time":2172000000000,"state":"active","ping":37},{"user_id":424,"name":"- Indigo -","steam_id":76561198380193071,"connected_time":2355000000000,"state":"active","ping":92},{"user_id":451,"name":"Mastenbier","steam_id":76561199067658590,"connected_time":282000000000,"state":"active","ping":134},{"user_id":405,"name":"Surrealistic_Ganerson","steam_id":76561198029591931,"connected_time":3538000000000,"state":"active","ping":91},{"user_id":453,"name":"Praise the sun","steam_id":76561198354671849,"connected_time":203000000000,"state":"active","ping":93},{"user_id":439,"name":"Taez","steam_id":76561198261820803,"connected_time":1776000000000,"state":"active","ping":66},{"user_id":454,"name":"CampMaster49","steam_id":76561198353096926,"connected_time":94000000000,"state":"active","ping":97},{"user_id":445,"name":"Eric Catman","steam_id":76561198802117294,"connected_time":603000000000,"state":"active","ping":65},{"user_id":446,"name":"Dakeyras","steam_id":76561198057069564,"connected_time":376000000000,"state":"active","ping":99},{"user_id":444,"name":"Apollo","steam_id":76561198866054007,"connected_time":637000000000,"state":"active","ping":85},{"user_id":419,"name":"Grillem Dafoe","steam_id":76561198306874574,"connected_time":2890000000000,"state":"active","ping":62},{"user_id":431,"name":"Jack","steam_id":76561198079575891,"connected_time":2175000000000,"state":"active","ping":45},{"user_id":381,"name":"Nescio","steam_id":76561198119526760,"connected_time":5655000000000,"state":"active","ping":129},{"user_id":455,"name":"randompixel","steam_id":76561198003941207,"connected_time":91000000000,"state":"spawning","ping":40},{"user_id":406,"name":"The Subway Scientist","steam_id":76561198193757646,"connected_time":3515000000000,"state":"active","ping":45},{"user_id":442,"name":"2006 Mitsubishi Lancer","steam_id":76561198036632498,"connected_time":837000000000,"state":"active","ping":38},{"user_id":448,"name":"sAmasam","steam_id":76561198114953928,"connected_time":354000000000,"state":"active","ping":73},{"user_id":324,"name":"Ape","steam_id":76561198322703872,"connected_time":9634000000000,"state":"active","ping":70},{"user_id":403,"name":"Star Throne","steam_id":76561198132171027,"connected_time":3566000000000,"state":"active","ping":47},{"user_id":418,"name":"suna militisto","steam_id":76561198352926998,"connected_time":2923000000000,"state":"active","ping":101},{"user_id":421,"name":"A moon goose","steam_id":76561198064734905,"connected_time":2393000000000,"state":"active","ping":99},{"user_id":449,"name":"Tri-","steam_id":76561198133524794,"connected_time":349000000000,"state":"active","ping":44},{"user_id":450,"name":"funny lol pyro","steam_id":76561198069649097,"connected_time":337000000000,"state":"active","ping":64},{"user_id":412,"name":"NESS","steam_id":76561197995225318,"connected_time":3209000000000,"state":"active","ping":47}]},{"server_id":21,"name":"Uncletopia | London | 5 | All Maps","name_short":"lon-5","host":"lon-1.uk.uncletopia.com","port":27055,"enabled":true,"region":"eu","cc":"gb","latitude":51.509865,"longitude":-0.118092,"reserved":0,"last_update":"0001-01-01T00:00:00Z","name_a2s":"Uncletopia | London | 5 | All Maps","protocol":17,"map":"cp_snakewater_final1","folder":"tf","game":"Team Fortress","app_id":440,"player_count":0,"max_players":24,"Bots":0,"server_type":"Dedicated","server_os":"Linux","password":true,"vac":true,"version":"7961495","steam_id":85568392924742829,"keywords":["cp","nocrits","nodmgspread","uncletopia"],"game_id":440,"stv_port":27056,"stv_name":"Uncletopia | London | 5 | All Maps | STV","players":null},{"server_id":22,"name":"Uncletopia | London | 6 | All Maps","name_short":"lon-6","host":"lon-1.uk.uncletopia.com","port":27065,"enabled":true,"region":"eu","cc":"gb","latitude":51.509865,"longitude":-0.118092,"reserved":0,"last_update":"0001-01-01T00:00:00Z","name_a2s":"Uncletopia | London | 6 | All Maps","protocol":17,"map":"pl_swiftwater_final1","folder":"tf","game":"Team Fortress","app_id":440,"player_count":23,"max_players":24,"Bots":0,"server_type":"Dedicated","server_os":"Linux","password":true,"vac":true,"version":"7961495","steam_id":85568392924742830,"keywords":["nocrits","nodmgspread","payload","uncletopia"],"game_id":440,"stv_port":27066,"stv_name":"Uncletopia | London | 6 | All Maps | STV","players":[{"user_id":205,"name":"milo","steam_id":76561198119016918,"connected_time":10071000000000,"state":"active","ping":60},{"user_id":334,"name":"Ullr","steam_id":76561198140547483,"connected_time":390000000000,"state":"active","ping":45},{"user_id":302,"name":"average manicotti enjoyer","steam_id":76561198059535856,"connected_time":2442000000000,"state":"active","ping":162},{"user_id":238,"name":"Woman (Real)","steam_id":76561199151823932,"connected_time":7374000000000,"state":"active","ping":81},{"user_id":325,"name":"Krabs","steam_id":76561198161679477,"connected_time":694000000000,"state":"active","ping":70},{"user_id":326,"name":"SʟɪᴘEɴOʀ","steam_id":76561197967931911,"connected_time":623000000000,"state":"active","ping":108},{"user_id":301,"name":"Admiral Ackbar","steam_id":76561198131881705,"connected_time":2444000000000,"state":"active","ping":99},{"user_id":291,"name":"Jahlil D'armequanius Finglenut","steam_id":76561198855897385,"connected_time":4097000000000,"state":"active","ping":60},{"user_id":335,"name":"A literal heavy","steam_id":76561199219233587,"connected_time":150000000000,"state":"active","ping":84},{"user_id":333,"name":"Alegz","steam_id":76561198287810139,"connected_time":399000000000,"state":"active","ping":87},{"user_id":328,"name":"Lavender","steam_id":76561198151092311,"connected_time":601000000000,"state":"active","ping":51},{"user_id":323,"name":"Lensy","steam_id":76561198124442128,"connected_time":1099000000000,"state":"active","ping":47},{"user_id":289,"name":"After8","steam_id":76561198090750865,"connected_time":4126000000000,"state":"active","ping":75},{"user_id":321,"name":"Bumblebee","steam_id":76561198033551105,"connected_time":1366000000000,"state":"active","ping":72},{"user_id":309,"name":"MEDiUM","steam_id":76561198112328561,"connected_time":2404000000000,"state":"active","ping":80},{"user_id":329,"name":"♥Also Freddy♥","steam_id":76561198200934934,"connected_time":590000000000,"state":"active","ping":66},{"user_id":311,"name":"Madmario2006","steam_id":76561198298263946,"connected_time":2393000000000,"state":"active","ping":66},{"user_id":320,"name":"static","steam_id":76561198836825741,"connected_time":1445000000000,"state":"active","ping":46},{"user_id":293,"name":"cuddles","steam_id":76561198805181599,"connected_time":3683000000000,"state":"active","ping":54},{"user_id":330,"name":"gpupdate","steam_id":76561198154677956,"connected_time":589000000000,"state":"active","ping":85},{"user_id":313,"name":"Plep","steam_id":76561198840259819,"connected_time":2373000000000,"state":"active","ping":60},{"user_id":331,"name":"scoutcasper","steam_id":76561199019266022,"connected_time":586000000000,"state":"active","ping":46},{"user_id":332,"name":"Haren som har","steam_id":76561198130191090,"connected_time":586000000000,"state":"active","ping":73}]},{"server_id":40,"name":"Uncletopia | London | 7 | Stopwatch","name_short":"lon-7","host":"lon-1.uk.uncletopia.com","port":27075,"enabled":true,"region":"eu","cc":"gb","latitude":51.509865,"longitude":-0.118092,"reserved":0,"last_update":"0001-01-01T00:00:00Z","name_a2s":"Uncletopia | London | 7 | Stopwatch","protocol":17,"map":"cp_snakewater_final1","folder":"tf","game":"Team Fortress","app_id":440,"player_count":0,"max_players":24,"Bots":0,"server_type":"Dedicated","server_os":"Linux","password":true,"vac":true,"version":"7961495","steam_id":85568392924964314,"keywords":["cp","nocrits","nodmgspread","uncletopia"],"game_id":440,"stv_port":27076,"stv_name":"Uncletopia | London | 7 | Stopwatch | STV","players":null},{"server_id":41,"name":"Uncletopia | London | 8 | Community","name_short":"lon-8","host":"lon-1.uk.uncletopia.com","port":27085,"enabled":true,"region":"eu","cc":"gb","latitude":51.509865,"longitude":-0.118092,"reserved":0,"last_update":"0001-01-01T00:00:00Z","name_a2s":"Uncletopia | London | 8 | Community","protocol":17,"map":"workshop/koth_bagel_rc6.ugc2514036946","folder":"tf","game":"Team Fortress","app_id":440,"player_count":0,"max_players":24,"Bots":0,"server_type":"Dedicated","server_os":"Linux","password":true,"vac":true,"version":"7961495","steam_id":85568392924964315,"keywords":["cp","nocrits","nodmgspread","uncletopia"],"game_id":440,"stv_port":27086,"stv_name":"Uncletopia | London | 8 | Community | STV","players":null},{"server_id":300,"name":"Uncletopia | Montréal | 1 | One Thousand Uncles","name_short":"mtl-1","host":"mtl-1.ca.uncletopia.com","port":27015,"enabled":true,"region":"us-east","cc":"ca","latitude":45.50889,"longitude":-73.56167,"reserved":0,"last_update":"0001-01-01T00:00:00Z","name_a2s":"","protocol":0,"map":"","folder":"","game":"","app_id":0,"player_count":0,"max_players":0,"Bots":0,"server_type":"","server_os":"","password":false,"vac":false,"version":"","steam_id":0,"keywords":null,"game_id":0,"stv_port":0,"stv_name":"","players":null},{"server_id":301,"name":"Uncletopia | Montréal | 2 | One Thousand Uncles","name_short":"mtl-2","host":"mtl-1.ca.uncletopia.com","port":27025,"enabled":true,"region":"us-east","cc":"ca","latitude":45.50889,"longitude":-73.56167,"reserved":0,"last_update":"0001-01-01T00:00:00Z","name_a2s":"","protocol":0,"map":"","folder":"","game":"","app_id":0,"player_count":3,"max_players":0,"Bots":0,"server_type":"","server_os":"","password":false,"vac":false,"version":"","steam_id":0,"keywords":null,"game_id":0,"stv_port":0,"stv_name":"","players":[{"user_id":36,"name":"raised right hand","steam_id":76561198216758440,"connected_time":118000000000,"state":"active","ping":38},{"user_id":37,"name":"Woman Gaming","steam_id":76561198374767343,"connected_time":114000000000,"state":"active","ping":35},{"user_id":38,"name":"forklift certified","steam_id":76561199080082586,"connected_time":108000000000,"state":"active","ping":44}]},{"server_id":302,"name":"Uncletopia | Montréal | 3 | One Thousand Uncles","name_short":"mtl-3","host":"mtl-1.ca.uncletopia.com","port":27035,"enabled":true,"region":"us-east","cc":"ca","latitude":45.50889,"longitude":-73.56167,"reserved":0,"last_update":"0001-01-01T00:00:00Z","name_a2s":"","protocol":0,"map":"","folder":"","game":"","app_id":0,"player_count":2,"max_players":0,"Bots":0,"server_type":"","server_os":"","password":false,"vac":false,"version":"","steam_id":0,"keywords":null,"game_id":0,"stv_port":0,"stv_name":"","players":[{"user_id":2,"name":"Kazuma Yagami","steam_id":76561199044812516,"connected_time":3405000000000,"state":"active","ping":61},{"user_id":43,"name":"Nagloof","steam_id":76561198453060200,"connected_time":2105000000000,"state":"active","ping":148}]},{"server_id":13,"name":"Uncletopia | New York City | 1 | All Maps","name_short":"nyc-1","host":"nyc-1.us.uncletopia.com","port":27015,"enabled":true,"region":"us-east","cc":"us","latitude":40.73061,"longitude":-73.93524,"reserved":0,"last_update":"0001-01-01T00:00:00Z","name_a2s":"Uncletopia | New York City | 1 | All Maps","protocol":17,"map":"cp_gullywash_final1","folder":"tf","game":"Team Fortress","app_id":440,"player_count":24,"max_players":24,"Bots":0,"server_type":"Dedicated","server_os":"Linux","password":true,"vac":true,"version":"7961495","steam_id":85568392924469993,"keywords":["cp","nocrits","nodmgspread","uncletopia"],"game_id":440,"stv_port":27016,"stv_name":"Uncletopia | New York City | 1 | All Maps | STV","players":[{"user_id":218,"name":"booze cruiser","steam_id":76561198203395648,"connected_time":67000000000,"state":"active","ping":60},{"user_id":211,"name":"Sicko Mode (Chris Pratt Cover)","steam_id":76561198315786174,"connected_time":451000000000,"state":"active","ping":58},{"user_id":204,"name":"ancient chinese footlong","steam_id":76561198347818558,"connected_time":941000000000,"state":"active","ping":59},{"user_id":193,"name":"Ace","steam_id":76561198086172358,"connected_time":1669000000000,"state":"active","ping":42},{"user_id":205,"name":"Beta Fish","steam_id":76561198073504861,"connected_time":808000000000,"state":"active","ping":63},{"user_id":201,"name":"John Fortnite","steam_id":76561198076608253,"connected_time":1208000000000,"state":"active","ping":58},{"user_id":175,"name":"Billy Mays","steam_id":76561197998876324,"connected_time":3870000000000,"state":"active","ping":119},{"user_id":212,"name":"TacoMan","steam_id":76561198049405741,"connected_time":423000000000,"state":"active","ping":83},{"user_id":189,"name":"Cyberpunk McDonald's Play Place","steam_id":76561198063512035,"connected_time":2138000000000,"state":"active","ping":60},{"user_id":215,"name":"KZ","steam_id":76561198306669868,"connected_time":350000000000,"state":"active","ping":41},{"user_id":202,"name":"Chaotic Rushu","steam_id":76561198170054407,"connected_time":1047000000000,"state":"active","ping":71},{"user_id":208,"name":"Obelix","steam_id":76561198274715109,"connected_time":552000000000,"state":"active","ping":44},{"user_id":207,"name":"Fudgely","steam_id":76561198039425862,"connected_time":619000000000,"state":"active","ping":69},{"user_id":209,"name":"taigaxx","steam_id":76561198202669250,"connected_time":499000000000,"state":"active","ping":70},{"user_id":183,"name":"Bee","steam_id":76561198074681324,"connected_time":2545000000000,"state":"active","ping":45},{"user_id":214,"name":"Chromatic","steam_id":76561198355976286,"connected_time":408000000000,"state":"active","ping":142},{"user_id":89,"name":"Elias","steam_id":76561198106431732,"connected_time":11957000000000,"state":"active","ping":60},{"user_id":198,"name":"croops","steam_id":76561198072381885,"connected_time":1403000000000,"state":"active","ping":38},{"user_id":219,"name":"sunglasses","steam_id":76561198173747227,"connected_time":39000000000,"state":"active","ping":65},{"user_id":196,"name":"RPGnoob","steam_id":76561198384913758,"connected_time":1474000000000,"state":"active","ping":112},{"user_id":217,"name":"Skipikip","steam_id":76561198125019458,"connected_time":221000000000,"state":"active","ping":45},{"user_id":121,"name":"Naffu","steam_id":76561198036945403,"connected_time":8868000000000,"state":"active","ping":59},{"user_id":190,"name":"Grazzunk","steam_id":76561198290227691,"connected_time":2082000000000,"state":"active","ping":53},{"user_id":181,"name":"Bald Vegeta","steam_id":76561198844143746,"connected_time":2631000000000,"state":"active","ping":72}]},{"server_id":14,"name":"Uncletopia | New York City | 2 | All Maps","name_short":"nyc-2","host":"nyc-1.us.uncletopia.com","port":27025,"enabled":true,"region":"us-east","cc":"us","latitude":40.73061,"longitude":-73.93524,"reserved":0,"last_update":"0001-01-01T00:00:00Z","name_a2s":"Uncletopia | New York City | 2 | All Maps","protocol":17,"map":"pl_borneo","folder":"tf","game":"Team Fortress","app_id":440,"player_count":1,"max_players":24,"Bots":0,"server_type":"Dedicated","server_os":"Linux","password":true,"vac":true,"version":"7961495","steam_id":85568392924469994,"keywords":["nocrits","nodmgspread","payload","uncletopia"],"game_id":440,"stv_port":27026,"stv_name":"Uncletopia | New York City | 2 | All Maps | STV","players":[{"user_id":6,"name":"lucky","steam_id":76561198323426623,"connected_time":29000000000,"state":"spawning","ping":136}]},{"server_id":15,"name":"Uncletopia | New York City | 3 | Stopwatch","name_short":"nyc-3","host":"nyc-1.us.uncletopia.com","port":27035,"enabled":true,"region":"us-east","cc":"us","latitude":40.73061,"longitude":-73.93524,"reserved":0,"last_update":"0001-01-01T00:00:00Z","name_a2s":"Uncletopia | New York City | 3 | Stopwatch","protocol":17,"map":"pl_snowycoast","folder":"tf","game":"Team Fortress","app_id":440,"player_count":0,"max_players":24,"Bots":0,"server_type":"Dedicated","server_os":"Linux","password":true,"vac":true,"version":"7961495","steam_id":85568392924742820,"keywords":["nocrits","nodmgspread","payload","uncletopia"],"game_id":440,"stv_port":27036,"stv_name":"Uncletopia | New York City | 3 | Stopwatch | STV","players":null},{"server_id":16,"name":"Uncletopia | New York City | 4 | Community","name_short":"nyc-4","host":"nyc-1.us.uncletopia.com","port":27045,"enabled":true,"region":"us-east","cc":"us","latitude":40.73061,"longitude":-73.93524,"reserved":0,"last_update":"0001-01-01T00:00:00Z","name_a2s":"Uncletopia | New York City | 4 | Community","protocol":17,"map":"workshop/cp_reckoner_rc6.ugc674719999","folder":"tf","game":"Team Fortress","app_id":440,"player_count":0,"max_players":24,"Bots":0,"server_type":"Dedicated","server_os":"Linux","password":true,"vac":true,"version":"7961495","steam_id":85568392924742821,"keywords":["cp","nocrits","nodmgspread","uncletopia"],"game_id":440,"stv_port":27046,"stv_name":"Uncletopia | New York City | 4 | Community | STV","players":null},{"server_id":142,"name":"Uncletopia | São Paulo | 1 | All Maps","name_short":"sao-1","host":"sao-1.br.uncletopia.com","port":27015,"enabled":true,"region":"sa","cc":"br","latitude":-23.533773,"longitude":-46.62529,"reserved":0,"last_update":"0001-01-01T00:00:00Z","name_a2s":"Uncletopia | São Paulo | 1 | All Maps","protocol":17,"map":"koth_cascade","folder":"tf","game":"Team Fortress","app_id":440,"player_count":0,"max_players":24,"Bots":0,"server_type":"Dedicated","server_os":"Linux","password":true,"vac":true,"version":"7961495","steam_id":85568392924469996,"keywords":["cp","nocrits","nodmgspread","uncletopia"],"game_id":440,"stv_port":27016,"stv_name":"Uncletopia | São Paulo | 1 | All Maps | STV","players":null},{"server_id":143,"name":"Uncletopia | São Paulo | 2 | Community","name_short":"sao-2","host":"sao-2.br.uncletopia.com","port":27015,"enabled":true,"region":"sa","cc":"br","latitude":-23.533773,"longitude":-46.62529,"reserved":0,"last_update":"0001-01-01T00:00:00Z","name_a2s":"Uncletopia | São Paulo | 2 | Community","protocol":17,"map":"pl_badwater","folder":"tf","game":"Team Fortress","app_id":440,"player_count":0,"max_players":24,"Bots":0,"server_type":"Dedicated","server_os":"Linux","password":true,"vac":true,"version":"7961495","steam_id":85568392924485349,"keywords":["nocrits","nodmgspread","payload","uncletopia"],"game_id":440,"stv_port":27016,"stv_name":"Uncletopia | São Paulo | 2 | Community | STV","players":null},{"server_id":7,"name":"Uncletopia | Seattle | 1 | All Maps","name_short":"sea-1","host":"sea-1.us.uncletopia.com","port":27015,"enabled":true,"region":"us-west","cc":"us","latitude":47.608013,"longitude":-122.33517,"reserved":0,"last_update":"0001-01-01T00:00:00Z","name_a2s":"Uncletopia | Seattle | 1 | All Maps","protocol":17,"map":"pl_upward","folder":"tf","game":"Team Fortress","app_id":440,"player_count":24,"max_players":24,"Bots":0,"server_type":"Dedicated","server_os":"Linux","password":true,"vac":true,"version":"7961495","steam_id":85568392924469997,"keywords":["nocrits","nodmgspread","payload","uncletopia"],"game_id":440,"stv_port":27016,"stv_name":"Uncletopia | Seattle | 1 | All Maps | STV","players":[{"user_id":146,"name":"lorient","steam_id":76561198150831438,"connected_time":885000000000,"state":"active","ping":76},{"user_id":156,"name":"snowcap","steam_id":76561198344164944,"connected_time":625000000000,"state":"active","ping":68},{"user_id":136,"name":"Defragmented","steam_id":76561198854210081,"connected_time":1222000000000,"state":"active","ping":105},{"user_id":137,"name":"Spicy Chicken","steam_id":76561198074209737,"connected_time":1162000000000,"state":"active","ping":90},{"user_id":125,"name":"MxProf","steam_id":76561198044519572,"connected_time":1805000000000,"state":"active","ping":60},{"user_id":165,"name":"BlueCrue","steam_id":76561198066698869,"connected_time":3000000000,"state":"spawning","ping":82},{"user_id":114,"name":"krill your shelf","steam_id":76561198233984300,"connected_time":2156000000000,"state":"active","ping":97},{"user_id":145,"name":"Milkman","steam_id":76561199226732110,"connected_time":916000000000,"state":"active","ping":123},{"user_id":161,"name":"Lé Mon","steam_id":76561198078626283,"connected_time":184000000000,"state":"active","ping":32},{"user_id":147,"name":"Dimple","steam_id":76561198980324190,"connected_time":876000000000,"state":"active","ping":61},{"user_id":49,"name":"SeeNik","steam_id":76561198149499817,"connected_time":7077000000000,"state":"active","ping":109},{"user_id":162,"name":"Cam","steam_id":76561198139174433,"connected_time":171000000000,"state":"active","ping":84},{"user_id":160,"name":"Snoopist","steam_id":76561198144023761,"connected_time":513000000000,"state":"active","ping":89},{"user_id":149,"name":"stump","steam_id":76561198208098377,"connected_time":757000000000,"state":"active","ping":71},{"user_id":118,"name":"gyat","steam_id":76561198043684960,"connected_time":2030000000000,"state":"active","ping":130},{"user_id":150,"name":"poop","steam_id":76561198105374054,"connected_time":730000000000,"state":"active","ping":94},{"user_id":79,"name":"Drone #0432 (they/it)","steam_id":76561198027321950,"connected_time":3719000000000,"state":"active","ping":41},{"user_id":163,"name":"Qwelity2034","steam_id":76561198373542483,"connected_time":87000000000,"state":"active","ping":105},{"user_id":152,"name":"Schizo Femboy","steam_id":76561199162627150,"connected_time":709000000000,"state":"active","ping":105},{"user_id":153,"name":"Greskrendtregk","steam_id":76561197969553142,"connected_time":672000000000,"state":"active","ping":52},{"user_id":155,"name":"Toxic Medic Main (he/they)","steam_id":76561198009314845,"connected_time":657000000000,"state":"active","ping":73},{"user_id":98,"name":"Axl™","steam_id":76561198865457341,"connected_time":3047000000000,"state":"active","ping":87},{"user_id":164,"name":"Cuntent","steam_id":76561198171437211,"connected_time":80000000000,"state":"active","ping":63},{"user_id":159,"name":"mobe","steam_id":76561198121633820,"connected_time":595000000000,"state":"active","ping":74}]},{"server_id":119,"name":"Uncletopia | Seattle | 2 | All Maps","name_short":"sea-2","host":"sea-1.us.uncletopia.com","port":27025,"enabled":true,"region":"us-west","cc":"us","latitude":47.608013,"longitude":-122.33517,"reserved":0,"last_update":"0001-01-01T00:00:00Z","name_a2s":"Uncletopia | Seattle | 2 | All Maps","protocol":17,"map":"cp_snakewater_final1","folder":"tf","game":"Team Fortress","app_id":440,"player_count":0,"max_players":24,"Bots":0,"server_type":"Dedicated","server_os":"Linux","password":true,"vac":true,"version":"7961495","steam_id":85568392924469998,"keywords":["cp","nocrits","nodmgspread","uncletopia"],"game_id":440,"stv_port":27026,"stv_name":"Uncletopia | Seattle | 2 | All Maps | STV","players":null},{"server_id":406,"name":"Uncletopia | Seattle | 3 | Stopwatch","name_short":"sea-3","host":"sea-1.us.uncletopia.com","port":27035,"enabled":true,"region":"us-west","cc":"us","latitude":47.608013,"longitude":-122.33517,"reserved":0,"last_update":"0001-01-01T00:00:00Z","name_a2s":"Uncletopia | Seattle | 3 | Stopwatch","protocol":17,"map":"pl_pier","folder":"tf","game":"Team Fortress","app_id":440,"player_count":0,"max_players":24,"Bots":0,"server_type":"Dedicated","server_os":"Linux","password":true,"vac":true,"version":"7961495","steam_id":85568392924515217,"keywords":["nocrits","nodmgspread","payload","uncletopia"],"game_id":440,"stv_port":27036,"stv_name":"Uncletopia | Seattle | 3 | Stopwatch | STV","players":null},{"server_id":17,"name":"Uncletopia | San Francisco | 1 | All Maps","name_short":"sfo-1","host":"sfo-1.us.uncletopia.com","port":27015,"enabled":true,"region":"us-west","cc":"us","latitude":37.77397,"longitude":-122.4313,"reserved":0,"last_update":"0001-01-01T00:00:00Z","name_a2s":"Uncletopia | San Francisco | 1 | All Maps","protocol":17,"map":"koth_cascade","folder":"tf","game":"Team Fortress","app_id":440,"player_count":0,"max_players":24,"Bots":0,"server_type":"Dedicated","server_os":"Linux","password":true,"vac":true,"version":"7961495","steam_id":85568392924469999,"keywords":["cp","nocrits","nodmgspread","uncletopia"],"game_id":440,"stv_port":27016,"stv_name":"Uncletopia | San Francisco | 1 | All Maps | STV","players":null},{"server_id":18,"name":"Uncletopia | San Francisco | 2 | All Maps","name_short":"sfo-2","host":"sfo-1.us.uncletopia.com","port":27025,"enabled":true,"region":"us-west","cc":"us","latitude":37.77397,"longitude":-122.4313,"reserved":0,"last_update":"0001-01-01T00:00:00Z","name_a2s":"Uncletopia | San Francisco | 2 | All Maps","protocol":17,"map":"koth_viaduct","folder":"tf","game":"Team Fortress","app_id":440,"player_count":0,"max_players":24,"Bots":0,"server_type":"Dedicated","server_os":"Linux","password":true,"vac":true,"version":"7961495","steam_id":85568392924470000,"keywords":["cp","nocrits","nodmgspread","uncletopia"],"game_id":440,"stv_port":27026,"stv_name":"Uncletopia | San Francisco | 2 | All Maps | STV","players":null},{"server_id":19,"name":"Uncletopia | San Francisco | 3 | Stopwatch","name_short":"sfo-3","host":"sfo-1.us.uncletopia.com","port":27035,"enabled":true,"region":"us-west","cc":"us","latitude":37.77397,"longitude":-122.4313,"reserved":0,"last_update":"0001-01-01T00:00:00Z","name_a2s":"Uncletopia | San Francisco | 3 | Stopwatch","protocol":17,"map":"pl_pier","folder":"tf","game":"Team Fortress","app_id":440,"player_count":0,"max_players":24,"Bots":0,"server_type":"Dedicated","server_os":"Linux","password":true,"vac":true,"version":"7961495","steam_id":85568392924742824,"keywords":["nocrits","nodmgspread","payload","uncletopia"],"game_id":440,"stv_port":27036,"stv_name":"Uncletopia | San Francisco | 3 | Stopwatch | STV","players":null},{"server_id":20,"name":"Uncletopia | San Francisco | 4 | Community","name_short":"sfo-4","host":"sfo-1.us.uncletopia.com","port":27045,"enabled":true,"region":"us-west","cc":"us","latitude":37.77397,"longitude":-122.4313,"reserved":0,"last_update":"0001-01-01T00:00:00Z","name_a2s":"Uncletopia | San Francisco | 4 | Community","protocol":17,"map":"pl_pier","folder":"tf","game":"Team Fortress","app_id":440,"player_count":0,"max_players":24,"Bots":0,"server_type":"Dedicated","server_os":"Linux","password":true,"vac":true,"version":"7961495","steam_id":85568392924742826,"keywords":["nocrits","nodmgspread","payload","uncletopia"],"game_id":440,"stv_port":27046,"stv_name":"Uncletopia | San Francisco | 4 | Community | STV","players":null},{"server_id":141,"name":"Uncletopia | Sydney | 1 | All Maps","name_short":"syd-1","host":"syd-1.au.uncletopia.com","port":27015,"enabled":true,"region":"au","cc":"au","latitude":-33.865143,"longitude":151.2099,"reserved":0,"last_update":"0001-01-01T00:00:00Z","name_a2s":"Uncletopia | Sydney | 1 | All Maps","protocol":17,"map":"cp_altitude","folder":"tf","game":"Team Fortress","app_id":440,"player_count":0,"max_players":24,"Bots":0,"server_type":"Dedicated","server_os":"Linux","password":true,"vac":true,"version":"7961495","steam_id":85568392924470001,"keywords":["cp","nocrits","nodmgspread","uncletopia"],"game_id":440,"stv_port":27016,"stv_name":"Uncletopia | Sydney | 1 | All Maps | STV","players":null},{"server_id":123,"name":"Uncletopia | Sydney | 2 | All Maps","name_short":"syd-2","host":"syd-1.au.uncletopia.com","port":27025,"enabled":true,"region":"au","cc":"au","latitude":-33.865143,"longitude":151.2099,"reserved":0,"last_update":"0001-01-01T00:00:00Z","name_a2s":"Uncletopia | Sydney | 2 | All Maps","protocol":17,"map":"ctf_well","folder":"tf","game":"Team Fortress","app_id":440,"player_count":0,"max_players":24,"Bots":0,"server_type":"Dedicated","server_os":"Linux","password":true,"vac":true,"version":"7961495","steam_id":85568392924470002,"keywords":["ctf","nocrits","nodmgspread","uncletopia"],"game_id":440,"stv_port":27026,"stv_name":"Uncletopia | Sydney | 2 | All Maps | STV","players":null},{"server_id":395,"name":"Uncletopia | Sydney | 3 | All Maps","name_short":"syd-3","host":"syd-1.au.uncletopia.com","port":27035,"enabled":true,"region":"au","cc":"au","latitude":-33.865143,"longitude":151.2099,"reserved":0,"last_update":"0001-01-01T00:00:00Z","name_a2s":"Uncletopia | Sydney | 3 | All Maps","protocol":17,"map":"pl_snowycoast","folder":"tf","game":"Team Fortress","app_id":440,"player_count":0,"max_players":24,"Bots":0,"server_type":"Dedicated","server_os":"Linux","password":true,"vac":true,"version":"7961495","steam_id":85568392925194467,"keywords":["nocrits","nodmgspread","payload","uncletopia"],"game_id":440,"stv_port":27036,"stv_name":"Uncletopia | Sydney | 3 | All Maps | STV","players":null},{"server_id":396,"name":"Uncletopia | Sydney | 4 | All Maps","name_short":"syd-4","host":"syd-1.au.uncletopia.com","port":27045,"enabled":true,"region":"au","cc":"au","latitude":-33.865143,"longitude":151.2099,"reserved":0,"last_update":"0001-01-01T00:00:00Z","name_a2s":"Uncletopia | Sydney | 4 | All Maps","protocol":17,"map":"koth_highpass","folder":"tf","game":"Team Fortress","app_id":440,"player_count":0,"max_players":24,"Bots":0,"server_type":"Dedicated","server_os":"Linux","password":true,"vac":true,"version":"7961495","steam_id":85568392925397958,"keywords":["cp","nocrits","nodmgspread","uncletopia"],"game_id":440,"stv_port":27046,"stv_name":"Uncletopia | Sydney | 4 | All Maps | STV","players":null},{"server_id":58,"name":"Uncletopia | Sydney | 5 | Stopwatch","name_short":"syd-5","host":"syd-1.au.uncletopia.com","port":27055,"enabled":true,"region":"au","cc":"au","latitude":-33.865143,"longitude":151.2099,"reserved":0,"last_update":"0001-01-01T00:00:00Z","name_a2s":"Uncletopia | Sydney | 5 | Stopwatch","protocol":17,"map":"koth_highpass","folder":"tf","game":"Team Fortress","app_id":440,"player_count":0,"max_players":24,"Bots":0,"server_type":"Dedicated","server_os":"Linux","password":true,"vac":true,"version":"7961495","steam_id":85568392925397959,"keywords":["cp","nocrits","nodmgspread","uncletopia"],"game_id":440,"stv_port":27056,"stv_name":"Uncletopia | Sydney | 5 | Stopwatch | STV","players":null},{"server_id":59,"name":"Uncletopia | Sydney | 6 | Community","name_short":"syd-6","host":"syd-1.au.uncletopia.com","port":27065,"enabled":true,"region":"au","cc":"au","latitude":-33.865143,"longitude":151.2099,"reserved":0,"last_update":"0001-01-01T00:00:00Z","name_a2s":"Uncletopia | Sydney | 6 | Community","protocol":17,"map":"workshop/cp_mannbase_rc2a.ugc1900737467","folder":"tf","game":"Team Fortress","app_id":440,"player_count":0,"max_players":24,"Bots":0,"server_type":"Dedicated","server_os":"Linux","password":true,"vac":true,"version":"7961495","steam_id":85568392925397960,"keywords":["cp","nocrits","nodmgspread","uncletopia"],"game_id":440,"stv_port":27066,"stv_name":"Uncletopia | Sydney | 6 | Community | STV","players":null},{"server_id":49,"name":"Uncletopia | Warsaw | 1 | One Thousand Uncles","name_short":"waw-1","host":"waw-1.pl.uncletopia.com","port":27015,"enabled":true,"region":"eu","cc":"pl","latitude":52.2297,"longitude":21.017532,"reserved":0,"last_update":"0001-01-01T00:00:00Z","name_a2s":"Uncletopia | Warsaw | 1 | One Thousand Uncles","protocol":17,"map":"cp_dustbowl","folder":"tf","game":"Team Fortress","app_id":440,"player_count":21,"max_players":32,"Bots":16,"server_type":"Dedicated","server_os":"Linux","password":true,"vac":true,"version":"7961495","steam_id":85568392925397850,"keywords":["alltalk","bots","cp","danepve","increased_maxplayers","nocrits","norespawntime","uncletopia"],"game_id":440,"stv_port":0,"stv_name":"","players":[{"user_id":536,"name":"Nuq","steam_id":76561198067257865,"connected_time":89000000000,"state":"active","ping":44},{"user_id":533,"name":"Rohnus","steam_id":76561198074049934,"connected_time":545000000000,"state":"active","ping":77},{"user_id":534,"name":"Max Power","steam_id":76561198019269089,"connected_time":491000000000,"state":"active","ping":61},{"user_id":531,"name":"Pepefuckurmom","steam_id":76561199467404806,"connected_time":1012000000000,"state":"active","ping":70},{"user_id":524,"name":"Soya Suki","steam_id":76561197998106435,"connected_time":2231000000000,"state":"active","ping":61}]},{"server_id":50,"name":"Uncletopia | Warsaw | 2 | One Thousand Uncles","name_short":"waw-2","host":"waw-1.pl.uncletopia.com","port":27025,"enabled":true,"region":"eu","cc":"pl","latitude":52.2297,"longitude":21.017532,"reserved":0,"last_update":"0001-01-01T00:00:00Z","name_a2s":"Uncletopia | Warsaw | 2 | One Thousand Uncles","protocol":17,"map":"pl_badwater","folder":"tf","game":"Team Fortress","app_id":440,"player_count":28,"max_players":32,"Bots":16,"server_type":"Dedicated","server_os":"Linux","password":true,"vac":true,"version":"7961495","steam_id":85568392925397851,"keywords":["alltalk","bots","danepve","increased_maxplayers","nocrits","norespawntime","payload","uncletopia"],"game_id":440,"stv_port":0,"stv_name":"","players":[{"user_id":241,"name":"who_dis?","steam_id":76561199156798560,"connected_time":2418000000000,"state":"active","ping":187},{"user_id":271,"name":"Nicco","steam_id":76561199471411794,"connected_time":760000000000,"state":"active","ping":66},{"user_id":245,"name":"nikitos_zabiv","steam_id":76561199369454039,"connected_time":1620000000000,"state":"active","ping":51},{"user_id":272,"name":"capetanunito","steam_id":76561199364524852,"connected_time":582000000000,"state":"active","ping":101},{"user_id":147,"name":"Peanut","steam_id":76561198018865486,"connected_time":10535000000000,"state":"active","ping":75},{"user_id":202,"name":"FinnishGuy","steam_id":76561198155380452,"connected_time":6346000000000,"state":"active","ping":91},{"user_id":278,"name":"Kretes","steam_id":76561198982786431,"connected_time":277000000000,"state":"active","ping":44},{"user_id":279,"name":"Beetroot","steam_id":76561199129082091,"connected_time":253000000000,"state":"active","ping":189},{"user_id":282,"name":"KoalaKangur","steam_id":76561198453916491,"connected_time":102000000000,"state":"active","ping":44},{"user_id":244,"name":"Palamaris plokamias","steam_id":76561198844867460,"connected_time":1877000000000,"state":"active","ping":90},{"user_id":273,"name":"The Muffin Man","steam_id":76561198131063481,"connected_time":558000000000,"state":"active","ping":96},{"user_id":200,"name":"I.C. Wiener","steam_id":76561197999912254,"connected_time":6498000000000,"state":"active","ping":55}]},{"server_id":51,"name":"Uncletopia | Warsaw | 3 | All Maps","name_short":"waw-3","host":"waw-1.pl.uncletopia.com","port":27035,"enabled":true,"region":"eu","cc":"pl","latitude":52.2297,"longitude":21.017532,"reserved":0,"last_update":"0001-01-01T00:00:00Z","name_a2s":"Uncletopia | Warsaw | 3 | All Maps","protocol":17,"map":"cp_process_final","folder":"tf","game":"Team Fortress","app_id":440,"player_count":23,"max_players":24,"Bots":0,"server_type":"Dedicated","server_os":"Linux","password":true,"vac":true,"version":"7961495","steam_id":85568392925397852,"keywords":["cp","nocrits","nodmgspread","uncletopia"],"game_id":440,"stv_port":27036,"stv_name":"Uncletopia | Warsaw | 3 | All Maps | STV","players":[{"user_id":13,"name":"♦nudzeku♦","steam_id":76561199196336940,"connected_time":3400000000000,"state":"active","ping":65},{"user_id":65,"name":"Columban","steam_id":76561199202258284,"connected_time":459000000000,"state":"active","ping":75},{"user_id":56,"name":"Lodi","steam_id":76561198369597903,"connected_time":1249000000000,"state":"active","ping":94},{"user_id":48,"name":"Vaffeljarn","steam_id":76561198151060365,"connected_time":1540000000000,"state":"active","ping":74},{"user_id":53,"name":"Tengen","steam_id":76561199356990346,"connected_time":1308000000000,"state":"active","ping":112},{"user_id":68,"name":"carbuzz","steam_id":76561198129361580,"connected_time":193000000000,"state":"active","ping":60},{"user_id":20,"name":"elliot5","steam_id":76561198068209094,"connected_time":2454000000000,"state":"active","ping":53},{"user_id":21,"name":"Chrissy","steam_id":76561198044046367,"connected_time":2442000000000,"state":"active","ping":130},{"user_id":33,"name":"Master Of Noob","steam_id":76561198217926783,"connected_time":2014000000000,"state":"active","ping":76},{"user_id":51,"name":"M2rtRa","steam_id":76561198111036466,"connected_time":1405000000000,"state":"active","ping":89},{"user_id":52,"name":"Portal2Player","steam_id":76561198062870114,"connected_time":1375000000000,"state":"active","ping":184},{"user_id":44,"name":"Mébh Óg MacTíre","steam_id":76561198346399624,"connected_time":1777000000000,"state":"active","ping":42},{"user_id":70,"name":"Rock..","steam_id":76561198004641963,"connected_time":126000000000,"state":"active","ping":75},{"user_id":34,"name":"Venenakki","steam_id":76561198311526482,"connected_time":2008000000000,"state":"active","ping":78},{"user_id":66,"name":"Lemonade in my eyes","steam_id":76561198338129578,"connected_time":345000000000,"state":"active","ping":63},{"user_id":50,"name":"Mr. Plutonium","steam_id":76561198324173178,"connected_time":1492000000000,"state":"active","ping":69},{"user_id":71,"name":"Slowest hands in the west","steam_id":76561199286764992,"connected_time":122000000000,"state":"active","ping":45},{"user_id":67,"name":"FISHTANK.LIVE__________________","steam_id":76561199293036742,"connected_time":312000000000,"state":"active","ping":72},{"user_id":37,"name":"TylowStar","steam_id":76561198357107806,"connected_time":1952000000000,"state":"active","ping":79},{"user_id":55,"name":"Dictatorial Karelian","steam_id":76561198196736457,"connected_time":1260000000000,"state":"active","ping":90},{"user_id":57,"name":"Papi Juan","steam_id":76561199033908321,"connected_time":1243000000000,"state":"active","ping":75},{"user_id":59,"name":"Egor Pomidor","steam_id":76561199175688390,"connected_time":1204000000000,"state":"active","ping":95},{"user_id":62,"name":"Ëmprëss★Cåkyヅ","steam_id":76561198174621178,"connected_time":905000000000,"state":"active","ping":76}]},{"server_id":52,"name":"Uncletopia | Warsaw | 4 | All Maps","name_short":"waw-4","host":"waw-1.pl.uncletopia.com","port":27045,"enabled":true,"region":"eu","cc":"pl","latitude":52.2297,"longitude":21.017532,"reserved":0,"last_update":"0001-01-01T00:00:00Z","name_a2s":"Uncletopia | Warsaw | 4 | All Maps","protocol":17,"map":"cp_gorge","folder":"tf","game":"Team Fortress","app_id":440,"player_count":0,"max_players":24,"Bots":0,"server_type":"Dedicated","server_os":"Linux","password":true,"vac":true,"version":"7961495","steam_id":85568392925397853,"keywords":["cp","nocrits","nodmgspread","uncletopia"],"game_id":440,"stv_port":27046,"stv_name":"Uncletopia | Warsaw | 4 | All Maps | STV","players":null},{"server_id":53,"name":"Uncletopia | Warsaw | 5 | Stopwatch","name_short":"waw-5","host":"waw-1.pl.uncletopia.com","port":27055,"enabled":true,"region":"eu","cc":"pl","latitude":52.2297,"longitude":21.017532,"reserved":0,"last_update":"0001-01-01T00:00:00Z","name_a2s":"Uncletopia | Warsaw | 5 | Stopwatch","protocol":17,"map":"workshop/koth_bagel_rc6.ugc2514036946","folder":"tf","game":"Team Fortress","app_id":440,"player_count":0,"max_players":24,"Bots":0,"server_type":"Dedicated","server_os":"Linux","password":true,"vac":true,"version":"7961495","steam_id":85568392925397854,"keywords":["cp","nocrits","nodmgspread","uncletopia"],"game_id":440,"stv_port":27056,"stv_name":"Uncletopia | Warsaw | 5 | Stopwatch | STV","players":null},{"server_id":54,"name":"Uncletopia | Warsaw | 6 | Community","name_short":"waw-6","host":"waw-1.pl.uncletopia.com","port":27065,"enabled":true,"region":"eu","cc":"pl","latitude":52.2297,"longitude":21.017532,"reserved":0,"last_update":"0001-01-01T00:00:00Z","name_a2s":"Uncletopia | Warsaw | 6 | Community","protocol":17,"map":"workshop/koth_trenchfoot_ab1.ugc731436616","folder":"tf","game":"Team Fortress","app_id":440,"player_count":2,"max_players":24,"Bots":0,"server_type":"Dedicated","server_os":"Linux","password":true,"vac":true,"version":"7961495","steam_id":85568392925397856,"keywords":["cp","nocrits","nodmgspread","uncletopia"],"game_id":440,"stv_port":27066,"stv_name":"Uncletopia | Warsaw | 6 | Community | STV","players":[{"user_id":9,"name":"keperson","steam_id":76561199209621895,"connected_time":355000000000,"state":"active","ping":36},{"user_id":11,"name":"[AIMBOT] Pioter","steam_id":76561199120350598,"connected_time":306000000000,"state":"active","ping":32}]}]}