{"status":true,"message":"","result":[{"server_id":9,"name":"Uncletopia | Atlanta | 1 | All Maps","name_short":"atl-1","host":"atl-1.us.uncletopia.com","port":27015,"enabled":true,"region":"us-east","cc":"us","latitude":33.753746,"longitude":-84.38633,"reserved":0,"last_update":"0001-01-01T00:00:00Z","name_a2s":"Uncletopia | Atlanta | 1 | All Maps","protocol":17,"map":"pl_frontier_final","folder":"tf","game":"Team Fortress","app_id":440,"player_count":24,"max_players":24,"Bots":0,"server_type":"Dedicated","server_os":"Linux","password":true,"vac":true,"version":"7757534","steam_id":85568392924469982,"keywords":["nocrits","nodmgspread","payload","uncletopia"],"game_id":440,"stv_port":27016,"stv_name":"Uncletopia | Atlanta | 1 | All Maps | STV","players":[{"user_id":277,"name":"Jackleg Joel","steam_id":76561198271636476,"connected_time":3818000000000,"state":"active","ping":147},{"user_id":320,"name":"vid_","steam_id":76561198065159053,"connected_time":1055000000000,"state":"active","ping":57},{"user_id":229,"name":"Karma","steam_id":76561198030565234,"connected_time":8141000000000,"state":"active","ping":75},{"user_id":311,"name":"MyamE","steam_id":76561198133278462,"connected_time":1484000000000,"state":"active","ping":71},{"user_id":290,"name":"thomasdee725","steam_id":76561199189526173,"connected_time":2736000000000,"state":"active","ping":113},{"user_id":322,"name":"ATLS1 | p4ka","steam_id":76561198315291317,"connected_time":986000000000,"state":"active","ping":66},{"user_id":330,"name":"ATLS1 | Krissy","steam_id":76561197960848174,"connected_time":358000000000,"state":"active","ping":63},{"user_id":323,"name":"dakota__","steam_id":76561198076596506,"connected_time":975000000000,"state":"active","ping":89},{"user_id":279,"name":"Master Of Whales","steam_id":76561198349104889,"connected_time":3805000000000,"state":"active","ping":106},{"user_id":325,"name":"jer bear","steam_id":76561198025559073,"connected_time":821000000000,"state":"active","ping":90},{"user_id":291,"name":"G_Bob","steam_id":76561198098133233,"connected_time":2183000000000,"state":"active","ping":59},{"user_id":304,"name":"Kaluka","steam_id":76561198036861445,"connected_time":1700000000000,"state":"active","ping":63},{"user_id":297,"name":"rustyorion","steam_id":76561198439186347,"connected_time":1947000000000,"state":"active","ping":115},{"user_id":300,"name":"ferretgamer","steam_id":76561198880523320,"connected_time":1752000000000,"state":"active","ping":79},{"user_id":319,"name":"Karate","steam_id":76561198352187445,"connected_time":1192000000000,"state":"active","ping":67},{"user_id":305,"name":"GoldtoothFour","steam_id":76561198055529332,"connected_time":1688000000000,"state":"active","ping":77},{"user_id":326,"name":"LightBulbGlue #SaveTF2","steam_id":76561198329573529,"connected_time":812000000000,"state":"active","ping":88},{"user_id":331,"name":"Jukebox","steam_id":76561198044541359,"connected_time":276000000000,"state":"active","ping":84},{"user_id":307,"name":"TheTruthOfTheCessationOfDukkha","steam_id":76561198214370515,"connected_time":1670000000000,"state":"active","ping":70},{"user_id":267,"name":"lil hog","steam_id":76561199230929836,"connected_time":4611000000000,"state":"active","ping":78},{"user_id":329,"name":"ash","steam_id":76561198127890645,"connected_time":404000000000,"state":"active","ping":65},{"user_id":309,"name":"Dr. Strangelove","steam_id":76561198014593467,"connected_time":1649000000000,"state":"active","ping":41},{"user_id":266,"name":"BIG HOG","steam_id":76561198079923652,"connected_time":5127000000000,"state":"active","ping":74},{"user_id":328,"name":"stevie one-million","steam_id":76561198243965308,"connected_time":747000000000,"state":"active","ping":62}]},{"server_id":400,"name":"Uncletopia | Atlanta | 3 | Community","name_short":"atl-3","host":"atl-1.us.uncletopia.com","port":27035,"enabled":true,"region":"us-east","cc":"us","latitude":33.753746,"longitude":-84.38633,"reserved":0,"last_update":"0001-01-01T00:00:00Z","name_a2s":"Uncletopia | Atlanta | 3 | Community","protocol":17,"map":"workshop/cp_overgrown_rc7b.ugc503939302","folder":"tf","game":"Team Fortress","app_id":440,"player_count":0,"max_players":32,"Bots":0,"server_type":"Dedicated","server_os":"Linux","password":true,"vac":true,"version":"7757534","steam_id":85568392924515187,"keywords":["cp","increased_maxplayers","nocrits","nodmgspread","uncletopia"],"game_id":440,"stv_port":27036,"stv_name":"Uncletopia | Atlanta | 3 | Community | STV","players":null},{"server_id":401,"name":"Uncletopia | Atlanta | 4 | No Payload","name_short":"atl-4","host":"atl-1.us.uncletopia.com","port":27045,"enabled":true,"region":"us-east","cc":"us","latitude":33.753746,"longitude":-84.38633,"reserved":0,"last_update":"0001-01-01T00:00:00Z","name_a2s":"","protocol":0,"map":"","folder":"","game":"","app_id":0,"player_count":0,"max_players":0,"Bots":0,"server_type":"","server_os":"","password":false,"vac":false,"version":"","steam_id":0,"keywords":null,"game_id":0,"stv_port":0,"stv_name":"","players":null},{"server_id":2,"name":"Uncletopia | Chicago | 1 | All Maps","name_short":"chi-1","host":"chi-1.us.uncletopia.com","port":27015,"enabled":true,"region":"us-central","cc":"us","latitude":41.881832,"longitude":-87.62318,"reserved":0,"last_update":"0001-01-01T00:00:00Z","name_a2s":"Uncletopia | Chicago | 1 | All Maps","protocol":17,"map":"cp_sunshine","folder":"tf","game":"Team Fortress","app_id":440,"player_count":24,"max_players":24,"Bots":0,"server_type":"Dedicated","server_os":"Linux","password":true,"vac":true,"version":"7757534","steam_id":85568392924469984,"keywords":["cp","nocrits","nodmgspread","uncletopia"],"game_id":440,"stv_port":27016,"stv_name":"Uncletopia | Chicago | 1 | All Maps | STV","players":[{"user_id":658,"name":"Toash","steam_id":76561199345403106,"connected_time":492000000000,"state":"active","ping":71},{"user_id":649,"name":"Recursive Gamer","steam_id":76561198042102952,"connected_time":983000000000,"state":"active","ping":60},{"user_id":656,"name":"phanton","steam_id":76561198320847207,"connected_time":565000000000,"state":"active","ping":62},{"user_id":638,"name":"SlippyPunk","steam_id":76561198048551455,"connected_time":1569000000000,"state":"active","ping":85},{"user_id":613,"name":"Friendly Scientist","steam_id":76561198158938889,"connected_time":3203000000000,"state":"active","ping":111},{"user_id":640,"name":"ly","steam_id":76561198062922146,"connected_time":1502000000000,"state":"active","ping":75},{"user_id":654,"name":"MayTheFennec","steam_id":76561198859299567,"connected_time":711000000000,"state":"active","ping":77},{"user_id":657,"name":"silentpieceofbacon","steam_id":76561198869323351,"connected_time":514000000000,"state":"active","ping":68},{"user_id":634,"name":"samantha","steam_id":76561198299290069,"connected_time":2108000000000,"state":"active","ping":76},{"user_id":642,"name":"Jailbreak","steam_id":76561198802085218,"connected_time":1490000000000,"state":"active","ping":76},{"user_id":659,"name":"dave strider","steam_id":76561198065112186,"connected_time":483000000000,"state":"active","ping":72},{"user_id":644,"name":"Funny Skeleton Man","steam_id":76561198264262564,"connected_time":1483000000000,"state":"active","ping":76},{"user_id":660,"name":"Candy Sparkles","steam_id":76561198126871264,"connected_time":480000000000,"state":"active","ping":84},{"user_id":572,"name":"chloe","steam_id":76561198369849908,"connected_time":6901000000000,"state":"active","ping":75},{"user_id":600,"name":"jstn","steam_id":76561198845283665,"connected_time":4324000000000,"state":"active","ping":74},{"user_id":648,"name":"rontu","steam_id":76561199072955534,"connected_time":1368000000000,"state":"active","ping":54},{"user_id":595,"name":"Brown_Dream","steam_id":76561198975766145,"connected_time":4382000000000,"state":"active","ping":86},{"user_id":609,"name":"Eden","steam_id":76561198075587475,"connected_time":4233000000000,"state":"active","ping":43},{"user_id":645,"name":"6t26j","steam_id":76561198278282836,"connected_time":1444000000000,"state":"active","ping":59},{"user_id":583,"name":"Killerkarate","steam_id":76561198067533929,"connected_time":5835000000000,"state":"active","ping":57},{"user_id":652,"name":"Waddluigi","steam_id":76561198181328519,"connected_time":869000000000,"state":"active","ping":67},{"user_id":661,"name":"Decs","steam_id":76561198825197974,"connected_time":282000000000,"state":"active","ping":130},{"user_id":647,"name":"▲▼▲ Paul Atreideeznuts","steam_id":76561198015714075,"connected_time":1427000000000,"state":"active","ping":88},{"user_id":663,"name":"All Tomorrow's Parties","steam_id":76561197995936212,"connected_time":54000000000,"state":"active","ping":45}]},{"server_id":106,"name":"Uncletopia | Chicago | 2 | All Maps","name_short":"chi-2","host":"chi-1.us.uncletopia.com","port":27025,"enabled":true,"region":"us-central","cc":"us","latitude":41.881832,"longitude":-87.62318,"reserved":0,"last_update":"0001-01-01T00:00:00Z","name_a2s":"Uncletopia | Chicago | 2 | All Maps","protocol":17,"map":"pl_borneo","folder":"tf","game":"Team Fortress","app_id":440,"player_count":24,"max_players":24,"Bots":0,"server_type":"Dedicated","server_os":"Linux","password":true,"vac":true,"version":"7757534","steam_id":85568392924469985,"keywords":["nocrits","nodmgspread","payload","uncletopia"],"game_id":440,"stv_port":27026,"stv_name":"Uncletopia | Chicago | 2 | All Maps | STV","players":[{"user_id":112,"name":"jrdoran","steam_id":76561197984753094,"connected_time":1022000000000,"state":"active","ping":54},{"user_id":96,"name":"golem","steam_id":76561198355040593,"connected_time":2243000000000,"state":"active","ping":77},{"user_id":94,"name":"NOLSEY","steam_id":76561198108959504,"connected_time":2270000000000,"state":"active","ping":49},{"user_id":103,"name":"Crunchy","steam_id":76561198060342804,"connected_time":2110000000000,"state":"active","ping":79},{"user_id":98,"name":"avantime","steam_id":76561199203175541,"connected_time":2222000000000,"state":"active","ping":87},{"user_id":118,"name":"Donkski","steam_id":76561198406895347,"connected_time":168000000000,"state":"active","ping":68},{"user_id":116,"name":"helpless slave to biology","steam_id":76561198110046630,"connected_time":793000000000,"state":"active","ping":45},{"user_id":36,"name":"Medic GF","steam_id":76561198400531556,"connected_time":5768000000000,"state":"active","ping":61},{"user_id":84,"name":"⊰Aero⊱","steam_id":76561198084648457,"connected_time":3008000000000,"state":"active","ping":62},{"user_id":38,"name":"RowdyCJ11","steam_id":76561198088929792,"connected_time":5766000000000,"state":"active","ping":46},{"user_id":45,"name":"fallacy","steam_id":76561198057374871,"connected_time":5617000000000,"state":"active","ping":61},{"user_id":99,"name":"K4le","steam_id":76561198747668363,"connected_time":2218000000000,"state":"active","ping":111},{"user_id":117,"name":"generic_heavy.mdl","steam_id":76561198392255493,"connected_time":348000000000,"state":"active","ping":100},{"user_id":121,"name":"Bocchi the Rock","steam_id":76561198025668771,"connected_time":58000000000,"state":"active","ping":136},{"user_id":104,"name":"xiphoidar","steam_id":76561198146044049,"connected_time":2059000000000,"state":"active","ping":72},{"user_id":109,"name":"Y","steam_id":76561198251665862,"connected_time":1556000000000,"state":"active","ping":102},{"user_id":48,"name":"Biosock Infiknit","steam_id":76561198072693794,"connected_time":5599000000000,"state":"active","ping":52},{"user_id":49,"name":"hack fraud","steam_id":76561198015036066,"connected_time":5582000000000,"state":"active","ping":99},{"user_id":67,"name":"StarCopper","steam_id":76561198024890295,"connected_time":4377000000000,"state":"active","ping":84},{"user_id":72,"name":"[El Fail] MR.BadassMCLee","steam_id":76561198043787818,"connected_time":3966000000000,"state":"active","ping":122},{"user_id":101,"name":"Bandit","steam_id":76561198328421159,"connected_time":2207000000000,"state":"active","ping":61},{"user_id":78,"name":"Pohnut","steam_id":76561198087831690,"connected_time":3636000000000,"state":"active","ping":149},{"user_id":111,"name":"Superman123389","steam_id":76561198267472539,"connected_time":1182000000000,"state":"active","ping":94},{"user_id":79,"name":"h20verdrive","steam_id":76561198115957085,"connected_time":3602000000000,"state":"active","ping":95}]},{"server_id":402,"name":"Uncletopia | Chicago | 3 | All Maps","name_short":"chi-3","host":"chi-1.us.uncletopia.com","port":27035,"enabled":true,"region":"us-central","cc":"us","latitude":41.881832,"longitude":-87.62318,"reserved":0,"last_update":"0001-01-01T00:00:00Z","name_a2s":"Uncletopia | Chicago | 3 | All Maps","protocol":17,"map":"pl_upward","folder":"tf","game":"Team Fortress","app_id":440,"player_count":23,"max_players":24,"Bots":0,"server_type":"Dedicated","server_os":"Linux","password":true,"vac":true,"version":"7757534","steam_id":85568392924515191,"keywords":["nocrits","nodmgspread","payload","uncletopia"],"game_id":440,"stv_port":27036,"stv_name":"Uncletopia | Chicago | 3 | All Maps | STV","players":[{"user_id":141,"name":"old birb man","steam_id":76561199410269097,"connected_time":917000000000,"state":"active","ping":130},{"user_id":109,"name":"Owl Pacino","steam_id":76561197979970666,"connected_time":3132000000000,"state":"active","ping":56},{"user_id":156,"name":"the meta","steam_id":76561199071495058,"connected_time":367000000000,"state":"active","ping":56},{"user_id":157,"name":"BluCoffee","steam_id":76561198214995967,"connected_time":341000000000,"state":"active","ping":53},{"user_id":125,"name":"Universal Knowledge Allah","steam_id":76561198855935442,"connected_time":2444000000000,"state":"active","ping":74},{"user_id":158,"name":"ReliableSoup","steam_id":76561199012909908,"connected_time":330000000000,"state":"active","ping":57},{"user_id":102,"name":"THESHITRIPPER","steam_id":76561198063099828,"connected_time":3789000000000,"state":"active","ping":51},{"user_id":151,"name":"Bread Baker","steam_id":76561198185335103,"connected_time":605000000000,"state":"active","ping":52},{"user_id":30,"name":"Mr_Frosty","steam_id":76561199380389079,"connected_time":8375000000000,"state":"active","ping":104},{"user_id":127,"name":"lukamine","steam_id":76561198166827208,"connected_time":2343000000000,"state":"active","ping":90},{"user_id":162,"name":"Alan","steam_id":76561198281442409,"connected_time":13000000000,"state":"spawning","ping":44},{"user_id":144,"name":"Sir Iasis","steam_id":76561198035666760,"connected_time":846000000000,"state":"active","ping":65},{"user_id":110,"name":"sibling bane","steam_id":76561198196769297,"connected_time":3111000000000,"state":"active","ping":57},{"user_id":133,"name":"marilyn","steam_id":76561198096738991,"connected_time":2002000000000,"state":"active","ping":87},{"user_id":163,"name":"TheConchinator","steam_id":76561199388149092,"connected_time":1000000000,"state":"spawning","ping":28},{"user_id":160,"name":"meppy","steam_id":76561198141359549,"connected_time":214000000000,"state":"active","ping":61},{"user_id":106,"name":"Wild_Rumpus","steam_id":76561198066393719,"connected_time":3362000000000,"state":"active","ping":75},{"user_id":99,"name":"captainskullet","steam_id":76561198314597170,"connected_time":3883000000000,"state":"active","ping":67},{"user_id":136,"name":"BobSoup89","steam_id":76561198908566221,"connected_time":1689000000000,"state":"active","ping":74},{"user_id":146,"name":"gabagool","steam_id":76561198012131766,"connected_time":751000000000,"state":"active","ping":53},{"user_id":140,"name":"Sup m8","steam_id":76561198081659121,"connected_time":1088000000000,"state":"active","ping":60},{"user_id":155,"name":"Super","steam_id":76561199179611350,"connected_time":523000000000,"state":"active","ping":69},{"user_id":67,"name":"Training Arc","steam_id":76561198038832034,"connected_time":6688000000000,"state":"active","ping":105}]},{"server_id":403,"name":"Uncletopia | Chicago | 4 | All Maps","name_short":"chi-4","host":"chi-1.us.uncletopia.com","port":27045,"enabled":true,"region":"us-central","cc":"us","latitude":41.881832,"longitude":-87.62318,"reserved":0,"last_update":"0001-01-01T00:00:00Z","name_a2s":"Uncletopia | Chicago | 4 | All Maps","protocol":17,"map":"pl_upward","folder":"tf","game":"Team Fortress","app_id":440,"player_count":24,"max_players":24,"Bots":0,"server_type":"Dedicated","server_os":"Linux","password":true,"vac":true,"version":"7757534","steam_id":85568392924515193,"keywords":["nocrits","nodmgspread","payload","uncletopia"],"game_id":440,"stv_port":27046,"stv_name":"Uncletopia | Chicago | 4 | All Maps | STV","players":[{"user_id":8,"name":"theduckgoesmoo","steam_id":76561198232695752,"connected_time":3760000000000,"state":"active","ping":70},{"user_id":53,"name":"Bacon Stripper","steam_id":76561198012828731,"connected_time":460000000000,"state":"active","ping":48},{"user_id":10,"name":"ZeR01206","steam_id":76561198980510227,"connected_time":3757000000000,"state":"active","ping":64},{"user_id":11,"name":"eX0-kriller","steam_id":76561198141350706,"connected_time":3753000000000,"state":"active","ping":139},{"user_id":12,"name":"Umbrex","steam_id":76561198804359810,"connected_time":3750000000000,"state":"active","ping":88},{"user_id":36,"name":"ARE WE HAVING FUN YET","steam_id":76561198028572994,"connected_time":2650000000000,"state":"active","ping":46},{"user_id":14,"name":"Crimson","steam_id":76561198129326627,"connected_time":3735000000000,"state":"active","ping":73},{"user_id":15,"name":"Armoured Bear","steam_id":76561198081552558,"connected_time":3725000000000,"state":"active","ping":175},{"user_id":62,"name":"fortnite slurp juice","steam_id":76561198139091532,"connected_time":338000000000,"state":"active","ping":65},{"user_id":54,"name":"ChipE","steam_id":76561198137146627,"connected_time":448000000000,"state":"active","ping":104},{"user_id":19,"name":"Fun Police","steam_id":76561198267520577,"connected_time":3664000000000,"state":"active","ping":92},{"user_id":20,"name":"Spy TF2","steam_id":76561198824209727,"connected_time":3625000000000,"state":"active","ping":184},{"user_id":65,"name":"lfty","steam_id":76561198283841707,"connected_time":34000000000,"state":"active","ping":67},{"user_id":57,"name":"Huntpk","steam_id":76561198340591674,"connected_time":427000000000,"state":"active","ping":42},{"user_id":23,"name":"landon","steam_id":76561198854364921,"connected_time":3432000000000,"state":"active","ping":107},{"user_id":64,"name":"ZofoJackson","steam_id":76561197998366861,"connected_time":127000000000,"state":"active","ping":46},{"user_id":58,"name":"Peepster","steam_id":76561198297854733,"connected_time":422000000000,"state":"active","ping":77},{"user_id":59,"name":"creeeeeee","steam_id":76561198392539722,"connected_time":408000000000,"state":"active","ping":85},{"user_id":45,"name":"wheres my drink?","steam_id":76561198031675881,"connected_time":1875000000000,"state":"active","ping":70},{"user_id":63,"name":"Colonel Chikara","steam_id":76561198010021087,"connected_time":296000000000,"state":"active","ping":87},{"user_id":40,"name":"RyInc","steam_id":76561198874261643,"connected_time":2413000000000,"state":"active","ping":48},{"user_id":49,"name":"Honda CBR1000RR Fireblade SP 1","steam_id":76561198849559239,"connected_time":1076000000000,"state":"active","ping":107},{"user_id":43,"name":"Orange Juice","steam_id":76561198287860804,"connected_time":2029000000000,"state":"active","ping":75},{"user_id":35,"name":"Cherry Juice","steam_id":76561198366570108,"connected_time":2696000000000,"state":"active","ping":64}]},{"server_id":36,"name":"Uncletopia | Chicago | 5 | All Maps","name_short":"chi-5","host":"chi-2.us.uncletopia.com","port":27015,"enabled":true,"region":"us-central","cc":"us","latitude":41.881832,"longitude":-87.62318,"reserved":0,"last_update":"0001-01-01T00:00:00Z","name_a2s":"Uncletopia | Chicago | 5 | All Maps","protocol":17,"map":"pl_upward","folder":"tf","game":"Team Fortress","app_id":440,"player_count":23,"max_players":24,"Bots":0,"server_type":"Dedicated","server_os":"Linux","password":true,"vac":true,"version":"7757534","steam_id":85568392924866362,"keywords":["nocrits","nodmgspread","payload","uncletopia"],"game_id":440,"stv_port":27016,"stv_name":"Uncletopia | Chicago | 5 | All Maps | STV","players":[{"user_id":168,"name":"Trolldier 76","steam_id":76561198036504161,"connected_time":1560000000000,"state":"active","ping":126},{"user_id":109,"name":"Fresh0c0","steam_id":76561198271933283,"connected_time":5437000000000,"state":"active","ping":53},{"user_id":177,"name":"Petey","steam_id":76561198007339151,"connected_time":721000000000,"state":"active","ping":89},{"user_id":186,"name":"Kickpuncher","steam_id":76561198121528357,"connected_time":75000000000,"state":"active","ping":74},{"user_id":182,"name":"FiddyFoMike","steam_id":76561198057072581,"connected_time":489000000000,"state":"active","ping":92},{"user_id":137,"name":"Poison Ivy","steam_id":76561198072384574,"connected_time":3863000000000,"state":"active","ping":53},{"user_id":176,"name":"Grandpa Baozhai","steam_id":76561198086667725,"connected_time":835000000000,"state":"active","ping":105},{"user_id":179,"name":"Quibbli","steam_id":76561199214866732,"connected_time":590000000000,"state":"active","ping":63},{"user_id":139,"name":"koompa_stomp","steam_id":76561198073081735,"connected_time":3517000000000,"state":"active","ping":101},{"user_id":143,"name":"Wyodu","steam_id":76561198406237593,"connected_time":3142000000000,"state":"active","ping":164},{"user_id":135,"name":"Michaelpc1","steam_id":76561198088365519,"connected_time":4145000000000,"state":"active","ping":79},{"user_id":155,"name":"Nickolai9","steam_id":76561198035759401,"connected_time":2601000000000,"state":"active","ping":65},{"user_id":185,"name":"Jaydyn","steam_id":76561198140326797,"connected_time":200000000000,"state":"active","ping":81},{"user_id":151,"name":"Alfonso Molestro","steam_id":76561197998677099,"connected_time":2891000000000,"state":"active","ping":70},{"user_id":156,"name":"worlds richest man","steam_id":76561198028272797,"connected_time":2566000000000,"state":"active","ping":63},{"user_id":110,"name":"Weak","steam_id":76561198857135096,"connected_time":5429000000000,"state":"active","ping":75},{"user_id":136,"name":"Detonator Dave","steam_id":76561198138221795,"connected_time":4085000000000,"state":"active","ping":74},{"user_id":180,"name":"Coolshroomish","steam_id":76561199109440924,"connected_time":547000000000,"state":"active","ping":88},{"user_id":188,"name":"punished_kong","steam_id":76561198973620882,"connected_time":37000000000,"state":"active","ping":86},{"user_id":163,"name":"Adalwolfa","steam_id":76561198194671218,"connected_time":2041000000000,"state":"active","ping":52},{"user_id":167,"name":"HomyachiK","steam_id":76561198272480377,"connected_time":1783000000000,"state":"active","ping":155},{"user_id":178,"name":"Wheat","steam_id":76561198106270789,"connected_time":719000000000,"state":"active","ping":60},{"user_id":129,"name":"Doppelpunkt","steam_id":76561198102137730,"connected_time":4452000000000,"state":"active","ping":49}]},{"server_id":37,"name":"Uncletopia | Chicago | 6 | All Maps","name_short":"chi-6","host":"chi-2.us.uncletopia.com","port":27025,"enabled":true,"region":"us-central","cc":"us","latitude":41.881832,"longitude":-87.62318,"reserved":0,"last_update":"0001-01-01T00:00:00Z","name_a2s":"Uncletopia | Chicago | 6 | All Maps","protocol":17,"map":"pl_upward","folder":"tf","game":"Team Fortress","app_id":440,"player_count":4,"max_players":24,"Bots":0,"server_type":"Dedicated","server_os":"Linux","password":true,"vac":true,"version":"7757534","steam_id":85568392924866363,"keywords":["nocrits","nodmgspread","payload","uncletopia"],"game_id":440,"stv_port":27026,"stv_name":"Uncletopia | Chicago | 6 | All Maps | STV","players":[{"user_id":7,"name":"glacier!!","steam_id":76561198980301310,"connected_time":3330000000000,"state":"spawning","ping":91},{"user_id":9,"name":"Mxple.","steam_id":76561199165140868,"connected_time":2747000000000,"state":"spawning","ping":188},{"user_id":16,"name":"catrinaisahuman","steam_id":76561198281355729,"connected_time":9000000000,"state":"spawning","ping":122},{"user_id":12,"name":"braisoruel","steam_id":76561198946498774,"connected_time":1019000000000,"state":"spawning","ping":74}]},{"server_id":38,"name":"Uncletopia | Chicago | 7 | Stopwatch Beta","name_short":"chi-7","host":"chi-2.us.uncletopia.com","port":27035,"enabled":true,"region":"us-central","cc":"us","latitude":41.881832,"longitude":-87.62318,"reserved":0,"last_update":"0001-01-01T00:00:00Z","name_a2s":"Uncletopia | Chicago | 7 | Stopwatch Beta","protocol":17,"map":"pl_upward","folder":"tf","game":"Team Fortress","app_id":440,"player_count":0,"max_players":24,"Bots":0,"server_type":"Dedicated","server_os":"Linux","password":true,"vac":true,"version":"7757534","steam_id":85568392924866364,"keywords":["nocrits","nodmgspread","payload","uncletopia"],"game_id":440,"stv_port":27036,"stv_name":"Uncletopia | Chicago | 7 | Stopwatch Beta | STV","players":null},{"server_id":39,"name":"Uncletopia | Chicago | 8 | Community","name_short":"chi-8","host":"chi-2.us.uncletopia.com","port":27045,"enabled":true,"region":"us-central","cc":"us","latitude":41.881832,"longitude":-87.62318,"reserved":0,"last_update":"0001-01-01T00:00:00Z","name_a2s":"Uncletopia | Chicago | 8 | Community","protocol":17,"map":"pl_barnblitz","folder":"tf","game":"Team Fortress","app_id":440,"player_count":0,"max_players":24,"Bots":0,"server_type":"Dedicated","server_os":"Linux","password":true,"vac":true,"version":"7757534","steam_id":85568392924866365,"keywords":["nocrits","nodmgspread","payload","uncletopia"],"game_id":440,"stv_port":27046,"stv_name":"Uncletopia | Chicago | 8 | Community | STV","players":null},{"server_id":8,"name":"Uncletopia | Dallas | 1 | All Maps","name_short":"dal-1","host":"dal-1.us.uncletopia.com","port":27015,"enabled":true,"region":"us-central","cc":"us","latitude":32.779167,"longitude":-96.80889,"reserved":0,"last_update":"0001-01-01T00:00:00Z","name_a2s":"Uncletopia | Dallas | 1 | All Maps","protocol":17,"map":"cp_dustbowl","folder":"tf","game":"Team Fortress","app_id":440,"player_count":24,"max_players":24,"Bots":0,"server_type":"Dedicated","server_os":"Linux","password":true,"vac":true,"version":"7757534","steam_id":85568392924469986,"keywords":["cp","nocrits","nodmgspread","uncletopia"],"game_id":440,"stv_port":27016,"stv_name":"Uncletopia | Dallas | 1 | All Maps | STV","players":[{"user_id":293,"name":"Blind_Lark","steam_id":76561198094495235,"connected_time":218000000000,"state":"active","ping":108},{"user_id":169,"name":"Huell Howser","steam_id":76561198006387337,"connected_time":6427000000000,"state":"active","ping":75},{"user_id":297,"name":"Lucretiel","steam_id":76561197983490423,"connected_time":142000000000,"state":"active","ping":100},{"user_id":235,"name":"Imrgrim","steam_id":76561198135866481,"connected_time":2786000000000,"state":"active","ping":68},{"user_id":294,"name":"gretchling","steam_id":76561198046111695,"connected_time":174000000000,"state":"active","ping":57},{"user_id":84,"name":"ShinGojirabrYT","steam_id":76561199199037141,"connected_time":10960000000000,"state":"active","ping":162},{"user_id":270,"name":"LeFunnyMan","steam_id":76561199081645289,"connected_time":1269000000000,"state":"active","ping":54},{"user_id":302,"name":"CherryPie","steam_id":76561198046230902,"connected_time":95000000000,"state":"active","ping":104},{"user_id":300,"name":"rustyfloofs","steam_id":76561199241064467,"connected_time":112000000000,"state":"active","ping":83},{"user_id":268,"name":"damiankiller1243","steam_id":76561198868885090,"connected_time":1324000000000,"state":"active","ping":68},{"user_id":301,"name":"Dragonsofdra","steam_id":76561198253369292,"connected_time":106000000000,"state":"active","ping":78},{"user_id":296,"name":"Boone","steam_id":76561198398931575,"connected_time":165000000000,"state":"active","ping":96},{"user_id":274,"name":"Zoot","steam_id":76561198004398296,"connected_time":1231000000000,"state":"active","ping":66},{"user_id":290,"name":"Falleax","steam_id":76561198021154908,"connected_time":379000000000,"state":"active","ping":59},{"user_id":303,"name":"ballitcher303","steam_id":76561198087092000,"connected_time":78000000000,"state":"active","ping":86},{"user_id":291,"name":"Shichinitzi","steam_id":76561198003833732,"connected_time":378000000000,"state":"active","ping":60},{"user_id":257,"name":"Broadsword","steam_id":76561198011160411,"connected_time":2131000000000,"state":"active","ping":84},{"user_id":239,"name":"boppetson","steam_id":76561198073529045,"connected_time":2773000000000,"state":"active","ping":85},{"user_id":304,"name":"el penis","steam_id":76561199389283507,"connected_time":70000000000,"state":"active","ping":116},{"user_id":275,"name":"Mellou","steam_id":76561198212048740,"connected_time":1220000000000,"state":"active","ping":52},{"user_id":276,"name":"The Moose","steam_id":76561199002758063,"connected_time":1204000000000,"state":"active","ping":80},{"user_id":288,"name":"Kirbothebrony","steam_id":76561198971911330,"connected_time":426000000000,"state":"active","ping":74},{"user_id":284,"name":"Grand Piano Tuna","steam_id":76561198135137213,"connected_time":1116000000000,"state":"active","ping":62},{"user_id":305,"name":"BabyBARKing","steam_id":76561198362318243,"connected_time":62000000000,"state":"active","ping":113}]},{"server_id":108,"name":"Uncletopia | Dallas | 2 | All Maps","name_short":"dal-2","host":"dal-1.us.uncletopia.com","port":27025,"enabled":true,"region":"us-central","cc":"us","latitude":32.779167,"longitude":-96.80889,"reserved":0,"last_update":"0001-01-01T00:00:00Z","name_a2s":"Uncletopia | Dallas | 2 | All Maps","protocol":17,"map":"koth_lakeside_final","folder":"tf","game":"Team Fortress","app_id":440,"player_count":0,"max_players":24,"Bots":0,"server_type":"Dedicated","server_os":"Linux","password":true,"vac":true,"version":"7757534","steam_id":85568392924469988,"keywords":["cp","nocrits","nodmgspread","uncletopia"],"game_id":440,"stv_port":27026,"stv_name":"Uncletopia | Dallas | 2 | All Maps | STV","players":null},{"server_id":5,"name":"Uncletopia | Frankfurt | 1 | All Maps","name_short":"frk-1","host":"frk-1.de.uncletopia.com","port":27015,"enabled":true,"region":"eu","cc":"de","latitude":50.110924,"longitude":8.682127,"reserved":0,"last_update":"0001-01-01T00:00:00Z","name_a2s":"Uncletopia | Frankfurt | 1 | All Maps","protocol":17,"map":"cp_dustbowl","folder":"tf","game":"Team Fortress","app_id":440,"player_count":24,"max_players":24,"Bots":0,"server_type":"Dedicated","server_os":"Linux","password":true,"vac":true,"version":"7757534","steam_id":85568392924469989,"keywords":["cp","nocrits","nodmgspread","uncletopia"],"game_id":440,"stv_port":27016,"stv_name":"Uncletopia | Frankfurt | 1 | All Maps | STV","players":[{"user_id":549,"name":"sacha","steam_id":76561198098065932,"connected_time":185000000000,"state":"active","ping":50},{"user_id":551,"name":"jaydenastacio2020","steam_id":76561199470685197,"connected_time":96000000000,"state":"active","ping":137},{"user_id":521,"name":"Vitamin Weee","steam_id":76561199183937747,"connected_time":3188000000000,"state":"active","ping":87},{"user_id":547,"name":"DM_Tiz","steam_id":76561198061478257,"connected_time":297000000000,"state":"active","ping":48},{"user_id":532,"name":"Anri Okita's Massive Milkers","steam_id":76561199186352720,"connected_time":1702000000000,"state":"active","ping":71},{"user_id":533,"name":"Zogg","steam_id":76561198352683491,"connected_time":1666000000000,"state":"active","ping":52},{"user_id":536,"name":"Пес Патрон","steam_id":76561198273199378,"connected_time":1408000000000,"state":"active","ping":63},{"user_id":520,"name":"MrMedic","steam_id":76561199239610052,"connected_time":3292000000000,"state":"active","ping":85},{"user_id":543,"name":"shed theory","steam_id":76561198308279567,"connected_time":909000000000,"state":"active","ping":47},{"user_id":430,"name":"Pestdoktor","steam_id":76561198058159271,"connected_time":9234000000000,"state":"active","ping":68},{"user_id":472,"name":"darktheif54","steam_id":76561198043650119,"connected_time":6983000000000,"state":"active","ping":65},{"user_id":527,"name":"paguro","steam_id":76561198119560871,"connected_time":2449000000000,"state":"active","ping":68},{"user_id":546,"name":"ender45","steam_id":76561198840955715,"connected_time":333000000000,"state":"active","ping":55},{"user_id":439,"name":"EdSuedi","steam_id":76561199387956486,"connected_time":8295000000000,"state":"active","ping":50},{"user_id":431,"name":"Miss Bari","steam_id":76561198365286092,"connected_time":9203000000000,"state":"active","ping":53},{"user_id":505,"name":"Mach |=|20BB|)","steam_id":76561198952487564,"connected_time":4610000000000,"state":"active","ping":77},{"user_id":550,"name":"Purple Pajamas","steam_id":76561199174310124,"connected_time":171000000000,"state":"active","ping":156},{"user_id":537,"name":"akela","steam_id":76561198122010232,"connected_time":1359000000000,"state":"active","ping":66},{"user_id":523,"name":"ghost","steam_id":76561198189940229,"connected_time":3023000000000,"state":"active","ping":58},{"user_id":538,"name":"Bobo","steam_id":76561198052308399,"connected_time":1340000000000,"state":"active","ping":56},{"user_id":548,"name":"Ben UFO","steam_id":76561198001648348,"connected_time":258000000000,"state":"active","ping":61},{"user_id":432,"name":"LarsInABox","steam_id":76561198028329262,"connected_time":8947000000000,"state":"active","ping":75},{"user_id":540,"name":"Delcup","steam_id":76561199006338376,"connected_time":1231000000000,"state":"active","ping":122},{"user_id":541,"name":"im red","steam_id":76561199087284519,"connected_time":1014000000000,"state":"active","ping":69}]},{"server_id":110,"name":"Uncletopia | Frankfurt | 2 | All Maps","name_short":"frk-2","host":"frk-1.de.uncletopia.com","port":27025,"enabled":true,"region":"eu","cc":"de","latitude":50.110924,"longitude":8.682127,"reserved":0,"last_update":"0001-01-01T00:00:00Z","name_a2s":"Uncletopia | Frankfurt | 2 | All Maps","protocol":17,"map":"cp_process_final","folder":"tf","game":"Team Fortress","app_id":440,"player_count":10,"max_players":24,"Bots":0,"server_type":"Dedicated","server_os":"Linux","password":true,"vac":true,"version":"7757534","steam_id":85568392924469990,"keywords":["cp","nocrits","nodmgspread","uncletopia"],"game_id":440,"stv_port":27026,"stv_name":"Uncletopia | Frankfurt | 2 | All Maps | STV","players":[{"user_id":589,"name":"s a i","steam_id":76561197970379754,"connected_time":6071000000000,"state":"active","ping":53},{"user_id":665,"name":"Ann1ck","steam_id":76561198361129190,"connected_time":116000000000,"state":"active","ping":141},{"user_id":659,"name":"peter dangling","steam_id":76561198864327475,"connected_time":997000000000,"state":"active","ping":51},{"user_id":654,"name":"Aesthetic Alcoholism","steam_id":76561198044418968,"connected_time":1090000000000,"state":"active","ping":46},{"user_id":660,"name":"Cranjis McBasketball","steam_id":76561198051290193,"connected_time":815000000000,"state":"active","ping":55},{"user_id":655,"name":"demps","steam_id":76561198049405872,"connected_time":1088000000000,"state":"active","ping":36},{"user_id":662,"name":"_SniP_","steam_id":76561199188398280,"connected_time":613000000000,"state":"active","ping":69},{"user_id":635,"name":"fuze","steam_id":76561198018757672,"connected_time":2085000000000,"state":"active","ping":75},{"user_id":606,"name":"zak","steam_id":76561197998895428,"connected_time":4311000000000,"state":"active","ping":59},{"user_id":630,"name":"sHIFTINGvORTEX","steam_id":76561198231648332,"connected_time":2563000000000,"state":"active","ping":71}]},{"server_id":308,"name":"Uncletopia | Frankfurt | 3 | All Maps","name_short":"frk-3","host":"frk-1.de.uncletopia.com","port":27035,"enabled":true,"region":"eu","cc":"de","latitude":50.110924,"longitude":8.682127,"reserved":0,"last_update":"0001-01-01T00:00:00Z","name_a2s":"Uncletopia | Frankfurt | 3 | All Maps","protocol":17,"map":"cp_altitude","folder":"tf","game":"Team Fortress","app_id":440,"player_count":2,"max_players":24,"Bots":0,"server_type":"Dedicated","server_os":"Linux","password":true,"vac":true,"version":"7757534","steam_id":85568392924504274,"keywords":["cp","nocrits","nodmgspread","uncletopia"],"game_id":440,"stv_port":27036,"stv_name":"Uncletopia | Frankfurt | 3 | All Maps | STV","players":[{"user_id":731,"name":"Mr. Potato the 11th","steam_id":76561198163246758,"connected_time":1575000000000,"state":"active","ping":54},{"user_id":732,"name":"cal1254","steam_id":76561198444669794,"connected_time":1557000000000,"state":"active","ping":46}]},{"server_id":309,"name":"Uncletopia | Frankfurt | 4 | All Maps","name_short":"frk-4","host":"frk-1.de.uncletopia.com","port":27045,"enabled":true,"region":"eu","cc":"de","latitude":50.110924,"longitude":8.682127,"reserved":0,"last_update":"0001-01-01T00:00:00Z","name_a2s":"Uncletopia | Frankfurt | 4 | All Maps","protocol":17,"map":"pl_pier","folder":"tf","game":"Team Fortress","app_id":440,"player_count":24,"max_players":24,"Bots":0,"server_type":"Dedicated","server_os":"Linux","password":true,"vac":true,"version":"7757534","steam_id":85568392924504275,"keywords":["nocrits","nodmgspread","payload","uncletopia"],"game_id":440,"stv_port":27046,"stv_name":"Uncletopia | Frankfurt | 4 | All Maps | STV","players":[{"user_id":519,"name":"i always miss","steam_id":76561199379233899,"connected_time":1531000000000,"state":"active","ping":85},{"user_id":527,"name":"ChickyCoop","steam_id":76561199072983488,"connected_time":1100000000000,"state":"active","ping":79},{"user_id":515,"name":"Fran","steam_id":76561199070516960,"connected_time":1862000000000,"state":"active","ping":63},{"user_id":517,"name":"doctor amongus","steam_id":76561199096919345,"connected_time":1588000000000,"state":"active","ping":82},{"user_id":529,"name":"pizzaboob","steam_id":76561198097507847,"connected_time":970000000000,"state":"active","ping":66},{"user_id":542,"name":"♥ TRANS RIGHTS ♥","steam_id":76561198066258544,"connected_time":431000000000,"state":"active","ping":45},{"user_id":522,"name":"Nice!","steam_id":76561199230709660,"connected_time":1436000000000,"state":"active","ping":54},{"user_id":528,"name":"Ches subtly into Pizzaboo","steam_id":76561198067204908,"connected_time":1042000000000,"state":"active","ping":65},{"user_id":533,"name":"rat performance","steam_id":76561198065854668,"connected_time":627000000000,"state":"active","ping":56},{"user_id":534,"name":"joe","steam_id":76561198026484403,"connected_time":588000000000,"state":"active","ping":72},{"user_id":484,"name":"Welder","steam_id":76561198355300561,"connected_time":4236000000000,"state":"active","ping":66},{"user_id":544,"name":"Dr. No Name","steam_id":76561198058656869,"connected_time":168000000000,"state":"active","ping":142},{"user_id":523,"name":"another shit day","steam_id":76561199042470246,"connected_time":1432000000000,"state":"active","ping":50},{"user_id":537,"name":"Noob_with_source","steam_id":76561198870362103,"connected_time":548000000000,"state":"active","ping":60},{"user_id":524,"name":"ObamaRunEsports","steam_id":76561199102715720,"connected_time":1385000000000,"state":"active","ping":90},{"user_id":477,"name":"jawbreaker","steam_id":76561198134746536,"connected_time":4743000000000,"state":"active","ping":74},{"user_id":540,"name":"slnc","steam_id":76561198041151496,"connected_time":530000000000,"state":"active","ping":67},{"user_id":498,"name":"Sentry Man","steam_id":76561198088417596,"connected_time":3523000000000,"state":"active","ping":63},{"user_id":541,"name":"VES_Typh00n","steam_id":76561198120826847,"connected_time":485000000000,"state":"active","ping":70},{"user_id":525,"name":"SynthBox3","steam_id":76561199094075745,"connected_time":1351000000000,"state":"active","ping":104},{"user_id":538,"name":"Femboypawnguy","steam_id":76561198274894771,"connected_time":546000000000,"state":"active","ping":54},{"user_id":526,"name":"\u003eSix in swedish + y","steam_id":76561198372971096,"connected_time":1347000000000,"state":"active","ping":81},{"user_id":480,"name":"Luna","steam_id":76561199140738350,"connected_time":4570000000000,"state":"active","ping":61},{"user_id":539,"name":"astigmatic","steam_id":76561199103959197,"connected_time":542000000000,"state":"active","ping":87}]},{"server_id":310,"name":"Uncletopia | Frankfurt | 5 | All Maps","name_short":"frk-5","host":"frk-1.de.uncletopia.com","port":27055,"enabled":true,"region":"eu","cc":"de","latitude":50.110924,"longitude":8.682127,"reserved":0,"last_update":"0001-01-01T00:00:00Z","name_a2s":"Uncletopia | Frankfurt | 5 | All Maps","protocol":17,"map":"koth_viaduct","folder":"tf","game":"Team Fortress","app_id":440,"player_count":0,"max_players":24,"Bots":0,"server_type":"Dedicated","server_os":"Linux","password":true,"vac":true,"version":"7757534","steam_id":85568392924504277,"keywords":["cp","nocrits","nodmgspread","uncletopia"],"game_id":440,"stv_port":27056,"stv_name":"Uncletopia | Frankfurt | 5 | All Maps | STV","players":null},{"server_id":311,"name":"Uncletopia | Frankfurt | 6 | All Maps","name_short":"frk-6","host":"frk-1.de.uncletopia.com","port":27065,"enabled":true,"region":"eu","cc":"de","latitude":50.110924,"longitude":8.682127,"reserved":0,"last_update":"0001-01-01T00:00:00Z","name_a2s":"Uncletopia | Frankfurt | 6 | All Maps","protocol":17,"map":"cp_dustbowl","folder":"tf","game":"Team Fortress","app_id":440,"player_count":0,"max_players":24,"Bots":0,"server_type":"Dedicated","server_os":"Linux","password":true,"vac":true,"version":"7757534","steam_id":85568392924504278,"keywords":["cp","nocrits","nodmgspread","uncletopia"],"game_id":440,"stv_port":27066,"stv_name":"Uncletopia | Frankfurt | 6 | All Maps | STV","players":null},{"server_id":23,"name":"Uncletopia | Frankfurt | 7 | Stopwatch Beta","name_short":"frk-7","host":"frk-1.de.uncletopia.com","port":27075,"enabled":true,"region":"eu","cc":"de","latitude":50.110924,"longitude":8.682127,"reserved":0,"last_update":"0001-01-01T00:00:00Z","name_a2s":"Uncletopia | Frankfurt | 7 | Stopwatch Beta","protocol":17,"map":"pl_frontier_final","folder":"tf","game":"Team Fortress","app_id":440,"player_count":0,"max_players":24,"Bots":0,"server_type":"Dedicated","server_os":"Linux","password":true,"vac":true,"version":"7757534","steam_id":85568392924742827,"keywords":["nocrits","nodmgspread","payload","uncletopia"],"game_id":440,"stv_port":27076,"stv_name":"Uncletopia | Frankfurt | 7 | Stopwatch Beta | STV","players":null},{"server_id":24,"name":"Uncletopia | Frankfurt | 8 | Community","name_short":"frk-8","host":"frk-1.de.uncletopia.com","port":27085,"enabled":true,"region":"eu","cc":"de","latitude":50.110924,"longitude":8.682127,"reserved":0,"last_update":"0001-01-01T00:00:00Z","name_a2s":"Uncletopia | Frankfurt | 8 | Community","protocol":17,"map":"workshop/koth_product_final.ugc454272353","folder":"tf","game":"Team Fortress","app_id":440,"player_count":0,"max_players":24,"Bots":0,"server_type":"Dedicated","server_os":"Linux","password":true,"vac":true,"version":"7757534","steam_id":85568392924742828,"keywords":["cp","nocrits","nodmgspread","uncletopia"],"game_id":440,"stv_port":27086,"stv_name":"Uncletopia | Frankfurt | 8 | Community | STV","players":null},{"server_id":202,"name":"Uncletopia | Hong Kong | 1 | All Maps","name_short":"hgk-1","host":"hgk-1.hk.uncletopia.com","port":27015,"enabled":true,"region":"asia","cc":"hk","latitude":22.302711,"longitude":114.177216,"reserved":0,"last_update":"0001-01-01T00:00:00Z","name_a2s":"Uncletopia | Hong Kong | 1 | All Maps","protocol":17,"map":"cp_dustbowl","folder":"tf","game":"Team Fortress","app_id":440,"player_count":0,"max_players":24,"Bots":0,"server_type":"Dedicated","server_os":"Linux","password":true,"vac":true,"version":"7757534","steam_id":85568392924494504,"keywords":["cp","nocrits","nodmgspread","uncletopia"],"game_id":440,"stv_port":27016,"stv_name":"Uncletopia | Hong Kong | 1 | All Maps | STV","players":null},{"server_id":1,"name":"Uncletopia | Los Angeles | 1 | All Maps","name_short":"lax-1","host":"lax-1.us.uncletopia.com","port":27015,"enabled":true,"region":"us-west","cc":"us","latitude":33.94279,"longitude":-118.41004,"reserved":0,"last_update":"0001-01-01T00:00:00Z","name_a2s":"Uncletopia | Los Angeles | 1 | All Maps","protocol":17,"map":"cp_mountainlab","folder":"tf","game":"Team Fortress","app_id":440,"player_count":23,"max_players":24,"Bots":0,"server_type":"Dedicated","server_os":"Linux","password":true,"vac":true,"version":"7757534","steam_id":85568392924469991,"keywords":["cp","nocrits","nodmgspread","uncletopia"],"game_id":440,"stv_port":27016,"stv_name":"Uncletopia | Los Angeles | 1 | All Maps | STV","players":[{"user_id":191,"name":"spherewithahat","steam_id":76561199122192660,"connected_time":135000000000,"state":"active","ping":121},{"user_id":142,"name":"box","steam_id":76561198985635309,"connected_time":2461000000000,"state":"active","ping":127},{"user_id":178,"name":"xerro","steam_id":76561198323340524,"connected_time":852000000000,"state":"active","ping":92},{"user_id":182,"name":"Klip","steam_id":76561198316254429,"connected_time":781000000000,"state":"active","ping":83},{"user_id":179,"name":"Spangbab","steam_id":76561199006526991,"connected_time":852000000000,"state":"active","ping":47},{"user_id":161,"name":"Decepticon","steam_id":76561198047168548,"connected_time":1995000000000,"state":"active","ping":50},{"user_id":175,"name":"Frisk Weatherfield","steam_id":76561198146435800,"connected_time":1039000000000,"state":"active","ping":62},{"user_id":107,"name":"DoctorHa","steam_id":76561198044026008,"connected_time":4538000000000,"state":"active","ping":63},{"user_id":160,"name":"Greskrendtregk","steam_id":76561197969553142,"connected_time":2106000000000,"state":"active","ping":76},{"user_id":181,"name":"roanoke›✿","steam_id":76561198048007844,"connected_time":812000000000,"state":"active","ping":46},{"user_id":189,"name":"Dietrich","steam_id":76561198028163840,"connected_time":243000000000,"state":"active","ping":52},{"user_id":174,"name":"AspenIsPoplar","steam_id":76561198346382060,"connected_time":1131000000000,"state":"active","ping":94},{"user_id":190,"name":"Miista","steam_id":76561198117357040,"connected_time":240000000000,"state":"active","ping":71},{"user_id":134,"name":"PrimalExplosion","steam_id":76561199230044159,"connected_time":3543000000000,"state":"active","ping":112},{"user_id":158,"name":"Chalupa Jones","steam_id":76561198335855588,"connected_time":2139000000000,"state":"active","ping":49},{"user_id":183,"name":"Zobozo","steam_id":76561198028954297,"connected_time":772000000000,"state":"active","ping":46},{"user_id":167,"name":"Nibotshooter","steam_id":76561199284825579,"connected_time":1747000000000,"state":"active","ping":90},{"user_id":177,"name":"FDR","steam_id":76561198300349976,"connected_time":964000000000,"state":"active","ping":86},{"user_id":170,"name":"Chad the Sex Haver","steam_id":76561198058236528,"connected_time":1623000000000,"state":"active","ping":52},{"user_id":171,"name":"doorlarkeded","steam_id":76561199439227968,"connected_time":1613000000000,"state":"active","ping":136},{"user_id":184,"name":"nescoceo","steam_id":76561198040801160,"connected_time":746000000000,"state":"active","ping":52},{"user_id":185,"name":"LILIUM","steam_id":76561198086591493,"connected_time":742000000000,"state":"active","ping":57},{"user_id":186,"name":"Anthid","steam_id":76561198074493797,"connected_time":490000000000,"state":"active","ping":75}]},{"server_id":112,"name":"Uncletopia | Los Angeles | 2 | All Maps","name_short":"lax-2","host":"lax-1.us.uncletopia.com","port":27025,"enabled":true,"region":"us-west","cc":"us","latitude":33.94279,"longitude":-118.41004,"reserved":0,"last_update":"0001-01-01T00:00:00Z","name_a2s":"Uncletopia | Los Angeles | 2 | All Maps","protocol":17,"map":"koth_highpass","folder":"tf","game":"Team Fortress","app_id":440,"player_count":5,"max_players":24,"Bots":0,"server_type":"Dedicated","server_os":"Linux","password":true,"vac":true,"version":"7757534","steam_id":85568392924469992,"keywords":["cp","nocrits","nodmgspread","uncletopia"],"game_id":440,"stv_port":27026,"stv_name":"Uncletopia | Los Angeles | 2 | All Maps | STV","players":[{"user_id":32,"name":"OBS","steam_id":76561199226941302,"connected_time":1212000000000,"state":"active","ping":84},{"user_id":36,"name":"LeTonzy","steam_id":76561198005806699,"connected_time":696000000000,"state":"active","ping":55},{"user_id":38,"name":"-=X8X=- XZDX #BBSandman #TF3","steam_id":76561198032141246,"connected_time":240000000000,"state":"active","ping":106},{"user_id":35,"name":"gravy","steam_id":76561198089644778,"connected_time":731000000000,"state":"active","ping":50},{"user_id":40,"name":"Midnight-ag LFT","steam_id":76561198115714484,"connected_time":75000000000,"state":"active","ping":64}]},{"server_id":324,"name":"Uncletopia | Los Angeles | 3 | All Maps","name_short":"lax-3","host":"lax-1.us.uncletopia.com","port":27035,"enabled":true,"region":"us-west","cc":"us","latitude":33.94279,"longitude":-118.41004,"reserved":0,"last_update":"0001-01-01T00:00:00Z","name_a2s":"Uncletopia | Los Angeles | 3 | All Maps","protocol":17,"map":"koth_highpass","folder":"tf","game":"Team Fortress","app_id":440,"player_count":0,"max_players":24,"Bots":0,"server_type":"Dedicated","server_os":"Linux","password":true,"vac":true,"version":"7757534","steam_id":85568392924510198,"keywords":["cp","nocrits","nodmgspread","uncletopia"],"game_id":440,"stv_port":27036,"stv_name":"Uncletopia | Los Angeles | 3 | All Maps | STV","players":null},{"server_id":25,"name":"Uncletopia | Los Angeles | 4 | Stopwatch Beta","name_short":"lax-4","host":"lax-1.us.uncletopia.com","port":27045,"enabled":true,"region":"us-west","cc":"us","latitude":33.94279,"longitude":-118.41004,"reserved":0,"last_update":"0001-01-01T00:00:00Z","name_a2s":"Uncletopia | Los Angeles | 4 | Stopwatch Beta","protocol":17,"map":"pl_frontier_final","folder":"tf","game":"Team Fortress","app_id":440,"player_count":0,"max_players":24,"Bots":0,"server_type":"Dedicated","server_os":"Linux","password":true,"vac":true,"version":"7757534","steam_id":85568392924510199,"keywords":["nocrits","nodmgspread","payload","uncletopia"],"game_id":440,"stv_port":27046,"stv_name":"Uncletopia | Los Angeles | 4 | Stopwatch Beta | STV","players":null},{"server_id":11,"name":"Uncletopia | London | 1 | All Maps","name_short":"lon-1","host":"lon-1.uk.uncletopia.com","port":27015,"enabled":true,"region":"eu","cc":"gb","latitude":51.509865,"longitude":-0.118092,"reserved":0,"last_update":"0001-01-01T00:00:00Z","name_a2s":"Uncletopia | London | 1 | All Maps","protocol":17,"map":"koth_harvest_final","folder":"tf","game":"Team Fortress","app_id":440,"player_count":24,"max_players":24,"Bots":0,"server_type":"Dedicated","server_os":"Linux","password":true,"vac":true,"version":"7757534","steam_id":85568392924367362,"keywords":["cp","nocrits","nodmgspread","uncletopia"],"game_id":440,"stv_port":27016,"stv_name":"Uncletopia | London | 1 | All Maps | STV","players":[{"user_id":397,"name":"beebo","steam_id":76561199120277007,"connected_time":3321000000000,"state":"active","ping":84},{"user_id":402,"name":"The Ginger","steam_id":76561198306862332,"connected_time":1884000000000,"state":"active","ping":72},{"user_id":420,"name":"NoPfizer","steam_id":76561198307914381,"connected_time":62000000000,"state":"active","ping":59},{"user_id":407,"name":"chef","steam_id":76561198148975961,"connected_time":1151000000000,"state":"active","ping":75},{"user_id":393,"name":"maxine","steam_id":76561199474081953,"connected_time":3554000000000,"state":"active","ping":118},{"user_id":364,"name":"Teleporter (jessie)","steam_id":76561198063093802,"connected_time":7159000000000,"state":"active","ping":49},{"user_id":381,"name":"Wedgeridoo","steam_id":76561198082813907,"connected_time":4633000000000,"state":"active","ping":99},{"user_id":410,"name":"Will or Mole","steam_id":76561198046415938,"connected_time":976000000000,"state":"active","ping":62},{"user_id":414,"name":"Videogamer","steam_id":76561198106012909,"connected_time":723000000000,"state":"active","ping":75},{"user_id":417,"name":"Megamain","steam_id":76561198923772036,"connected_time":516000000000,"state":"active","ping":56},{"user_id":343,"name":"SOPHIIEE","steam_id":76561198443798981,"connected_time":8622000000000,"state":"active","ping":60},{"user_id":404,"name":"Chip","steam_id":76561198871723933,"connected_time":1845000000000,"state":"active","ping":46},{"user_id":383,"name":"SuperBob103","steam_id":76561199175360012,"connected_time":4630000000000,"state":"active","ping":48},{"user_id":376,"name":"Fat Pigeon","steam_id":76561198817940142,"connected_time":5299000000000,"state":"active","ping":45},{"user_id":374,"name":"♥ඞlilyඞ♥","steam_id":76561198049840460,"connected_time":6239000000000,"state":"active","ping":57},{"user_id":398,"name":"Maske","steam_id":76561198078100812,"connected_time":3138000000000,"state":"active","ping":62},{"user_id":418,"name":"мало тебя","steam_id":76561198129153029,"connected_time":170000000000,"state":"active","ping":60},{"user_id":419,"name":"frosty","steam_id":76561198094560834,"connected_time":167000000000,"state":"active","ping":46},{"user_id":353,"name":"Great recession of 2008","steam_id":76561198881151562,"connected_time":7851000000000,"state":"active","ping":84},{"user_id":406,"name":"Explosive Poptart","steam_id":76561198023918830,"connected_time":1318000000000,"state":"active","ping":45},{"user_id":401,"name":"Aaron","steam_id":76561197990046953,"connected_time":1904000000000,"state":"active","ping":69},{"user_id":375,"name":"cinny","steam_id":76561198832112629,"connected_time":6133000000000,"state":"active","ping":84},{"user_id":342,"name":"KPhii","steam_id":76561198970587061,"connected_time":8636000000000,"state":"active","ping":71},{"user_id":378,"name":"Calcestruzzo98","steam_id":76561198859799048,"connected_time":4725000000000,"state":"active","ping":95}]},{"server_id":114,"name":"Uncletopia | London | 2 | All Maps","name_short":"lon-2","host":"lon-1.uk.uncletopia.com","port":27025,"enabled":true,"region":"eu","cc":"gb","latitude":51.509865,"longitude":-0.118092,"reserved":0,"last_update":"0001-01-01T00:00:00Z","name_a2s":"Uncletopia | London | 2 | All Maps","protocol":17,"map":"koth_viaduct","folder":"tf","game":"Team Fortress","app_id":440,"player_count":0,"max_players":24,"Bots":0,"server_type":"Dedicated","server_os":"Linux","password":true,"vac":true,"version":"7757534","steam_id":85568392924470941,"keywords":["cp","nocrits","nodmgspread","uncletopia"],"game_id":440,"stv_port":27026,"stv_name":"Uncletopia | London | 2 | All Maps | STV","players":null},{"server_id":320,"name":"Uncletopia | London | 3 | All Maps","name_short":"lon-3","host":"lon-1.uk.uncletopia.com","port":27035,"enabled":true,"region":"eu","cc":"gb","latitude":51.509865,"longitude":-0.118092,"reserved":0,"last_update":"0001-01-01T00:00:00Z","name_a2s":"Uncletopia | London | 3 | All Maps","protocol":17,"map":"koth_viaduct","folder":"tf","game":"Team Fortress","app_id":440,"player_count":24,"max_players":24,"Bots":0,"server_type":"Dedicated","server_os":"Linux","password":true,"vac":true,"version":"7757534","steam_id":85568392924510192,"keywords":["cp","nocrits","nodmgspread","uncletopia"],"game_id":440,"stv_port":27036,"stv_name":"Uncletopia | London | 3 | All Maps | STV","players":[{"user_id":886,"name":"pezza","steam_id":76561197995173247,"connected_time":1948000000000,"state":"active","ping":59},{"user_id":878,"name":"Titar Industries","steam_id":76561198143078476,"connected_time":2488000000000,"state":"active","ping":136},{"user_id":900,"name":"Mr. Dick™","steam_id":76561198047309044,"connected_time":947000000000,"state":"active","ping":127},{"user_id":913,"name":"God's Goofiest Goober","steam_id":76561198103175187,"connected_time":394000000000,"state":"active","ping":70},{"user_id":897,"name":"Stolas","steam_id":76561198992371280,"connected_time":1128000000000,"state":"active","ping":150},{"user_id":887,"name":"Floppa-z","steam_id":76561199385382550,"connected_time":1899000000000,"state":"active","ping":119},{"user_id":896,"name":"Thibob","steam_id":76561198000541852,"connected_time":1367000000000,"state":"active","ping":55},{"user_id":883,"name":"Sharp22#SaveTF2","steam_id":76561198861956212,"connected_time":2137000000000,"state":"active","ping":58},{"user_id":870,"name":"meat.png","steam_id":76561197966572171,"connected_time":2614000000000,"state":"active","ping":77},{"user_id":884,"name":"Silverdarlin","steam_id":76561198118540970,"connected_time":2095000000000,"state":"active","ping":54},{"user_id":888,"name":"bANji","steam_id":76561198108898161,"connected_time":1840000000000,"state":"active","ping":49},{"user_id":889,"name":"GuSkand","steam_id":76561198043775605,"connected_time":1816000000000,"state":"active","ping":90},{"user_id":914,"name":"Goblin Girl ゴブリンドリ\ufffd","steam_id":76561198074766257,"connected_time":386000000000,"state":"active","ping":52},{"user_id":915,"name":"3L","steam_id":76561198007208996,"connected_time":368000000000,"state":"active","ping":57},{"user_id":912,"name":"Mr_Spappy","steam_id":76561199106707541,"connected_time":525000000000,"state":"active","ping":58},{"user_id":908,"name":"AWP Bodyshot :) ❤","steam_id":76561198029928533,"connected_time":717000000000,"state":"active","ping":59},{"user_id":916,"name":"Spotmonkey","steam_id":76561198003994092,"connected_time":363000000000,"state":"active","ping":53},{"user_id":920,"name":"AsuX","steam_id":76561197990333289,"connected_time":25000000000,"state":"active","ping":61},{"user_id":863,"name":"Tom","steam_id":76561198008519979,"connected_time":3038000000000,"state":"active","ping":63},{"user_id":917,"name":"the indomitable human spirit","steam_id":76561198718760200,"connected_time":264000000000,"state":"active","ping":47},{"user_id":918,"name":"Tywhip","steam_id":76561199207545191,"connected_time":252000000000,"state":"active","ping":55},{"user_id":904,"name":"purple turtle","steam_id":76561198165833234,"connected_time":817000000000,"state":"active","ping":97},{"user_id":895,"name":"Agnaktor42","steam_id":76561198042977011,"connected_time":1433000000000,"state":"active","ping":45},{"user_id":909,"name":"New","steam_id":76561198402195911,"connected_time":666000000000,"state":"active","ping":119}]},{"server_id":321,"name":"Uncletopia | London | 4 | All Maps","name_short":"lon-4","host":"lon-1.uk.uncletopia.com","port":27045,"enabled":true,"region":"eu","cc":"gb","latitude":51.509865,"longitude":-0.118092,"reserved":0,"last_update":"0001-01-01T00:00:00Z","name_a2s":"Uncletopia | London | 4 | All Maps","protocol":17,"map":"pl_swiftwater_final1","folder":"tf","game":"Team Fortress","app_id":440,"player_count":24,"max_players":24,"Bots":0,"server_type":"Dedicated","server_os":"Linux","password":true,"vac":true,"version":"7757534","steam_id":85568392924510193,"keywords":["nocrits","nodmgspread","payload","uncletopia"],"game_id":440,"stv_port":27046,"stv_name":"Uncletopia | London | 4 | All Maps | STV","players":[{"user_id":482,"name":"frikandel speciaal","steam_id":76561198137997056,"connected_time":638000000000,"state":"active","ping":66},{"user_id":479,"name":"boo_thefeared","steam_id":76561198127967685,"connected_time":1125000000000,"state":"active","ping":53},{"user_id":463,"name":"Sgreff","steam_id":76561198036304365,"connected_time":2477000000000,"state":"active","ping":42},{"user_id":392,"name":"Xiqui","steam_id":76561198818386611,"connected_time":7360000000000,"state":"active","ping":75},{"user_id":412,"name":"gibb (official)","steam_id":76561198074097655,"connected_time":6790000000000,"state":"active","ping":33},{"user_id":481,"name":"wingo","steam_id":76561198254576930,"connected_time":735000000000,"state":"active","ping":67},{"user_id":486,"name":"let me cook","steam_id":76561198010380786,"connected_time":364000000000,"state":"active","ping":45},{"user_id":489,"name":"Platy","steam_id":76561198073442109,"connected_time":234000000000,"state":"active","ping":55},{"user_id":495,"name":"C0d3s","steam_id":76561198093907544,"connected_time":115000000000,"state":"active","ping":100},{"user_id":448,"name":"Piteras","steam_id":76561198858532207,"connected_time":4161000000000,"state":"active","ping":84},{"user_id":487,"name":"relic_","steam_id":76561199053114167,"connected_time":282000000000,"state":"active","ping":76},{"user_id":474,"name":"Flex","steam_id":76561197970482191,"connected_time":1394000000000,"state":"active","ping":58},{"user_id":475,"name":"Team Dim Sun Grunt","steam_id":76561198393596975,"connected_time":1380000000000,"state":"active","ping":52},{"user_id":488,"name":"Big Stupid Ugly Twink","steam_id":76561198156906497,"connected_time":269000000000,"state":"active","ping":58},{"user_id":490,"name":"Supreme Sads","steam_id":76561198061061147,"connected_time":220000000000,"state":"active","ping":75},{"user_id":491,"name":"Simoh The Swoob","steam_id":76561198058078322,"connected_time":216000000000,"state":"active","ping":88},{"user_id":492,"name":"Wulfen","steam_id":76561198967364313,"connected_time":208000000000,"state":"active","ping":45},{"user_id":493,"name":"Miku","steam_id":76561198041717890,"connected_time":206000000000,"state":"active","ping":88},{"user_id":494,"name":"lost","steam_id":76561198068624497,"connected_time":165000000000,"state":"active","ping":153},{"user_id":496,"name":"boar hammer","steam_id":76561198396168679,"connected_time":115000000000,"state":"active","ping":183},{"user_id":442,"name":"Daniel Day-Lewis","steam_id":76561198147249160,"connected_time":4714000000000,"state":"active","ping":106},{"user_id":500,"name":"The","steam_id":76561198359311605,"connected_time":26000000000,"state":"active","ping":67},{"user_id":499,"name":"SuntanPikachu","steam_id":76561198121242476,"connected_time":54000000000,"state":"spawning","ping":53},{"user_id":477,"name":"Wasserkopf","steam_id":76561198219227785,"connected_time":1340000000000,"state":"active","ping":72}]},{"server_id":21,"name":"Uncletopia | London | 5 | All Maps","name_short":"lon-5","host":"lon-1.uk.uncletopia.com","port":27055,"enabled":true,"region":"eu","cc":"gb","latitude":51.509865,"longitude":-0.118092,"reserved":0,"last_update":"0001-01-01T00:00:00Z","name_a2s":"Uncletopia | London | 5 | All Maps","protocol":17,"map":"cp_mountainlab","folder":"tf","game":"Team Fortress","app_id":440,"player_count":0,"max_players":24,"Bots":0,"server_type":"Dedicated","server_os":"Linux","password":true,"vac":true,"version":"7757534","steam_id":85568392924742829,"keywords":["cp","nocrits","nodmgspread","uncletopia"],"game_id":440,"stv_port":27056,"stv_name":"Uncletopia | London | 5 | All Maps | STV","players":null},{"server_id":22,"name":"Uncletopia | London | 6 | All Maps","name_short":"lon-6","host":"lon-1.uk.uncletopia.com","port":27065,"enabled":true,"region":"eu","cc":"gb","latitude":51.509865,"longitude":-0.118092,"reserved":0,"last_update":"0001-01-01T00:00:00Z","name_a2s":"Uncletopia | London | 6 | All Maps","protocol":17,"map":"pl_upward","folder":"tf","game":"Team Fortress","app_id":440,"player_count":23,"max_players":24,"Bots":0,"server_type":"Dedicated","server_os":"Linux","password":true,"vac":true,"version":"7757534","steam_id":85568392924742830,"keywords":["nocrits","nodmgspread","payload","uncletopia"],"game_id":440,"stv_port":27066,"stv_name":"Uncletopia | London | 6 | All Maps | STV","players":[{"user_id":412,"name":"Cheyaoshi","steam_id":76561198141121996,"connected_time":2870000000000,"state":"active","ping":62},{"user_id":427,"name":"Eyy_Cucasi","steam_id":76561198271767632,"connected_time":2066000000000,"state":"active","ping":92},{"user_id":453,"name":"rmz.ssj","steam_id":76561198329613930,"connected_time":378000000000,"state":"active","ping":60},{"user_id":386,"name":"punchmypotatoes","steam_id":76561198091255731,"connected_time":3912000000000,"state":"active","ping":54},{"user_id":446,"name":"tone","steam_id":76561197975301462,"connected_time":943000000000,"state":"active","ping":71},{"user_id":397,"name":"Cocoa","steam_id":76561198078438879,"connected_time":3667000000000,"state":"active","ping":75},{"user_id":450,"name":"etc","steam_id":76561197998394797,"connected_time":633000000000,"state":"active","ping":56},{"user_id":448,"name":"Ork","steam_id":76561197968575924,"connected_time":912000000000,"state":"active","ping":54},{"user_id":454,"name":"plungers","steam_id":76561199187680224,"connected_time":341000000000,"state":"active","ping":106},{"user_id":455,"name":"MeleeMeta","steam_id":76561198237963558,"connected_time":331000000000,"state":"active","ping":63},{"user_id":439,"name":"Bostrash641","steam_id":76561199447225685,"connected_time":1364000000000,"state":"active","ping":75},{"user_id":456,"name":"Chlo","steam_id":76561198114485345,"connected_time":328000000000,"state":"active","ping":49},{"user_id":432,"name":"ricky pee pee","steam_id":76561198152620745,"connected_time":1817000000000,"state":"active","ping":58},{"user_id":435,"name":"Duke Fishlord","steam_id":76561198079928327,"connected_time":1604000000000,"state":"active","ping":83},{"user_id":457,"name":"Penis Contortionist","steam_id":76561198073663784,"connected_time":195000000000,"state":"active","ping":357},{"user_id":452,"name":"V.4.3LOI","steam_id":76561199065468900,"connected_time":535000000000,"state":"active","ping":115},{"user_id":436,"name":"Skagzilla| trade.tf","steam_id":76561198260114743,"connected_time":1508000000000,"state":"active","ping":54},{"user_id":459,"name":"Big Mac Gaming","steam_id":76561198158209651,"connected_time":121000000000,"state":"active","ping":57},{"user_id":438,"name":"Bat in a thousand","steam_id":76561198320506848,"connected_time":1387000000000,"state":"active","ping":45},{"user_id":418,"name":"Kamanie","steam_id":76561198135448255,"connected_time":2604000000000,"state":"active","ping":64},{"user_id":440,"name":"LErik9858","steam_id":76561198808654852,"connected_time":1359000000000,"state":"active","ping":72},{"user_id":443,"name":"Raivop","steam_id":76561197980854307,"connected_time":1197000000000,"state":"active","ping":94},{"user_id":411,"name":"Qwerty","steam_id":76561198023525894,"connected_time":3152000000000,"state":"active","ping":89}]},{"server_id":40,"name":"Uncletopia | London | 7 | No Payload","name_short":"lon-7","host":"lon-1.uk.uncletopia.com","port":27075,"enabled":true,"region":"eu","cc":"gb","latitude":51.509865,"longitude":-0.118092,"reserved":0,"last_update":"0001-01-01T00:00:00Z","name_a2s":"Uncletopia | London | 7 | No Payload","protocol":17,"map":"koth_harvest_final","folder":"tf","game":"Team Fortress","app_id":440,"player_count":0,"max_players":24,"Bots":0,"server_type":"Dedicated","server_os":"Linux","password":true,"vac":true,"version":"7757534","steam_id":85568392924964314,"keywords":["cp","nocrits","nodmgspread","uncletopia"],"game_id":440,"stv_port":27076,"stv_name":"Uncletopia | London | 7 | No Payload | STV","players":null},{"server_id":41,"name":"Uncletopia | London | 8 | Community","name_short":"lon-8","host":"lon-1.uk.uncletopia.com","port":27085,"enabled":true,"region":"eu","cc":"gb","latitude":51.509865,"longitude":-0.118092,"reserved":0,"last_update":"0001-01-01T00:00:00Z","name_a2s":"Uncletopia | London | 8 | Community","protocol":17,"map":"workshop/cp_alloy_rc3.ugc592805587","folder":"tf","game":"Team Fortress","app_id":440,"player_count":1,"max_players":24,"Bots":0,"server_type":"Dedicated","server_os":"Linux","password":true,"vac":true,"version":"7757534","steam_id":85568392924964315,"keywords":["cp","nocrits","nodmgspread","uncletopia"],"game_id":440,"stv_port":27086,"stv_name":"Uncletopia | London | 8 | Community | STV","players":[{"user_id":19,"name":"Denialman (Muted)","steam_id":76561198309182092,"connected_time":401000000000,"state":"active","ping":80}]},{"server_id":300,"name":"Uncletopia | Montréal | 1 | All Maps","name_short":"mtl-1","host":"mtl-1.ca.uncletopia.com","port":27015,"enabled":true,"region":"us-east","cc":"ca","latitude":45.50889,"longitude":-73.56167,"reserved":0,"last_update":"0001-01-01T00:00:00Z","name_a2s":"Uncletopia | Montréal | 1 | All Maps","protocol":17,"map":"pl_snowycoast","folder":"tf","game":"Team Fortress","app_id":440,"player_count":0,"max_players":24,"Bots":0,"server_type":"Dedicated","server_os":"Linux","password":true,"vac":true,"version":"7757534","steam_id":85568392924500087,"keywords":["nocrits","nodmgspread","payload","uncletopia"],"game_id":440,"stv_port":27016,"stv_name":"Uncletopia | Montréal | 1 | All Maps | STV","players":null},{"server_id":301,"name":"Uncletopia | Montréal | 2 | All Maps","name_short":"mtl-2","host":"mtl-1.ca.uncletopia.com","port":27025,"enabled":true,"region":"us-east","cc":"ca","latitude":45.50889,"longitude":-73.56167,"reserved":0,"last_update":"0001-01-01T00:00:00Z","name_a2s":"Uncletopia | Montréal | 2 | All Maps","protocol":17,"map":"pl_upward","folder":"tf","game":"Team Fortress","app_id":440,"player_count":0,"max_players":24,"Bots":0,"server_type":"Dedicated","server_os":"Linux","password":true,"vac":true,"version":"7757534","steam_id":85568392924500088,"keywords":["nocrits","nodmgspread","payload","uncletopia"],"game_id":440,"stv_port":27026,"stv_name":"Uncletopia | Montréal | 2 | All Maps | STV","players":null},{"server_id":302,"name":"Uncletopia | Montréal | 3 | All Maps","name_short":"mtl-3","host":"mtl-1.ca.uncletopia.com","port":27035,"enabled":true,"region":"us-east","cc":"ca","latitude":45.50889,"longitude":-73.56167,"reserved":0,"last_update":"0001-01-01T00:00:00Z","name_a2s":"Uncletopia | Montréal | 3 | All Maps","protocol":17,"map":"ctf_2fort","folder":"tf","game":"Team Fortress","app_id":440,"player_count":4,"max_players":24,"Bots":0,"server_type":"Dedicated","server_os":"Linux","password":true,"vac":true,"version":"7757534","steam_id":85568392924500089,"keywords":["ctf","nocrits","nodmgspread","uncletopia"],"game_id":440,"stv_port":27036,"stv_name":"Uncletopia | Montréal | 3 | All Maps | STV","players":[{"user_id":117,"name":"AguaAzul","steam_id":76561199070874254,"connected_time":829000000000,"state":"active","ping":58},{"user_id":118,"name":"BegattoTooBig98","steam_id":76561198280650662,"connected_time":806000000000,"state":"active","ping":68},{"user_id":112,"name":"Weapons Grade Belkan Magic","steam_id":76561198350492845,"connected_time":2206000000000,"state":"active","ping":75},{"user_id":8,"name":"WhyAmIHere","steam_id":76561198271076276,"connected_time":8446000000000,"state":"active","ping":54}]},{"server_id":303,"name":"Uncletopia | Montréal | 4 | No Payload","name_short":"mtl-4","host":"mtl-1.ca.uncletopia.com","port":27045,"enabled":true,"region":"us-east","cc":"ca","latitude":45.50889,"longitude":-73.56167,"reserved":0,"last_update":"0001-01-01T00:00:00Z","name_a2s":"Uncletopia | Montréal | 4 | No Payload","protocol":17,"map":"pl_borneo","folder":"tf","game":"Team Fortress","app_id":440,"player_count":0,"max_players":24,"Bots":0,"server_type":"Dedicated","server_os":"Linux","password":true,"vac":true,"version":"7757534","steam_id":85568392924500090,"keywords":["nocrits","nodmgspread","payload","uncletopia"],"game_id":440,"stv_port":27046,"stv_name":"Uncletopia | Montréal | 4 | No Payload | STV","players":null},{"server_id":13,"name":"Uncletopia | New York City | 1 | All Maps","name_short":"nyc-1","host":"nyc-1.us.uncletopia.com","port":27015,"enabled":true,"region":"us-east","cc":"us","latitude":40.73061,"longitude":-73.93524,"reserved":0,"last_update":"0001-01-01T00:00:00Z","name_a2s":"Uncletopia | New York City | 1 | All Maps","protocol":17,"map":"koth_harvest_final","folder":"tf","game":"Team Fortress","app_id":440,"player_count":24,"max_players":24,"Bots":0,"server_type":"Dedicated","server_os":"Linux","password":true,"vac":true,"version":"7757534","steam_id":85568392924469993,"keywords":["cp","nocrits","nodmgspread","uncletopia"],"game_id":440,"stv_port":27016,"stv_name":"Uncletopia | New York City | 1 | All Maps | STV","players":[{"user_id":198,"name":"dec","steam_id":76561198009660168,"connected_time":864000000000,"state":"active","ping":127},{"user_id":190,"name":"PunishedJoe","steam_id":76561199105539011,"connected_time":1955000000000,"state":"active","ping":51},{"user_id":150,"name":"Maxxycat","steam_id":76561198194062681,"connected_time":5255000000000,"state":"active","ping":64},{"user_id":197,"name":"Ctrl+Cs your NFT","steam_id":76561199223646322,"connected_time":901000000000,"state":"active","ping":77},{"user_id":186,"name":"Pickle Chips","steam_id":76561198271951504,"connected_time":2116000000000,"state":"active","ping":44},{"user_id":149,"name":"LordOfTheNoobs","steam_id":76561197962697523,"connected_time":5273000000000,"state":"active","ping":69},{"user_id":203,"name":"financial recession","steam_id":76561198313695660,"connected_time":204000000000,"state":"active","ping":57},{"user_id":185,"name":"a table","steam_id":76561198158461279,"connected_time":2127000000000,"state":"active","ping":63},{"user_id":176,"name":"Seven","steam_id":76561198259947055,"connected_time":3252000000000,"state":"active","ping":83},{"user_id":168,"name":"Kattnesta","steam_id":76561198210927551,"connected_time":3630000000000,"state":"active","ping":57},{"user_id":171,"name":"LuBzEur0b3ats","steam_id":76561199041041574,"connected_time":3432000000000,"state":"active","ping":61},{"user_id":205,"name":"JacripspyVulcano","steam_id":76561198966980576,"connected_time":185000000000,"state":"active","ping":47},{"user_id":173,"name":"KitKat :)","steam_id":76561198191536489,"connected_time":3414000000000,"state":"active","ping":129},{"user_id":196,"name":"Xavi","steam_id":76561198337783795,"connected_time":932000000000,"state":"active","ping":49},{"user_id":204,"name":"RapiorDragon","steam_id":76561198285655994,"connected_time":185000000000,"state":"active","ping":51},{"user_id":201,"name":"brain_spazm","steam_id":76561199218390492,"connected_time":502000000000,"state":"active","ping":74},{"user_id":206,"name":"Shock Trooper","steam_id":76561199086731683,"connected_time":170000000000,"state":"active","ping":52},{"user_id":160,"name":"[TF2Apples] Intense Green Apple","steam_id":76561198803561622,"connected_time":4174000000000,"state":"active","ping":77},{"user_id":80,"name":"CrustyCapybara","steam_id":76561199450398030,"connected_time":9714000000000,"state":"active","ping":69},{"user_id":165,"name":"Obelix","steam_id":76561198274715109,"connected_time":3678000000000,"state":"active","ping":57},{"user_id":177,"name":"Baron von Whoopsie","steam_id":76561197996691013,"connected_time":3139000000000,"state":"active","ping":57},{"user_id":207,"name":"Smiles","steam_id":76561198107197973,"connected_time":166000000000,"state":"active","ping":82},{"user_id":159,"name":"Zaider","steam_id":76561198049839645,"connected_time":4367000000000,"state":"active","ping":68},{"user_id":200,"name":"Aqua","steam_id":76561198136989701,"connected_time":787000000000,"state":"active","ping":55}]},{"server_id":14,"name":"Uncletopia | New York City | 2 | All Maps","name_short":"nyc-2","host":"nyc-1.us.uncletopia.com","port":27025,"enabled":true,"region":"us-east","cc":"us","latitude":40.73061,"longitude":-73.93524,"reserved":0,"last_update":"0001-01-01T00:00:00Z","name_a2s":"Uncletopia | New York City | 2 | All Maps","protocol":17,"map":"pl_upward","folder":"tf","game":"Team Fortress","app_id":440,"player_count":24,"max_players":24,"Bots":0,"server_type":"Dedicated","server_os":"Linux","password":true,"vac":true,"version":"7757534","steam_id":85568392924469994,"keywords":["nocrits","nodmgspread","payload","uncletopia"],"game_id":440,"stv_port":27026,"stv_name":"Uncletopia | New York City | 2 | All Maps | STV","players":[{"user_id":329,"name":"banana man","steam_id":76561199385170644,"connected_time":716000000000,"state":"active","ping":69},{"user_id":311,"name":"Lost CS player","steam_id":76561198892387723,"connected_time":2002000000000,"state":"active","ping":55},{"user_id":336,"name":"Zero","steam_id":76561199383267408,"connected_time":522000000000,"state":"active","ping":77},{"user_id":330,"name":"Bannana Man","steam_id":76561199345210632,"connected_time":647000000000,"state":"active","ping":78},{"user_id":337,"name":"Penguin Enthusiast","steam_id":76561199180533950,"connected_time":493000000000,"state":"active","ping":86},{"user_id":338,"name":"Japanese_Spaghetti","steam_id":76561198081019897,"connected_time":481000000000,"state":"active","ping":132},{"user_id":339,"name":"inphlate","steam_id":76561199016973013,"connected_time":467000000000,"state":"active","ping":61},{"user_id":320,"name":"Rudy","steam_id":76561198013456828,"connected_time":1106000000000,"state":"active","ping":57},{"user_id":306,"name":"THRILLHO","steam_id":76561198371663047,"connected_time":2599000000000,"state":"active","ping":45},{"user_id":228,"name":"Dorothy","steam_id":76561198152455316,"connected_time":8480000000000,"state":"active","ping":150},{"user_id":342,"name":"Wahooka","steam_id":76561197962240925,"connected_time":398000000000,"state":"active","ping":45},{"user_id":341,"name":"A Puppy","steam_id":76561198828184456,"connected_time":414000000000,"state":"active","ping":47},{"user_id":322,"name":"Lorelius Hogglefart","steam_id":76561198449527009,"connected_time":934000000000,"state":"active","ping":61},{"user_id":314,"name":"Redkiller","steam_id":76561199453655288,"connected_time":1950000000000,"state":"active","ping":70},{"user_id":331,"name":"CreeperCatBengal","steam_id":76561198213193221,"connected_time":586000000000,"state":"active","ping":72},{"user_id":345,"name":"IggyYT","steam_id":76561198317980567,"connected_time":215000000000,"state":"active","ping":86},{"user_id":307,"name":"SaltyFaulty","steam_id":76561199017898392,"connected_time":2436000000000,"state":"active","ping":64},{"user_id":333,"name":"6ix *","steam_id":76561198415484497,"connected_time":574000000000,"state":"active","ping":178},{"user_id":317,"name":"Johnny Lawrence #JohnnyMaxxing","steam_id":76561199367141671,"connected_time":1938000000000,"state":"active","ping":53},{"user_id":291,"name":"HumFreY","steam_id":76561198076639682,"connected_time":4713000000000,"state":"active","ping":55},{"user_id":346,"name":"Festive Psycho","steam_id":76561198064615020,"connected_time":49000000000,"state":"active","ping":52},{"user_id":334,"name":"Gianluigi Buffon","steam_id":76561199302903363,"connected_time":569000000000,"state":"active","ping":121},{"user_id":343,"name":"DuckyDave","steam_id":76561199080644355,"connected_time":304000000000,"state":"active","ping":97},{"user_id":344,"name":"Dreszerg","steam_id":76561198838757422,"connected_time":301000000000,"state":"active","ping":80}]},{"server_id":15,"name":"Uncletopia | New York City | 3 | Stopwatch Beta","name_short":"nyc-3","host":"nyc-1.us.uncletopia.com","port":27035,"enabled":true,"region":"us-east","cc":"us","latitude":40.73061,"longitude":-73.93524,"reserved":0,"last_update":"0001-01-01T00:00:00Z","name_a2s":"Uncletopia | New York City | 3 | Stopwatch Beta","protocol":17,"map":"koth_lakeside_final","folder":"tf","game":"Team Fortress","app_id":440,"player_count":0,"max_players":24,"Bots":0,"server_type":"Dedicated","server_os":"Linux","password":true,"vac":true,"version":"7757534","steam_id":85568392924742820,"keywords":["cp","nocrits","nodmgspread","uncletopia"],"game_id":440,"stv_port":27036,"stv_name":"Uncletopia | New York City | 3 | Stopwatch Beta | STV","players":null},{"server_id":16,"name":"Uncletopia | New York City | 4 | Community","name_short":"nyc-4","host":"nyc-1.us.uncletopia.com","port":27045,"enabled":true,"region":"us-east","cc":"us","latitude":40.73061,"longitude":-73.93524,"reserved":0,"last_update":"0001-01-01T00:00:00Z","name_a2s":"Uncletopia | New York City | 4 | Community","protocol":17,"map":"workshop/cp_indulge.ugc528106646","folder":"tf","game":"Team Fortress","app_id":440,"player_count":0,"max_players":24,"Bots":0,"server_type":"Dedicated","server_os":"Linux","password":true,"vac":true,"version":"7757534","steam_id":85568392924742821,"keywords":["cp","nocrits","nodmgspread","uncletopia"],"game_id":440,"stv_port":27046,"stv_name":"Uncletopia | New York City | 4 | Community | STV","players":null},{"server_id":142,"name":"Uncletopia | São Paulo | 1 | All Maps","name_short":"sao-1","host":"sao-1.br.uncletopia.com","port":27015,"enabled":true,"region":"sa","cc":"br","latitude":-23.533773,"longitude":-46.62529,"reserved":0,"last_update":"0001-01-01T00:00:00Z","name_a2s":"Uncletopia | São Paulo | 1 | All Maps","protocol":17,"map":"pl_frontier_final","folder":"tf","game":"Team Fortress","app_id":440,"player_count":0,"max_players":24,"Bots":0,"server_type":"Dedicated","server_os":"Linux","password":true,"vac":true,"version":"7757534","steam_id":85568392924469996,"keywords":["nocrits","nodmgspread","payload","uncletopia"],"game_id":440,"stv_port":27016,"stv_name":"Uncletopia | São Paulo | 1 | All Maps | STV","players":null},{"server_id":143,"name":"Uncletopia | São Paulo | 2 | All Maps","name_short":"sao-2","host":"sao-2.br.uncletopia.com","port":27015,"enabled":true,"region":"sa","cc":"br","latitude":-23.533773,"longitude":-46.62529,"reserved":0,"last_update":"0001-01-01T00:00:00Z","name_a2s":"Uncletopia | São Paulo | 2 | All Maps","protocol":17,"map":"cp_mountainlab","folder":"tf","game":"Team Fortress","app_id":440,"player_count":0,"max_players":24,"Bots":0,"server_type":"Dedicated","server_os":"Linux","password":true,"vac":true,"version":"7757534","steam_id":85568392924485349,"keywords":["cp","nocrits","nodmgspread","uncletopia"],"game_id":440,"stv_port":27016,"stv_name":"Uncletopia | São Paulo | 2 | All Maps | STV","players":null},{"server_id":7,"name":"Uncletopia | Seattle | 1 | All Maps","name_short":"sea-1","host":"sea-1.us.uncletopia.com","port":27015,"enabled":true,"region":"us-west","cc":"us","latitude":47.608013,"longitude":-122.33517,"reserved":0,"last_update":"0001-01-01T00:00:00Z","name_a2s":"Uncletopia | Seattle | 1 | All Maps","protocol":17,"map":"koth_harvest_final","folder":"tf","game":"Team Fortress","app_id":440,"player_count":23,"max_players":24,"Bots":0,"server_type":"Dedicated","server_os":"Linux","password":true,"vac":true,"version":"7757534","steam_id":85568392924469997,"keywords":["cp","nocrits","nodmgspread","uncletopia"],"game_id":440,"stv_port":27016,"stv_name":"Uncletopia | Seattle | 1 | All Maps | STV","players":[{"user_id":365,"name":"resting neutral face","steam_id":76561197999259502,"connected_time":2076000000000,"state":"active","ping":55},{"user_id":397,"name":"Pine Tree","steam_id":76561198112323877,"connected_time":80000000000,"state":"active","ping":133},{"user_id":389,"name":"Eris","steam_id":76561199471434875,"connected_time":490000000000,"state":"active","ping":50},{"user_id":396,"name":"Honeybunch","steam_id":76561198014850580,"connected_time":104000000000,"state":"active","ping":42},{"user_id":361,"name":"demomanfan2008","steam_id":76561198077030486,"connected_time":2251000000000,"state":"active","ping":64},{"user_id":358,"name":"Mico (Goblin Mode)","steam_id":76561198125462953,"connected_time":2288000000000,"state":"active","ping":50},{"user_id":399,"name":"arsenic","steam_id":76561198176391550,"connected_time":50000000000,"state":"active","ping":88},{"user_id":350,"name":"drink my *** u nasty ****","steam_id":76561199100813140,"connected_time":3216000000000,"state":"active","ping":84},{"user_id":339,"name":"[TrC] Nosy","steam_id":76561197978859310,"connected_time":4014000000000,"state":"active","ping":54},{"user_id":388,"name":"Hiryuu","steam_id":76561198025267260,"connected_time":594000000000,"state":"active","ping":127},{"user_id":364,"name":"doomshroom","steam_id":76561198092827250,"connected_time":2122000000000,"state":"active","ping":56},{"user_id":381,"name":"Varlia","steam_id":76561198148146929,"connected_time":1048000000000,"state":"active","ping":54},{"user_id":335,"name":"[TrC] Dackstrus","steam_id":76561197973518509,"connected_time":4103000000000,"state":"active","ping":57},{"user_id":394,"name":"Themasterman75","steam_id":76561199385573293,"connected_time":107000000000,"state":"active","ping":69},{"user_id":395,"name":"UnsungPotate","steam_id":76561198123138410,"connected_time":105000000000,"state":"active","ping":133},{"user_id":383,"name":"EEBIGAA","steam_id":76561198056535988,"connected_time":943000000000,"state":"active","ping":72},{"user_id":382,"name":"NEBULA","steam_id":76561198086878595,"connected_time":987000000000,"state":"active","ping":68},{"user_id":368,"name":"SomeGuyWhoLikesPotatoes","steam_id":76561198110276797,"connected_time":2047000000000,"state":"active","ping":57},{"user_id":400,"name":"BolognaWithOlives","steam_id":76561198101262668,"connected_time":11000000000,"state":"spawning","ping":74},{"user_id":386,"name":"Ducks","steam_id":76561198130038345,"connected_time":751000000000,"state":"active","ping":64},{"user_id":371,"name":"louie, is patient","steam_id":76561198168084763,"connected_time":1995000000000,"state":"active","ping":43},{"user_id":374,"name":"Parakeet","steam_id":76561198271939793,"connected_time":1472000000000,"state":"active","ping":45},{"user_id":376,"name":"Cam(era)","steam_id":76561198285054047,"connected_time":1318000000000,"state":"active","ping":80}]},{"server_id":119,"name":"Uncletopia | Seattle | 2 | All Maps","name_short":"sea-2","host":"sea-1.us.uncletopia.com","port":27025,"enabled":true,"region":"us-west","cc":"us","latitude":47.608013,"longitude":-122.33517,"reserved":0,"last_update":"0001-01-01T00:00:00Z","name_a2s":"Uncletopia | Seattle | 2 | All Maps","protocol":17,"map":"pl_barnblitz","folder":"tf","game":"Team Fortress","app_id":440,"player_count":24,"max_players":24,"Bots":0,"server_type":"Dedicated","server_os":"Linux","password":true,"vac":true,"version":"7757534","steam_id":85568392924469998,"keywords":["nocrits","nodmgspread","payload","uncletopia"],"game_id":440,"stv_port":27026,"stv_name":"Uncletopia | Seattle | 2 | All Maps | STV","players":[{"user_id":409,"name":"Watatsuki no Yorihime","steam_id":76561198063315650,"connected_time":4989000000000,"state":"active","ping":81},{"user_id":432,"name":"Party Monster","steam_id":76561198119777371,"connected_time":1978000000000,"state":"active","ping":67},{"user_id":429,"name":"Cloud","steam_id":76561198272454184,"connected_time":2153000000000,"state":"active","ping":178},{"user_id":455,"name":"Poptart From Mars","steam_id":76561197979930960,"connected_time":48000000000,"state":"active","ping":100},{"user_id":418,"name":"chiswola","steam_id":76561198046920142,"connected_time":3758000000000,"state":"active","ping":134},{"user_id":451,"name":"Dimple #TF2Center","steam_id":76561198980324190,"connected_time":751000000000,"state":"active","ping":52},{"user_id":408,"name":"Algibruh","steam_id":76561199221599415,"connected_time":5344000000000,"state":"active","ping":37},{"user_id":454,"name":"Tom","steam_id":76561198070630154,"connected_time":404000000000,"state":"active","ping":86},{"user_id":431,"name":"Gull","steam_id":76561198161560332,"connected_time":2146000000000,"state":"active","ping":94},{"user_id":435,"name":"squash","steam_id":76561198150281353,"connected_time":1810000000000,"state":"active","ping":55},{"user_id":436,"name":"Ⓩre","steam_id":76561198044941294,"connected_time":1805000000000,"state":"active","ping":72},{"user_id":430,"name":"A Duck With Socks","steam_id":76561198018844227,"connected_time":2148000000000,"state":"active","ping":63},{"user_id":407,"name":"Lil Urge","steam_id":76561198162207470,"connected_time":5348000000000,"state":"active","ping":68},{"user_id":437,"name":"Bingus","steam_id":76561199225054690,"connected_time":1786000000000,"state":"active","ping":88},{"user_id":438,"name":"Mr. Tickle","steam_id":76561198126684647,"connected_time":1733000000000,"state":"active","ping":120},{"user_id":440,"name":"worker","steam_id":76561198039608940,"connected_time":1596000000000,"state":"active","ping":62},{"user_id":450,"name":"WillW1zard","steam_id":76561198095196189,"connected_time":770000000000,"state":"active","ping":78},{"user_id":453,"name":"I DECIDE","steam_id":76561198011675372,"connected_time":733000000000,"state":"active","ping":62},{"user_id":442,"name":"reiidaya","steam_id":76561198325306660,"connected_time":1516000000000,"state":"active","ping":54},{"user_id":443,"name":"how do i control my guy?","steam_id":76561198158855211,"connected_time":1476000000000,"state":"active","ping":49},{"user_id":444,"name":"oil","steam_id":76561198099980149,"connected_time":1441000000000,"state":"active","ping":82},{"user_id":377,"name":"sadlaxx","steam_id":76561198061354919,"connected_time":7108000000000,"state":"active","ping":87},{"user_id":445,"name":"Tour of Duty Ticket","steam_id":76561199203717878,"connected_time":1310000000000,"state":"active","ping":155},{"user_id":446,"name":"yup","steam_id":76561199190800520,"connected_time":1077000000000,"state":"active","ping":44}]},{"server_id":406,"name":"Uncletopia | Seattle | 3 | Stopwatch Beta","name_short":"sea-3","host":"sea-1.us.uncletopia.com","port":27035,"enabled":true,"region":"us-west","cc":"us","latitude":47.608013,"longitude":-122.33517,"reserved":0,"last_update":"0001-01-01T00:00:00Z","name_a2s":"Uncletopia | Seattle | 3 | Stopwatch Beta","protocol":17,"map":"cp_metalworks","folder":"tf","game":"Team Fortress","app_id":440,"player_count":0,"max_players":24,"Bots":0,"server_type":"Dedicated","server_os":"Linux","password":true,"vac":true,"version":"7757534","steam_id":85568392924515217,"keywords":["cp","nocrits","nodmgspread","uncletopia"],"game_id":440,"stv_port":27036,"stv_name":"Uncletopia | Seattle | 3 | Stopwatch Beta | STV","players":null},{"server_id":17,"name":"Uncletopia | San Francisco | 1 | All Maps","name_short":"sfo-1","host":"sfo-1.us.uncletopia.com","port":27015,"enabled":true,"region":"us-west","cc":"us","latitude":37.77397,"longitude":-122.4313,"reserved":0,"last_update":"0001-01-01T00:00:00Z","name_a2s":"Uncletopia | San Francisco | 1 | All Maps","protocol":17,"map":"pl_barnblitz","folder":"tf","game":"Team Fortress","app_id":440,"player_count":17,"max_players":24,"Bots":0,"server_type":"Dedicated","server_os":"Linux","password":true,"vac":true,"version":"7757534","steam_id":85568392924469999,"keywords":["nocrits","nodmgspread","payload","uncletopia"],"game_id":440,"stv_port":27016,"stv_name":"Uncletopia | San Francisco | 1 | All Maps | STV","players":[{"user_id":37,"name":"Red-Raven","steam_id":76561197971130794,"connected_time":456000000000,"state":"active","ping":67},{"user_id":39,"name":"RC Cola ®","steam_id":76561198165074941,"connected_time":334000000000,"state":"active","ping":63},{"user_id":34,"name":"FALRayne","steam_id":76561198113348816,"connected_time":509000000000,"state":"active","ping":85},{"user_id":14,"name":"bonus ducks","steam_id":76561199133093829,"connected_time":1249000000000,"state":"active","ping":123},{"user_id":31,"name":"Snow","steam_id":76561198151556270,"connected_time":525000000000,"state":"active","ping":61},{"user_id":32,"name":"Honda Element","steam_id":76561198086907573,"connected_time":513000000000,"state":"active","ping":89},{"user_id":38,"name":"Oomitch","steam_id":76561198071702759,"connected_time":451000000000,"state":"active","ping":73},{"user_id":17,"name":"lana_del_Rei.com","steam_id":76561198172447621,"connected_time":1095000000000,"state":"active","ping":55},{"user_id":18,"name":"kornelius korn","steam_id":76561199228839582,"connected_time":1044000000000,"state":"active","ping":64},{"user_id":20,"name":"Buswolley","steam_id":76561197995205571,"connected_time":907000000000,"state":"active","ping":53},{"user_id":33,"name":"PheebsyDeebsy","steam_id":76561198101509436,"connected_time":511000000000,"state":"active","ping":46},{"user_id":45,"name":"Avg. Santa Believer (Nice list)","steam_id":76561198040444697,"connected_time":25000000000,"state":"active","ping":116},{"user_id":41,"name":"\u003ccolor=#BB33DD\u003egamerH_0ST","steam_id":76561198051191857,"connected_time":266000000000,"state":"active","ping":109},{"user_id":46,"name":"Heisenberg Gaming","steam_id":76561199102371298,"connected_time":25000000000,"state":"spawning","ping":61},{"user_id":42,"name":"Lain","steam_id":76561198029303534,"connected_time":231000000000,"state":"active","ping":91},{"user_id":43,"name":"BluBlurToast","steam_id":76561198180918559,"connected_time":158000000000,"state":"active","ping":95},{"user_id":44,"name":"batheman63","steam_id":76561198881818552,"connected_time":139000000000,"state":"active","ping":126}]},{"server_id":18,"name":"Uncletopia | San Francisco | 2 | All Maps","name_short":"sfo-2","host":"sfo-1.us.uncletopia.com","port":27025,"enabled":true,"region":"us-west","cc":"us","latitude":37.77397,"longitude":-122.4313,"reserved":0,"last_update":"0001-01-01T00:00:00Z","name_a2s":"Uncletopia | San Francisco | 2 | All Maps","protocol":17,"map":"pl_badwater","folder":"tf","game":"Team Fortress","app_id":440,"player_count":0,"max_players":24,"Bots":0,"server_type":"Dedicated","server_os":"Linux","password":true,"vac":true,"version":"7757534","steam_id":85568392924470000,"keywords":["nocrits","nodmgspread","payload","uncletopia"],"game_id":440,"stv_port":27026,"stv_name":"Uncletopia | San Francisco | 2 | All Maps | STV","players":null},{"server_id":19,"name":"Uncletopia | San Francisco | 3 | Stopwatch Beta","name_short":"sfo-3","host":"sfo-1.us.uncletopia.com","port":27035,"enabled":true,"region":"us-west","cc":"us","latitude":37.77397,"longitude":-122.4313,"reserved":0,"last_update":"0001-01-01T00:00:00Z","name_a2s":"Uncletopia | San Francisco | 3 | Stopwatch Beta","protocol":17,"map":"pl_borneo","folder":"tf","game":"Team Fortress","app_id":440,"player_count":0,"max_players":24,"Bots":0,"server_type":"Dedicated","server_os":"Linux","password":true,"vac":true,"version":"7757534","steam_id":85568392924742824,"keywords":["nocrits","nodmgspread","payload","uncletopia"],"game_id":440,"stv_port":27036,"stv_name":"Uncletopia | San Francisco | 3 | Stopwatch Beta | STV","players":null},{"server_id":20,"name":"Uncletopia | San Francisco | 4 | Community","name_short":"sfo-4","host":"sfo-1.us.uncletopia.com","port":27045,"enabled":true,"region":"us-west","cc":"us","latitude":37.77397,"longitude":-122.4313,"reserved":0,"last_update":"0001-01-01T00:00:00Z","name_a2s":"Uncletopia | San Francisco | 4 | Community","protocol":17,"map":"koth_highpass","folder":"tf","game":"Team Fortress","app_id":440,"player_count":0,"max_players":24,"Bots":0,"server_type":"Dedicated","server_os":"Linux","password":true,"vac":true,"version":"7757534","steam_id":85568392924742826,"keywords":["cp","nocrits","nodmgspread","uncletopia"],"game_id":440,"stv_port":27046,"stv_name":"Uncletopia | San Francisco | 4 | Community | STV","players":null},{"server_id":141,"name":"Uncletopia | Sydney | 1 | All Maps","name_short":"syd-1","host":"syd-1.au.uncletopia.com","port":27015,"enabled":true,"region":"au","cc":"au","latitude":-33.865143,"longitude":151.2099,"reserved":0,"last_update":"0001-01-01T00:00:00Z","name_a2s":"Uncletopia | Sydney | 1 | All Maps","protocol":17,"map":"koth_highpass","folder":"tf","game":"Team Fortress","app_id":440,"player_count":0,"max_players":24,"Bots":0,"server_type":"Dedicated","server_os":"Linux","password":true,"vac":true,"version":"7757534","steam_id":85568392924470001,"keywords":["cp","nocrits","nodmgspread","uncletopia"],"game_id":440,"stv_port":27016,"stv_name":"Uncletopia | Sydney | 1 | All Maps | STV","players":null},{"server_id":123,"name":"Uncletopia | Sydney | 2 | All Maps","name_short":"syd-2","host":"syd-1.au.uncletopia.com","port":27025,"enabled":true,"region":"au","cc":"au","latitude":-33.865143,"longitude":151.2099,"reserved":0,"last_update":"0001-01-01T00:00:00Z","name_a2s":"Uncletopia | Sydney | 2 | All Maps","protocol":17,"map":"koth_viaduct","folder":"tf","game":"Team Fortress","app_id":440,"player_count":0,"max_players":24,"Bots":0,"server_type":"Dedicated","server_os":"Linux","password":true,"vac":true,"version":"7757534","steam_id":85568392924470002,"keywords":["cp","nocrits","nodmgspread","uncletopia"],"game_id":440,"stv_port":27026,"stv_name":"Uncletopia | Sydney | 2 | All Maps | STV","players":null},{"server_id":395,"name":"Uncletopia | Sydney | 3 | All Maps","name_short":"syd-3","host":"syd-1.au.uncletopia.com","port":27035,"enabled":true,"region":"au","cc":"au","latitude":-33.865143,"longitude":151.2099,"reserved":0,"last_update":"0001-01-01T00:00:00Z","name_a2s":"Uncletopia | Sydney | 3 | All Maps","protocol":17,"map":"pl_upward","folder":"tf","game":"Team Fortress","app_id":440,"player_count":0,"max_players":24,"Bots":0,"server_type":"Dedicated","server_os":"Linux","password":true,"vac":true,"version":"7757534","steam_id":85568392925194467,"keywords":["nocrits","nodmgspread","payload","uncletopia"],"game_id":440,"stv_port":27036,"stv_name":"Uncletopia | Sydney | 3 | All Maps | STV","players":null},{"server_id":396,"name":"Uncletopia | Sydney | 4 | All Maps","name_short":"syd-4","host":"syd-1.au.uncletopia.com","port":27045,"enabled":true,"region":"au","cc":"au","latitude":-33.865143,"longitude":151.2099,"reserved":0,"last_update":"0001-01-01T00:00:00Z","name_a2s":"Uncletopia | Sydney | 4 | All Maps","protocol":17,"map":"koth_lakeside_final","folder":"tf","game":"Team Fortress","app_id":440,"player_count":0,"max_players":24,"Bots":0,"server_type":"Dedicated","server_os":"Linux","password":true,"vac":true,"version":"7757534","steam_id":85568392925397958,"keywords":["cp","nocrits","nodmgspread","uncletopia"],"game_id":440,"stv_port":27046,"stv_name":"Uncletopia | Sydney | 4 | All Maps | STV","players":null},{"server_id":58,"name":"Uncletopia | Sydney | 5 | Stopwatch Beta","name_short":"syd-5","host":"syd-1.au.uncletopia.com","port":27055,"enabled":true,"region":"au","cc":"au","latitude":-33.865143,"longitude":151.2099,"reserved":0,"last_update":"0001-01-01T00:00:00Z","name_a2s":"Uncletopia | Sydney | 5 | Stopwatch Beta","protocol":17,"map":"koth_highpass","folder":"tf","game":"Team Fortress","app_id":440,"player_count":0,"max_players":24,"Bots":0,"server_type":"Dedicated","server_os":"Linux","password":true,"vac":true,"version":"7757534","steam_id":85568392925397959,"keywords":["cp","nocrits","nodmgspread","uncletopia"],"game_id":440,"stv_port":27056,"stv_name":"Uncletopia | Sydney | 5 | Stopwatch Beta | STV","players":null},{"server_id":59,"name":"Uncletopia | Sydney | 6 | Community","name_short":"syd-6","host":"syd-1.au.uncletopia.com","port":27065,"enabled":true,"region":"au","cc":"au","latitude":-33.865143,"longitude":151.2099,"reserved":0,"last_update":"0001-01-01T00:00:00Z","name_a2s":"Uncletopia | Sydney | 6 | Community","protocol":17,"map":"workshop/cp_sulfur_rc2.ugc619869471","folder":"tf","game":"Team Fortress","app_id":440,"player_count":0,"max_players":24,"Bots":0,"server_type":"Dedicated","server_os":"Linux","password":true,"vac":true,"version":"7757534","steam_id":85568392925397960,"keywords":["cp","nocrits","nodmgspread","uncletopia"],"game_id":440,"stv_port":27066,"stv_name":"Uncletopia | Sydney | 6 | Community | STV","players":null},{"server_id":49,"name":"Uncletopia | Warsaw | 1 | All Maps","name_short":"waw-1","host":"waw-1.pl.uncletopia.com","port":27015,"enabled":true,"region":"eu","cc":"pl","latitude":52.2297,"longitude":21.017532,"reserved":0,"last_update":"0001-01-01T00:00:00Z","name_a2s":"","protocol":0,"map":"","folder":"","game":"","app_id":0,"player_count":0,"max_players":0,"Bots":0,"server_type":"","server_os":"","password":false,"vac":false,"version":"","steam_id":0,"keywords":null,"game_id":0,"stv_port":0,"stv_name":"","players":null},{"server_id":50,"name":"Uncletopia | Warsaw | 2 | All Maps","name_short":"waw-2","host":"waw-1.pl.uncletopia.com","port":27025,"enabled":true,"region":"eu","cc":"pl","latitude":52.2297,"longitude":21.017532,"reserved":0,"last_update":"0001-01-01T00:00:00Z","name_a2s":"Uncletopia | Warsaw | 2 | All Maps","protocol":17,"map":"koth_lakeside_final","folder":"tf","game":"Team Fortress","app_id":440,"player_count":0,"max_players":24,"Bots":0,"server_type":"Dedicated","server_os":"Linux","password":true,"vac":true,"version":"7757534","steam_id":85568392925397851,"keywords":["cp","nocrits","nodmgspread","uncletopia"],"game_id":440,"stv_port":27026,"stv_name":"Uncletopia | Warsaw | 2 | All Maps | STV","players":null},{"server_id":51,"name":"Uncletopia | Warsaw | 3 | All Maps","name_short":"waw-3","host":"waw-1.pl.uncletopia.com","port":27035,"enabled":true,"region":"eu","cc":"pl","latitude":52.2297,"longitude":21.017532,"reserved":0,"last_update":"0001-01-01T00:00:00Z","name_a2s":"Uncletopia | Warsaw | 3 | All Maps","protocol":17,"map":"pl_borneo","folder":"tf","game":"Team Fortress","app_id":440,"player_count":8,"max_players":24,"Bots":0,"server_type":"Dedicated","server_os":"Linux","password":true,"vac":true,"version":"7757534","steam_id":85568392925397852,"keywords":["nocrits","nodmgspread","payload","uncletopia"],"game_id":440,"stv_port":27036,"stv_name":"Uncletopia | Warsaw | 3 | All Maps | STV","players":[{"user_id":6,"name":"Elora","steam_id":76561198040510572,"connected_time":795000000000,"state":"active","ping":84},{"user_id":7,"name":"lcqjp","steam_id":76561198062028720,"connected_time":783000000000,"state":"active","ping":169},{"user_id":8,"name":"OneManEnsemble","steam_id":76561198200890163,"connected_time":781000000000,"state":"active","ping":147},{"user_id":10,"name":"SuperSonic7CE","steam_id":76561198073856652,"connected_time":759000000000,"state":"active","ping":169},{"user_id":11,"name":"vampire","steam_id":76561198207073104,"connected_time":724000000000,"state":"active","ping":189},{"user_id":13,"name":"ARBUZ z murzynem","steam_id":76561198446272479,"connected_time":349000000000,"state":"active","ping":39},{"user_id":14,"name":"Magnus","steam_id":76561198047390683,"connected_time":288000000000,"state":"active","ping":178},{"user_id":16,"name":"LadyBonkula","steam_id":76561198065944911,"connected_time":49000000000,"state":"active","ping":176}]},{"server_id":52,"name":"Uncletopia | Warsaw | 4 | All Maps","name_short":"waw-4","host":"waw-1.pl.uncletopia.com","port":27045,"enabled":true,"region":"eu","cc":"pl","latitude":52.2297,"longitude":21.017532,"reserved":0,"last_update":"0001-01-01T00:00:00Z","name_a2s":"Uncletopia | Warsaw | 4 | All Maps","protocol":17,"map":"pl_borneo","folder":"tf","game":"Team Fortress","app_id":440,"player_count":0,"max_players":24,"Bots":0,"server_type":"Dedicated","server_os":"Linux","password":true,"vac":true,"version":"7757534","steam_id":85568392925397853,"keywords":["nocrits","nodmgspread","payload","uncletopia"],"game_id":440,"stv_port":27046,"stv_name":"Uncletopia | Warsaw | 4 | All Maps | STV","players":null},{"server_id":53,"name":"Uncletopia | Warsaw | 5 | Stopwatch Beta","name_short":"waw-5","host":"waw-1.pl.uncletopia.com","port":27055,"enabled":true,"region":"eu","cc":"pl","latitude":52.2297,"longitude":21.017532,"reserved":0,"last_update":"0001-01-01T00:00:00Z","name_a2s":"Uncletopia | Warsaw | 5 | Stopwatch Beta","protocol":17,"map":"pl_barnblitz","folder":"tf","game":"Team Fortress","app_id":440,"player_count":0,"max_players":24,"Bots":0,"server_type":"Dedicated","server_os":"Linux","password":true,"vac":true,"version":"7757534","steam_id":85568392925397854,"keywords":["nocrits","nodmgspread","payload","uncletopia"],"game_id":440,"stv_port":27056,"stv_name":"Uncletopia | Warsaw | 5 | Stopwatch Beta | STV","players":null},{"server_id":54,"name":"Uncletopia | Warsaw | 6 | Community","name_short":"waw-6","host":"waw-1.pl.uncletopia.com","port":27065,"enabled":true,"region":"eu","cc":"pl","latitude":52.2297,"longitude":21.017532,"reserved":0,"last_update":"0001-01-01T00:00:00Z","name_a2s":"Uncletopia | Warsaw | 6 | Community","protocol":17,"map":"workshop/koth_trenchfoot_b1a.ugc731436616","folder":"tf","game":"Team Fortress","app_id":440,"player_count":0,"max_players":24,"Bots":0,"server_type":"Dedicated","server_os":"Linux","password":true,"vac":true,"version":"7757534","steam_id":85568392925397856,"keywords":["cp","nocrits","nodmgspread","uncletopia"],"game_id":440,"stv_port":27066,"stv_name":"Uncletopia | Warsaw | 6 | Community | STV","players":null}]}