{"status":true,"message":"","result":[{"server_id":9,"name":"Uncletopia | Atlanta | 1 | All Maps","name_short":"atl-1","host":"atl-1.us.uncletopia.com","port":27015,"enabled":true,"region":"us-east","cc":"us","latitude":33.753746,"longitude":-84.38633,"reserved":0,"last_update":"0001-01-01T00:00:00Z","name_a2s":"Uncletopia | Atlanta | 1 | All Maps","protocol":17,"map":"pl_pier","folder":"tf","game":"Team Fortress","app_id":440,"player_count":24,"max_players":24,"Bots":0,"server_type":"Dedicated","server_os":"Linux","password":true,"vac":true,"version":"7882260","steam_id":85568392924469982,"keywords":["nocrits","nodmgspread","payload","uncletopia"],"game_id":440,"stv_port":27016,"stv_name":"Uncletopia | Atlanta | 1 | All Maps | STV","players":[{"user_id":293,"name":"William Wallace","steam_id":76561199343316814,"connected_time":2977000000000,"state":"active","ping":62},{"user_id":331,"name":"barbiegirl","steam_id":76561198213450215,"connected_time":793000000000,"state":"active","ping":72},{"user_id":342,"name":"seeyouauntie","steam_id":76561198045852999,"connected_time":432000000000,"state":"active","ping":90},{"user_id":330,"name":"lynt","steam_id":76561198988333976,"connected_time":871000000000,"state":"active","ping":41},{"user_id":343,"name":"Likeia #Savetf2","steam_id":76561198005214207,"connected_time":430000000000,"state":"active","ping":39},{"user_id":289,"name":"The Zoinkster","steam_id":76561198361971765,"connected_time":3101000000000,"state":"active","ping":63},{"user_id":307,"name":"what's your point of view","steam_id":76561198106938500,"connected_time":2368000000000,"state":"active","ping":95},{"user_id":329,"name":"Voids","steam_id":76561198128386726,"connected_time":953000000000,"state":"active","ping":65},{"user_id":335,"name":"TheTiredMario","steam_id":76561199062425739,"connected_time":726000000000,"state":"active","ping":54},{"user_id":346,"name":"fi_ji","steam_id":76561198126087725,"connected_time":54000000000,"state":"active","ping":72},{"user_id":318,"name":"peakmeta","steam_id":76561199053600691,"connected_time":1935000000000,"state":"active","ping":67},{"user_id":341,"name":"Snoball","steam_id":76561198205838372,"connected_time":547000000000,"state":"active","ping":45},{"user_id":295,"name":"Le0901","steam_id":76561198372891244,"connected_time":2974000000000,"state":"active","ping":88},{"user_id":337,"name":"jamjam the great","steam_id":76561198425919924,"connected_time":711000000000,"state":"active","ping":79},{"user_id":328,"name":"Uung","steam_id":76561198183956731,"connected_time":1084000000000,"state":"active","ping":55},{"user_id":319,"name":"Sh/7 Stain","steam_id":76561198408817739,"connected_time":1928000000000,"state":"active","ping":52},{"user_id":312,"name":"Reaper","steam_id":76561198435826103,"connected_time":2071000000000,"state":"active","ping":77},{"user_id":339,"name":"Quickman","steam_id":76561198810112739,"connected_time":633000000000,"state":"active","ping":72},{"user_id":327,"name":"Acro Banwagon","steam_id":76561198092451804,"connected_time":1181000000000,"state":"active","ping":78},{"user_id":338,"name":"3dspit","steam_id":76561197963326874,"connected_time":709000000000,"state":"active","ping":137},{"user_id":304,"name":"whittlo","steam_id":76561198056793479,"connected_time":2686000000000,"state":"active","ping":77},{"user_id":325,"name":"tulpa","steam_id":76561198013253513,"connected_time":1450000000000,"state":"active","ping":61},{"user_id":345,"name":"glquantum","steam_id":76561198057553971,"connected_time":96000000000,"state":"active","ping":62},{"user_id":344,"name":"Vault","steam_id":76561198073359479,"connected_time":422000000000,"state":"active","ping":82}]},{"server_id":104,"name":"Uncletopia | Atlanta | 2 | All Maps","name_short":"atl-2","host":"atl-1.us.uncletopia.com","port":27025,"enabled":true,"region":"us-east","cc":"us","latitude":33.753746,"longitude":-84.38633,"reserved":0,"last_update":"0001-01-01T00:00:00Z","name_a2s":"Uncletopia | Atlanta | 2 | All Maps","protocol":17,"map":"pl_goldrush","folder":"tf","game":"Team Fortress","app_id":440,"player_count":24,"max_players":24,"Bots":0,"server_type":"Dedicated","server_os":"Linux","password":true,"vac":true,"version":"7882260","steam_id":85568392924469983,"keywords":["nocrits","nodmgspread","payload","uncletopia"],"game_id":440,"stv_port":27026,"stv_name":"Uncletopia | Atlanta | 2 | All Maps | STV","players":[{"user_id":184,"name":"Grand","steam_id":76561198290143399,"connected_time":1776000000000,"state":"active","ping":76},{"user_id":181,"name":"rawrie","steam_id":76561198005371178,"connected_time":2038000000000,"state":"active","ping":45},{"user_id":160,"name":"[GUT] RiDiK®","steam_id":76561197969756446,"connected_time":3227000000000,"state":"active","ping":70},{"user_id":198,"name":"women cant airshot","steam_id":76561199231759121,"connected_time":528000000000,"state":"active","ping":188},{"user_id":167,"name":"Metal Silver","steam_id":76561198422159570,"connected_time":2615000000000,"state":"active","ping":71},{"user_id":75,"name":"Voodo133","steam_id":76561198042670351,"connected_time":8487000000000,"state":"active","ping":85},{"user_id":208,"name":"Senkkoo_","steam_id":76561198156810550,"connected_time":229000000000,"state":"active","ping":75},{"user_id":199,"name":"Cretronus","steam_id":76561198160854358,"connected_time":523000000000,"state":"active","ping":65},{"user_id":196,"name":"Corruptedplatypus","steam_id":76561198193537517,"connected_time":560000000000,"state":"active","ping":61},{"user_id":186,"name":"{ᴛʀ_ᴄᴇʀᴘ} zl","steam_id":76561198374406575,"connected_time":1747000000000,"state":"active","ping":106},{"user_id":200,"name":"Doctor Bear ʕ •ᴥ•ʔ","steam_id":76561197968103161,"connected_time":499000000000,"state":"active","ping":76},{"user_id":197,"name":"AnonymouzR011","steam_id":76561198262685906,"connected_time":556000000000,"state":"active","ping":114},{"user_id":168,"name":"Ice","steam_id":76561198045076794,"connected_time":2610000000000,"state":"active","ping":65},{"user_id":193,"name":"Brown_Dream","steam_id":76561198975766145,"connected_time":810000000000,"state":"active","ping":75},{"user_id":195,"name":"Hound_","steam_id":76561199389781834,"connected_time":605000000000,"state":"active","ping":113},{"user_id":207,"name":"nîshé™ #saveTF2","steam_id":76561198046869760,"connected_time":347000000000,"state":"active","ping":68},{"user_id":187,"name":"i never liked jazz jerry","steam_id":76561198114011311,"connected_time":1737000000000,"state":"active","ping":59},{"user_id":202,"name":"Kasodani Kyouko","steam_id":76561198023178589,"connected_time":462000000000,"state":"active","ping":101},{"user_id":182,"name":"mcjuice","steam_id":76561198087730829,"connected_time":1907000000000,"state":"active","ping":52},{"user_id":188,"name":"Sqiddwr","steam_id":76561197998071622,"connected_time":1677000000000,"state":"active","ping":95},{"user_id":205,"name":"charity","steam_id":76561198154398512,"connected_time":375000000000,"state":"active","ping":80},{"user_id":204,"name":"faxxy","steam_id":76561198079621240,"connected_time":448000000000,"state":"active","ping":92},{"user_id":190,"name":"LeadHickory","steam_id":76561198219756521,"connected_time":1629000000000,"state":"active","ping":97},{"user_id":176,"name":"FRANKY!!!","steam_id":76561199211305343,"connected_time":2498000000000,"state":"active","ping":110}]},{"server_id":400,"name":"Uncletopia | Atlanta | 3 | Community","name_short":"atl-3","host":"atl-1.us.uncletopia.com","port":27035,"enabled":true,"region":"us-east","cc":"us","latitude":33.753746,"longitude":-84.38633,"reserved":0,"last_update":"0001-01-01T00:00:00Z","name_a2s":"Uncletopia | Atlanta | 3 | Community","protocol":17,"map":"workshop/cp_sulfur_rc2.ugc619869471","folder":"tf","game":"Team Fortress","app_id":440,"player_count":0,"max_players":24,"Bots":0,"server_type":"Dedicated","server_os":"Linux","password":true,"vac":true,"version":"7882260","steam_id":85568392924515187,"keywords":["cp","nocrits","nodmgspread","uncletopia"],"game_id":440,"stv_port":27036,"stv_name":"Uncletopia | Atlanta | 3 | Community | STV","players":null},{"server_id":401,"name":"Uncletopia | Atlanta | 4 | No Payload","name_short":"atl-4","host":"atl-1.us.uncletopia.com","port":27045,"enabled":true,"region":"us-east","cc":"us","latitude":33.753746,"longitude":-84.38633,"reserved":0,"last_update":"0001-01-01T00:00:00Z","name_a2s":"","protocol":0,"map":"","folder":"","game":"","app_id":0,"player_count":0,"max_players":0,"Bots":0,"server_type":"","server_os":"","password":false,"vac":false,"version":"","steam_id":0,"keywords":null,"game_id":0,"stv_port":0,"stv_name":"","players":null},{"server_id":2,"name":"Uncletopia | Chicago | 1 | All Maps","name_short":"chi-1","host":"chi-1.us.uncletopia.com","port":27015,"enabled":true,"region":"us-central","cc":"us","latitude":41.881832,"longitude":-87.62318,"reserved":0,"last_update":"0001-01-01T00:00:00Z","name_a2s":"Uncletopia | Chicago | 1 | All Maps","protocol":17,"map":"pl_borneo","folder":"tf","game":"Team Fortress","app_id":440,"player_count":24,"max_players":24,"Bots":0,"server_type":"Dedicated","server_os":"Linux","password":true,"vac":true,"version":"7882260","steam_id":85568392924469984,"keywords":["nocrits","nodmgspread","payload","uncletopia"],"game_id":440,"stv_port":27016,"stv_name":"Uncletopia | Chicago | 1 | All Maps | STV","players":[{"user_id":113,"name":"rate my psychosis","steam_id":76561197999666480,"connected_time":2401000000000,"state":"active","ping":104},{"user_id":115,"name":"Shiro","steam_id":76561197979915878,"connected_time":2197000000000,"state":"active","ping":134},{"user_id":116,"name":"Ben","steam_id":76561198129254533,"connected_time":2123000000000,"state":"active","ping":86},{"user_id":143,"name":"Willy Wonker","steam_id":76561198082944789,"connected_time":97000000000,"state":"active","ping":89},{"user_id":139,"name":"Fredrick","steam_id":76561197981419964,"connected_time":131000000000,"state":"active","ping":69},{"user_id":83,"name":"Sychke","steam_id":76561198067144055,"connected_time":4957000000000,"state":"active","ping":43},{"user_id":136,"name":"goose","steam_id":76561198367551668,"connected_time":325000000000,"state":"active","ping":45},{"user_id":124,"name":"Smittywerbenjager-manjenson","steam_id":76561198067060742,"connected_time":1543000000000,"state":"active","ping":66},{"user_id":125,"name":"nhbiker","steam_id":76561198081277675,"connected_time":1538000000000,"state":"active","ping":45},{"user_id":140,"name":"wiiblob","steam_id":76561198109106242,"connected_time":128000000000,"state":"active","ping":136},{"user_id":126,"name":"FrozenFroh","steam_id":76561198065987572,"connected_time":1532000000000,"state":"active","ping":106},{"user_id":144,"name":"mrnotsogudguy","steam_id":76561199289893241,"connected_time":88000000000,"state":"active","ping":85},{"user_id":142,"name":"Peppino from Pizza Tower","steam_id":76561198144049265,"connected_time":112000000000,"state":"active","ping":80},{"user_id":101,"name":"Ziath","steam_id":76561198094009164,"connected_time":3071000000000,"state":"active","ping":63},{"user_id":48,"name":"vv","steam_id":76561198134813102,"connected_time":7746000000000,"state":"active","ping":60},{"user_id":91,"name":"some 7-11 Nachos","steam_id":76561199037688210,"connected_time":3485000000000,"state":"active","ping":113},{"user_id":145,"name":"Lo-Pan","steam_id":76561198085670133,"connected_time":77000000000,"state":"active","ping":76},{"user_id":146,"name":"HowdyYall","steam_id":76561199013768033,"connected_time":75000000000,"state":"spawning","ping":52},{"user_id":147,"name":"Ratty Rat","steam_id":76561199404116447,"connected_time":66000000000,"state":"active","ping":154},{"user_id":97,"name":"Astoriae!","steam_id":76561199090168858,"connected_time":3247000000000,"state":"active","ping":137},{"user_id":105,"name":"KAKAXA","steam_id":76561198016308641,"connected_time":2829000000000,"state":"active","ping":162},{"user_id":148,"name":"Monsrox","steam_id":76561198253732619,"connected_time":14000000000,"state":"spawning","ping":116},{"user_id":122,"name":"Try Gardening","steam_id":76561198120311340,"connected_time":1587000000000,"state":"active","ping":46},{"user_id":135,"name":"$lime k✔ng WHYYYTEb0y^-^","steam_id":76561198283687382,"connected_time":465000000000,"state":"active","ping":75}]},{"server_id":106,"name":"Uncletopia | Chicago | 2 | All Maps","name_short":"chi-2","host":"chi-1.us.uncletopia.com","port":27025,"enabled":true,"region":"us-central","cc":"us","latitude":41.881832,"longitude":-87.62318,"reserved":0,"last_update":"0001-01-01T00:00:00Z","name_a2s":"Uncletopia | Chicago | 2 | All Maps","protocol":17,"map":"pl_upward","folder":"tf","game":"Team Fortress","app_id":440,"player_count":24,"max_players":24,"Bots":0,"server_type":"Dedicated","server_os":"Linux","password":true,"vac":true,"version":"7882260","steam_id":85568392924469985,"keywords":["nocrits","nodmgspread","payload","uncletopia"],"game_id":440,"stv_port":27026,"stv_name":"Uncletopia | Chicago | 2 | All Maps | STV","players":[{"user_id":249,"name":"shep","steam_id":76561198048542544,"connected_time":3093000000000,"state":"active","ping":97},{"user_id":265,"name":"büddeh","steam_id":76561198070735936,"connected_time":1263000000000,"state":"active","ping":60},{"user_id":277,"name":"Yakts","steam_id":76561198115044159,"connected_time":189000000000,"state":"active","ping":89},{"user_id":274,"name":"1up","steam_id":76561198038080028,"connected_time":650000000000,"state":"active","ping":91},{"user_id":269,"name":"Bon Gripper","steam_id":76561198090074621,"connected_time":1167000000000,"state":"active","ping":63},{"user_id":189,"name":"Rec","steam_id":76561198022813906,"connected_time":7052000000000,"state":"active","ping":54},{"user_id":258,"name":"BoneHeadTRex","steam_id":76561199438411250,"connected_time":2351000000000,"state":"active","ping":96},{"user_id":225,"name":"Roseboy gaming","steam_id":76561199013287774,"connected_time":5002000000000,"state":"active","ping":81},{"user_id":268,"name":"doop","steam_id":76561198370487545,"connected_time":1222000000000,"state":"active","ping":76},{"user_id":256,"name":"A Puppy","steam_id":76561198828184456,"connected_time":2591000000000,"state":"active","ping":59},{"user_id":273,"name":"Mayhem","steam_id":76561197993811868,"connected_time":912000000000,"state":"active","ping":99},{"user_id":259,"name":"Goldoche","steam_id":76561197995065045,"connected_time":2348000000000,"state":"active","ping":82},{"user_id":234,"name":"JSClinton","steam_id":76561198067487389,"connected_time":4097000000000,"state":"active","ping":74},{"user_id":167,"name":"Yunky","steam_id":76561197966495749,"connected_time":8585000000000,"state":"active","ping":69},{"user_id":257,"name":"DonoC","steam_id":76561198274473338,"connected_time":2527000000000,"state":"active","ping":74},{"user_id":271,"name":"Jaydyn","steam_id":76561198140326797,"connected_time":996000000000,"state":"active","ping":81},{"user_id":275,"name":"Cap","steam_id":76561198050930123,"connected_time":415000000000,"state":"active","ping":55},{"user_id":278,"name":"Callahan","steam_id":76561198849981151,"connected_time":181000000000,"state":"active","ping":70},{"user_id":248,"name":"Ginger","steam_id":76561198074381106,"connected_time":3751000000000,"state":"active","ping":74},{"user_id":266,"name":"Wigl","steam_id":76561198019324464,"connected_time":1263000000000,"state":"active","ping":71},{"user_id":229,"name":"CinnamonBoy","steam_id":76561198882330338,"connected_time":4732000000000,"state":"active","ping":75},{"user_id":190,"name":"Jak(i)","steam_id":76561198076823144,"connected_time":7051000000000,"state":"active","ping":67},{"user_id":263,"name":"Sunshine","steam_id":76561198885528098,"connected_time":2064000000000,"state":"active","ping":67},{"user_id":272,"name":"crashymicsplody","steam_id":76561198213916765,"connected_time":985000000000,"state":"active","ping":66}]},{"server_id":402,"name":"Uncletopia | Chicago | 3 | All Maps","name_short":"chi-3","host":"chi-1.us.uncletopia.com","port":27035,"enabled":true,"region":"us-central","cc":"us","latitude":41.881832,"longitude":-87.62318,"reserved":0,"last_update":"0001-01-01T00:00:00Z","name_a2s":"Uncletopia | Chicago | 3 | All Maps","protocol":17,"map":"pl_borneo","folder":"tf","game":"Team Fortress","app_id":440,"player_count":24,"max_players":24,"Bots":0,"server_type":"Dedicated","server_os":"Linux","password":true,"vac":true,"version":"7882260","steam_id":85568392924515191,"keywords":["nocrits","nodmgspread","payload","uncletopia"],"game_id":440,"stv_port":27036,"stv_name":"Uncletopia | Chicago | 3 | All Maps | STV","players":[{"user_id":92,"name":"Mohammed","steam_id":76561198448718642,"connected_time":3521000000000,"state":"active","ping":70},{"user_id":143,"name":"Battlemedic27","steam_id":76561198121818007,"connected_time":690000000000,"state":"active","ping":77},{"user_id":117,"name":"anonion","steam_id":76561198056477584,"connected_time":1971000000000,"state":"active","ping":86},{"user_id":109,"name":"swag in ohio","steam_id":76561198031675881,"connected_time":2194000000000,"state":"active","ping":36},{"user_id":131,"name":"Scorpie Doodle","steam_id":76561198021845763,"connected_time":1095000000000,"state":"active","ping":53},{"user_id":136,"name":"killername","steam_id":76561199105156791,"connected_time":961000000000,"state":"active","ping":61},{"user_id":126,"name":"WatchWill","steam_id":76561198157237945,"connected_time":1400000000000,"state":"active","ping":71},{"user_id":130,"name":"tasty","steam_id":76561198083839061,"connected_time":1227000000000,"state":"active","ping":70},{"user_id":153,"name":"Zixzs","steam_id":76561198055504126,"connected_time":39000000000,"state":"active","ping":65},{"user_id":145,"name":"goopshit","steam_id":76561198126489501,"connected_time":591000000000,"state":"active","ping":46},{"user_id":151,"name":"Goku","steam_id":76561198064143198,"connected_time":59000000000,"state":"active","ping":52},{"user_id":152,"name":"TATARA","steam_id":76561199098759517,"connected_time":56000000000,"state":"active","ping":120},{"user_id":149,"name":"spats","steam_id":76561198186402167,"connected_time":220000000000,"state":"active","ping":76},{"user_id":154,"name":"pants","steam_id":76561198097564192,"connected_time":17000000000,"state":"active","ping":67},{"user_id":139,"name":"Bugc97","steam_id":76561198007662645,"connected_time":819000000000,"state":"active","ping":73},{"user_id":132,"name":"Knox","steam_id":76561198965045525,"connected_time":1090000000000,"state":"active","ping":107},{"user_id":146,"name":"DoubleX2000","steam_id":76561198164134387,"connected_time":582000000000,"state":"active","ping":104},{"user_id":98,"name":"papi perro","steam_id":76561198021649180,"connected_time":3425000000000,"state":"active","ping":68},{"user_id":141,"name":"jumbi","steam_id":76561198353456379,"connected_time":780000000000,"state":"active","ping":62},{"user_id":142,"name":"Dean Martin","steam_id":76561198846529984,"connected_time":765000000000,"state":"active","ping":88},{"user_id":123,"name":"Glad","steam_id":76561199388372220,"connected_time":1533000000000,"state":"active","ping":69},{"user_id":89,"name":"ror!","steam_id":76561198021227843,"connected_time":4379000000000,"state":"active","ping":45},{"user_id":99,"name":"emotional Suport engi :)","steam_id":76561198882404753,"connected_time":3418000000000,"state":"active","ping":75},{"user_id":125,"name":"muddy","steam_id":76561198035015260,"connected_time":1425000000000,"state":"active","ping":79}]},{"server_id":403,"name":"Uncletopia | Chicago | 4 | All Maps","name_short":"chi-4","host":"chi-1.us.uncletopia.com","port":27045,"enabled":true,"region":"us-central","cc":"us","latitude":41.881832,"longitude":-87.62318,"reserved":0,"last_update":"0001-01-01T00:00:00Z","name_a2s":"Uncletopia | Chicago | 4 | All Maps","protocol":17,"map":"koth_cascade","folder":"tf","game":"Team Fortress","app_id":440,"player_count":0,"max_players":24,"Bots":0,"server_type":"Dedicated","server_os":"Linux","password":true,"vac":true,"version":"7882260","steam_id":85568392924515193,"keywords":["cp","nocrits","nodmgspread","uncletopia"],"game_id":440,"stv_port":27046,"stv_name":"Uncletopia | Chicago | 4 | All Maps | STV","players":null},{"server_id":36,"name":"Uncletopia | Chicago | 5 | All Maps","name_short":"chi-5","host":"chi-2.us.uncletopia.com","port":27015,"enabled":true,"region":"us-central","cc":"us","latitude":41.881832,"longitude":-87.62318,"reserved":0,"last_update":"0001-01-01T00:00:00Z","name_a2s":"Uncletopia | Chicago | 5 | All Maps","protocol":17,"map":"pl_upward","folder":"tf","game":"Team Fortress","app_id":440,"player_count":24,"max_players":24,"Bots":0,"server_type":"Dedicated","server_os":"Linux","password":true,"vac":true,"version":"7882260","steam_id":85568392924866362,"keywords":["nocrits","nodmgspread","payload","uncletopia"],"game_id":440,"stv_port":27016,"stv_name":"Uncletopia | Chicago | 5 | All Maps | STV","players":[{"user_id":377,"name":"Lakhesis","steam_id":76561197969796919,"connected_time":2805000000000,"state":"active","ping":51},{"user_id":381,"name":"Rustyorion","steam_id":76561198439186347,"connected_time":2519000000000,"state":"active","ping":100},{"user_id":360,"name":"BigOrca54","steam_id":76561198181360271,"connected_time":3709000000000,"state":"active","ping":57},{"user_id":402,"name":"PeesTi2","steam_id":76561199016865192,"connected_time":1899000000000,"state":"active","ping":296},{"user_id":379,"name":"ultralisk52","steam_id":76561198051666604,"connected_time":2672000000000,"state":"active","ping":54},{"user_id":421,"name":"footoftheday","steam_id":76561198052712449,"connected_time":6000000000,"state":"spawning","ping":72},{"user_id":383,"name":"5unny PHD IN HATEOLOGY","steam_id":76561198133111058,"connected_time":2436000000000,"state":"active","ping":72},{"user_id":403,"name":"SoupDelivery","steam_id":76561198064906818,"connected_time":1791000000000,"state":"active","ping":109},{"user_id":409,"name":"[DEEP] Fitts1099","steam_id":76561198044986906,"connected_time":1361000000000,"state":"spawning","ping":236},{"user_id":405,"name":"Obelix","steam_id":76561198274715109,"connected_time":1676000000000,"state":"active","ping":49},{"user_id":420,"name":"Keather","steam_id":76561198971091188,"connected_time":43000000000,"state":"active","ping":159},{"user_id":389,"name":"Tohru","steam_id":76561198175722677,"connected_time":2258000000000,"state":"active","ping":91},{"user_id":419,"name":"Chin","steam_id":76561198247426906,"connected_time":392000000000,"state":"active","ping":71},{"user_id":390,"name":"unlucky killer","steam_id":76561199039152146,"connected_time":2234000000000,"state":"active","ping":87},{"user_id":412,"name":"Addy \u003c3","steam_id":76561198045819723,"connected_time":1257000000000,"state":"active","ping":79},{"user_id":394,"name":"josh","steam_id":76561198111565081,"connected_time":2187000000000,"state":"spawning","ping":105},{"user_id":407,"name":"jrdoran","steam_id":76561197984753094,"connected_time":1375000000000,"state":"active","ping":63},{"user_id":408,"name":"[DEEP] Danmar33","steam_id":76561198056453091,"connected_time":1371000000000,"state":"active","ping":77},{"user_id":395,"name":"ObiNotKenobi","steam_id":76561198340018440,"connected_time":2183000000000,"state":"active","ping":196},{"user_id":422,"name":"[PFF] Giacomo","steam_id":76561198058560798,"connected_time":2000000000,"state":"spawning","ping":40},{"user_id":411,"name":"Just call me Assteeth","steam_id":76561198049837377,"connected_time":1314000000000,"state":"active","ping":180},{"user_id":396,"name":"Soupman_Official","steam_id":76561198314308732,"connected_time":2173000000000,"state":"active","ping":113},{"user_id":413,"name":"301 ✟","steam_id":76561199238923581,"connected_time":1253000000000,"state":"spawning","ping":217},{"user_id":418,"name":"CyberZayne","steam_id":76561198002351356,"connected_time":702000000000,"state":"active","ping":101}]},{"server_id":37,"name":"Uncletopia | Chicago | 6 | All Maps","name_short":"chi-6","host":"chi-2.us.uncletopia.com","port":27025,"enabled":true,"region":"us-central","cc":"us","latitude":41.881832,"longitude":-87.62318,"reserved":0,"last_update":"0001-01-01T00:00:00Z","name_a2s":"Uncletopia | Chicago | 6 | All Maps","protocol":17,"map":"pl_badwater","folder":"tf","game":"Team Fortress","app_id":440,"player_count":0,"max_players":24,"Bots":0,"server_type":"Dedicated","server_os":"Linux","password":true,"vac":true,"version":"7882260","steam_id":85568392924866363,"keywords":["nocrits","nodmgspread","payload","uncletopia"],"game_id":440,"stv_port":27026,"stv_name":"Uncletopia | Chicago | 6 | All Maps | STV","players":null},{"server_id":38,"name":"Uncletopia | Chicago | 7 | Stopwatch Beta","name_short":"chi-7","host":"chi-2.us.uncletopia.com","port":27035,"enabled":true,"region":"us-central","cc":"us","latitude":41.881832,"longitude":-87.62318,"reserved":0,"last_update":"0001-01-01T00:00:00Z","name_a2s":"Uncletopia | Chicago | 7 | Stopwatch Beta","protocol":17,"map":"pl_borneo","folder":"tf","game":"Team Fortress","app_id":440,"player_count":0,"max_players":24,"Bots":0,"server_type":"Dedicated","server_os":"Linux","password":true,"vac":true,"version":"7882260","steam_id":85568392924866364,"keywords":["nocrits","nodmgspread","payload","uncletopia"],"game_id":440,"stv_port":27036,"stv_name":"Uncletopia | Chicago | 7 | Stopwatch Beta | STV","players":null},{"server_id":39,"name":"Uncletopia | Chicago | 8 | Community","name_short":"chi-8","host":"chi-2.us.uncletopia.com","port":27045,"enabled":true,"region":"us-central","cc":"us","latitude":41.881832,"longitude":-87.62318,"reserved":0,"last_update":"0001-01-01T00:00:00Z","name_a2s":"Uncletopia | Chicago | 8 | Community","protocol":17,"map":"cp_snakewater_final1","folder":"tf","game":"Team Fortress","app_id":440,"player_count":0,"max_players":24,"Bots":0,"server_type":"Dedicated","server_os":"Linux","password":true,"vac":true,"version":"7882260","steam_id":85568392924866365,"keywords":["cp","nocrits","nodmgspread","uncletopia"],"game_id":440,"stv_port":27046,"stv_name":"Uncletopia | Chicago | 8 | Community | STV","players":null},{"server_id":8,"name":"Uncletopia | Dallas | 1 | All Maps","name_short":"dal-1","host":"dal-1.us.uncletopia.com","port":27015,"enabled":true,"region":"us-central","cc":"us","latitude":32.779167,"longitude":-96.80889,"reserved":0,"last_update":"0001-01-01T00:00:00Z","name_a2s":"Uncletopia | Dallas | 1 | All Maps","protocol":17,"map":"cp_dustbowl","folder":"tf","game":"Team Fortress","app_id":440,"player_count":24,"max_players":24,"Bots":0,"server_type":"Dedicated","server_os":"Linux","password":true,"vac":true,"version":"7882260","steam_id":85568392924469986,"keywords":["cp","nocrits","nodmgspread","uncletopia"],"game_id":440,"stv_port":27016,"stv_name":"Uncletopia | Dallas | 1 | All Maps | STV","players":[{"user_id":119,"name":"Bot Maxwell","steam_id":76561198040781615,"connected_time":299000000000,"state":"active","ping":102},{"user_id":109,"name":"Jesus used Dead Ringer","steam_id":76561198268991349,"connected_time":492000000000,"state":"active","ping":66},{"user_id":101,"name":"Some Stupid Name","steam_id":76561198065575548,"connected_time":1544000000000,"state":"active","ping":83},{"user_id":110,"name":"Врубель","steam_id":76561198078990173,"connected_time":487000000000,"state":"active","ping":75},{"user_id":111,"name":"TrashMann","steam_id":76561198040969743,"connected_time":410000000000,"state":"active","ping":74},{"user_id":112,"name":"chesapeake","steam_id":76561198407129137,"connected_time":375000000000,"state":"active","ping":89},{"user_id":90,"name":"Jahy","steam_id":76561198332320244,"connected_time":2447000000000,"state":"active","ping":55},{"user_id":108,"name":"Jrock","steam_id":76561198045715996,"connected_time":862000000000,"state":"active","ping":108},{"user_id":62,"name":"ROGUE-PLANET","steam_id":76561198116023052,"connected_time":4035000000000,"state":"active","ping":64},{"user_id":91,"name":"alandus","steam_id":76561198310789626,"connected_time":2440000000000,"state":"active","ping":69},{"user_id":113,"name":"Tideflat","steam_id":76561198179850851,"connected_time":362000000000,"state":"active","ping":126},{"user_id":114,"name":"Mixbreed","steam_id":76561198087189722,"connected_time":350000000000,"state":"active","ping":63},{"user_id":42,"name":"1 cel","steam_id":76561198950243192,"connected_time":5252000000000,"state":"active","ping":80},{"user_id":115,"name":"Kid B8","steam_id":76561198086764710,"connected_time":342000000000,"state":"active","ping":74},{"user_id":116,"name":"chilling","steam_id":76561199350898075,"connected_time":341000000000,"state":"active","ping":140},{"user_id":123,"name":"gabaghoulio","steam_id":76561198013650292,"connected_time":181000000000,"state":"active","ping":116},{"user_id":118,"name":"qzxkl","steam_id":76561199230237210,"connected_time":316000000000,"state":"active","ping":89},{"user_id":120,"name":"You Don't Nomi.","steam_id":76561197969137836,"connected_time":260000000000,"state":"active","ping":97},{"user_id":121,"name":"god's drunkest driver","steam_id":76561198212115640,"connected_time":247000000000,"state":"active","ping":82},{"user_id":122,"name":"Mario \"Jumpman\" Mario","steam_id":76561198175748806,"connected_time":238000000000,"state":"active","ping":98},{"user_id":105,"name":"The Spectrum Diabetus®","steam_id":76561198297223309,"connected_time":1353000000000,"state":"active","ping":83},{"user_id":126,"name":"Admiral Angry","steam_id":76561198058199206,"connected_time":120000000000,"state":"active","ping":81},{"user_id":98,"name":"Dr. Robotniks Mean Bean Machine","steam_id":76561198047980627,"connected_time":1950000000000,"state":"active","ping":78},{"user_id":107,"name":"Cheese Miller","steam_id":76561199451933673,"connected_time":1108000000000,"state":"active","ping":84}]},{"server_id":108,"name":"Uncletopia | Dallas | 2 | All Maps","name_short":"dal-2","host":"dal-1.us.uncletopia.com","port":27025,"enabled":true,"region":"us-central","cc":"us","latitude":32.779167,"longitude":-96.80889,"reserved":0,"last_update":"0001-01-01T00:00:00Z","name_a2s":"Uncletopia | Dallas | 2 | All Maps","protocol":17,"map":"cp_sunshine","folder":"tf","game":"Team Fortress","app_id":440,"player_count":24,"max_players":24,"Bots":0,"server_type":"Dedicated","server_os":"Linux","password":true,"vac":true,"version":"7882260","steam_id":85568392924469988,"keywords":["cp","nocrits","nodmgspread","uncletopia"],"game_id":440,"stv_port":27026,"stv_name":"Uncletopia | Dallas | 2 | All Maps | STV","players":[{"user_id":118,"name":"DrStarBucksCoffee","steam_id":76561198037372470,"connected_time":1259000000000,"state":"active","ping":65},{"user_id":138,"name":"Royal Birb","steam_id":76561198124184158,"connected_time":339000000000,"state":"active","ping":73},{"user_id":117,"name":"minion sex offender","steam_id":76561199097909603,"connected_time":1335000000000,"state":"active","ping":165},{"user_id":127,"name":"Pombley","steam_id":76561198141227263,"connected_time":582000000000,"state":"active","ping":58},{"user_id":122,"name":"creeeeeee","steam_id":76561198392539722,"connected_time":1050000000000,"state":"active","ping":82},{"user_id":109,"name":"Blink","steam_id":76561197986181277,"connected_time":1757000000000,"state":"active","ping":45},{"user_id":139,"name":"Sgt. Pepper","steam_id":76561198063674627,"connected_time":331000000000,"state":"active","ping":76},{"user_id":121,"name":"Commissar","steam_id":76561198137223253,"connected_time":1085000000000,"state":"active","ping":52},{"user_id":119,"name":"Legit_Jaxer","steam_id":76561198172234053,"connected_time":1223000000000,"state":"active","ping":101},{"user_id":104,"name":"Snivy64","steam_id":76561198423445376,"connected_time":2215000000000,"state":"active","ping":61},{"user_id":120,"name":"Gavial the Invincible","steam_id":76561198348354629,"connected_time":1203000000000,"state":"active","ping":64},{"user_id":128,"name":"Miro","steam_id":76561198936412406,"connected_time":551000000000,"state":"active","ping":74},{"user_id":123,"name":"amazingzeal","steam_id":76561198135955352,"connected_time":1020000000000,"state":"active","ping":95},{"user_id":95,"name":"Marth down air","steam_id":76561199064758232,"connected_time":2725000000000,"state":"active","ping":56},{"user_id":129,"name":"AudaCD","steam_id":76561198202775853,"connected_time":542000000000,"state":"active","ping":58},{"user_id":130,"name":"Pinto","steam_id":76561199105386998,"connected_time":540000000000,"state":"active","ping":52},{"user_id":131,"name":"God","steam_id":76561199245320103,"connected_time":532000000000,"state":"active","ping":106},{"user_id":133,"name":"Yosh","steam_id":76561198027078899,"connected_time":485000000000,"state":"active","ping":74},{"user_id":92,"name":"Mini Sentry","steam_id":76561198151531499,"connected_time":2838000000000,"state":"active","ping":66},{"user_id":135,"name":"totoro","steam_id":76561198210420871,"connected_time":463000000000,"state":"active","ping":70},{"user_id":71,"name":"james may","steam_id":76561198043857339,"connected_time":4491000000000,"state":"active","ping":85},{"user_id":137,"name":"cheetaz","steam_id":76561198224614084,"connected_time":395000000000,"state":"active","ping":72},{"user_id":136,"name":"Atlas (Skylar)","steam_id":76561198041531774,"connected_time":448000000000,"state":"active","ping":79},{"user_id":80,"name":"basil","steam_id":76561198075758026,"connected_time":3686000000000,"state":"active","ping":89}]},{"server_id":5,"name":"Uncletopia | Frankfurt | 1 | All Maps","name_short":"frk-1","host":"frk-1.de.uncletopia.com","port":27015,"enabled":true,"region":"eu","cc":"de","latitude":50.110924,"longitude":8.682127,"reserved":0,"last_update":"0001-01-01T00:00:00Z","name_a2s":"Uncletopia | Frankfurt | 1 | All Maps","protocol":17,"map":"cp_sunshine","folder":"tf","game":"Team Fortress","app_id":440,"player_count":24,"max_players":24,"Bots":0,"server_type":"Dedicated","server_os":"Linux","password":true,"vac":true,"version":"7882260","steam_id":85568392924469989,"keywords":["cp","nocrits","nodmgspread","uncletopia"],"game_id":440,"stv_port":27016,"stv_name":"Uncletopia | Frankfurt | 1 | All Maps | STV","players":[{"user_id":401,"name":"Crunchips","steam_id":76561198004336818,"connected_time":2016000000000,"state":"active","ping":92},{"user_id":422,"name":"джегеми хэпкингс","steam_id":76561198131531394,"connected_time":313000000000,"state":"active","ping":89},{"user_id":382,"name":"Fish 'n' Chips","steam_id":76561198033476886,"connected_time":3165000000000,"state":"active","ping":45},{"user_id":372,"name":"꧁༒Xenon༒꧂","steam_id":76561198120502313,"connected_time":4667000000000,"state":"active","ping":76},{"user_id":415,"name":"Kemalismus","steam_id":76561198394441106,"connected_time":1062000000000,"state":"active","ping":116},{"user_id":405,"name":"dimitrij_6ix_god","steam_id":76561199023275543,"connected_time":1238000000000,"state":"active","ping":73},{"user_id":423,"name":"meap","steam_id":76561198126639221,"connected_time":156000000000,"state":"active","ping":90},{"user_id":407,"name":"MoinMaX40K","steam_id":76561199137983269,"connected_time":1224000000000,"state":"active","ping":98},{"user_id":380,"name":"Soerlssoelssöen","steam_id":76561197993060585,"connected_time":3287000000000,"state":"active","ping":71},{"user_id":417,"name":"I drink 3D printer ink","steam_id":76561198056434693,"connected_time":710000000000,"state":"active","ping":45},{"user_id":424,"name":"ddchdrn","steam_id":76561198024358566,"connected_time":134000000000,"state":"active","ping":60},{"user_id":409,"name":"mkwii","steam_id":76561198062507768,"connected_time":1218000000000,"state":"active","ping":51},{"user_id":410,"name":"JGV","steam_id":76561198094654971,"connected_time":1210000000000,"state":"active","ping":77},{"user_id":425,"name":"Loitsu","steam_id":76561198098177012,"connected_time":106000000000,"state":"active","ping":114},{"user_id":412,"name":"Yunker","steam_id":76561198339576891,"connected_time":1198000000000,"state":"active","ping":170},{"user_id":390,"name":"AproX","steam_id":76561198880652045,"connected_time":2651000000000,"state":"active","ping":75},{"user_id":391,"name":"boom","steam_id":76561199004664917,"connected_time":2544000000000,"state":"active","ping":105},{"user_id":413,"name":"hananamanna","steam_id":76561198006570285,"connected_time":1177000000000,"state":"active","ping":115},{"user_id":416,"name":"strahphic","steam_id":76561199279295106,"connected_time":874000000000,"state":"active","ping":127},{"user_id":426,"name":"Charles Darwin","steam_id":76561197973496139,"connected_time":80000000000,"state":"active","ping":60},{"user_id":394,"name":"Magirby","steam_id":76561198818777390,"connected_time":2503000000000,"state":"active","ping":101},{"user_id":427,"name":"giclure :;","steam_id":76561197986362828,"connected_time":62000000000,"state":"active","ping":59},{"user_id":396,"name":"JareJare","steam_id":76561199040893751,"connected_time":2416000000000,"state":"active","ping":86},{"user_id":421,"name":"Cyn","steam_id":76561198037521577,"connected_time":331000000000,"state":"active","ping":62}]},{"server_id":110,"name":"Uncletopia | Frankfurt | 2 | All Maps","name_short":"frk-2","host":"frk-1.de.uncletopia.com","port":27025,"enabled":true,"region":"eu","cc":"de","latitude":50.110924,"longitude":8.682127,"reserved":0,"last_update":"0001-01-01T00:00:00Z","name_a2s":"Uncletopia | Frankfurt | 2 | All Maps","protocol":17,"map":"pl_upward","folder":"tf","game":"Team Fortress","app_id":440,"player_count":21,"max_players":24,"Bots":0,"server_type":"Dedicated","server_os":"Linux","password":true,"vac":true,"version":"7882260","steam_id":85568392924469990,"keywords":["nocrits","nodmgspread","payload","uncletopia"],"game_id":440,"stv_port":27026,"stv_name":"Uncletopia | Frankfurt | 2 | All Maps | STV","players":[{"user_id":157,"name":"my poosy","steam_id":76561198170609049,"connected_time":300000000000,"state":"active","ping":86},{"user_id":158,"name":"pizzaboob","steam_id":76561198097507847,"connected_time":270000000000,"state":"active","ping":75},{"user_id":163,"name":"N00Bslayer69","steam_id":76561198251601692,"connected_time":80000000000,"state":"active","ping":77},{"user_id":140,"name":"MrBanana","steam_id":76561198116021623,"connected_time":1298000000000,"state":"active","ping":45},{"user_id":142,"name":"Ixsus\u003c3","steam_id":76561198094756869,"connected_time":1185000000000,"state":"active","ping":50},{"user_id":90,"name":"F.K. Fan","steam_id":76561198032359132,"connected_time":5042000000000,"state":"active","ping":60},{"user_id":126,"name":"KeTlEr","steam_id":76561198100957443,"connected_time":2786000000000,"state":"active","ping":74},{"user_id":145,"name":"Jånuary","steam_id":76561198272259060,"connected_time":1005000000000,"state":"active","ping":52},{"user_id":146,"name":"David \"Crash\" Murphy","steam_id":76561198292845505,"connected_time":958000000000,"state":"active","ping":80},{"user_id":147,"name":"Lessoz","steam_id":76561199211572036,"connected_time":916000000000,"state":"active","ping":91},{"user_id":149,"name":"strideΔ","steam_id":76561199007826093,"connected_time":741000000000,"state":"active","ping":79},{"user_id":161,"name":"Plain Toast","steam_id":76561198451580251,"connected_time":120000000000,"state":"active","ping":161},{"user_id":164,"name":"Raldow","steam_id":76561198021389301,"connected_time":70000000000,"state":"active","ping":70},{"user_id":154,"name":"SupMan","steam_id":76561199044123799,"connected_time":469000000000,"state":"active","ping":106},{"user_id":159,"name":"Radegast the Brown","steam_id":76561198075489505,"connected_time":213000000000,"state":"active","ping":60},{"user_id":155,"name":"minespweper","steam_id":76561199096919345,"connected_time":370000000000,"state":"active","ping":89},{"user_id":156,"name":"Dor_atar","steam_id":76561198973980542,"connected_time":346000000000,"state":"active","ping":69},{"user_id":160,"name":"My buutsy","steam_id":76561198067204908,"connected_time":178000000000,"state":"active","ping":66},{"user_id":165,"name":"Houf*venomcrosshairs","steam_id":76561198448050535,"connected_time":49000000000,"state":"active","ping":103},{"user_id":166,"name":"Red Shot 70","steam_id":76561198888787064,"connected_time":31000000000,"state":"spawning","ping":270},{"user_id":168,"name":"TJ1212","steam_id":76561199013575313,"connected_time":3000000000,"state":"spawning","ping":55}]},{"server_id":308,"name":"Uncletopia | Frankfurt | 3 | All Maps","name_short":"frk-3","host":"frk-1.de.uncletopia.com","port":27035,"enabled":true,"region":"eu","cc":"de","latitude":50.110924,"longitude":8.682127,"reserved":0,"last_update":"0001-01-01T00:00:00Z","name_a2s":"Uncletopia | Frankfurt | 3 | All Maps","protocol":17,"map":"pl_barnblitz","folder":"tf","game":"Team Fortress","app_id":440,"player_count":24,"max_players":24,"Bots":0,"server_type":"Dedicated","server_os":"Linux","password":true,"vac":true,"version":"7882260","steam_id":85568392924504274,"keywords":["nocrits","nodmgspread","payload","uncletopia"],"game_id":440,"stv_port":27036,"stv_name":"Uncletopia | Frankfurt | 3 | All Maps | STV","players":[{"user_id":536,"name":"Russian Bot","steam_id":76561197970526018,"connected_time":405000000000,"state":"active","ping":145},{"user_id":544,"name":"0","steam_id":76561199084809092,"connected_time":144000000000,"state":"active","ping":90},{"user_id":520,"name":"Rimx","steam_id":76561198053034840,"connected_time":1639000000000,"state":"active","ping":98},{"user_id":509,"name":"tallen","steam_id":76561198061708595,"connected_time":3646000000000,"state":"active","ping":87},{"user_id":538,"name":"PashaVerti","steam_id":76561199013963024,"connected_time":285000000000,"state":"active","ping":91},{"user_id":497,"name":"flr","steam_id":76561198249327786,"connected_time":4349000000000,"state":"active","ping":74},{"user_id":524,"name":"Estyle","steam_id":76561198157804700,"connected_time":1478000000000,"state":"active","ping":86},{"user_id":525,"name":"syms","steam_id":76561198066679812,"connected_time":1430000000000,"state":"active","ping":71},{"user_id":526,"name":"migger","steam_id":76561199387063710,"connected_time":1429000000000,"state":"active","ping":88},{"user_id":540,"name":"Lössö","steam_id":76561197994254413,"connected_time":244000000000,"state":"active","ping":70},{"user_id":503,"name":"After8","steam_id":76561198090750865,"connected_time":4024000000000,"state":"active","ping":62},{"user_id":488,"name":"glyph","steam_id":76561197980736364,"connected_time":5393000000000,"state":"active","ping":75},{"user_id":519,"name":"Toasty5050","steam_id":76561198073540881,"connected_time":2229000000000,"state":"active","ping":47},{"user_id":517,"name":"Chambersite","steam_id":76561198197022399,"connected_time":3051000000000,"state":"active","ping":68},{"user_id":500,"name":"Local anal opener","steam_id":76561198950402176,"connected_time":4101000000000,"state":"active","ping":58},{"user_id":542,"name":"Very Original Name","steam_id":76561199159833013,"connected_time":206000000000,"state":"active","ping":196},{"user_id":533,"name":"vurtun","steam_id":76561198857395274,"connected_time":842000000000,"state":"active","ping":56},{"user_id":528,"name":"mesλ","steam_id":76561198324582918,"connected_time":1380000000000,"state":"active","ping":95},{"user_id":543,"name":"Remizer","steam_id":76561198799755616,"connected_time":187000000000,"state":"active","ping":105},{"user_id":513,"name":"JunkJen","steam_id":76561198017223402,"connected_time":3113000000000,"state":"active","ping":71},{"user_id":529,"name":"H-say","steam_id":76561198177400362,"connected_time":1377000000000,"state":"active","ping":93},{"user_id":530,"name":"Труп Володя","steam_id":76561198035718457,"connected_time":1350000000000,"state":"active","ping":90},{"user_id":512,"name":"skatie","steam_id":76561198169487380,"connected_time":3170000000000,"state":"active","ping":81},{"user_id":532,"name":"My left foot itches","steam_id":76561198078411001,"connected_time":878000000000,"state":"active","ping":79}]},{"server_id":309,"name":"Uncletopia | Frankfurt | 4 | All Maps","name_short":"frk-4","host":"frk-1.de.uncletopia.com","port":27045,"enabled":true,"region":"eu","cc":"de","latitude":50.110924,"longitude":8.682127,"reserved":0,"last_update":"0001-01-01T00:00:00Z","name_a2s":"Uncletopia | Frankfurt | 4 | All Maps","protocol":17,"map":"cp_sunshine","folder":"tf","game":"Team Fortress","app_id":440,"player_count":18,"max_players":24,"Bots":0,"server_type":"Dedicated","server_os":"Linux","password":true,"vac":true,"version":"7882260","steam_id":85568392924504275,"keywords":["cp","nocrits","nodmgspread","uncletopia"],"game_id":440,"stv_port":27046,"stv_name":"Uncletopia | Frankfurt | 4 | All Maps | STV","players":[{"user_id":181,"name":"astigmatic","steam_id":76561199103959197,"connected_time":4436000000000,"state":"active","ping":88},{"user_id":228,"name":"Jaś Grzyb","steam_id":76561199027570521,"connected_time":497000000000,"state":"active","ping":54},{"user_id":230,"name":"reino76","steam_id":76561198068943733,"connected_time":47000000000,"state":"active","ping":85},{"user_id":219,"name":"Xydran","steam_id":76561198042397402,"connected_time":1146000000000,"state":"active","ping":70},{"user_id":224,"name":"beeb","steam_id":76561198211644077,"connected_time":834000000000,"state":"active","ping":77},{"user_id":169,"name":"roblan11","steam_id":76561198066839258,"connected_time":5067000000000,"state":"active","ping":45},{"user_id":227,"name":"svantezch","steam_id":76561198373831657,"connected_time":628000000000,"state":"active","ping":74},{"user_id":210,"name":"LordWoodpecker","steam_id":76561198031647387,"connected_time":1584000000000,"state":"active","ping":58},{"user_id":220,"name":"1ggy","steam_id":76561199051285912,"connected_time":1055000000000,"state":"active","ping":64},{"user_id":223,"name":"Mr.Schnittlauch","steam_id":76561198295868113,"connected_time":854000000000,"state":"active","ping":56},{"user_id":215,"name":"Rasbatu","steam_id":76561198119364896,"connected_time":1503000000000,"state":"active","ping":81},{"user_id":221,"name":"Void_Walker","steam_id":76561199401516997,"connected_time":984000000000,"state":"active","ping":61},{"user_id":226,"name":"Labia in Fishnets","steam_id":76561198061382104,"connected_time":817000000000,"state":"active","ping":60},{"user_id":179,"name":"Words570","steam_id":76561198354889690,"connected_time":4640000000000,"state":"active","ping":69},{"user_id":205,"name":"Yelowchy","steam_id":76561198199416121,"connected_time":2276000000000,"state":"active","ping":62},{"user_id":218,"name":"Fluffy","steam_id":76561198084447725,"connected_time":1348000000000,"state":"active","ping":47},{"user_id":189,"name":"trite","steam_id":76561197983765323,"connected_time":3661000000000,"state":"active","ping":62},{"user_id":137,"name":"Obvi","steam_id":76561198088735927,"connected_time":8065000000000,"state":"active","ping":61}]},{"server_id":310,"name":"Uncletopia | Frankfurt | 5 | All Maps","name_short":"frk-5","host":"frk-1.de.uncletopia.com","port":27055,"enabled":true,"region":"eu","cc":"de","latitude":50.110924,"longitude":8.682127,"reserved":0,"last_update":"0001-01-01T00:00:00Z","name_a2s":"Uncletopia | Frankfurt | 5 | All Maps","protocol":17,"map":"koth_viaduct","folder":"tf","game":"Team Fortress","app_id":440,"player_count":5,"max_players":24,"Bots":0,"server_type":"Dedicated","server_os":"Linux","password":true,"vac":true,"version":"7882260","steam_id":85568392924504277,"keywords":["cp","nocrits","nodmgspread","uncletopia"],"game_id":440,"stv_port":27056,"stv_name":"Uncletopia | Frankfurt | 5 | All Maps | STV","players":[{"user_id":18,"name":"Truegr","steam_id":76561198811912339,"connected_time":1333000000000,"state":"active","ping":54},{"user_id":19,"name":"fried","steam_id":76561198307522022,"connected_time":1323000000000,"state":"active","ping":50},{"user_id":20,"name":"yes","steam_id":76561199474391695,"connected_time":843000000000,"state":"active","ping":66},{"user_id":21,"name":"soppasetä | trade.tf","steam_id":76561198800563349,"connected_time":743000000000,"state":"active","ping":103},{"user_id":22,"name":"толя","steam_id":76561199098518615,"connected_time":690000000000,"state":"active","ping":63}]},{"server_id":311,"name":"Uncletopia | Frankfurt | 6 | All Maps","name_short":"frk-6","host":"frk-1.de.uncletopia.com","port":27065,"enabled":true,"region":"eu","cc":"de","latitude":50.110924,"longitude":8.682127,"reserved":0,"last_update":"0001-01-01T00:00:00Z","name_a2s":"Uncletopia | Frankfurt | 6 | All Maps","protocol":17,"map":"pl_pier","folder":"tf","game":"Team Fortress","app_id":440,"player_count":22,"max_players":24,"Bots":0,"server_type":"Dedicated","server_os":"Linux","password":true,"vac":true,"version":"7882260","steam_id":85568392924504278,"keywords":["nocrits","nodmgspread","payload","uncletopia"],"game_id":440,"stv_port":27066,"stv_name":"Uncletopia | Frankfurt | 6 | All Maps | STV","players":[{"user_id":623,"name":"cister0","steam_id":76561198130195469,"connected_time":3275000000000,"state":"active","ping":71},{"user_id":640,"name":"Ketich","steam_id":76561198021772703,"connected_time":1742000000000,"state":"active","ping":72},{"user_id":650,"name":"Jeetach","steam_id":76561199062437546,"connected_time":1172000000000,"state":"active","ping":45},{"user_id":657,"name":"maxharmony","steam_id":76561198233819688,"connected_time":927000000000,"state":"active","ping":92},{"user_id":652,"name":"Fat Pigeon","steam_id":76561198817940142,"connected_time":1147000000000,"state":"active","ping":55},{"user_id":660,"name":"DonD","steam_id":76561198061496731,"connected_time":447000000000,"state":"active","ping":75},{"user_id":669,"name":"Rook","steam_id":76561197995204779,"connected_time":20000000000,"state":"active","ping":64},{"user_id":639,"name":"Bobinsky","steam_id":76561198038242348,"connected_time":2012000000000,"state":"active","ping":60},{"user_id":653,"name":"Utvar","steam_id":76561198131838460,"connected_time":1126000000000,"state":"active","ping":64},{"user_id":654,"name":"RCST","steam_id":76561198174955254,"connected_time":1118000000000,"state":"active","ping":99},{"user_id":666,"name":"Lukas","steam_id":76561198009118452,"connected_time":84000000000,"state":"active","ping":55},{"user_id":662,"name":"pako","steam_id":76561198429046379,"connected_time":223000000000,"state":"active","ping":45},{"user_id":664,"name":"Brinier","steam_id":76561199012604288,"connected_time":125000000000,"state":"active","ping":60},{"user_id":663,"name":"pedestrianise gloucester rd","steam_id":76561198126022039,"connected_time":221000000000,"state":"active","ping":76},{"user_id":665,"name":"Jirro","steam_id":76561198193581143,"connected_time":94000000000,"state":"active","ping":69},{"user_id":587,"name":"omony","steam_id":76561197983750025,"connected_time":4864000000000,"state":"active","ping":89},{"user_id":667,"name":"Lopat","steam_id":76561198820264239,"connected_time":84000000000,"state":"active","ping":86},{"user_id":617,"name":"SantiTzePug","steam_id":76561199049615996,"connected_time":3550000000000,"state":"active","ping":79},{"user_id":646,"name":"meriones","steam_id":76561198034234373,"connected_time":1484000000000,"state":"active","ping":58},{"user_id":619,"name":"Sockmaster99","steam_id":76561199008494933,"connected_time":3537000000000,"state":"active","ping":71},{"user_id":671,"name":"kotamine","steam_id":76561198068907991,"connected_time":6000000000,"state":"spawning","ping":67},{"user_id":637,"name":"Vidrox #savetf2","steam_id":76561199217854983,"connected_time":2051000000000,"state":"active","ping":86}]},{"server_id":23,"name":"Uncletopia | Frankfurt | 7 | Stopwatch Beta","name_short":"frk-7","host":"frk-1.de.uncletopia.com","port":27075,"enabled":true,"region":"eu","cc":"de","latitude":50.110924,"longitude":8.682127,"reserved":0,"last_update":"0001-01-01T00:00:00Z","name_a2s":"Uncletopia | Frankfurt | 7 | Stopwatch Beta","protocol":17,"map":"workshop/cp_process_f12.ugc2302948105","folder":"tf","game":"Team Fortress","app_id":440,"player_count":0,"max_players":24,"Bots":0,"server_type":"Dedicated","server_os":"Linux","password":true,"vac":true,"version":"7882260","steam_id":85568392924742827,"keywords":["cp","nocrits","nodmgspread","uncletopia"],"game_id":440,"stv_port":27076,"stv_name":"Uncletopia | Frankfurt | 7 | Stopwatch Beta | STV","players":null},{"server_id":24,"name":"Uncletopia | Frankfurt | 8 | Community","name_short":"frk-8","host":"frk-1.de.uncletopia.com","port":27085,"enabled":true,"region":"eu","cc":"de","latitude":50.110924,"longitude":8.682127,"reserved":0,"last_update":"0001-01-01T00:00:00Z","name_a2s":"Uncletopia | Frankfurt | 8 | Community","protocol":17,"map":"koth_cascade","folder":"tf","game":"Team Fortress","app_id":440,"player_count":0,"max_players":24,"Bots":0,"server_type":"Dedicated","server_os":"Linux","password":true,"vac":true,"version":"7882260","steam_id":85568392924742828,"keywords":["cp","nocrits","nodmgspread","uncletopia"],"game_id":440,"stv_port":27086,"stv_name":"Uncletopia | Frankfurt | 8 | Community | STV","players":null},{"server_id":202,"name":"Uncletopia | Hong Kong | 1 | All Maps","name_short":"hgk-1","host":"hgk-1.hk.uncletopia.com","port":27015,"enabled":true,"region":"asia","cc":"hk","latitude":22.302711,"longitude":114.177216,"reserved":0,"last_update":"0001-01-01T00:00:00Z","name_a2s":"Uncletopia | Hong Kong | 1 | All Maps","protocol":17,"map":"koth_cascade","folder":"tf","game":"Team Fortress","app_id":440,"player_count":0,"max_players":24,"Bots":0,"server_type":"Dedicated","server_os":"Linux","password":true,"vac":true,"version":"7882260","steam_id":85568392924494504,"keywords":["cp","nocrits","nodmgspread","uncletopia"],"game_id":440,"stv_port":27016,"stv_name":"Uncletopia | Hong Kong | 1 | All Maps | STV","players":null},{"server_id":1,"name":"Uncletopia | Los Angeles | 1 | All Maps","name_short":"lax-1","host":"lax-1.us.uncletopia.com","port":27015,"enabled":true,"region":"us-west","cc":"us","latitude":33.94279,"longitude":-118.41004,"reserved":0,"last_update":"0001-01-01T00:00:00Z","name_a2s":"Uncletopia | Los Angeles | 1 | All Maps","protocol":17,"map":"cp_dustbowl","folder":"tf","game":"Team Fortress","app_id":440,"player_count":24,"max_players":24,"Bots":0,"server_type":"Dedicated","server_os":"Linux","password":true,"vac":true,"version":"7882260","steam_id":85568392924469991,"keywords":["cp","nocrits","nodmgspread","uncletopia"],"game_id":440,"stv_port":27016,"stv_name":"Uncletopia | Los Angeles | 1 | All Maps | STV","players":[{"user_id":63,"name":"Batman in one piece","steam_id":76561199129969202,"connected_time":7000000000,"state":"active","ping":217},{"user_id":10,"name":"Nibotshooter","steam_id":76561199284825579,"connected_time":2151000000000,"state":"active","ping":70},{"user_id":11,"name":"BlackArrow","steam_id":76561198402145629,"connected_time":1949000000000,"state":"active","ping":75},{"user_id":54,"name":"Platino","steam_id":76561198410957728,"connected_time":199000000000,"state":"active","ping":92},{"user_id":53,"name":"im basically a drunk driver rn","steam_id":76561198128164970,"connected_time":232000000000,"state":"active","ping":46},{"user_id":51,"name":"Drakon","steam_id":76561198078210822,"connected_time":416000000000,"state":"active","ping":60},{"user_id":62,"name":"BlazedBunny","steam_id":76561198243610560,"connected_time":100000000000,"state":"active","ping":87},{"user_id":16,"name":"Ockulus","steam_id":76561199069638460,"connected_time":1707000000000,"state":"active","ping":51},{"user_id":19,"name":"aar0n","steam_id":76561198122761287,"connected_time":1540000000000,"state":"active","ping":48},{"user_id":20,"name":"DiscoTraveler","steam_id":76561199240168088,"connected_time":1496000000000,"state":"active","ping":96},{"user_id":48,"name":"Void","steam_id":76561198308290211,"connected_time":705000000000,"state":"active","ping":64},{"user_id":56,"name":"The Backstabbing Bastard","steam_id":76561198112635823,"connected_time":143000000000,"state":"active","ping":84},{"user_id":24,"name":"Will Walters","steam_id":76561198249138216,"connected_time":1251000000000,"state":"active","ping":76},{"user_id":26,"name":"Schnitz","steam_id":76561198265484253,"connected_time":1202000000000,"state":"active","ping":61},{"user_id":57,"name":"dang it/darn it/crap","steam_id":76561198204593875,"connected_time":136000000000,"state":"active","ping":91},{"user_id":58,"name":"Effie","steam_id":76561198261842068,"connected_time":132000000000,"state":"active","ping":105},{"user_id":29,"name":"Heisen","steam_id":76561198136327361,"connected_time":1166000000000,"state":"active","ping":67},{"user_id":59,"name":"Random Person","steam_id":76561198990531385,"connected_time":124000000000,"state":"active","ping":92},{"user_id":46,"name":"WalkinMan","steam_id":76561198047941142,"connected_time":872000000000,"state":"active","ping":48},{"user_id":35,"name":"Madman","steam_id":76561198452780465,"connected_time":1022000000000,"state":"active","ping":118},{"user_id":36,"name":"squash","steam_id":76561198150281353,"connected_time":1019000000000,"state":"active","ping":88},{"user_id":41,"name":"MondoSchnoz","steam_id":76561198354925907,"connected_time":947000000000,"state":"active","ping":97},{"user_id":61,"name":"Mr defrost","steam_id":76561198322125657,"connected_time":115000000000,"state":"active","ping":87},{"user_id":43,"name":"mo","steam_id":76561198089471606,"connected_time":916000000000,"state":"active","ping":52}]},{"server_id":112,"name":"Uncletopia | Los Angeles | 2 | All Maps","name_short":"lax-2","host":"lax-1.us.uncletopia.com","port":27025,"enabled":true,"region":"us-west","cc":"us","latitude":33.94279,"longitude":-118.41004,"reserved":0,"last_update":"0001-01-01T00:00:00Z","name_a2s":"Uncletopia | Los Angeles | 2 | All Maps","protocol":17,"map":"koth_viaduct","folder":"tf","game":"Team Fortress","app_id":440,"player_count":0,"max_players":24,"Bots":0,"server_type":"Dedicated","server_os":"Linux","password":true,"vac":true,"version":"7882260","steam_id":85568392924469992,"keywords":["cp","nocrits","nodmgspread","uncletopia"],"game_id":440,"stv_port":27026,"stv_name":"Uncletopia | Los Angeles | 2 | All Maps | STV","players":null},{"server_id":324,"name":"Uncletopia | Los Angeles | 3 | All Maps","name_short":"lax-3","host":"lax-1.us.uncletopia.com","port":27035,"enabled":true,"region":"us-west","cc":"us","latitude":33.94279,"longitude":-118.41004,"reserved":0,"last_update":"0001-01-01T00:00:00Z","name_a2s":"Uncletopia | Los Angeles | 3 | All Maps","protocol":17,"map":"koth_cascade","folder":"tf","game":"Team Fortress","app_id":440,"player_count":8,"max_players":24,"Bots":0,"server_type":"Dedicated","server_os":"Linux","password":true,"vac":true,"version":"7882260","steam_id":85568392924510198,"keywords":["cp","nocrits","nodmgspread","uncletopia"],"game_id":440,"stv_port":27036,"stv_name":"Uncletopia | Los Angeles | 3 | All Maps | STV","players":[{"user_id":9,"name":"BDMango","steam_id":76561199323225729,"connected_time":1329000000000,"state":"active","ping":63},{"user_id":10,"name":"kdoubledizz","steam_id":76561199226501998,"connected_time":1241000000000,"state":"active","ping":60},{"user_id":11,"name":"CrackedSanity","steam_id":76561198279841251,"connected_time":931000000000,"state":"active","ping":45},{"user_id":12,"name":"Archie","steam_id":76561198137112917,"connected_time":665000000000,"state":"active","ping":46},{"user_id":14,"name":"McLovin","steam_id":76561198114934503,"connected_time":388000000000,"state":"active","ping":77},{"user_id":16,"name":"Cult of Dionysus Representative","steam_id":76561198394148916,"connected_time":161000000000,"state":"active","ping":92},{"user_id":18,"name":"Respirator Reaper","steam_id":76561198252399414,"connected_time":76000000000,"state":"active","ping":74},{"user_id":19,"name":"hatsune miku","steam_id":76561199445009981,"connected_time":5000000000,"state":"spawning","ping":70}]},{"server_id":25,"name":"Uncletopia | Los Angeles | 4 | Stopwatch Beta","name_short":"lax-4","host":"lax-1.us.uncletopia.com","port":27045,"enabled":true,"region":"us-west","cc":"us","latitude":33.94279,"longitude":-118.41004,"reserved":0,"last_update":"0001-01-01T00:00:00Z","name_a2s":"Uncletopia | Los Angeles | 4 | Stopwatch Beta","protocol":17,"map":"cp_snakewater_final1","folder":"tf","game":"Team Fortress","app_id":440,"player_count":0,"max_players":24,"Bots":0,"server_type":"Dedicated","server_os":"Linux","password":true,"vac":true,"version":"7882260","steam_id":85568392924510199,"keywords":["cp","nocrits","nodmgspread","uncletopia"],"game_id":440,"stv_port":27046,"stv_name":"Uncletopia | Los Angeles | 4 | Stopwatch Beta | STV","players":null},{"server_id":11,"name":"Uncletopia | London | 1 | All Maps","name_short":"lon-1","host":"lon-1.uk.uncletopia.com","port":27015,"enabled":true,"region":"eu","cc":"gb","latitude":51.509865,"longitude":-0.118092,"reserved":0,"last_update":"0001-01-01T00:00:00Z","name_a2s":"Uncletopia | London | 1 | All Maps","protocol":17,"map":"pl_goldrush","folder":"tf","game":"Team Fortress","app_id":440,"player_count":21,"max_players":24,"Bots":0,"server_type":"Dedicated","server_os":"Linux","password":true,"vac":true,"version":"7882260","steam_id":85568392924367362,"keywords":["nocrits","nodmgspread","payload","uncletopia"],"game_id":440,"stv_port":27016,"stv_name":"Uncletopia | London | 1 | All Maps | STV","players":[{"user_id":326,"name":"dark_neet","steam_id":76561198165826807,"connected_time":1359000000000,"state":"active","ping":152},{"user_id":278,"name":"gnarly business","steam_id":76561198832688767,"connected_time":5413000000000,"state":"active","ping":59},{"user_id":336,"name":"croco.","steam_id":76561198988882521,"connected_time":274000000000,"state":"active","ping":93},{"user_id":337,"name":"ijustsmokeandcry","steam_id":76561198044189114,"connected_time":104000000000,"state":"active","ping":83},{"user_id":338,"name":"BatemanPatrick","steam_id":76561198393691611,"connected_time":28000000000,"state":"active","ping":60},{"user_id":296,"name":"Jinx my beloved","steam_id":76561198819986745,"connected_time":3611000000000,"state":"active","ping":91},{"user_id":281,"name":"ayadam","steam_id":76561198161515769,"connected_time":4643000000000,"state":"active","ping":116},{"user_id":325,"name":"Aaron","steam_id":76561197990046953,"connected_time":1394000000000,"state":"active","ping":60},{"user_id":295,"name":"\u003c  \u003e #savetf2","steam_id":76561199213338939,"connected_time":3765000000000,"state":"active","ping":145},{"user_id":284,"name":"Dragco","steam_id":76561198133902802,"connected_time":4523000000000,"state":"active","ping":77},{"user_id":271,"name":"DeSepp","steam_id":76561198063149086,"connected_time":5954000000000,"state":"active","ping":71},{"user_id":244,"name":"Jesus Enjoyer","steam_id":76561198840259819,"connected_time":7269000000000,"state":"active","ping":60},{"user_id":334,"name":"Qxillum","steam_id":76561198037201297,"connected_time":411000000000,"state":"active","ping":56},{"user_id":339,"name":"1 toke 4 mars bars","steam_id":76561198056460000,"connected_time":21000000000,"state":"active","ping":50},{"user_id":272,"name":"Ewelinka Zniszczenia","steam_id":76561198307374456,"connected_time":5936000000000,"state":"active","ping":82},{"user_id":290,"name":"♜JeFF♜","steam_id":76561198207459721,"connected_time":4297000000000,"state":"active","ping":95},{"user_id":340,"name":"Mob","steam_id":76561199054382117,"connected_time":16000000000,"state":"active","ping":78},{"user_id":273,"name":"SpaceCake","steam_id":76561198151394497,"connected_time":5899000000000,"state":"active","ping":100},{"user_id":238,"name":"Alibi","steam_id":76561198061845595,"connected_time":7680000000000,"state":"active","ping":45},{"user_id":328,"name":"plont","steam_id":76561198060105180,"connected_time":1342000000000,"state":"active","ping":60},{"user_id":311,"name":"Rex Z'Beq","steam_id":76561199300590000,"connected_time":2813000000000,"state":"active","ping":86}]},{"server_id":114,"name":"Uncletopia | London | 2 | All Maps","name_short":"lon-2","host":"lon-1.uk.uncletopia.com","port":27025,"enabled":true,"region":"eu","cc":"gb","latitude":51.509865,"longitude":-0.118092,"reserved":0,"last_update":"0001-01-01T00:00:00Z","name_a2s":"Uncletopia | London | 2 | All Maps","protocol":17,"map":"pl_badwater","folder":"tf","game":"Team Fortress","app_id":440,"player_count":22,"max_players":24,"Bots":0,"server_type":"Dedicated","server_os":"Linux","password":true,"vac":true,"version":"7882260","steam_id":85568392924470941,"keywords":["nocrits","nodmgspread","payload","uncletopia"],"game_id":440,"stv_port":27026,"stv_name":"Uncletopia | London | 2 | All Maps | STV","players":[{"user_id":282,"name":"dafydd","steam_id":76561198052200325,"connected_time":905000000000,"state":"active","ping":96},{"user_id":278,"name":"kitsune miku","steam_id":76561198058432834,"connected_time":1300000000000,"state":"active","ping":54},{"user_id":268,"name":"ZackMcRizzl","steam_id":76561198062075870,"connected_time":1789000000000,"state":"active","ping":91},{"user_id":286,"name":"Joseph Stalin","steam_id":76561198033199746,"connected_time":293000000000,"state":"active","ping":60},{"user_id":276,"name":"scarecrow (evil)","steam_id":76561198082979347,"connected_time":1406000000000,"state":"active","ping":126},{"user_id":288,"name":"worm","steam_id":76561198345744589,"connected_time":272000000000,"state":"active","ping":65},{"user_id":221,"name":"LeSpiper","steam_id":76561198104757617,"connected_time":5235000000000,"state":"active","ping":39},{"user_id":226,"name":"Bartツ","steam_id":76561198164718893,"connected_time":4896000000000,"state":"active","ping":36},{"user_id":247,"name":"washed up","steam_id":76561198275742101,"connected_time":3924000000000,"state":"active","ping":69},{"user_id":258,"name":"Tekky","steam_id":76561197990987315,"connected_time":2793000000000,"state":"active","ping":36},{"user_id":293,"name":"Kaishakunin","steam_id":76561198028123874,"connected_time":145000000000,"state":"active","ping":97},{"user_id":235,"name":"joachym","steam_id":76561198428579761,"connected_time":4274000000000,"state":"active","ping":72},{"user_id":271,"name":"hipster_doofus","steam_id":76561197970902697,"connected_time":1629000000000,"state":"active","ping":56},{"user_id":222,"name":"s_dimo","steam_id":76561198289862451,"connected_time":5235000000000,"state":"active","ping":52},{"user_id":285,"name":"YoHn","steam_id":76561199178079625,"connected_time":761000000000,"state":"active","ping":125},{"user_id":273,"name":"Jan.","steam_id":76561197974066329,"connected_time":1578000000000,"state":"active","ping":60},{"user_id":251,"name":"wnna join my cucumber giveaway","steam_id":76561198069649097,"connected_time":3541000000000,"state":"active","ping":48},{"user_id":289,"name":"The Sex","steam_id":76561199142022395,"connected_time":256000000000,"state":"active","ping":83},{"user_id":252,"name":"gediot#2","steam_id":76561199229899155,"connected_time":3534000000000,"state":"active","ping":36},{"user_id":145,"name":"Mr_Pulse_","steam_id":76561198095001602,"connected_time":9314000000000,"state":"active","ping":114},{"user_id":256,"name":"Desj","steam_id":76561198114212636,"connected_time":3069000000000,"state":"active","ping":60},{"user_id":280,"name":"Axord","steam_id":76561199289652176,"connected_time":975000000000,"state":"active","ping":68}]},{"server_id":320,"name":"Uncletopia | London | 3 | All Maps","name_short":"lon-3","host":"lon-1.uk.uncletopia.com","port":27035,"enabled":true,"region":"eu","cc":"gb","latitude":51.509865,"longitude":-0.118092,"reserved":0,"last_update":"0001-01-01T00:00:00Z","name_a2s":"Uncletopia | London | 3 | All Maps","protocol":17,"map":"pl_borneo","folder":"tf","game":"Team Fortress","app_id":440,"player_count":23,"max_players":24,"Bots":0,"server_type":"Dedicated","server_os":"Linux","password":true,"vac":true,"version":"7882260","steam_id":85568392924510192,"keywords":["nocrits","nodmgspread","payload","uncletopia"],"game_id":440,"stv_port":27036,"stv_name":"Uncletopia | London | 3 | All Maps | STV","players":[{"user_id":521,"name":"ramirez","steam_id":76561198117060048,"connected_time":2209000000000,"state":"active","ping":66},{"user_id":552,"name":"rabbitface26","steam_id":76561198327540113,"connected_time":60000000000,"state":"active","ping":43},{"user_id":501,"name":"HurrpNana","steam_id":76561199102156562,"connected_time":3001000000000,"state":"active","ping":99},{"user_id":553,"name":"gameboy advance secret code","steam_id":76561198183999845,"connected_time":55000000000,"state":"active","ping":74},{"user_id":518,"name":"Largo","steam_id":76561198844368927,"connected_time":2500000000000,"state":"active","ping":90},{"user_id":520,"name":"lulu","steam_id":76561199147764133,"connected_time":2344000000000,"state":"active","ping":76},{"user_id":538,"name":"Mailer","steam_id":76561198062690074,"connected_time":475000000000,"state":"active","ping":61},{"user_id":485,"name":"78","steam_id":76561198208328357,"connected_time":4557000000000,"state":"active","ping":98},{"user_id":554,"name":"Jeppe","steam_id":76561198036055494,"connected_time":53000000000,"state":"active","ping":70},{"user_id":425,"name":"CommanderLex","steam_id":76561198123115529,"connected_time":7592000000000,"state":"active","ping":74},{"user_id":514,"name":"Mike","steam_id":76561198228455736,"connected_time":2605000000000,"state":"active","ping":50},{"user_id":536,"name":"Crazy Ivan","steam_id":76561197993072059,"connected_time":802000000000,"state":"active","ping":144},{"user_id":486,"name":"Tails8521","steam_id":76561198051747164,"connected_time":4552000000000,"state":"active","ping":61},{"user_id":539,"name":"Nifi","steam_id":76561198102682566,"connected_time":444000000000,"state":"active","ping":76},{"user_id":551,"name":"Devilish Ghouls","steam_id":76561198107784653,"connected_time":135000000000,"state":"active","ping":137},{"user_id":462,"name":"✪ qua ✪","steam_id":76561198066408333,"connected_time":5861000000000,"state":"active","ping":86},{"user_id":531,"name":"Stupid Sexy Flanders","steam_id":76561198136311983,"connected_time":1581000000000,"state":"active","ping":140},{"user_id":519,"name":"Son Goku","steam_id":76561199383437138,"connected_time":2444000000000,"state":"active","ping":127},{"user_id":498,"name":"Cosmetic brain","steam_id":76561198055936410,"connected_time":3274000000000,"state":"active","ping":91},{"user_id":543,"name":"hedon/","steam_id":76561198249832770,"connected_time":395000000000,"state":"active","ping":50},{"user_id":529,"name":"D0kai","steam_id":76561198389271720,"connected_time":1734000000000,"state":"active","ping":54},{"user_id":532,"name":"painting4","steam_id":76561198067554256,"connected_time":1566000000000,"state":"active","ping":53}]},{"server_id":321,"name":"Uncletopia | London | 4 | All Maps","name_short":"lon-4","host":"lon-1.uk.uncletopia.com","port":27045,"enabled":true,"region":"eu","cc":"gb","latitude":51.509865,"longitude":-0.118092,"reserved":0,"last_update":"0001-01-01T00:00:00Z","name_a2s":"Uncletopia | London | 4 | All Maps","protocol":17,"map":"pl_pier","folder":"tf","game":"Team Fortress","app_id":440,"player_count":23,"max_players":24,"Bots":0,"server_type":"Dedicated","server_os":"Linux","password":true,"vac":true,"version":"7882260","steam_id":85568392924510193,"keywords":["nocrits","nodmgspread","payload","uncletopia"],"game_id":440,"stv_port":27046,"stv_name":"Uncletopia | London | 4 | All Maps | STV","players":[{"user_id":233,"name":"Sandvich","steam_id":76561199079493666,"connected_time":762000000000,"state":"active","ping":109},{"user_id":215,"name":"skille","steam_id":76561198005794325,"connected_time":1707000000000,"state":"active","ping":74},{"user_id":87,"name":"Zerfesh","steam_id":76561198117534358,"connected_time":11088000000000,"state":"active","ping":110},{"user_id":191,"name":"Mr.Duck","steam_id":76561197983710667,"connected_time":3978000000000,"state":"active","ping":78},{"user_id":218,"name":"Andy","steam_id":76561198046918834,"connected_time":1544000000000,"state":"active","ping":70},{"user_id":238,"name":"Succubus_Lilith (She/They)","steam_id":76561198240578890,"connected_time":647000000000,"state":"active","ping":143},{"user_id":237,"name":"Voks_","steam_id":76561198159687785,"connected_time":670000000000,"state":"active","ping":70},{"user_id":223,"name":"Biskit","steam_id":76561198104877105,"connected_time":1298000000000,"state":"active","ping":55},{"user_id":240,"name":"Carter","steam_id":76561198005243938,"connected_time":629000000000,"state":"active","ping":61},{"user_id":239,"name":"Jen","steam_id":76561198800760923,"connected_time":642000000000,"state":"active","ping":103},{"user_id":228,"name":"Max Andrew","steam_id":76561198158955194,"connected_time":1126000000000,"state":"active","ping":51},{"user_id":232,"name":"I'M CLINICALLY INSANE","steam_id":76561198208349835,"connected_time":845000000000,"state":"active","ping":63},{"user_id":129,"name":"d u k k i","steam_id":76561198071807437,"connected_time":7801000000000,"state":"active","ping":89},{"user_id":241,"name":"FluoducK","steam_id":76561198158175778,"connected_time":586000000000,"state":"active","ping":68},{"user_id":231,"name":"Orbit","steam_id":76561198242999878,"connected_time":948000000000,"state":"active","ping":57},{"user_id":242,"name":"Roder","steam_id":76561199101393339,"connected_time":571000000000,"state":"active","ping":73},{"user_id":234,"name":"Silverdarlin","steam_id":76561198118540970,"connected_time":744000000000,"state":"active","ping":48},{"user_id":243,"name":"SwsNietNiek","steam_id":76561198049799253,"connected_time":549000000000,"state":"active","ping":60},{"user_id":217,"name":"weleenkerk","steam_id":76561198143969491,"connected_time":1687000000000,"state":"active","ping":67},{"user_id":235,"name":"Some Guy","steam_id":76561198137335527,"connected_time":715000000000,"state":"active","ping":52},{"user_id":203,"name":"British Disapproval","steam_id":76561198001375260,"connected_time":3107000000000,"state":"active","ping":61},{"user_id":189,"name":"Yami","steam_id":76561198000825743,"connected_time":4077000000000,"state":"active","ping":46},{"user_id":244,"name":"n1ceguy","steam_id":76561199199499453,"connected_time":488000000000,"state":"active","ping":83}]},{"server_id":21,"name":"Uncletopia | London | 5 | All Maps","name_short":"lon-5","host":"lon-1.uk.uncletopia.com","port":27055,"enabled":true,"region":"eu","cc":"gb","latitude":51.509865,"longitude":-0.118092,"reserved":0,"last_update":"0001-01-01T00:00:00Z","name_a2s":"Uncletopia | London | 5 | All Maps","protocol":17,"map":"cp_dustbowl","folder":"tf","game":"Team Fortress","app_id":440,"player_count":23,"max_players":24,"Bots":0,"server_type":"Dedicated","server_os":"Linux","password":true,"vac":true,"version":"7882260","steam_id":85568392924742829,"keywords":["cp","nocrits","nodmgspread","uncletopia"],"game_id":440,"stv_port":27056,"stv_name":"Uncletopia | London | 5 | All Maps | STV","players":[{"user_id":168,"name":"balanced diet","steam_id":76561198240320806,"connected_time":767000000000,"state":"active","ping":85},{"user_id":142,"name":"sneaky pete","steam_id":76561198066287297,"connected_time":2379000000000,"state":"active","ping":48},{"user_id":151,"name":"Rigel","steam_id":76561197993641284,"connected_time":1415000000000,"state":"active","ping":45},{"user_id":152,"name":"Snoucher","steam_id":76561198955323108,"connected_time":1398000000000,"state":"active","ping":82},{"user_id":158,"name":"Shrek","steam_id":76561199250487117,"connected_time":1144000000000,"state":"active","ping":99},{"user_id":162,"name":"meatsoupcube","steam_id":76561198276802249,"connected_time":932000000000,"state":"active","ping":107},{"user_id":123,"name":"RLCrazyCat3","steam_id":76561197983757878,"connected_time":3077000000000,"state":"active","ping":69},{"user_id":154,"name":"Reomk","steam_id":76561198309314129,"connected_time":1254000000000,"state":"active","ping":116},{"user_id":115,"name":"Qwertuss","steam_id":76561198026305366,"connected_time":3791000000000,"state":"active","ping":69},{"user_id":131,"name":"Hercules","steam_id":76561198041164170,"connected_time":2907000000000,"state":"active","ping":75},{"user_id":99,"name":"Economic crisis","steam_id":76561198063562843,"connected_time":5035000000000,"state":"active","ping":66},{"user_id":164,"name":"Stańczyk","steam_id":76561197998906563,"connected_time":847000000000,"state":"active","ping":42},{"user_id":160,"name":"LIGHTWEIGHT BABY","steam_id":76561198002761980,"connected_time":1025000000000,"state":"active","ping":60},{"user_id":177,"name":"CouT1nho","steam_id":76561198203926376,"connected_time":439000000000,"state":"active","ping":45},{"user_id":178,"name":"LaTeX Enjoyer","steam_id":76561198141757730,"connected_time":267000000000,"state":"active","ping":71},{"user_id":166,"name":"i am the one who glocks","steam_id":76561198140691505,"connected_time":832000000000,"state":"active","ping":60},{"user_id":148,"name":"Rosguard","steam_id":76561198030984263,"connected_time":1555000000000,"state":"active","ping":45},{"user_id":167,"name":"Pin","steam_id":76561198043820474,"connected_time":796000000000,"state":"active","ping":97},{"user_id":179,"name":"HoLy","steam_id":76561197997431870,"connected_time":149000000000,"state":"active","ping":75},{"user_id":120,"name":"Termenator_","steam_id":76561199358003730,"connected_time":3263000000000,"state":"active","ping":92},{"user_id":180,"name":"maybe blw.tf","steam_id":76561199028670732,"connected_time":133000000000,"state":"active","ping":63},{"user_id":129,"name":"Syd","steam_id":76561198020515027,"connected_time":2988000000000,"state":"active","ping":71},{"user_id":176,"name":"OFFICAL PUT CAKE BDB","steam_id":76561198256265555,"connected_time":582000000000,"state":"active","ping":93}]},{"server_id":22,"name":"Uncletopia | London | 6 | All Maps","name_short":"lon-6","host":"lon-1.uk.uncletopia.com","port":27065,"enabled":true,"region":"eu","cc":"gb","latitude":51.509865,"longitude":-0.118092,"reserved":0,"last_update":"0001-01-01T00:00:00Z","name_a2s":"Uncletopia | London | 6 | All Maps","protocol":17,"map":"pl_badwater","folder":"tf","game":"Team Fortress","app_id":440,"player_count":24,"max_players":24,"Bots":0,"server_type":"Dedicated","server_os":"Linux","password":true,"vac":true,"version":"7882260","steam_id":85568392924742830,"keywords":["nocrits","nodmgspread","payload","uncletopia"],"game_id":440,"stv_port":27066,"stv_name":"Uncletopia | London | 6 | All Maps | STV","players":[{"user_id":72,"name":"DARK VARNU","steam_id":76561198104896547,"connected_time":660000000000,"state":"active","ping":88},{"user_id":60,"name":"_lootgoblin_","steam_id":76561198029834199,"connected_time":1380000000000,"state":"active","ping":84},{"user_id":18,"name":"EddieTheBear","steam_id":76561197962698753,"connected_time":5481000000000,"state":"active","ping":85},{"user_id":12,"name":"Festive Pie","steam_id":76561198299159635,"connected_time":5918000000000,"state":"active","ping":70},{"user_id":13,"name":"Tortoise01Swe","steam_id":76561198118673227,"connected_time":5895000000000,"state":"active","ping":90},{"user_id":14,"name":"DOODL","steam_id":76561198358378176,"connected_time":5894000000000,"state":"active","ping":79},{"user_id":15,"name":"Patrik Stjärna","steam_id":76561198044435735,"connected_time":5886000000000,"state":"active","ping":95},{"user_id":16,"name":"Gardvord","steam_id":76561198120715753,"connected_time":5871000000000,"state":"active","ping":80},{"user_id":17,"name":"Elix","steam_id":76561198157179447,"connected_time":5829000000000,"state":"active","ping":69},{"user_id":19,"name":"Commander Slem","steam_id":76561198064900840,"connected_time":5279000000000,"state":"active","ping":80},{"user_id":61,"name":"PotatoAim","steam_id":76561198262489076,"connected_time":1258000000000,"state":"active","ping":55},{"user_id":62,"name":"Joe","steam_id":76561198061717026,"connected_time":1208000000000,"state":"active","ping":45},{"user_id":73,"name":"I Drink Diesel","steam_id":76561198354223410,"connected_time":384000000000,"state":"active","ping":37},{"user_id":63,"name":"Hudri Wudri","steam_id":76561198064115286,"connected_time":1091000000000,"state":"active","ping":76},{"user_id":74,"name":"Charon","steam_id":76561198061714753,"connected_time":377000000000,"state":"active","ping":83},{"user_id":64,"name":"HiiamAngel","steam_id":76561198240499888,"connected_time":1088000000000,"state":"active","ping":91},{"user_id":54,"name":"JSX #savetf2","steam_id":76561198039097662,"connected_time":2253000000000,"state":"active","ping":70},{"user_id":42,"name":"RapterXman","steam_id":76561198047341050,"connected_time":3823000000000,"state":"active","ping":57},{"user_id":65,"name":"Queen Dashie","steam_id":76561198097584870,"connected_time":1072000000000,"state":"active","ping":121},{"user_id":71,"name":"Unfortunate","steam_id":76561198125500777,"connected_time":772000000000,"state":"active","ping":104},{"user_id":47,"name":"Dakeyras","steam_id":76561198057069564,"connected_time":2984000000000,"state":"active","ping":100},{"user_id":76,"name":"Ay yo the pizza here","steam_id":76561198178250598,"connected_time":70000000000,"state":"active","ping":60},{"user_id":75,"name":"Your Going To Twitter","steam_id":76561199222788613,"connected_time":351000000000,"state":"active","ping":68},{"user_id":38,"name":"Germanium_Ge","steam_id":76561198130561775,"connected_time":4507000000000,"state":"active","ping":55}]},{"server_id":40,"name":"Uncletopia | London | 7 | No Payload","name_short":"lon-7","host":"lon-1.uk.uncletopia.com","port":27075,"enabled":true,"region":"eu","cc":"gb","latitude":51.509865,"longitude":-0.118092,"reserved":0,"last_update":"0001-01-01T00:00:00Z","name_a2s":"Uncletopia | London | 7 | No Payload","protocol":17,"map":"koth_badlands","folder":"tf","game":"Team Fortress","app_id":440,"player_count":22,"max_players":24,"Bots":0,"server_type":"Dedicated","server_os":"Linux","password":true,"vac":true,"version":"7882260","steam_id":85568392924964314,"keywords":["cp","nocrits","nodmgspread","uncletopia"],"game_id":440,"stv_port":27076,"stv_name":"Uncletopia | London | 7 | No Payload | STV","players":[{"user_id":307,"name":"fearlessbot","steam_id":76561199002587064,"connected_time":3382000000000,"state":"active","ping":45},{"user_id":333,"name":"Anoobis","steam_id":76561199419533757,"connected_time":1550000000000,"state":"active","ping":74},{"user_id":346,"name":"God's Goofiest Goober","steam_id":76561198103175187,"connected_time":221000000000,"state":"active","ping":75},{"user_id":341,"name":"PerskuleBenener","steam_id":76561198156899375,"connected_time":789000000000,"state":"active","ping":89},{"user_id":18,"name":"M2rtRa","steam_id":76561198111036466,"connected_time":24041000000000,"state":"active","ping":75},{"user_id":313,"name":"kite_76000000 | #save tf2","steam_id":76561199230921247,"connected_time":3221000000000,"state":"active","ping":44},{"user_id":310,"name":"go play rimworld","steam_id":76561199397932924,"connected_time":3294000000000,"state":"active","ping":72},{"user_id":335,"name":"IndigoJones","steam_id":76561198050284262,"connected_time":1324000000000,"state":"active","ping":45},{"user_id":329,"name":"hiding gaming","steam_id":76561199133635066,"connected_time":2021000000000,"state":"active","ping":73},{"user_id":293,"name":"Birdseye","steam_id":76561198025852216,"connected_time":3913000000000,"state":"active","ping":59},{"user_id":342,"name":"Envy","steam_id":76561198132723219,"connected_time":606000000000,"state":"active","ping":111},{"user_id":332,"name":"quickfast","steam_id":76561199438900919,"connected_time":1612000000000,"state":"active","ping":44},{"user_id":294,"name":"Gimli","steam_id":76561198004149706,"connected_time":3878000000000,"state":"active","ping":63},{"user_id":345,"name":"Garden Freeman","steam_id":76561199073314677,"connected_time":263000000000,"state":"active","ping":76},{"user_id":296,"name":"🦐 Tust 🦐","steam_id":76561198045694677,"connected_time":3794000000000,"state":"active","ping":52},{"user_id":343,"name":"\u003c blank \u003e","steam_id":76561198059375315,"connected_time":432000000000,"state":"active","ping":73},{"user_id":337,"name":"Providence","steam_id":76561198003920270,"connected_time":1097000000000,"state":"active","ping":72},{"user_id":348,"name":"TheBeardedM1G","steam_id":76561198040208946,"connected_time":79000000000,"state":"active","ping":45},{"user_id":330,"name":"Lou","steam_id":76561198043835724,"connected_time":1806000000000,"state":"active","ping":53},{"user_id":299,"name":"Tohseno","steam_id":76561197995813008,"connected_time":3663000000000,"state":"active","ping":53},{"user_id":350,"name":"cherry coal","steam_id":76561198822725169,"connected_time":38000000000,"state":"active","ping":50},{"user_id":344,"name":"Saul Goodman","steam_id":76561198346169853,"connected_time":270000000000,"state":"active","ping":102}]},{"server_id":41,"name":"Uncletopia | London | 8 | Community","name_short":"lon-8","host":"lon-1.uk.uncletopia.com","port":27085,"enabled":true,"region":"eu","cc":"gb","latitude":51.509865,"longitude":-0.118092,"reserved":0,"last_update":"0001-01-01T00:00:00Z","name_a2s":"Uncletopia | London | 8 | Community","protocol":17,"map":"pl_swiftwater_final1","folder":"tf","game":"Team Fortress","app_id":440,"player_count":0,"max_players":24,"Bots":0,"server_type":"Dedicated","server_os":"Linux","password":true,"vac":true,"version":"7882260","steam_id":85568392924964315,"keywords":["nocrits","nodmgspread","payload","uncletopia"],"game_id":440,"stv_port":27086,"stv_name":"Uncletopia | London | 8 | Community | STV","players":null},{"server_id":300,"name":"Uncletopia | Montréal | 1 | All Maps","name_short":"mtl-1","host":"mtl-1.ca.uncletopia.com","port":27015,"enabled":true,"region":"us-east","cc":"ca","latitude":45.50889,"longitude":-73.56167,"reserved":0,"last_update":"0001-01-01T00:00:00Z","name_a2s":"Uncletopia | Montréal | 1 | All Maps","protocol":17,"map":"pl_snowycoast","folder":"tf","game":"Team Fortress","app_id":440,"player_count":0,"max_players":24,"Bots":0,"server_type":"Dedicated","server_os":"Linux","password":true,"vac":true,"version":"7882260","steam_id":85568392924500087,"keywords":["nocrits","nodmgspread","payload","uncletopia"],"game_id":440,"stv_port":27016,"stv_name":"Uncletopia | Montréal | 1 | All Maps | STV","players":null},{"server_id":301,"name":"Uncletopia | Montréal | 2 | All Maps","name_short":"mtl-2","host":"mtl-1.ca.uncletopia.com","port":27025,"enabled":true,"region":"us-east","cc":"ca","latitude":45.50889,"longitude":-73.56167,"reserved":0,"last_update":"0001-01-01T00:00:00Z","name_a2s":"Uncletopia | Montréal | 2 | All Maps","protocol":17,"map":"pl_pier","folder":"tf","game":"Team Fortress","app_id":440,"player_count":0,"max_players":24,"Bots":0,"server_type":"Dedicated","server_os":"Linux","password":true,"vac":true,"version":"7882260","steam_id":85568392924500088,"keywords":["nocrits","nodmgspread","payload","uncletopia"],"game_id":440,"stv_port":27026,"stv_name":"Uncletopia | Montréal | 2 | All Maps | STV","players":null},{"server_id":302,"name":"Uncletopia | Montréal | 3 | All Maps","name_short":"mtl-3","host":"mtl-1.ca.uncletopia.com","port":27035,"enabled":true,"region":"us-east","cc":"ca","latitude":45.50889,"longitude":-73.56167,"reserved":0,"last_update":"0001-01-01T00:00:00Z","name_a2s":"Uncletopia | Montréal | 3 | All Maps","protocol":17,"map":"koth_lakeside_final","folder":"tf","game":"Team Fortress","app_id":440,"player_count":0,"max_players":24,"Bots":0,"server_type":"Dedicated","server_os":"Linux","password":true,"vac":true,"version":"7882260","steam_id":85568392924500089,"keywords":["cp","nocrits","nodmgspread","uncletopia"],"game_id":440,"stv_port":27036,"stv_name":"Uncletopia | Montréal | 3 | All Maps | STV","players":null},{"server_id":303,"name":"Uncletopia | Montréal | 4 | No Payload","name_short":"mtl-4","host":"mtl-1.ca.uncletopia.com","port":27045,"enabled":true,"region":"us-east","cc":"ca","latitude":45.50889,"longitude":-73.56167,"reserved":0,"last_update":"0001-01-01T00:00:00Z","name_a2s":"Uncletopia | Montréal | 4 | No Payload","protocol":17,"map":"cp_altitude","folder":"tf","game":"Team Fortress","app_id":440,"player_count":0,"max_players":24,"Bots":0,"server_type":"Dedicated","server_os":"Linux","password":true,"vac":true,"version":"7882260","steam_id":85568392924500090,"keywords":["cp","nocrits","nodmgspread","uncletopia"],"game_id":440,"stv_port":27046,"stv_name":"Uncletopia | Montréal | 4 | No Payload | STV","players":null},{"server_id":13,"name":"Uncletopia | New York City | 1 | All Maps","name_short":"nyc-1","host":"nyc-1.us.uncletopia.com","port":27015,"enabled":true,"region":"us-east","cc":"us","latitude":40.73061,"longitude":-73.93524,"reserved":0,"last_update":"0001-01-01T00:00:00Z","name_a2s":"Uncletopia | New York City | 1 | All Maps","protocol":17,"map":"pl_upward","folder":"tf","game":"Team Fortress","app_id":440,"player_count":24,"max_players":24,"Bots":0,"server_type":"Dedicated","server_os":"Linux","password":true,"vac":true,"version":"7882260","steam_id":85568392924469993,"keywords":["nocrits","nodmgspread","payload","uncletopia"],"game_id":440,"stv_port":27016,"stv_name":"Uncletopia | New York City | 1 | All Maps | STV","players":[{"user_id":129,"name":"alN","steam_id":76561198329171346,"connected_time":6576000000000,"state":"active","ping":54},{"user_id":190,"name":"craf","steam_id":76561198163535075,"connected_time":2117000000000,"state":"active","ping":57},{"user_id":205,"name":"cynics","steam_id":76561198086719843,"connected_time":476000000000,"state":"active","ping":52},{"user_id":191,"name":"Churchilla","steam_id":76561198317915810,"connected_time":2112000000000,"state":"active","ping":57},{"user_id":182,"name":"wolfgrey139","steam_id":76561199206554751,"connected_time":2706000000000,"state":"active","ping":60},{"user_id":210,"name":"Temujin","steam_id":76561198030936583,"connected_time":67000000000,"state":"active","ping":33},{"user_id":186,"name":"Kerflumple","steam_id":76561198050602757,"connected_time":2540000000000,"state":"active","ping":51},{"user_id":202,"name":"Kurt Biscuitmaker","steam_id":76561198331701823,"connected_time":1310000000000,"state":"active","ping":67},{"user_id":127,"name":"Bryguy","steam_id":76561198092096120,"connected_time":6731000000000,"state":"active","ping":54},{"user_id":211,"name":"Ciela","steam_id":76561198799403828,"connected_time":58000000000,"state":"active","ping":63},{"user_id":114,"name":"RelativeTitan1 λC","steam_id":76561198073717608,"connected_time":7577000000000,"state":"active","ping":90},{"user_id":150,"name":"Ash_Follow3","steam_id":76561199150479264,"connected_time":5426000000000,"state":"active","ping":64},{"user_id":203,"name":"[TF2Apples] Intense Green Apple","steam_id":76561198803561622,"connected_time":979000000000,"state":"active","ping":74},{"user_id":159,"name":"Super Ghostbusters (Full Album)","steam_id":76561198057415490,"connected_time":4641000000000,"state":"active","ping":70},{"user_id":201,"name":"Coffee","steam_id":76561198098622184,"connected_time":1706000000000,"state":"active","ping":70},{"user_id":170,"name":"Mr.noob","steam_id":76561199200442395,"connected_time":3687000000000,"state":"active","ping":154},{"user_id":163,"name":"Bee Sauce","steam_id":76561198055860449,"connected_time":4527000000000,"state":"active","ping":64},{"user_id":208,"name":"Nexusthenormie","steam_id":76561198880184146,"connected_time":129000000000,"state":"active","ping":36},{"user_id":189,"name":"Denzel McFlurry","steam_id":76561199231296521,"connected_time":2195000000000,"state":"active","ping":57},{"user_id":197,"name":"mineblast99","steam_id":76561199065648954,"connected_time":1988000000000,"state":"active","ping":73},{"user_id":206,"name":"custodian","steam_id":76561198058793778,"connected_time":271000000000,"state":"active","ping":48},{"user_id":204,"name":"gungiwump","steam_id":76561198110430494,"connected_time":959000000000,"state":"active","ping":44},{"user_id":198,"name":"docil meatsack gamer","steam_id":76561198043602407,"connected_time":1967000000000,"state":"active","ping":67}]},{"server_id":14,"name":"Uncletopia | New York City | 2 | All Maps","name_short":"nyc-2","host":"nyc-1.us.uncletopia.com","port":27025,"enabled":true,"region":"us-east","cc":"us","latitude":40.73061,"longitude":-73.93524,"reserved":0,"last_update":"0001-01-01T00:00:00Z","name_a2s":"Uncletopia | New York City | 2 | All Maps","protocol":17,"map":"cp_process_final","folder":"tf","game":"Team Fortress","app_id":440,"player_count":23,"max_players":24,"Bots":0,"server_type":"Dedicated","server_os":"Linux","password":true,"vac":true,"version":"7882260","steam_id":85568392924469994,"keywords":["cp","nocrits","nodmgspread","uncletopia"],"game_id":440,"stv_port":27026,"stv_name":"Uncletopia | New York City | 2 | All Maps | STV","players":[{"user_id":272,"name":"p4","steam_id":76561198078400787,"connected_time":1962000000000,"state":"active","ping":52},{"user_id":262,"name":"g00bur","steam_id":76561197993622520,"connected_time":2876000000000,"state":"active","ping":54},{"user_id":263,"name":"***FoRgIvEn***","steam_id":76561199216222247,"connected_time":2869000000000,"state":"active","ping":87},{"user_id":275,"name":"Primal","steam_id":76561197983118203,"connected_time":1461000000000,"state":"active","ping":85},{"user_id":286,"name":"tiktokhunks","steam_id":76561198092094133,"connected_time":292000000000,"state":"active","ping":88},{"user_id":285,"name":"✧Sex_Goblin✧(she/her)","steam_id":76561199057752358,"connected_time":312000000000,"state":"active","ping":70},{"user_id":265,"name":"m","steam_id":76561198069456508,"connected_time":2827000000000,"state":"active","ping":71},{"user_id":291,"name":"Hoodie_enthusiast","steam_id":76561199208883092,"connected_time":66000000000,"state":"active","ping":79},{"user_id":127,"name":"bullet","steam_id":76561199482235026,"connected_time":13079000000000,"state":"active","ping":60},{"user_id":279,"name":"Super D Duper","steam_id":76561198078203677,"connected_time":975000000000,"state":"active","ping":52},{"user_id":278,"name":"Duress","steam_id":76561198125302913,"connected_time":1018000000000,"state":"active","ping":40},{"user_id":211,"name":"Birch","steam_id":76561198316231704,"connected_time":8371000000000,"state":"active","ping":44},{"user_id":287,"name":"C papi","steam_id":76561198027779564,"connected_time":283000000000,"state":"active","ping":57},{"user_id":281,"name":"dw","steam_id":76561198418306144,"connected_time":762000000000,"state":"active","ping":69},{"user_id":260,"name":"Solstrom","steam_id":76561198313364985,"connected_time":3543000000000,"state":"active","ping":98},{"user_id":280,"name":"TheKromeDome","steam_id":76561198288951592,"connected_time":937000000000,"state":"active","ping":148},{"user_id":283,"name":"xen","steam_id":76561198048568188,"connected_time":505000000000,"state":"active","ping":46},{"user_id":288,"name":"Draykon","steam_id":76561198377247950,"connected_time":283000000000,"state":"active","ping":41},{"user_id":289,"name":"Midlife Crisis Jotaro","steam_id":76561199023562280,"connected_time":229000000000,"state":"active","ping":45},{"user_id":64,"name":"Raptortastic","steam_id":76561198105613110,"connected_time":18725000000000,"state":"active","ping":61},{"user_id":218,"name":"Fartly","steam_id":76561197987805095,"connected_time":6835000000000,"state":"active","ping":105},{"user_id":290,"name":"Lost CS player","steam_id":76561198892387723,"connected_time":173000000000,"state":"active","ping":59},{"user_id":221,"name":"--_Cook_--","steam_id":76561198080855748,"connected_time":6764000000000,"state":"active","ping":49}]},{"server_id":15,"name":"Uncletopia | New York City | 3 | Stopwatch Beta","name_short":"nyc-3","host":"nyc-1.us.uncletopia.com","port":27035,"enabled":true,"region":"us-east","cc":"us","latitude":40.73061,"longitude":-73.93524,"reserved":0,"last_update":"0001-01-01T00:00:00Z","name_a2s":"Uncletopia | New York City | 3 | Stopwatch Beta","protocol":17,"map":"pl_borneo","folder":"tf","game":"Team Fortress","app_id":440,"player_count":0,"max_players":24,"Bots":0,"server_type":"Dedicated","server_os":"Linux","password":true,"vac":true,"version":"7882260","steam_id":85568392924742820,"keywords":["nocrits","nodmgspread","payload","uncletopia"],"game_id":440,"stv_port":27036,"stv_name":"Uncletopia | New York City | 3 | Stopwatch Beta | STV","players":null},{"server_id":16,"name":"Uncletopia | New York City | 4 | Community","name_short":"nyc-4","host":"nyc-1.us.uncletopia.com","port":27045,"enabled":true,"region":"us-east","cc":"us","latitude":40.73061,"longitude":-73.93524,"reserved":0,"last_update":"0001-01-01T00:00:00Z","name_a2s":"Uncletopia | New York City | 4 | Community","protocol":17,"map":"pl_badwater","folder":"tf","game":"Team Fortress","app_id":440,"player_count":0,"max_players":24,"Bots":0,"server_type":"Dedicated","server_os":"Linux","password":true,"vac":true,"version":"7882260","steam_id":85568392924742821,"keywords":["nocrits","nodmgspread","payload","uncletopia"],"game_id":440,"stv_port":27046,"stv_name":"Uncletopia | New York City | 4 | Community | STV","players":null},{"server_id":142,"name":"Uncletopia | São Paulo | 1 | All Maps","name_short":"sao-1","host":"sao-1.br.uncletopia.com","port":27015,"enabled":true,"region":"sa","cc":"br","latitude":-23.533773,"longitude":-46.62529,"reserved":0,"last_update":"0001-01-01T00:00:00Z","name_a2s":"Uncletopia | São Paulo | 1 | All Maps","protocol":17,"map":"cp_coldfront","folder":"tf","game":"Team Fortress","app_id":440,"player_count":0,"max_players":24,"Bots":0,"server_type":"Dedicated","server_os":"Linux","password":true,"vac":true,"version":"7882260","steam_id":85568392924469996,"keywords":["cp","nocrits","nodmgspread","uncletopia"],"game_id":440,"stv_port":27016,"stv_name":"Uncletopia | São Paulo | 1 | All Maps | STV","players":null},{"server_id":143,"name":"Uncletopia | São Paulo | 2 | All Maps","name_short":"sao-2","host":"sao-2.br.uncletopia.com","port":27015,"enabled":true,"region":"sa","cc":"br","latitude":-23.533773,"longitude":-46.62529,"reserved":0,"last_update":"0001-01-01T00:00:00Z","name_a2s":"Uncletopia | São Paulo | 2 | All Maps","protocol":17,"map":"pl_swiftwater_final1","folder":"tf","game":"Team Fortress","app_id":440,"player_count":0,"max_players":24,"Bots":0,"server_type":"Dedicated","server_os":"Linux","password":true,"vac":true,"version":"7882260","steam_id":85568392924485349,"keywords":["nocrits","nodmgspread","payload","uncletopia"],"game_id":440,"stv_port":27016,"stv_name":"Uncletopia | São Paulo | 2 | All Maps | STV","players":null},{"server_id":7,"name":"Uncletopia | Seattle | 1 | All Maps","name_short":"sea-1","host":"sea-1.us.uncletopia.com","port":27015,"enabled":true,"region":"us-west","cc":"us","latitude":47.608013,"longitude":-122.33517,"reserved":0,"last_update":"0001-01-01T00:00:00Z","name_a2s":"Uncletopia | Seattle | 1 | All Maps","protocol":17,"map":"koth_viaduct","folder":"tf","game":"Team Fortress","app_id":440,"player_count":24,"max_players":24,"Bots":0,"server_type":"Dedicated","server_os":"Linux","password":true,"vac":true,"version":"7882260","steam_id":85568392924469997,"keywords":["cp","nocrits","nodmgspread","uncletopia"],"game_id":440,"stv_port":27016,"stv_name":"Uncletopia | Seattle | 1 | All Maps | STV","players":[{"user_id":254,"name":"ghostFireGloom","steam_id":76561198385231745,"connected_time":892000000000,"state":"active","ping":51},{"user_id":255,"name":"Tyler\u0026Fingers","steam_id":76561198085154485,"connected_time":773000000000,"state":"active","ping":128},{"user_id":245,"name":"PeaceVector","steam_id":76561198030679584,"connected_time":1448000000000,"state":"active","ping":148},{"user_id":260,"name":"V∆lume The 1rd","steam_id":76561198133260990,"connected_time":555000000000,"state":"active","ping":58},{"user_id":247,"name":"CreativeUsername","steam_id":76561198186045503,"connected_time":1333000000000,"state":"active","ping":98},{"user_id":266,"name":"FidelGuevara","steam_id":76561198368296171,"connected_time":123000000000,"state":"active","ping":104},{"user_id":263,"name":"rick hardslab","steam_id":76561198048007844,"connected_time":474000000000,"state":"active","ping":71},{"user_id":264,"name":"Acute Surrealism","steam_id":76561198109618175,"connected_time":473000000000,"state":"active","ping":146},{"user_id":241,"name":"emperor belos gaming","steam_id":76561198173086317,"connected_time":1583000000000,"state":"active","ping":129},{"user_id":233,"name":"BuncusBeffer","steam_id":76561198285936616,"connected_time":2108000000000,"state":"active","ping":81},{"user_id":225,"name":"jacix3 [gay wolfgirl]{she/it}","steam_id":76561198205004165,"connected_time":2499000000000,"state":"active","ping":61},{"user_id":265,"name":"M","steam_id":76561198255827013,"connected_time":198000000000,"state":"active","ping":83},{"user_id":246,"name":"KellyKapoor","steam_id":76561198040828123,"connected_time":1440000000000,"state":"active","ping":37},{"user_id":267,"name":"Aqua Tofana","steam_id":76561198351183381,"connected_time":32000000000,"state":"active","ping":91},{"user_id":231,"name":"AmiableNebula","steam_id":76561198094306627,"connected_time":2225000000000,"state":"active","ping":75},{"user_id":226,"name":"Lazy","steam_id":76561198802747832,"connected_time":2485000000000,"state":"active","ping":53},{"user_id":256,"name":"128gb sd card","steam_id":76561198043636749,"connected_time":622000000000,"state":"active","ping":71},{"user_id":211,"name":"Awenova","steam_id":76561198322928940,"connected_time":3515000000000,"state":"active","ping":112},{"user_id":242,"name":"no vc no c","steam_id":76561197989503095,"connected_time":1510000000000,"state":"active","ping":151},{"user_id":249,"name":"Linkal_","steam_id":76561199122836553,"connected_time":1255000000000,"state":"active","ping":55},{"user_id":220,"name":"John Galt","steam_id":76561198073595763,"connected_time":2992000000000,"state":"active","ping":53},{"user_id":262,"name":"Chiyoda","steam_id":76561197971843476,"connected_time":553000000000,"state":"active","ping":100},{"user_id":251,"name":"Boyaredeen","steam_id":76561198880492636,"connected_time":1189000000000,"state":"active","ping":53},{"user_id":253,"name":"The Gremlin","steam_id":76561198419066993,"connected_time":1150000000000,"state":"active","ping":71}]},{"server_id":119,"name":"Uncletopia | Seattle | 2 | All Maps","name_short":"sea-2","host":"sea-1.us.uncletopia.com","port":27025,"enabled":true,"region":"us-west","cc":"us","latitude":47.608013,"longitude":-122.33517,"reserved":0,"last_update":"0001-01-01T00:00:00Z","name_a2s":"Uncletopia | Seattle | 2 | All Maps","protocol":17,"map":"cp_process_final","folder":"tf","game":"Team Fortress","app_id":440,"player_count":0,"max_players":24,"Bots":0,"server_type":"Dedicated","server_os":"Linux","password":true,"vac":true,"version":"7882260","steam_id":85568392924469998,"keywords":["cp","nocrits","nodmgspread","uncletopia"],"game_id":440,"stv_port":27026,"stv_name":"Uncletopia | Seattle | 2 | All Maps | STV","players":null},{"server_id":406,"name":"Uncletopia | Seattle | 3 | Stopwatch Beta","name_short":"sea-3","host":"sea-1.us.uncletopia.com","port":27035,"enabled":true,"region":"us-west","cc":"us","latitude":47.608013,"longitude":-122.33517,"reserved":0,"last_update":"0001-01-01T00:00:00Z","name_a2s":"Uncletopia | Seattle | 3 | Stopwatch Beta","protocol":17,"map":"koth_highpass","folder":"tf","game":"Team Fortress","app_id":440,"player_count":0,"max_players":24,"Bots":0,"server_type":"Dedicated","server_os":"Linux","password":true,"vac":true,"version":"7882260","steam_id":85568392924515217,"keywords":["cp","nocrits","nodmgspread","uncletopia"],"game_id":440,"stv_port":27036,"stv_name":"Uncletopia | Seattle | 3 | Stopwatch Beta | STV","players":null},{"server_id":17,"name":"Uncletopia | San Francisco | 1 | All Maps","name_short":"sfo-1","host":"sfo-1.us.uncletopia.com","port":27015,"enabled":true,"region":"us-west","cc":"us","latitude":37.77397,"longitude":-122.4313,"reserved":0,"last_update":"0001-01-01T00:00:00Z","name_a2s":"Uncletopia | San Francisco | 1 | All Maps","protocol":17,"map":"cp_process_final","folder":"tf","game":"Team Fortress","app_id":440,"player_count":0,"max_players":24,"Bots":0,"server_type":"Dedicated","server_os":"Linux","password":true,"vac":true,"version":"7757534","steam_id":85568392924469999,"keywords":["cp","nocrits","nodmgspread","uncletopia"],"game_id":440,"stv_port":27016,"stv_name":"Uncletopia | San Francisco | 1 | All Maps | STV","players":null},{"server_id":18,"name":"Uncletopia | San Francisco | 2 | All Maps","name_short":"sfo-2","host":"sfo-1.us.uncletopia.com","port":27025,"enabled":true,"region":"us-west","cc":"us","latitude":37.77397,"longitude":-122.4313,"reserved":0,"last_update":"0001-01-01T00:00:00Z","name_a2s":"Uncletopia | San Francisco | 2 | All Maps","protocol":17,"map":"koth_highpass","folder":"tf","game":"Team Fortress","app_id":440,"player_count":0,"max_players":24,"Bots":0,"server_type":"Dedicated","server_os":"Linux","password":true,"vac":true,"version":"7757534","steam_id":85568392924470000,"keywords":["cp","nocrits","nodmgspread","uncletopia"],"game_id":440,"stv_port":27026,"stv_name":"Uncletopia | San Francisco | 2 | All Maps | STV","players":null},{"server_id":19,"name":"Uncletopia | San Francisco | 3 | Stopwatch Beta","name_short":"sfo-3","host":"sfo-1.us.uncletopia.com","port":27035,"enabled":true,"region":"us-west","cc":"us","latitude":37.77397,"longitude":-122.4313,"reserved":0,"last_update":"0001-01-01T00:00:00Z","name_a2s":"Uncletopia | San Francisco | 3 | Stopwatch Beta","protocol":17,"map":"koth_lakeside_final","folder":"tf","game":"Team Fortress","app_id":440,"player_count":0,"max_players":24,"Bots":0,"server_type":"Dedicated","server_os":"Linux","password":true,"vac":true,"version":"7757534","steam_id":85568392924742824,"keywords":["cp","nocrits","nodmgspread","uncletopia"],"game_id":440,"stv_port":27036,"stv_name":"Uncletopia | San Francisco | 3 | Stopwatch Beta | STV","players":null},{"server_id":20,"name":"Uncletopia | San Francisco | 4 | Community","name_short":"sfo-4","host":"sfo-1.us.uncletopia.com","port":27045,"enabled":true,"region":"us-west","cc":"us","latitude":37.77397,"longitude":-122.4313,"reserved":0,"last_update":"0001-01-01T00:00:00Z","name_a2s":"Uncletopia | San Francisco | 4 | Community","protocol":17,"map":"cp_altitude","folder":"tf","game":"Team Fortress","app_id":440,"player_count":0,"max_players":24,"Bots":0,"server_type":"Dedicated","server_os":"Linux","password":true,"vac":true,"version":"7757534","steam_id":85568392924742826,"keywords":["cp","nocrits","nodmgspread","uncletopia"],"game_id":440,"stv_port":27046,"stv_name":"Uncletopia | San Francisco | 4 | Community | STV","players":null},{"server_id":141,"name":"Uncletopia | Sydney | 1 | All Maps","name_short":"syd-1","host":"syd-1.au.uncletopia.com","port":27015,"enabled":true,"region":"au","cc":"au","latitude":-33.865143,"longitude":151.2099,"reserved":0,"last_update":"0001-01-01T00:00:00Z","name_a2s":"Uncletopia | Sydney | 1 | All Maps","protocol":17,"map":"cp_snakewater_final1","folder":"tf","game":"Team Fortress","app_id":440,"player_count":1,"max_players":24,"Bots":0,"server_type":"Dedicated","server_os":"Linux","password":true,"vac":true,"version":"7882260","steam_id":85568392924470001,"keywords":["cp","nocrits","nodmgspread","uncletopia"],"game_id":440,"stv_port":27016,"stv_name":"Uncletopia | Sydney | 1 | All Maps | STV","players":[{"user_id":4,"name":"Biga Bau","steam_id":76561198062446919,"connected_time":18000000000,"state":"spawning","ping":378}]},{"server_id":123,"name":"Uncletopia | Sydney | 2 | All Maps","name_short":"syd-2","host":"syd-1.au.uncletopia.com","port":27025,"enabled":true,"region":"au","cc":"au","latitude":-33.865143,"longitude":151.2099,"reserved":0,"last_update":"0001-01-01T00:00:00Z","name_a2s":"Uncletopia | Sydney | 2 | All Maps","protocol":17,"map":"koth_lakeside_final","folder":"tf","game":"Team Fortress","app_id":440,"player_count":5,"max_players":24,"Bots":0,"server_type":"Dedicated","server_os":"Linux","password":true,"vac":true,"version":"7882260","steam_id":85568392924470002,"keywords":["cp","nocrits","nodmgspread","uncletopia"],"game_id":440,"stv_port":27026,"stv_name":"Uncletopia | Sydney | 2 | All Maps | STV","players":[{"user_id":8,"name":"xAzureZephyr","steam_id":76561198082793586,"connected_time":938000000000,"state":"active","ping":56},{"user_id":9,"name":"Canon","steam_id":76561198151562518,"connected_time":901000000000,"state":"active","ping":103},{"user_id":10,"name":"nuke","steam_id":76561198163348036,"connected_time":822000000000,"state":"active","ping":292},{"user_id":12,"name":"username32157","steam_id":76561199210542463,"connected_time":333000000000,"state":"active","ping":94},{"user_id":13,"name":"Axel Mate","steam_id":76561198358163411,"connected_time":34000000000,"state":"active","ping":67}]},{"server_id":395,"name":"Uncletopia | Sydney | 3 | All Maps","name_short":"syd-3","host":"syd-1.au.uncletopia.com","port":27035,"enabled":true,"region":"au","cc":"au","latitude":-33.865143,"longitude":151.2099,"reserved":0,"last_update":"0001-01-01T00:00:00Z","name_a2s":"Uncletopia | Sydney | 3 | All Maps","protocol":17,"map":"pl_badwater","folder":"tf","game":"Team Fortress","app_id":440,"player_count":0,"max_players":24,"Bots":0,"server_type":"Dedicated","server_os":"Linux","password":true,"vac":true,"version":"7882260","steam_id":85568392925194467,"keywords":["nocrits","nodmgspread","payload","uncletopia"],"game_id":440,"stv_port":27036,"stv_name":"Uncletopia | Sydney | 3 | All Maps | STV","players":null},{"server_id":396,"name":"Uncletopia | Sydney | 4 | All Maps","name_short":"syd-4","host":"syd-1.au.uncletopia.com","port":27045,"enabled":true,"region":"au","cc":"au","latitude":-33.865143,"longitude":151.2099,"reserved":0,"last_update":"0001-01-01T00:00:00Z","name_a2s":"Uncletopia | Sydney | 4 | All Maps","protocol":17,"map":"cp_dustbowl","folder":"tf","game":"Team Fortress","app_id":440,"player_count":0,"max_players":24,"Bots":0,"server_type":"Dedicated","server_os":"Linux","password":true,"vac":true,"version":"7882260","steam_id":85568392925397958,"keywords":["cp","nocrits","nodmgspread","uncletopia"],"game_id":440,"stv_port":27046,"stv_name":"Uncletopia | Sydney | 4 | All Maps | STV","players":null},{"server_id":58,"name":"Uncletopia | Sydney | 5 | Stopwatch Beta","name_short":"syd-5","host":"syd-1.au.uncletopia.com","port":27055,"enabled":true,"region":"au","cc":"au","latitude":-33.865143,"longitude":151.2099,"reserved":0,"last_update":"0001-01-01T00:00:00Z","name_a2s":"Uncletopia | Sydney | 5 | Stopwatch Beta","protocol":17,"map":"cp_snakewater_final1","folder":"tf","game":"Team Fortress","app_id":440,"player_count":0,"max_players":24,"Bots":0,"server_type":"Dedicated","server_os":"Linux","password":true,"vac":true,"version":"7882260","steam_id":85568392925397959,"keywords":["cp","nocrits","nodmgspread","uncletopia"],"game_id":440,"stv_port":27056,"stv_name":"Uncletopia | Sydney | 5 | Stopwatch Beta | STV","players":null},{"server_id":59,"name":"Uncletopia | Sydney | 6 | Community","name_short":"syd-6","host":"syd-1.au.uncletopia.com","port":27065,"enabled":true,"region":"au","cc":"au","latitude":-33.865143,"longitude":151.2099,"reserved":0,"last_update":"0001-01-01T00:00:00Z","name_a2s":"Uncletopia | Sydney | 6 | Community","protocol":17,"map":"pl_snowycoast","folder":"tf","game":"Team Fortress","app_id":440,"player_count":0,"max_players":24,"Bots":0,"server_type":"Dedicated","server_os":"Linux","password":true,"vac":true,"version":"7882260","steam_id":85568392925397960,"keywords":["nocrits","nodmgspread","payload","uncletopia"],"game_id":440,"stv_port":27066,"stv_name":"Uncletopia | Sydney | 6 | Community | STV","players":null},{"server_id":49,"name":"Uncletopia | Warsaw | 1 | All Maps","name_short":"waw-1","host":"waw-1.pl.uncletopia.com","port":27015,"enabled":true,"region":"eu","cc":"pl","latitude":52.2297,"longitude":21.017532,"reserved":0,"last_update":"0001-01-01T00:00:00Z","name_a2s":"","protocol":0,"map":"","folder":"","game":"","app_id":0,"player_count":0,"max_players":0,"Bots":0,"server_type":"","server_os":"","password":false,"vac":false,"version":"","steam_id":0,"keywords":null,"game_id":0,"stv_port":0,"stv_name":"","players":null},{"server_id":50,"name":"Uncletopia | Warsaw | 2 | All Maps","name_short":"waw-2","host":"waw-1.pl.uncletopia.com","port":27025,"enabled":true,"region":"eu","cc":"pl","latitude":52.2297,"longitude":21.017532,"reserved":0,"last_update":"0001-01-01T00:00:00Z","name_a2s":"Uncletopia | Warsaw | 2 | All Maps","protocol":17,"map":"pl_snowycoast","folder":"tf","game":"Team Fortress","app_id":440,"player_count":1,"max_players":24,"Bots":0,"server_type":"Dedicated","server_os":"Linux","password":true,"vac":true,"version":"7882260","steam_id":85568392925397851,"keywords":["nocrits","nodmgspread","payload","uncletopia"],"game_id":440,"stv_port":27026,"stv_name":"Uncletopia | Warsaw | 2 | All Maps | STV","players":[{"user_id":5,"name":"hunte","steam_id":76561198063483484,"connected_time":323000000000,"state":"active","ping":74}]},{"server_id":51,"name":"Uncletopia | Warsaw | 3 | All Maps","name_short":"waw-3","host":"waw-1.pl.uncletopia.com","port":27035,"enabled":true,"region":"eu","cc":"pl","latitude":52.2297,"longitude":21.017532,"reserved":0,"last_update":"0001-01-01T00:00:00Z","name_a2s":"Uncletopia | Warsaw | 3 | All Maps","protocol":17,"map":"pl_frontier_final","folder":"tf","game":"Team Fortress","app_id":440,"player_count":0,"max_players":24,"Bots":0,"server_type":"Dedicated","server_os":"Linux","password":true,"vac":true,"version":"7882260","steam_id":85568392925397852,"keywords":["nocrits","nodmgspread","payload","uncletopia"],"game_id":440,"stv_port":27036,"stv_name":"Uncletopia | Warsaw | 3 | All Maps | STV","players":null},{"server_id":52,"name":"Uncletopia | Warsaw | 4 | All Maps","name_short":"waw-4","host":"waw-1.pl.uncletopia.com","port":27045,"enabled":true,"region":"eu","cc":"pl","latitude":52.2297,"longitude":21.017532,"reserved":0,"last_update":"0001-01-01T00:00:00Z","name_a2s":"Uncletopia | Warsaw | 4 | All Maps","protocol":17,"map":"koth_highpass","folder":"tf","game":"Team Fortress","app_id":440,"player_count":0,"max_players":24,"Bots":0,"server_type":"Dedicated","server_os":"Linux","password":true,"vac":true,"version":"7882260","steam_id":85568392925397853,"keywords":["cp","nocrits","nodmgspread","uncletopia"],"game_id":440,"stv_port":27046,"stv_name":"Uncletopia | Warsaw | 4 | All Maps | STV","players":null},{"server_id":53,"name":"Uncletopia | Warsaw | 5 | Stopwatch Beta","name_short":"waw-5","host":"waw-1.pl.uncletopia.com","port":27055,"enabled":true,"region":"eu","cc":"pl","latitude":52.2297,"longitude":21.017532,"reserved":0,"last_update":"0001-01-01T00:00:00Z","name_a2s":"Uncletopia | Warsaw | 5 | Stopwatch Beta","protocol":17,"map":"cp_mountainlab","folder":"tf","game":"Team Fortress","app_id":440,"player_count":0,"max_players":24,"Bots":0,"server_type":"Dedicated","server_os":"Linux","password":true,"vac":true,"version":"7882260","steam_id":85568392925397854,"keywords":["cp","nocrits","nodmgspread","uncletopia"],"game_id":440,"stv_port":27056,"stv_name":"Uncletopia | Warsaw | 5 | Stopwatch Beta | STV","players":null},{"server_id":54,"name":"Uncletopia | Warsaw | 6 | Community","name_short":"waw-6","host":"waw-1.pl.uncletopia.com","port":27065,"enabled":true,"region":"eu","cc":"pl","latitude":52.2297,"longitude":21.017532,"reserved":0,"last_update":"0001-01-01T00:00:00Z","name_a2s":"Uncletopia | Warsaw | 6 | Community","protocol":17,"map":"koth_viaduct","folder":"tf","game":"Team Fortress","app_id":440,"player_count":0,"max_players":24,"Bots":0,"server_type":"Dedicated","server_os":"Linux","password":true,"vac":true,"version":"7882260","steam_id":85568392925397856,"keywords":["cp","nocrits","nodmgspread","uncletopia"],"game_id":440,"stv_port":27066,"stv_name":"Uncletopia | Warsaw | 6 | Community | STV","players":null}]}