{"status":true,"message":"","result":[{"server_id":9,"name":"Uncletopia | Atlanta | 1 | All Maps","name_short":"atl-1","host":"atl-1.us.uncletopia.com","port":27015,"enabled":true,"region":"us-east","cc":"us","latitude":33.753746,"longitude":-84.38633,"reserved":0,"last_update":"0001-01-01T00:00:00Z","name_a2s":"Uncletopia | Atlanta | 1 | All Maps","protocol":17,"map":"pl_borneo","folder":"tf","game":"Team Fortress","app_id":440,"player_count":24,"max_players":24,"Bots":0,"server_type":"Dedicated","server_os":"Linux","password":true,"vac":true,"version":"7961495","steam_id":85568392924469982,"keywords":["nocrits","nodmgspread","payload","uncletopia"],"game_id":440,"stv_port":27016,"stv_name":"Uncletopia | Atlanta | 1 | All Maps | STV","players":null},{"server_id":104,"name":"Uncletopia | Atlanta | 2 | All Maps","name_short":"atl-2","host":"atl-1.us.uncletopia.com","port":27025,"enabled":true,"region":"us-east","cc":"us","latitude":33.753746,"longitude":-84.38633,"reserved":0,"last_update":"0001-01-01T00:00:00Z","name_a2s":"Uncletopia | Atlanta | 2 | All Maps","protocol":17,"map":"pl_badwater","folder":"tf","game":"Team Fortress","app_id":440,"player_count":24,"max_players":24,"Bots":0,"server_type":"Dedicated","server_os":"Linux","password":true,"vac":true,"version":"7961495","steam_id":85568392924469983,"keywords":["nocrits","nodmgspread","payload","uncletopia"],"game_id":440,"stv_port":27026,"stv_name":"Uncletopia | Atlanta | 2 | All Maps | STV","players":null},{"server_id":400,"name":"Uncletopia | Atlanta | 3 | Stopwatch","name_short":"atl-3","host":"atl-1.us.uncletopia.com","port":27035,"enabled":true,"region":"us-east","cc":"us","latitude":33.753746,"longitude":-84.38633,"reserved":0,"last_update":"0001-01-01T00:00:00Z","name_a2s":"Uncletopia | Atlanta | 3 | Stopwatch","protocol":17,"map":"koth_clearcut_b15","folder":"tf","game":"Team Fortress","app_id":440,"player_count":0,"max_players":24,"Bots":0,"server_type":"Dedicated","server_os":"Linux","password":true,"vac":true,"version":"7961495","steam_id":85568392924515187,"keywords":["cp","nocrits","nodmgspread","uncletopia"],"game_id":440,"stv_port":27036,"stv_name":"Uncletopia | Atlanta | 3 | Stopwatch | STV","players":null},{"server_id":401,"name":"Uncletopia | Atlanta | 4 | Community","name_short":"atl-4","host":"atl-1.us.uncletopia.com","port":27045,"enabled":true,"region":"us-east","cc":"us","latitude":33.753746,"longitude":-84.38633,"reserved":0,"last_update":"0001-01-01T00:00:00Z","name_a2s":"Uncletopia | Atlanta | 4 | Community","protocol":17,"map":"pl_badwater_pro_v12","folder":"tf","game":"Team Fortress","app_id":440,"player_count":24,"max_players":24,"Bots":0,"server_type":"Dedicated","server_os":"Linux","password":true,"vac":true,"version":"7961495","steam_id":85568392924515188,"keywords":["nocrits","nodmgspread","payload","uncletopia"],"game_id":440,"stv_port":27046,"stv_name":"Uncletopia | Atlanta | 4 | Community | STV","players":null},{"server_id":2,"name":"Uncletopia | Chicago | 1 | All Maps","name_short":"chi-1","host":"chi-1.us.uncletopia.com","port":27015,"enabled":true,"region":"us-central","cc":"us","latitude":41.881832,"longitude":-87.62318,"reserved":0,"last_update":"0001-01-01T00:00:00Z","name_a2s":"Uncletopia | Chicago | 1 | All Maps","protocol":17,"map":"pl_thundermountain","folder":"tf","game":"Team Fortress","app_id":440,"player_count":24,"max_players":24,"Bots":0,"server_type":"Dedicated","server_os":"Linux","password":true,"vac":true,"version":"7961495","steam_id":85568392924469984,"keywords":["nocrits","nodmgspread","payload","uncletopia"],"game_id":440,"stv_port":27016,"stv_name":"Uncletopia | Chicago | 1 | All Maps | STV","players":[{"user_id":733,"name":"oh my god he's LOADED","steam_id":76561198263236403,"connected_time":63000000000,"state":"active","ping":144},{"user_id":711,"name":"Antwan","steam_id":76561198246200638,"connected_time":858000000000,"state":"active","ping":65},{"user_id":732,"name":"AzuriteFoxx","steam_id":76561198998093240,"connected_time":139000000000,"state":"active","ping":78},{"user_id":722,"name":"vanilla latt√©","steam_id":76561198243990636,"connected_time":474000000000,"state":"active","ping":64},{"user_id":707,"name":"Totally Tuna","steam_id":76561198202031250,"connected_time":1031000000000,"state":"active","ping":56},{"user_id":699,"name":"clara","steam_id":76561198419619684,"connected_time":2025000000000,"state":"active","ping":83},{"user_id":727,"name":"bill","steam_id":76561199142779872,"connected_time":264000000000,"state":"active","ping":70},{"user_id":687,"name":"porfer","steam_id":76561199118049168,"connected_time":3238000000000,"state":"active","ping":103},{"user_id":734,"name":"Ryan's World","steam_id":76561198975076059,"connected_time":47000000000,"state":"active","ping":58},{"user_id":728,"name":"Captain Carcrash","steam_id":76561198075154943,"connected_time":259000000000,"state":"active","ping":140},{"user_id":676,"name":"DuckKey","steam_id":76561198904477889,"connected_time":4568000000000,"state":"active","ping":59},{"user_id":672,"name":"cofi","steam_id":76561198077504898,"connected_time":5345000000000,"state":"active","ping":64},{"user_id":714,"name":"FubbyFrog","steam_id":76561198059115472,"connected_time":764000000000,"state":"active","ping":88},{"user_id":724,"name":"Gitochi","steam_id":76561198054595205,"connected_time":412000000000,"state":"active","ping":75},{"user_id":716,"name":"just a silly guy","steam_id":76561198116862395,"connected_time":701000000000,"state":"active","ping":94},{"user_id":640,"name":"loser","steam_id":76561198259380127,"connected_time":8140000000000,"state":"active","ping":60},{"user_id":701,"name":"Madrox Who?","steam_id":76561197988859134,"connected_time":1817000000000,"state":"active","ping":75},{"user_id":729,"name":"cvltgrl","steam_id":76561198875447938,"connected_time":252000000000,"state":"active","ping":161},{"user_id":735,"name":"(=‚óï·ÜΩ‚óï‡∏∫=)","steam_id":76561198838223023,"connected_time":46000000000,"state":"active","ping":50},{"user_id":718,"name":"Fennec Gaming","steam_id":76561198069037820,"connected_time":623000000000,"state":"active","ping":50},{"user_id":731,"name":"Burito Bandit","steam_id":76561198107367471,"connected_time":222000000000,"state":"active","ping":115},{"user_id":720,"name":"pissjar","steam_id":76561198869002913,"connected_time":573000000000,"state":"active","ping":86},{"user_id":721,"name":"Adalbern","steam_id":76561197991785034,"connected_time":572000000000,"state":"active","ping":90},{"user_id":723,"name":"Bigtoelarry","steam_id":76561198056281264,"connected_time":460000000000,"state":"active","ping":137}]},{"server_id":106,"name":"Uncletopia | Chicago | 2 | All Maps","name_short":"chi-2","host":"chi-1.us.uncletopia.com","port":27025,"enabled":true,"region":"us-central","cc":"us","latitude":41.881832,"longitude":-87.62318,"reserved":0,"last_update":"0001-01-01T00:00:00Z","name_a2s":"Uncletopia | Chicago | 2 | All Maps","protocol":17,"map":"ctf_doublecross","folder":"tf","game":"Team Fortress","app_id":440,"player_count":23,"max_players":24,"Bots":0,"server_type":"Dedicated","server_os":"Linux","password":true,"vac":true,"version":"7961495","steam_id":85568392924469985,"keywords":["ctf","nocrits","nodmgspread","uncletopia"],"game_id":440,"stv_port":27026,"stv_name":"Uncletopia | Chicago | 2 | All Maps | STV","players":[{"user_id":687,"name":"owlman owl","steam_id":76561199167996712,"connected_time":1520000000000,"state":"active","ping":61},{"user_id":657,"name":"CheekiBreeki","steam_id":76561198008596138,"connected_time":3455000000000,"state":"active","ping":79},{"user_id":682,"name":"Pride_","steam_id":76561198046446797,"connected_time":1681000000000,"state":"active","ping":59},{"user_id":683,"name":"G78Viper","steam_id":76561199246056664,"connected_time":1658000000000,"state":"active","ping":76},{"user_id":698,"name":"orangesuit1","steam_id":76561199020443017,"connected_time":1162000000000,"state":"active","ping":115},{"user_id":706,"name":"failure of a gamer... maybe","steam_id":76561199499794979,"connected_time":285000000000,"state":"active","ping":104},{"user_id":686,"name":"Daksuki","steam_id":76561198084127751,"connected_time":1576000000000,"state":"active","ping":79},{"user_id":674,"name":"Predicta","steam_id":76561198017630616,"connected_time":2598000000000,"state":"active","ping":47},{"user_id":676,"name":"Zod","steam_id":76561197970504146,"connected_time":2444000000000,"state":"active","ping":65},{"user_id":692,"name":"William Fontaine Dauterive","steam_id":76561198057468108,"connected_time":1361000000000,"state":"active","ping":97},{"user_id":707,"name":"Yarman53","steam_id":76561198099889202,"connected_time":137000000000,"state":"active","ping":44},{"user_id":688,"name":"Ferioth","steam_id":76561197997993090,"connected_time":1512000000000,"state":"active","ping":67},{"user_id":678,"name":"Paulie Walnuts","steam_id":76561198252901165,"connected_time":2320000000000,"state":"active","ping":109},{"user_id":700,"name":"Alice in Rubberland","steam_id":76561198087328346,"connected_time":767000000000,"state":"active","ping":45},{"user_id":662,"name":"Bob-Billy-Tim","steam_id":76561198354721271,"connected_time":3419000000000,"state":"active","ping":58},{"user_id":710,"name":"Acuzik","steam_id":76561198045453400,"connected_time":10000000000,"state":"spawning","ping":44},{"user_id":689,"name":"Divio","steam_id":76561197995200088,"connected_time":1505000000000,"state":"active","ping":68},{"user_id":690,"name":"Rental","steam_id":76561198027786602,"connected_time":1485000000000,"state":"active","ping":113},{"user_id":701,"name":"Chica","steam_id":76561198381832158,"connected_time":767000000000,"state":"active","ping":62},{"user_id":669,"name":"dansal","steam_id":76561197997042510,"connected_time":3151000000000,"state":"active","ping":87},{"user_id":703,"name":"Braingoo Hex","steam_id":76561198083094783,"connected_time":741000000000,"state":"active","ping":98},{"user_id":663,"name":"AnnieM","steam_id":76561199435467297,"connected_time":3410000000000,"state":"active","ping":87},{"user_id":664,"name":"BurnN8or101","steam_id":76561198132668224,"connected_time":3348000000000,"state":"active","ping":81}]},{"server_id":402,"name":"Uncletopia | Chicago | 3 | All Maps","name_short":"chi-3","host":"chi-1.us.uncletopia.com","port":27035,"enabled":true,"region":"us-central","cc":"us","latitude":41.881832,"longitude":-87.62318,"reserved":0,"last_update":"0001-01-01T00:00:00Z","name_a2s":"Uncletopia | Chicago | 3 | All Maps","protocol":17,"map":"pl_upward","folder":"tf","game":"Team Fortress","app_id":440,"player_count":24,"max_players":24,"Bots":0,"server_type":"Dedicated","server_os":"Linux","password":true,"vac":true,"version":"7961495","steam_id":85568392924515191,"keywords":["nocrits","nodmgspread","payload","uncletopia"],"game_id":440,"stv_port":27036,"stv_name":"Uncletopia | Chicago | 3 | All Maps | STV","players":[{"user_id":814,"name":"Borderinvader","steam_id":76561197969809273,"connected_time":1692000000000,"state":"active","ping":45},{"user_id":844,"name":"skaska4","steam_id":76561198080606141,"connected_time":96000000000,"state":"active","ping":73},{"user_id":845,"name":"dunk","steam_id":76561198132476501,"connected_time":77000000000,"state":"active","ping":51},{"user_id":766,"name":"TheRatBoi","steam_id":76561199123032506,"connected_time":4931000000000,"state":"active","ping":68},{"user_id":754,"name":"Cogsmon","steam_id":76561198044977767,"connected_time":5622000000000,"state":"active","ping":82},{"user_id":838,"name":"Kng","steam_id":76561198993248203,"connected_time":290000000000,"state":"active","ping":90},{"user_id":825,"name":"inhales watermelon","steam_id":76561198065318169,"connected_time":776000000000,"state":"active","ping":69},{"user_id":827,"name":"Gwendolyn","steam_id":76561198170458145,"connected_time":738000000000,"state":"active","ping":114},{"user_id":747,"name":"Sinta","steam_id":76561198098398841,"connected_time":6165000000000,"state":"active","ping":64},{"user_id":840,"name":"firulais","steam_id":76561198860460013,"connected_time":263000000000,"state":"active","ping":99},{"user_id":841,"name":"ADRIEN BRODY","steam_id":76561198009299473,"connected_time":255000000000,"state":"active","ping":72},{"user_id":828,"name":"Lummock","steam_id":76561199099083114,"connected_time":730000000000,"state":"active","ping":108},{"user_id":799,"name":"Moophin","steam_id":76561198037797703,"connected_time":2804000000000,"state":"active","ping":82},{"user_id":839,"name":"Argo","steam_id":76561198353725622,"connected_time":281000000000,"state":"active","ping":82},{"user_id":836,"name":"Tetra","steam_id":76561198012329955,"connected_time":607000000000,"state":"active","ping":105},{"user_id":842,"name":"Julio","steam_id":76561198272237516,"connected_time":213000000000,"state":"active","ping":73},{"user_id":843,"name":"Sparse","steam_id":76561198865084441,"connected_time":209000000000,"state":"active","ping":72},{"user_id":808,"name":"pippopipipio","steam_id":76561198148059714,"connected_time":1999000000000,"state":"active","ping":66},{"user_id":832,"name":"Person","steam_id":76561198093244204,"connected_time":668000000000,"state":"active","ping":74},{"user_id":773,"name":"Echo","steam_id":76561198072092594,"connected_time":4545000000000,"state":"active","ping":86},{"user_id":820,"name":"juxtapositionjared95","steam_id":76561198136846340,"connected_time":1101000000000,"state":"active","ping":83},{"user_id":833,"name":"Riandox","steam_id":76561198130577326,"connected_time":656000000000,"state":"active","ping":90},{"user_id":823,"name":"dumbeeon","steam_id":76561198059351874,"connected_time":879000000000,"state":"active","ping":106},{"user_id":802,"name":"Œ∏Œ¨ŒΩŒ±œÑŒøœÇ œáœâœÅŒØœÇ œåŒΩ","steam_id":76561198021308963,"connected_time":2662000000000,"state":"active","ping":70}]},{"server_id":403,"name":"Uncletopia | Chicago | 4 | All Maps","name_short":"chi-4","host":"chi-1.us.uncletopia.com","port":27045,"enabled":true,"region":"us-central","cc":"us","latitude":41.881832,"longitude":-87.62318,"reserved":0,"last_update":"0001-01-01T00:00:00Z","name_a2s":"Uncletopia | Chicago | 4 | All Maps","protocol":17,"map":"pl_pier","folder":"tf","game":"Team Fortress","app_id":440,"player_count":24,"max_players":24,"Bots":0,"server_type":"Dedicated","server_os":"Linux","password":true,"vac":true,"version":"7961495","steam_id":85568392924515193,"keywords":["nocrits","nodmgspread","payload","uncletopia"],"game_id":440,"stv_port":27046,"stv_name":"Uncletopia | Chicago | 4 | All Maps | STV","players":[{"user_id":392,"name":"joeyyfan2011","steam_id":76561199014715203,"connected_time":1377000000000,"state":"active","ping":115},{"user_id":363,"name":"PandaStick","steam_id":76561198005613207,"connected_time":3373000000000,"state":"active","ping":72},{"user_id":378,"name":"chiswola","steam_id":76561198046920142,"connected_time":2497000000000,"state":"active","ping":72},{"user_id":396,"name":"Candy Medusa","steam_id":76561198017790299,"connected_time":776000000000,"state":"active","ping":81},{"user_id":379,"name":"A Sun","steam_id":76561198142545364,"connected_time":2496000000000,"state":"active","ping":69},{"user_id":402,"name":"ajkitz","steam_id":76561198065701344,"connected_time":332000000000,"state":"active","ping":52},{"user_id":393,"name":"roast pig with apple in mouth","steam_id":76561198051353647,"connected_time":1261000000000,"state":"active","ping":58},{"user_id":342,"name":"Nessie is my Waifu","steam_id":76561198076021620,"connected_time":4780000000000,"state":"active","ping":70},{"user_id":348,"name":"thetroupegang","steam_id":76561198340510098,"connected_time":4670000000000,"state":"active","ping":74},{"user_id":349,"name":"i play random (no audio)","steam_id":76561199468748840,"connected_time":4650000000000,"state":"active","ping":86},{"user_id":364,"name":"Kthulu Mike","steam_id":76561198014026963,"connected_time":3367000000000,"state":"active","ping":102},{"user_id":394,"name":"Falcor","steam_id":76561198088330242,"connected_time":1134000000000,"state":"active","ping":41},{"user_id":389,"name":"LWebb","steam_id":76561199162936929,"connected_time":1842000000000,"state":"active","ping":86},{"user_id":308,"name":"Owls = Government Drones","steam_id":76561198439793697,"connected_time":8309000000000,"state":"active","ping":79},{"user_id":395,"name":"YASAI JUICE","steam_id":76561198131971992,"connected_time":1092000000000,"state":"active","ping":38},{"user_id":401,"name":"Baby gaming","steam_id":76561198867319323,"connected_time":422000000000,"state":"active","ping":66},{"user_id":361,"name":"veryscaryreaper","steam_id":76561198380018244,"connected_time":3436000000000,"state":"active","ping":73},{"user_id":380,"name":"Polar","steam_id":76561198271964253,"connected_time":2494000000000,"state":"active","ping":76},{"user_id":365,"name":"ùïäùï†ùï¶ùï°ü•£GO·ó™","steam_id":76561198015230837,"connected_time":3361000000000,"state":"active","ping":75},{"user_id":381,"name":"Kamin","steam_id":76561198255299559,"connected_time":2493000000000,"state":"active","ping":124},{"user_id":390,"name":"Stapler","steam_id":76561198099295077,"connected_time":1830000000000,"state":"active","ping":97},{"user_id":359,"name":"local man","steam_id":76561198074946673,"connected_time":3507000000000,"state":"active","ping":57},{"user_id":331,"name":"Fraglin","steam_id":76561198124964000,"connected_time":6418000000000,"state":"active","ping":87},{"user_id":400,"name":"Ovat","steam_id":76561198009371525,"connected_time":591000000000,"state":"active","ping":65}]},{"server_id":36,"name":"Uncletopia | Chicago | 5 | All Maps","name_short":"chi-5","host":"chi-2.us.uncletopia.com","port":27015,"enabled":true,"region":"us-central","cc":"us","latitude":41.881832,"longitude":-87.62318,"reserved":0,"last_update":"0001-01-01T00:00:00Z","name_a2s":"Uncletopia | Chicago | 5 | All Maps","protocol":17,"map":"pl_borneo","folder":"tf","game":"Team Fortress","app_id":440,"player_count":22,"max_players":24,"Bots":0,"server_type":"Dedicated","server_os":"Linux","password":true,"vac":true,"version":"7961495","steam_id":85568392924866362,"keywords":["nocrits","nodmgspread","payload","uncletopia"],"game_id":440,"stv_port":27016,"stv_name":"Uncletopia | Chicago | 5 | All Maps | STV","players":[{"user_id":644,"name":"swagmaster2018","steam_id":76561198057884377,"connected_time":5000000000,"state":"connecting","ping":55},{"user_id":637,"name":"bcizzo","steam_id":76561197994399953,"connected_time":213000000000,"state":"connecting","ping":100},{"user_id":641,"name":"Plast","steam_id":76561198059668519,"connected_time":163000000000,"state":"connecting","ping":73},{"user_id":627,"name":"Mythic","steam_id":76561198028616665,"connected_time":1427000000000,"state":"connecting","ping":75},{"user_id":572,"name":"The Professor","steam_id":76561198113760863,"connected_time":4731000000000,"state":"connecting","ping":77},{"user_id":643,"name":"totoro","steam_id":76561198210420871,"connected_time":29000000000,"state":"connecting","ping":46},{"user_id":606,"name":"Bombsgamer","steam_id":76561198350009050,"connected_time":3570000000000,"state":"connecting","ping":79},{"user_id":592,"name":"Swanky","steam_id":76561198056242899,"connected_time":4001000000000,"state":"connecting","ping":86},{"user_id":638,"name":"bouncyhousin","steam_id":76561198852902827,"connected_time":188000000000,"state":"connecting","ping":56},{"user_id":603,"name":"Girthworm Jim","steam_id":76561198007433376,"connected_time":3622000000000,"state":"connecting","ping":77},{"user_id":598,"name":"hashmap","steam_id":76561198043794014,"connected_time":3847000000000,"state":"connecting","ping":56},{"user_id":642,"name":"YOU JUST LOST THE GAME","steam_id":76561198012126625,"connected_time":57000000000,"state":"connecting","ping":77},{"user_id":628,"name":"Wang of Wall St","steam_id":76561198047460598,"connected_time":1392000000000,"state":"connecting","ping":69},{"user_id":631,"name":"NexFrost","steam_id":76561197985774837,"connected_time":1229000000000,"state":"connecting","ping":66},{"user_id":609,"name":"RodneyRimmings","steam_id":76561199500063868,"connected_time":3506000000000,"state":"connecting","ping":75},{"user_id":632,"name":"Headshots Se7en","steam_id":76561198020464802,"connected_time":1199000000000,"state":"connecting","ping":61},{"user_id":636,"name":"John Xina","steam_id":76561198350649871,"connected_time":367000000000,"state":"connecting","ping":123},{"user_id":611,"name":"only a spoonful","steam_id":76561198113180616,"connected_time":3228000000000,"state":"connecting","ping":63},{"user_id":608,"name":"robot with human hair","steam_id":76561198018691308,"connected_time":3526000000000,"state":"connecting","ping":94}]},{"server_id":37,"name":"Uncletopia | Chicago | 6 | All Maps","name_short":"chi-6","host":"chi-2.us.uncletopia.com","port":27025,"enabled":true,"region":"us-central","cc":"us","latitude":41.881832,"longitude":-87.62318,"reserved":0,"last_update":"0001-01-01T00:00:00Z","name_a2s":"Uncletopia | Chicago | 6 | All Maps","protocol":17,"map":"pl_frontier_final","folder":"tf","game":"Team Fortress","app_id":440,"player_count":19,"max_players":24,"Bots":0,"server_type":"Dedicated","server_os":"Linux","password":true,"vac":true,"version":"7961495","steam_id":85568392924866363,"keywords":["nocrits","nodmgspread","payload","uncletopia"],"game_id":440,"stv_port":27026,"stv_name":"Uncletopia | Chicago | 6 | All Maps | STV","players":[{"user_id":328,"name":"bat","steam_id":76561198442253113,"connected_time":78000000000,"state":"active","ping":100},{"user_id":329,"name":"amberenix","steam_id":76561198805110908,"connected_time":40000000000,"state":"active","ping":73},{"user_id":327,"name":"pabbott123110","steam_id":76561199231739796,"connected_time":174000000000,"state":"active","ping":89},{"user_id":316,"name":"Big Bill Haywood","steam_id":76561198142290733,"connected_time":1172000000000,"state":"active","ping":62},{"user_id":274,"name":"The Fart Sniffer","steam_id":76561198273370381,"connected_time":3624000000000,"state":"active","ping":100},{"user_id":321,"name":"MrQuack","steam_id":76561198873049714,"connected_time":802000000000,"state":"active","ping":105},{"user_id":317,"name":"Yakul","steam_id":76561198100040013,"connected_time":1100000000000,"state":"active","ping":75},{"user_id":291,"name":"RoseaVenefica","steam_id":76561198020660560,"connected_time":2716000000000,"state":"active","ping":58},{"user_id":323,"name":"Ask Me For Random Trivia!","steam_id":76561198087065165,"connected_time":669000000000,"state":"active","ping":78},{"user_id":275,"name":"alv√∂ru","steam_id":76561198273488925,"connected_time":3613000000000,"state":"active","ping":80},{"user_id":319,"name":"Spag Hekki","steam_id":76561198207579353,"connected_time":1096000000000,"state":"active","ping":86},{"user_id":310,"name":"Kzjytsugn","steam_id":76561198130241974,"connected_time":1570000000000,"state":"active","ping":87},{"user_id":320,"name":"Geometric","steam_id":76561198274794587,"connected_time":1073000000000,"state":"active","ping":98},{"user_id":266,"name":"cali","steam_id":76561198326822403,"connected_time":3975000000000,"state":"active","ping":66},{"user_id":304,"name":"rf","steam_id":76561198195359229,"connected_time":2060000000000,"state":"active","ping":85},{"user_id":292,"name":"Rennsellaer","steam_id":76561198096207580,"connected_time":2711000000000,"state":"active","ping":107},{"user_id":267,"name":"Vyyx","steam_id":76561198977893111,"connected_time":3970000000000,"state":"active","ping":105},{"user_id":280,"name":"boffo","steam_id":76561198096978718,"connected_time":3553000000000,"state":"active","ping":84},{"user_id":308,"name":"POORSTACY","steam_id":76561198262061568,"connected_time":1803000000000,"state":"active","ping":103}]},{"server_id":38,"name":"Uncletopia | Chicago | 7 | Stopwatch","name_short":"chi-7","host":"chi-2.us.uncletopia.com","port":27035,"enabled":true,"region":"us-central","cc":"us","latitude":41.881832,"longitude":-87.62318,"reserved":0,"last_update":"0001-01-01T00:00:00Z","name_a2s":"Uncletopia | Chicago | 7 | Stopwatch","protocol":17,"map":"workshop/koth_ramjam_rc1.ugc459778887","folder":"tf","game":"Team Fortress","app_id":440,"player_count":0,"max_players":24,"Bots":0,"server_type":"Dedicated","server_os":"Linux","password":true,"vac":true,"version":"7961495","steam_id":85568392924866364,"keywords":["cp","nocrits","nodmgspread","uncletopia"],"game_id":440,"stv_port":27036,"stv_name":"Uncletopia | Chicago | 7 | Stopwatch | STV","players":null},{"server_id":39,"name":"Uncletopia | Chicago | 8 | Community","name_short":"chi-8","host":"chi-2.us.uncletopia.com","port":27045,"enabled":true,"region":"us-central","cc":"us","latitude":41.881832,"longitude":-87.62318,"reserved":0,"last_update":"0001-01-01T00:00:00Z","name_a2s":"Uncletopia | Chicago | 8 | Community","protocol":17,"map":"workshop/koth_trenchfoot_b1a.ugc731436616","folder":"tf","game":"Team Fortress","app_id":440,"player_count":0,"max_players":24,"Bots":0,"server_type":"Dedicated","server_os":"Linux","password":true,"vac":true,"version":"7961495","steam_id":85568392924866365,"keywords":["cp","nocrits","nodmgspread","uncletopia"],"game_id":440,"stv_port":27046,"stv_name":"Uncletopia | Chicago | 8 | Community | STV","players":null},{"server_id":8,"name":"Uncletopia | Dallas | 1 | All Maps","name_short":"dal-1","host":"dal-1.us.uncletopia.com","port":27015,"enabled":true,"region":"us-central","cc":"us","latitude":32.779167,"longitude":-96.80889,"reserved":0,"last_update":"0001-01-01T00:00:00Z","name_a2s":"Uncletopia | Dallas | 1 | All Maps","protocol":17,"map":"pl_barnblitz","folder":"tf","game":"Team Fortress","app_id":440,"player_count":24,"max_players":24,"Bots":0,"server_type":"Dedicated","server_os":"Linux","password":true,"vac":true,"version":"7961495","steam_id":85568392924469986,"keywords":["nocrits","nodmgspread","payload","uncletopia"],"game_id":440,"stv_port":27016,"stv_name":"Uncletopia | Dallas | 1 | All Maps | STV","players":[{"user_id":592,"name":"ZILICON","steam_id":76561199044705592,"connected_time":1136000000000,"state":"active","ping":118},{"user_id":598,"name":"stiGGy","steam_id":76561198049311931,"connected_time":624000000000,"state":"active","ping":95},{"user_id":600,"name":"FluttyPutty","steam_id":76561198218446556,"connected_time":538000000000,"state":"active","ping":67},{"user_id":569,"name":"WhoIsFrosty","steam_id":76561198880588117,"connected_time":3463000000000,"state":"active","ping":78},{"user_id":570,"name":"Shameless Kuma Player","steam_id":76561198097700500,"connected_time":3312000000000,"state":"active","ping":75},{"user_id":588,"name":"biggamehntr887","steam_id":76561198999431215,"connected_time":1833000000000,"state":"active","ping":80},{"user_id":606,"name":"CaptainRedbeard","steam_id":76561198058647430,"connected_time":294000000000,"state":"active","ping":115},{"user_id":596,"name":"Furious George","steam_id":76561198405111646,"connected_time":657000000000,"state":"active","ping":85},{"user_id":591,"name":"on that zaza?","steam_id":76561198038713198,"connected_time":1726000000000,"state":"active","ping":90},{"user_id":481,"name":"Mossy","steam_id":76561198156401277,"connected_time":8954000000000,"state":"active","ping":80},{"user_id":593,"name":"AndyIsVeryHandy","steam_id":76561198120561470,"connected_time":675000000000,"state":"active","ping":77},{"user_id":594,"name":"trucksforducks","steam_id":76561198122970888,"connected_time":666000000000,"state":"active","ping":42},{"user_id":580,"name":"‚ò∞vil ‚ÜÉood  ‚∏∏üíÄ‚∏∏","steam_id":76561197963666090,"connected_time":2623000000000,"state":"active","ping":87},{"user_id":547,"name":"Argon","steam_id":76561199254804349,"connected_time":4821000000000,"state":"active","ping":89},{"user_id":585,"name":"allahsdroptop","steam_id":76561198133195238,"connected_time":1925000000000,"state":"active","ping":112},{"user_id":597,"name":"Unlicensed Fed","steam_id":76561198166040449,"connected_time":653000000000,"state":"active","ping":86},{"user_id":607,"name":"king_nebblit","steam_id":76561199183321935,"connected_time":144000000000,"state":"active","ping":72},{"user_id":602,"name":"Noiceman","steam_id":76561199016137482,"connected_time":535000000000,"state":"active","ping":56},{"user_id":603,"name":"cringeass nae-nae girl","steam_id":76561198108753857,"connected_time":469000000000,"state":"active","ping":70},{"user_id":475,"name":"BADWOLF42","steam_id":76561198055447523,"connected_time":9544000000000,"state":"active","ping":56},{"user_id":568,"name":"FanaticSalt","steam_id":76561199380123059,"connected_time":3822000000000,"state":"active","ping":47},{"user_id":589,"name":"errant","steam_id":76561197961758410,"connected_time":1820000000000,"state":"active","ping":41},{"user_id":604,"name":"DustIsHere„ÉÑ","steam_id":76561199105602325,"connected_time":412000000000,"state":"active","ping":109},{"user_id":605,"name":"Maniacal Rage","steam_id":76561197970758925,"connected_time":310000000000,"state":"active","ping":103}]},{"server_id":108,"name":"Uncletopia | Dallas | 2 | All Maps","name_short":"dal-2","host":"dal-1.us.uncletopia.com","port":27025,"enabled":true,"region":"us-central","cc":"us","latitude":32.779167,"longitude":-96.80889,"reserved":0,"last_update":"0001-01-01T00:00:00Z","name_a2s":"Uncletopia | Dallas | 2 | All Maps","protocol":17,"map":"cp_sunshine","folder":"tf","game":"Team Fortress","app_id":440,"player_count":24,"max_players":24,"Bots":0,"server_type":"Dedicated","server_os":"Linux","password":true,"vac":true,"version":"7961495","steam_id":85568392924469988,"keywords":["cp","nocrits","nodmgspread","uncletopia"],"game_id":440,"stv_port":27026,"stv_name":"Uncletopia | Dallas | 2 | All Maps | STV","players":[{"user_id":501,"name":"FlexTape","steam_id":76561198871834867,"connected_time":1585000000000,"state":"active","ping":97},{"user_id":499,"name":"Chauncey von Snuffles III","steam_id":76561198021784746,"connected_time":1631000000000,"state":"active","ping":63},{"user_id":433,"name":"Alchemist","steam_id":76561198094238189,"connected_time":8156000000000,"state":"active","ping":68},{"user_id":481,"name":"mutant demonic imp","steam_id":76561198132803810,"connected_time":3191000000000,"state":"active","ping":61},{"user_id":513,"name":"The Benefactor","steam_id":76561198307247913,"connected_time":1219000000000,"state":"active","ping":84},{"user_id":502,"name":"Cowboyfos","steam_id":76561199055740230,"connected_time":1572000000000,"state":"active","ping":93},{"user_id":475,"name":"Sup m8","steam_id":76561198081659121,"connected_time":3386000000000,"state":"active","ping":42},{"user_id":496,"name":"Kenny[RICH]","steam_id":76561199005805984,"connected_time":1799000000000,"state":"active","ping":46},{"user_id":514,"name":"BL√òRG","steam_id":76561198036126673,"connected_time":1198000000000,"state":"active","ping":74},{"user_id":505,"name":"basket","steam_id":76561199486768009,"connected_time":1526000000000,"state":"active","ping":73},{"user_id":525,"name":"skellymabob with a knife","steam_id":76561198015526166,"connected_time":582000000000,"state":"active","ping":86},{"user_id":506,"name":"Squiliam","steam_id":76561198025278006,"connected_time":1493000000000,"state":"active","ping":44},{"user_id":442,"name":"plink","steam_id":76561198057829889,"connected_time":7203000000000,"state":"active","ping":59},{"user_id":507,"name":"buckydargon","steam_id":76561197991480502,"connected_time":1480000000000,"state":"active","ping":69},{"user_id":519,"name":"squid game","steam_id":76561199248960166,"connected_time":1118000000000,"state":"active","ping":89},{"user_id":530,"name":"Dat1SpenceyBoi","steam_id":76561199446171976,"connected_time":416000000000,"state":"active","ping":78},{"user_id":528,"name":"hb","steam_id":76561198185980055,"connected_time":446000000000,"state":"active","ping":75},{"user_id":522,"name":"umgebung","steam_id":76561198182294378,"connected_time":1000000000000,"state":"active","ping":91},{"user_id":531,"name":"tacolover","steam_id":76561199088802958,"connected_time":280000000000,"state":"active","ping":101},{"user_id":490,"name":"DeftlyDyl","steam_id":76561198098986187,"connected_time":2914000000000,"state":"active","ping":88},{"user_id":532,"name":"Dulzuro","steam_id":76561198073561753,"connected_time":278000000000,"state":"active","ping":88},{"user_id":533,"name":"[ibb‚Ñ¢]Shadow20X6-ENGI","steam_id":76561198019292755,"connected_time":274000000000,"state":"active","ping":94},{"user_id":523,"name":"ShadowBolt","steam_id":76561198061610985,"connected_time":977000000000,"state":"active","ping":112},{"user_id":529,"name":"cats","steam_id":76561198167075606,"connected_time":444000000000,"state":"active","ping":81}]},{"server_id":404,"name":"Uncletopia | Dallas | 3 | All Maps","name_short":"dal-3","host":"dal-1.us.uncletopia.com","port":27035,"enabled":true,"region":"us-central","cc":"us","latitude":32.779167,"longitude":-96.80889,"reserved":0,"last_update":"0001-01-01T00:00:00Z","name_a2s":"Uncletopia | Dallas | 3 | All Maps","protocol":17,"map":"pl_upward","folder":"tf","game":"Team Fortress","app_id":440,"player_count":24,"max_players":24,"Bots":0,"server_type":"Dedicated","server_os":"Linux","password":true,"vac":true,"version":"7961495","steam_id":85568392924515219,"keywords":["nocrits","nodmgspread","payload","uncletopia"],"game_id":440,"stv_port":27036,"stv_name":"Uncletopia | Dallas | 3 | All Maps | STV","players":[{"user_id":391,"name":"Smog","steam_id":76561198043705383,"connected_time":2364000000000,"state":"active","ping":95},{"user_id":415,"name":"Gugomo","steam_id":76561198121428316,"connected_time":132000000000,"state":"active","ping":70},{"user_id":410,"name":"hamletespacial","steam_id":76561199084414649,"connected_time":410000000000,"state":"active","ping":53},{"user_id":345,"name":"Spyfall","steam_id":76561198081729993,"connected_time":5808000000000,"state":"active","ping":92},{"user_id":411,"name":"Acorn","steam_id":76561198108400951,"connected_time":357000000000,"state":"active","ping":91},{"user_id":364,"name":"eyeballs","steam_id":76561198158776369,"connected_time":4434000000000,"state":"active","ping":87},{"user_id":275,"name":"Man Man","steam_id":76561199068338634,"connected_time":9954000000000,"state":"active","ping":71},{"user_id":373,"name":"ShapedSilver","steam_id":76561199073305310,"connected_time":3209000000000,"state":"active","ping":54},{"user_id":390,"name":"Weed Dealer","steam_id":76561198418604400,"connected_time":2664000000000,"state":"active","ping":108},{"user_id":395,"name":"shimp","steam_id":76561198067613190,"connected_time":2209000000000,"state":"active","ping":76},{"user_id":407,"name":"Anonymoose","steam_id":76561198862312405,"connected_time":787000000000,"state":"active","ping":70},{"user_id":303,"name":"irondude","steam_id":76561197971874574,"connected_time":8407000000000,"state":"active","ping":91},{"user_id":396,"name":"njokuani","steam_id":76561199061380038,"connected_time":2193000000000,"state":"active","ping":74},{"user_id":323,"name":"Drained","steam_id":76561198081974528,"connected_time":6732000000000,"state":"active","ping":70},{"user_id":412,"name":"OneLess","steam_id":76561198150870338,"connected_time":335000000000,"state":"active","ping":83},{"user_id":361,"name":"Snoopy","steam_id":76561198273735974,"connected_time":4637000000000,"state":"active","ping":72},{"user_id":406,"name":"Bacon","steam_id":76561199078407152,"connected_time":1221000000000,"state":"active","ping":84},{"user_id":414,"name":"Nibelsnarf (She/They)","steam_id":76561198137642054,"connected_time":245000000000,"state":"active","ping":60},{"user_id":375,"name":"Twinkus","steam_id":76561198209306929,"connected_time":3166000000000,"state":"active","ping":97},{"user_id":309,"name":"nate","steam_id":76561197963935504,"connected_time":7762000000000,"state":"active","ping":90},{"user_id":416,"name":"tlm","steam_id":76561198178457461,"connected_time":12000000000,"state":"active","ping":52},{"user_id":413,"name":"GoldtoothFour","steam_id":76561198055529332,"connected_time":281000000000,"state":"active","ping":80},{"user_id":368,"name":"Phae","steam_id":76561198024763351,"connected_time":4327000000000,"state":"active","ping":98},{"user_id":394,"name":"Ratemis","steam_id":76561198069790264,"connected_time":2230000000000,"state":"active","ping":93}]},{"server_id":405,"name":"Uncletopia | Dallas | 4 | Community","name_short":"dal-4","host":"dal-1.us.uncletopia.com","port":27045,"enabled":true,"region":"us-central","cc":"us","latitude":32.779167,"longitude":-96.80889,"reserved":0,"last_update":"0001-01-01T00:00:00Z","name_a2s":"Uncletopia | Dallas | 4 | Community","protocol":17,"map":"workshop/cp_snowbase_b18.ugc2081770490","folder":"tf","game":"Team Fortress","app_id":440,"player_count":0,"max_players":24,"Bots":0,"server_type":"Dedicated","server_os":"Linux","password":true,"vac":true,"version":"7961495","steam_id":85568392924515220,"keywords":["cp","nocrits","nodmgspread","uncletopia"],"game_id":440,"stv_port":27046,"stv_name":"Uncletopia | Dallas | 4 | Community | STV","players":null},{"server_id":5,"name":"Uncletopia | Frankfurt | 1 | All Maps","name_short":"frk-1","host":"frk-1.de.uncletopia.com","port":27015,"enabled":true,"region":"eu","cc":"de","latitude":50.110924,"longitude":8.682127,"reserved":0,"last_update":"0001-01-01T00:00:00Z","name_a2s":"Uncletopia | Frankfurt | 1 | All Maps","protocol":17,"map":"koth_highpass","folder":"tf","game":"Team Fortress","app_id":440,"player_count":0,"max_players":24,"Bots":0,"server_type":"Dedicated","server_os":"Linux","password":true,"vac":true,"version":"7961495","steam_id":85568392924469989,"keywords":["cp","nocrits","nodmgspread","uncletopia"],"game_id":440,"stv_port":27016,"stv_name":"Uncletopia | Frankfurt | 1 | All Maps | STV","players":null},{"server_id":110,"name":"Uncletopia | Frankfurt | 2 | All Maps","name_short":"frk-2","host":"frk-1.de.uncletopia.com","port":27025,"enabled":true,"region":"eu","cc":"de","latitude":50.110924,"longitude":8.682127,"reserved":0,"last_update":"0001-01-01T00:00:00Z","name_a2s":"Uncletopia | Frankfurt | 2 | All Maps","protocol":17,"map":"cp_dustbowl","folder":"tf","game":"Team Fortress","app_id":440,"player_count":0,"max_players":24,"Bots":0,"server_type":"Dedicated","server_os":"Linux","password":true,"vac":true,"version":"7961495","steam_id":85568392924469990,"keywords":["cp","nocrits","nodmgspread","uncletopia"],"game_id":440,"stv_port":27026,"stv_name":"Uncletopia | Frankfurt | 2 | All Maps | STV","players":null},{"server_id":308,"name":"Uncletopia | Frankfurt | 3 | All Maps","name_short":"frk-3","host":"frk-1.de.uncletopia.com","port":27035,"enabled":true,"region":"eu","cc":"de","latitude":50.110924,"longitude":8.682127,"reserved":0,"last_update":"0001-01-01T00:00:00Z","name_a2s":"Uncletopia | Frankfurt | 3 | All Maps","protocol":17,"map":"pl_borneo","folder":"tf","game":"Team Fortress","app_id":440,"player_count":0,"max_players":24,"Bots":0,"server_type":"Dedicated","server_os":"Linux","password":true,"vac":true,"version":"7961495","steam_id":85568392924504274,"keywords":["nocrits","nodmgspread","payload","uncletopia"],"game_id":440,"stv_port":27036,"stv_name":"Uncletopia | Frankfurt | 3 | All Maps | STV","players":null},{"server_id":309,"name":"Uncletopia | Frankfurt | 4 | All Maps","name_short":"frk-4","host":"frk-1.de.uncletopia.com","port":27045,"enabled":true,"region":"eu","cc":"de","latitude":50.110924,"longitude":8.682127,"reserved":0,"last_update":"0001-01-01T00:00:00Z","name_a2s":"Uncletopia | Frankfurt | 4 | All Maps","protocol":17,"map":"koth_highpass","folder":"tf","game":"Team Fortress","app_id":440,"player_count":0,"max_players":24,"Bots":0,"server_type":"Dedicated","server_os":"Linux","password":true,"vac":true,"version":"7961495","steam_id":85568392924504275,"keywords":["cp","nocrits","nodmgspread","uncletopia"],"game_id":440,"stv_port":27046,"stv_name":"Uncletopia | Frankfurt | 4 | All Maps | STV","players":null},{"server_id":310,"name":"Uncletopia | Frankfurt | 5 | All Maps","name_short":"frk-5","host":"frk-1.de.uncletopia.com","port":27055,"enabled":true,"region":"eu","cc":"de","latitude":50.110924,"longitude":8.682127,"reserved":0,"last_update":"0001-01-01T00:00:00Z","name_a2s":"Uncletopia | Frankfurt | 5 | All Maps","protocol":17,"map":"pl_badwater","folder":"tf","game":"Team Fortress","app_id":440,"player_count":0,"max_players":24,"Bots":0,"server_type":"Dedicated","server_os":"Linux","password":true,"vac":true,"version":"7961495","steam_id":85568392924504277,"keywords":["nocrits","nodmgspread","payload","uncletopia"],"game_id":440,"stv_port":27056,"stv_name":"Uncletopia | Frankfurt | 5 | All Maps | STV","players":null},{"server_id":311,"name":"Uncletopia | Frankfurt | 6 | All Maps","name_short":"frk-6","host":"frk-1.de.uncletopia.com","port":27065,"enabled":true,"region":"eu","cc":"de","latitude":50.110924,"longitude":8.682127,"reserved":0,"last_update":"0001-01-01T00:00:00Z","name_a2s":"Uncletopia | Frankfurt | 6 | All Maps","protocol":17,"map":"cp_altitude","folder":"tf","game":"Team Fortress","app_id":440,"player_count":0,"max_players":24,"Bots":0,"server_type":"Dedicated","server_os":"Linux","password":true,"vac":true,"version":"7961495","steam_id":85568392924504278,"keywords":["cp","nocrits","nodmgspread","uncletopia"],"game_id":440,"stv_port":27066,"stv_name":"Uncletopia | Frankfurt | 6 | All Maps | STV","players":null},{"server_id":23,"name":"Uncletopia | Frankfurt | 7 | Stopwatch","name_short":"frk-7","host":"frk-1.de.uncletopia.com","port":27075,"enabled":true,"region":"eu","cc":"de","latitude":50.110924,"longitude":8.682127,"reserved":0,"last_update":"0001-01-01T00:00:00Z","name_a2s":"Uncletopia | Frankfurt | 7 | Stopwatch","protocol":17,"map":"pl_frontier_final","folder":"tf","game":"Team Fortress","app_id":440,"player_count":0,"max_players":24,"Bots":0,"server_type":"Dedicated","server_os":"Linux","password":true,"vac":true,"version":"7961495","steam_id":85568392924742827,"keywords":["nocrits","nodmgspread","payload","uncletopia"],"game_id":440,"stv_port":27076,"stv_name":"Uncletopia | Frankfurt | 7 | Stopwatch | STV","players":null},{"server_id":24,"name":"Uncletopia | Frankfurt | 8 | Community","name_short":"frk-8","host":"frk-1.de.uncletopia.com","port":27085,"enabled":true,"region":"eu","cc":"de","latitude":50.110924,"longitude":8.682127,"reserved":0,"last_update":"0001-01-01T00:00:00Z","name_a2s":"Uncletopia | Frankfurt | 8 | Community","protocol":17,"map":"cp_mountainlab","folder":"tf","game":"Team Fortress","app_id":440,"player_count":0,"max_players":24,"Bots":0,"server_type":"Dedicated","server_os":"Linux","password":true,"vac":true,"version":"7961495","steam_id":85568392924742828,"keywords":["cp","nocrits","nodmgspread","uncletopia"],"game_id":440,"stv_port":27086,"stv_name":"Uncletopia | Frankfurt | 8 | Community | STV","players":null},{"server_id":202,"name":"Uncletopia | Hong Kong | 1 | All Maps","name_short":"hgk-1","host":"hgk-1.hk.uncletopia.com","port":27015,"enabled":true,"region":"asia","cc":"hk","latitude":22.302711,"longitude":114.177216,"reserved":0,"last_update":"0001-01-01T00:00:00Z","name_a2s":"Uncletopia | Hong Kong | 1 | All Maps","protocol":17,"map":"pl_pier","folder":"tf","game":"Team Fortress","app_id":440,"player_count":9,"max_players":24,"Bots":0,"server_type":"Dedicated","server_os":"Linux","password":true,"vac":true,"version":"7961495","steam_id":85568392924494504,"keywords":["nocrits","nodmgspread","payload","uncletopia"],"game_id":440,"stv_port":27016,"stv_name":"Uncletopia | Hong Kong | 1 | All Maps | STV","players":[{"user_id":47,"name":"Compressed","steam_id":76561199230196794,"connected_time":1496000000000,"state":"active","ping":112},{"user_id":56,"name":"human696982","steam_id":76561199496222946,"connected_time":171000000000,"state":"active","ping":85},{"user_id":54,"name":"‚òÖaÃ≤cÃ≤aÃ≤tÃ≤","steam_id":76561198334099003,"connected_time":370000000000,"state":"active","ping":138},{"user_id":51,"name":"buy the subaru brz now","steam_id":76561198420018387,"connected_time":785000000000,"state":"active","ping":40},{"user_id":55,"name":"MEDIC!","steam_id":76561198149344029,"connected_time":337000000000,"state":"active","ping":85},{"user_id":57,"name":"Xnerz","steam_id":76561199443552014,"connected_time":26000000000,"state":"active","ping":80},{"user_id":34,"name":"Sir.Apple","steam_id":76561198065612995,"connected_time":2180000000000,"state":"active","ping":85},{"user_id":45,"name":":weed:","steam_id":76561198386626651,"connected_time":1593000000000,"state":"active","ping":59},{"user_id":43,"name":"‚¨û","steam_id":76561199373637717,"connected_time":1665000000000,"state":"active","ping":63}]},{"server_id":1,"name":"Uncletopia | Los Angeles | 1 | All Maps","name_short":"lax-1","host":"lax-1.us.uncletopia.com","port":27015,"enabled":true,"region":"us-west","cc":"us","latitude":33.94279,"longitude":-118.41004,"reserved":0,"last_update":"0001-01-01T00:00:00Z","name_a2s":"Uncletopia | Los Angeles | 1 | All Maps","protocol":17,"map":"pl_badwater","folder":"tf","game":"Team Fortress","app_id":440,"player_count":24,"max_players":24,"Bots":0,"server_type":"Dedicated","server_os":"Linux","password":true,"vac":true,"version":"7961495","steam_id":85568392924469991,"keywords":["nocrits","nodmgspread","payload","uncletopia"],"game_id":440,"stv_port":27016,"stv_name":"Uncletopia | Los Angeles | 1 | All Maps | STV","players":[{"user_id":472,"name":"R0KKSTAR","steam_id":76561198206177593,"connected_time":1143000000000,"state":"active","ping":42},{"user_id":459,"name":"duncaidan","steam_id":76561199013510313,"connected_time":2175000000000,"state":"active","ping":48},{"user_id":478,"name":"OxOoxen841","steam_id":76561198297981993,"connected_time":1039000000000,"state":"active","ping":121},{"user_id":482,"name":"Brad Goodman","steam_id":76561198138465052,"connected_time":789000000000,"state":"active","ping":75},{"user_id":424,"name":"small meth pouch","steam_id":76561198130412963,"connected_time":4838000000000,"state":"active","ping":80},{"user_id":383,"name":"Lambchop","steam_id":76561198043900363,"connected_time":6752000000000,"state":"active","ping":75},{"user_id":477,"name":"leonard_507","steam_id":76561199076665380,"connected_time":1064000000000,"state":"active","ping":56},{"user_id":467,"name":"ka√∞all","steam_id":76561198850888009,"connected_time":1910000000000,"state":"active","ping":59},{"user_id":479,"name":"SQbuilder","steam_id":76561198076473375,"connected_time":1029000000000,"state":"active","ping":44},{"user_id":473,"name":"SoCal Kaizer","steam_id":76561198334361081,"connected_time":1123000000000,"state":"active","ping":71},{"user_id":460,"name":"BobBallin","steam_id":76561198355299724,"connected_time":2147000000000,"state":"active","ping":60},{"user_id":469,"name":"JSlashBoy","steam_id":76561199434135742,"connected_time":1540000000000,"state":"active","ping":62},{"user_id":483,"name":"DORK","steam_id":76561198037384555,"connected_time":686000000000,"state":"active","ping":60},{"user_id":324,"name":"IonicMist","steam_id":76561198047105563,"connected_time":10912000000000,"state":"active","ping":92},{"user_id":466,"name":"squinch","steam_id":76561198151135298,"connected_time":1936000000000,"state":"active","ping":41},{"user_id":462,"name":"Frog","steam_id":76561198158535534,"connected_time":2144000000000,"state":"active","ping":127},{"user_id":468,"name":"roach","steam_id":76561198354811369,"connected_time":1646000000000,"state":"active","ping":48},{"user_id":484,"name":"Seaplane","steam_id":76561198147243498,"connected_time":529000000000,"state":"active","ping":115},{"user_id":463,"name":"tara bryck gaming","steam_id":76561198815985404,"connected_time":2128000000000,"state":"active","ping":72},{"user_id":448,"name":"exx","steam_id":76561198090552145,"connected_time":3026000000000,"state":"active","ping":53},{"user_id":464,"name":"Pip","steam_id":76561198044944326,"connected_time":2116000000000,"state":"active","ping":57},{"user_id":475,"name":"Hektur Salmondchonka","steam_id":76561198136982572,"connected_time":1098000000000,"state":"active","ping":100},{"user_id":465,"name":"nonagon infinity","steam_id":76561198397662124,"connected_time":2110000000000,"state":"active","ping":92},{"user_id":481,"name":"Your car's extended warranty","steam_id":76561198035665009,"connected_time":843000000000,"state":"active","ping":259}]},{"server_id":112,"name":"Uncletopia | Los Angeles | 2 | All Maps","name_short":"lax-2","host":"lax-1.us.uncletopia.com","port":27025,"enabled":true,"region":"us-west","cc":"us","latitude":33.94279,"longitude":-118.41004,"reserved":0,"last_update":"0001-01-01T00:00:00Z","name_a2s":"Uncletopia | Los Angeles | 2 | All Maps","protocol":17,"map":"cp_steel","folder":"tf","game":"Team Fortress","app_id":440,"player_count":24,"max_players":24,"Bots":0,"server_type":"Dedicated","server_os":"Linux","password":true,"vac":true,"version":"7961495","steam_id":85568392924469992,"keywords":["cp","nocrits","nodmgspread","uncletopia"],"game_id":440,"stv_port":27026,"stv_name":"Uncletopia | Los Angeles | 2 | All Maps | STV","players":[{"user_id":204,"name":"Drilly22","steam_id":76561198068838338,"connected_time":1696000000000,"state":"active","ping":95},{"user_id":206,"name":"beefgames","steam_id":76561198355628238,"connected_time":1619000000000,"state":"active","ping":73},{"user_id":224,"name":"Mr.Tatertot","steam_id":76561198145936848,"connected_time":249000000000,"state":"active","ping":83},{"user_id":156,"name":"PhaqSunished","steam_id":76561198089761822,"connected_time":5608000000000,"state":"active","ping":57},{"user_id":223,"name":"Pixelated Pussy","steam_id":76561198002511088,"connected_time":353000000000,"state":"active","ping":63},{"user_id":196,"name":"Chalupa Jones","steam_id":76561198335855588,"connected_time":2814000000000,"state":"active","ping":49},{"user_id":225,"name":"Ralph Kramden (Slim Charles)","steam_id":76561197981687895,"connected_time":180000000000,"state":"active","ping":55},{"user_id":203,"name":"KOR","steam_id":76561198017202040,"connected_time":1730000000000,"state":"active","ping":69},{"user_id":209,"name":"Mr. Enforce","steam_id":76561198362168020,"connected_time":1556000000000,"state":"active","ping":107},{"user_id":220,"name":"shitass (Reaping and Sowing)","steam_id":76561198210572481,"connected_time":534000000000,"state":"active","ping":44},{"user_id":195,"name":"bay","steam_id":76561198151087213,"connected_time":2825000000000,"state":"active","ping":54},{"user_id":155,"name":"Pacemaker","steam_id":76561198046865217,"connected_time":5785000000000,"state":"active","ping":47},{"user_id":217,"name":"MechanizedContortion","steam_id":76561199146092247,"connected_time":643000000000,"state":"active","ping":57},{"user_id":222,"name":"corg","steam_id":76561198338740292,"connected_time":407000000000,"state":"active","ping":51},{"user_id":208,"name":"Pilgrim","steam_id":76561198089822383,"connected_time":1595000000000,"state":"active","ping":65},{"user_id":210,"name":"datnintendogeboi","steam_id":76561198342961276,"connected_time":1475000000000,"state":"active","ping":131},{"user_id":145,"name":"Do cOck","steam_id":76561198132755619,"connected_time":6845000000000,"state":"active","ping":43},{"user_id":177,"name":"Mongoose","steam_id":76561198020361641,"connected_time":4608000000000,"state":"active","ping":75},{"user_id":211,"name":"Bcuz","steam_id":76561197981318027,"connected_time":1406000000000,"state":"active","ping":71},{"user_id":212,"name":"DOPEam1ne","steam_id":76561198112204774,"connected_time":1322000000000,"state":"active","ping":61},{"user_id":181,"name":"enhanced with disney's FastPlay","steam_id":76561198164134387,"connected_time":4403000000000,"state":"active","ping":87},{"user_id":176,"name":"laaghice","steam_id":76561198274021552,"connected_time":4625000000000,"state":"active","ping":84},{"user_id":221,"name":"Bond","steam_id":76561198089262776,"connected_time":527000000000,"state":"active","ping":82},{"user_id":142,"name":"Mob Boss Baby","steam_id":76561199127590316,"connected_time":6878000000000,"state":"active","ping":59}]},{"server_id":324,"name":"Uncletopia | Los Angeles | 3 | All Maps","name_short":"lax-3","host":"lax-1.us.uncletopia.com","port":27035,"enabled":true,"region":"us-west","cc":"us","latitude":33.94279,"longitude":-118.41004,"reserved":0,"last_update":"0001-01-01T00:00:00Z","name_a2s":"Uncletopia | Los Angeles | 3 | All Maps","protocol":17,"map":"koth_lakeside_final","folder":"tf","game":"Team Fortress","app_id":440,"player_count":0,"max_players":24,"Bots":0,"server_type":"Dedicated","server_os":"Linux","password":true,"vac":true,"version":"7961495","steam_id":85568392924510198,"keywords":["cp","nocrits","nodmgspread","uncletopia"],"game_id":440,"stv_port":27036,"stv_name":"Uncletopia | Los Angeles | 3 | All Maps | STV","players":null},{"server_id":25,"name":"Uncletopia | Los Angeles | 4 | Stopwatch","name_short":"lax-4","host":"lax-1.us.uncletopia.com","port":27045,"enabled":true,"region":"us-west","cc":"us","latitude":33.94279,"longitude":-118.41004,"reserved":0,"last_update":"0001-01-01T00:00:00Z","name_a2s":"Uncletopia | Los Angeles | 4 | Stopwatch","protocol":17,"map":"workshop/koth_product_final.ugc454272353","folder":"tf","game":"Team Fortress","app_id":440,"player_count":19,"max_players":24,"Bots":0,"server_type":"Dedicated","server_os":"Linux","password":true,"vac":true,"version":"7961495","steam_id":85568392924510199,"keywords":["cp","nocrits","nodmgspread","uncletopia"],"game_id":440,"stv_port":27046,"stv_name":"Uncletopia | Los Angeles | 4 | Stopwatch | STV","players":[{"user_id":96,"name":"Luigi Judah","steam_id":76561198940391357,"connected_time":1219000000000,"state":"active","ping":111},{"user_id":99,"name":"090-nsalih","steam_id":76561199467467873,"connected_time":974000000000,"state":"active","ping":185},{"user_id":54,"name":"chimplicity","steam_id":76561198012097062,"connected_time":4736000000000,"state":"active","ping":77},{"user_id":93,"name":"Odd Life","steam_id":76561198244979998,"connected_time":1689000000000,"state":"active","ping":47},{"user_id":120,"name":"Dongus","steam_id":76561197979056451,"connected_time":62000000000,"state":"active","ping":73},{"user_id":85,"name":"cielael","steam_id":76561198043971956,"connected_time":2221000000000,"state":"active","ping":54},{"user_id":89,"name":"pat","steam_id":76561198040595468,"connected_time":1776000000000,"state":"active","ping":62},{"user_id":111,"name":"OniSlays","steam_id":76561198043875292,"connected_time":426000000000,"state":"active","ping":71},{"user_id":90,"name":"big fish","steam_id":76561198186479818,"connected_time":1764000000000,"state":"active","ping":58},{"user_id":64,"name":"MancalaMadMan","steam_id":76561198347324053,"connected_time":4061000000000,"state":"active","ping":100},{"user_id":119,"name":"Rabblerouser","steam_id":76561198127930963,"connected_time":159000000000,"state":"active","ping":89},{"user_id":113,"name":"Boogie03","steam_id":76561198995812187,"connected_time":387000000000,"state":"active","ping":60},{"user_id":115,"name":"ÊàëÊòØ‰∏Ä‰∏™ÂèØÁà±ÁöÑÂ∞èÁî∑Â≠©","steam_id":76561199158308865,"connected_time":354000000000,"state":"active","ping":60},{"user_id":121,"name":"SK","steam_id":76561198133360797,"connected_time":47000000000,"state":"active","ping":59},{"user_id":117,"name":"dzcreeper","steam_id":76561198072250723,"connected_time":274000000000,"state":"active","ping":84},{"user_id":122,"name":"Thequirka","steam_id":76561198968058652,"connected_time":18000000000,"state":"spawning","ping":4045},{"user_id":109,"name":"PLATNUMHANNYA","steam_id":76561198451426311,"connected_time":540000000000,"state":"active","ping":90},{"user_id":42,"name":"Mom","steam_id":76561198207936000,"connected_time":6081000000000,"state":"active","ping":41},{"user_id":110,"name":"qwak","steam_id":76561198102369506,"connected_time":521000000000,"state":"active","ping":48}]},{"server_id":11,"name":"Uncletopia | London | 1 | All Maps","name_short":"lon-1","host":"lon-1.uk.uncletopia.com","port":27015,"enabled":true,"region":"eu","cc":"gb","latitude":51.509865,"longitude":-0.118092,"reserved":0,"last_update":"0001-01-01T00:00:00Z","name_a2s":"Uncletopia | London | 1 | All Maps","protocol":17,"map":"cp_altitude","folder":"tf","game":"Team Fortress","app_id":440,"player_count":0,"max_players":24,"Bots":0,"server_type":"Dedicated","server_os":"Linux","password":true,"vac":true,"version":"7961495","steam_id":85568392924367362,"keywords":["cp","nocrits","nodmgspread","uncletopia"],"game_id":440,"stv_port":27016,"stv_name":"Uncletopia | London | 1 | All Maps | STV","players":null},{"server_id":114,"name":"Uncletopia | London | 2 | All Maps","name_short":"lon-2","host":"lon-1.uk.uncletopia.com","port":27025,"enabled":true,"region":"eu","cc":"gb","latitude":51.509865,"longitude":-0.118092,"reserved":0,"last_update":"0001-01-01T00:00:00Z","name_a2s":"Uncletopia | London | 2 | All Maps","protocol":17,"map":"cp_dustbowl","folder":"tf","game":"Team Fortress","app_id":440,"player_count":0,"max_players":24,"Bots":0,"server_type":"Dedicated","server_os":"Linux","password":true,"vac":true,"version":"7961495","steam_id":85568392924470941,"keywords":["cp","nocrits","nodmgspread","uncletopia"],"game_id":440,"stv_port":27026,"stv_name":"Uncletopia | London | 2 | All Maps | STV","players":null},{"server_id":320,"name":"Uncletopia | London | 3 | All Maps","name_short":"lon-3","host":"lon-1.uk.uncletopia.com","port":27035,"enabled":true,"region":"eu","cc":"gb","latitude":51.509865,"longitude":-0.118092,"reserved":0,"last_update":"0001-01-01T00:00:00Z","name_a2s":"Uncletopia | London | 3 | All Maps","protocol":17,"map":"koth_viaduct","folder":"tf","game":"Team Fortress","app_id":440,"player_count":0,"max_players":24,"Bots":0,"server_type":"Dedicated","server_os":"Linux","password":true,"vac":true,"version":"7961495","steam_id":85568392924510192,"keywords":["cp","nocrits","nodmgspread","uncletopia"],"game_id":440,"stv_port":27036,"stv_name":"Uncletopia | London | 3 | All Maps | STV","players":null},{"server_id":321,"name":"Uncletopia | London | 4 | All Maps","name_short":"lon-4","host":"lon-1.uk.uncletopia.com","port":27045,"enabled":true,"region":"eu","cc":"gb","latitude":51.509865,"longitude":-0.118092,"reserved":0,"last_update":"0001-01-01T00:00:00Z","name_a2s":"Uncletopia | London | 4 | All Maps","protocol":17,"map":"pl_upward","folder":"tf","game":"Team Fortress","app_id":440,"player_count":3,"max_players":24,"Bots":0,"server_type":"Dedicated","server_os":"Linux","password":true,"vac":true,"version":"7961495","steam_id":85568392924510193,"keywords":["nocrits","nodmgspread","payload","uncletopia"],"game_id":440,"stv_port":27046,"stv_name":"Uncletopia | London | 4 | All Maps | STV","players":[{"user_id":845,"name":"Neon","steam_id":76561198069049007,"connected_time":539000000000,"state":"active","ping":130},{"user_id":844,"name":"thekoolest88","steam_id":76561199022415672,"connected_time":1113000000000,"state":"active","ping":227},{"user_id":846,"name":"king k rool","steam_id":76561199179040672,"connected_time":524000000000,"state":"active","ping":56}]},{"server_id":21,"name":"Uncletopia | London | 5 | All Maps","name_short":"lon-5","host":"lon-1.uk.uncletopia.com","port":27055,"enabled":true,"region":"eu","cc":"gb","latitude":51.509865,"longitude":-0.118092,"reserved":0,"last_update":"0001-01-01T00:00:00Z","name_a2s":"Uncletopia | London | 5 | All Maps","protocol":17,"map":"koth_highpass","folder":"tf","game":"Team Fortress","app_id":440,"player_count":0,"max_players":24,"Bots":0,"server_type":"Dedicated","server_os":"Linux","password":true,"vac":true,"version":"7961495","steam_id":85568392924742829,"keywords":["cp","nocrits","nodmgspread","uncletopia"],"game_id":440,"stv_port":27056,"stv_name":"Uncletopia | London | 5 | All Maps | STV","players":null},{"server_id":22,"name":"Uncletopia | London | 6 | All Maps","name_short":"lon-6","host":"lon-1.uk.uncletopia.com","port":27065,"enabled":true,"region":"eu","cc":"gb","latitude":51.509865,"longitude":-0.118092,"reserved":0,"last_update":"0001-01-01T00:00:00Z","name_a2s":"Uncletopia | London | 6 | All Maps","protocol":17,"map":"ctf_doublecross","folder":"tf","game":"Team Fortress","app_id":440,"player_count":0,"max_players":24,"Bots":0,"server_type":"Dedicated","server_os":"Linux","password":true,"vac":true,"version":"7961495","steam_id":85568392924742830,"keywords":["ctf","nocrits","nodmgspread","uncletopia"],"game_id":440,"stv_port":27066,"stv_name":"Uncletopia | London | 6 | All Maps | STV","players":null},{"server_id":40,"name":"Uncletopia | London | 7 | Stopwatch","name_short":"lon-7","host":"lon-1.uk.uncletopia.com","port":27075,"enabled":true,"region":"eu","cc":"gb","latitude":51.509865,"longitude":-0.118092,"reserved":0,"last_update":"0001-01-01T00:00:00Z","name_a2s":"Uncletopia | London | 7 | Stopwatch","protocol":17,"map":"workshop/koth_product_final.ugc454272353","folder":"tf","game":"Team Fortress","app_id":440,"player_count":0,"max_players":24,"Bots":0,"server_type":"Dedicated","server_os":"Linux","password":true,"vac":true,"version":"7961495","steam_id":85568392924964314,"keywords":["cp","nocrits","nodmgspread","uncletopia"],"game_id":440,"stv_port":27076,"stv_name":"Uncletopia | London | 7 | Stopwatch | STV","players":null},{"server_id":41,"name":"Uncletopia | London | 8 | Community","name_short":"lon-8","host":"lon-1.uk.uncletopia.com","port":27085,"enabled":true,"region":"eu","cc":"gb","latitude":51.509865,"longitude":-0.118092,"reserved":0,"last_update":"0001-01-01T00:00:00Z","name_a2s":"Uncletopia | London | 8 | Community","protocol":17,"map":"workshop/koth_trenchfoot_b1a.ugc731436616","folder":"tf","game":"Team Fortress","app_id":440,"player_count":0,"max_players":24,"Bots":0,"server_type":"Dedicated","server_os":"Linux","password":true,"vac":true,"version":"7961495","steam_id":85568392924964315,"keywords":["cp","nocrits","nodmgspread","uncletopia"],"game_id":440,"stv_port":27086,"stv_name":"Uncletopia | London | 8 | Community | STV","players":null},{"server_id":300,"name":"Uncletopia | Montr√©al | 1 | One Thousand Uncles","name_short":"mtl-1","host":"mtl-1.ca.uncletopia.com","port":27015,"enabled":true,"region":"us-east","cc":"ca","latitude":45.50889,"longitude":-73.56167,"reserved":0,"last_update":"0001-01-01T00:00:00Z","name_a2s":"","protocol":0,"map":"","folder":"","game":"","app_id":0,"player_count":2,"max_players":0,"Bots":0,"server_type":"","server_os":"","password":false,"vac":false,"version":"","steam_id":0,"keywords":null,"game_id":0,"stv_port":0,"stv_name":"","players":[{"user_id":334,"name":"sheep","steam_id":76561198172943006,"connected_time":890000000000,"state":"active","ping":60},{"user_id":325,"name":"Puffsticker","steam_id":76561199194309588,"connected_time":3965000000000,"state":"active","ping":100}]},{"server_id":301,"name":"Uncletopia | Montr√©al | 2 | One Thousand Uncles","name_short":"mtl-2","host":"mtl-1.ca.uncletopia.com","port":27025,"enabled":true,"region":"us-east","cc":"ca","latitude":45.50889,"longitude":-73.56167,"reserved":0,"last_update":"0001-01-01T00:00:00Z","name_a2s":"","protocol":0,"map":"","folder":"","game":"","app_id":0,"player_count":0,"max_players":0,"Bots":0,"server_type":"","server_os":"","password":false,"vac":false,"version":"","steam_id":0,"keywords":null,"game_id":0,"stv_port":0,"stv_name":"","players":null},{"server_id":302,"name":"Uncletopia | Montr√©al | 3 | One Thousand Uncles","name_short":"mtl-3","host":"mtl-1.ca.uncletopia.com","port":27035,"enabled":true,"region":"us-east","cc":"ca","latitude":45.50889,"longitude":-73.56167,"reserved":0,"last_update":"0001-01-01T00:00:00Z","name_a2s":"","protocol":0,"map":"","folder":"","game":"","app_id":0,"player_count":0,"max_players":0,"Bots":0,"server_type":"","server_os":"","password":false,"vac":false,"version":"","steam_id":0,"keywords":null,"game_id":0,"stv_port":0,"stv_name":"","players":null},{"server_id":13,"name":"Uncletopia | New York City | 1 | All Maps","name_short":"nyc-1","host":"nyc-1.us.uncletopia.com","port":27015,"enabled":true,"region":"us-east","cc":"us","latitude":40.73061,"longitude":-73.93524,"reserved":0,"last_update":"0001-01-01T00:00:00Z","name_a2s":"Uncletopia | New York City | 1 | All Maps","protocol":17,"map":"pl_upward","folder":"tf","game":"Team Fortress","app_id":440,"player_count":24,"max_players":24,"Bots":0,"server_type":"Dedicated","server_os":"Linux","password":true,"vac":true,"version":"7961495","steam_id":85568392924469993,"keywords":["nocrits","nodmgspread","payload","uncletopia"],"game_id":440,"stv_port":27016,"stv_name":"Uncletopia | New York City | 1 | All Maps | STV","players":[{"user_id":805,"name":"Krampus","steam_id":76561198137530703,"connected_time":3827000000000,"state":"active","ping":71},{"user_id":830,"name":"Terror-Billy #SaveTF2","steam_id":76561198328141870,"connected_time":2128000000000,"state":"active","ping":61},{"user_id":626,"name":"A Puppy","steam_id":76561198828184456,"connected_time":18347000000000,"state":"active","ping":45},{"user_id":849,"name":"flappyflap2","steam_id":76561198285048973,"connected_time":293000000000,"state":"active","ping":45},{"user_id":802,"name":"Jousty","steam_id":76561199162677853,"connected_time":3898000000000,"state":"active","ping":103},{"user_id":847,"name":"Snoogs","steam_id":76561198444880931,"connected_time":1218000000000,"state":"active","ping":59},{"user_id":851,"name":"Narh","steam_id":76561198025216294,"connected_time":271000000000,"state":"active","ping":57},{"user_id":814,"name":"c","steam_id":76561198881665250,"connected_time":3651000000000,"state":"active","ping":105},{"user_id":797,"name":"Hipster_Giraffe","steam_id":76561198069701092,"connected_time":3928000000000,"state":"active","ping":88},{"user_id":833,"name":"General Sherman","steam_id":76561198044769376,"connected_time":2058000000000,"state":"active","ping":70},{"user_id":821,"name":"Deer?","steam_id":76561198149694064,"connected_time":3136000000000,"state":"active","ping":115},{"user_id":827,"name":"Connection","steam_id":76561199230740231,"connected_time":2508000000000,"state":"active","ping":61},{"user_id":807,"name":"space man","steam_id":76561198066333670,"connected_time":3783000000000,"state":"active","ping":69},{"user_id":815,"name":"ndvr","steam_id":76561199379200102,"connected_time":3259000000000,"state":"active","ping":55},{"user_id":848,"name":"Drapph","steam_id":76561199384213314,"connected_time":1122000000000,"state":"active","ping":85},{"user_id":844,"name":"virtualconnor4","steam_id":76561198218524512,"connected_time":1570000000000,"state":"active","ping":153},{"user_id":810,"name":"I'mWalkerHere","steam_id":76561199310055450,"connected_time":3762000000000,"state":"active","ping":79},{"user_id":852,"name":"cellogamer","steam_id":76561198016937098,"connected_time":269000000000,"state":"active","ping":56},{"user_id":850,"name":"peee pee man","steam_id":76561198044979205,"connected_time":293000000000,"state":"active","ping":45},{"user_id":817,"name":"crotuslovershanks","steam_id":76561199091300223,"connected_time":3215000000000,"state":"active","ping":85},{"user_id":818,"name":"THICCBEEF GRANDPA","steam_id":76561197993550572,"connected_time":3211000000000,"state":"active","ping":83},{"user_id":812,"name":"BeeSting12","steam_id":76561198153472425,"connected_time":3760000000000,"state":"active","ping":76},{"user_id":822,"name":"Bert.","steam_id":76561198140666346,"connected_time":3136000000000,"state":"active","ping":56},{"user_id":836,"name":"log","steam_id":76561198386992717,"connected_time":2030000000000,"state":"active","ping":79}]},{"server_id":14,"name":"Uncletopia | New York City | 2 | All Maps","name_short":"nyc-2","host":"nyc-1.us.uncletopia.com","port":27025,"enabled":true,"region":"us-east","cc":"us","latitude":40.73061,"longitude":-73.93524,"reserved":0,"last_update":"0001-01-01T00:00:00Z","name_a2s":"Uncletopia | New York City | 2 | All Maps","protocol":17,"map":"pl_upward","folder":"tf","game":"Team Fortress","app_id":440,"player_count":24,"max_players":24,"Bots":0,"server_type":"Dedicated","server_os":"Linux","password":true,"vac":true,"version":"7961495","steam_id":85568392924469994,"keywords":["nocrits","nodmgspread","payload","uncletopia"],"game_id":440,"stv_port":27026,"stv_name":"Uncletopia | New York City | 2 | All Maps | STV","players":[{"user_id":519,"name":"John0681","steam_id":76561199088425493,"connected_time":1389000000000,"state":"active","ping":75},{"user_id":525,"name":"Gram Tokers Count Doinkula","steam_id":76561198112811565,"connected_time":507000000000,"state":"active","ping":58},{"user_id":533,"name":"rivera","steam_id":76561198051058706,"connected_time":164000000000,"state":"active","ping":39},{"user_id":529,"name":"Mysteryred12","steam_id":76561199206772814,"connected_time":341000000000,"state":"active","ping":105},{"user_id":483,"name":"American Gamer","steam_id":76561198142292188,"connected_time":2763000000000,"state":"active","ping":83},{"user_id":515,"name":"dipp","steam_id":76561198395577807,"connected_time":1526000000000,"state":"active","ping":63},{"user_id":500,"name":"Great","steam_id":76561198895516433,"connected_time":1709000000000,"state":"active","ping":59},{"user_id":491,"name":"Castrophy","steam_id":76561198014745908,"connected_time":2124000000000,"state":"active","ping":50},{"user_id":478,"name":"YOU WHAT?!","steam_id":76561198418679471,"connected_time":3541000000000,"state":"active","ping":59},{"user_id":534,"name":"Potato Masher","steam_id":76561198056712845,"connected_time":155000000000,"state":"active","ping":66},{"user_id":535,"name":"non_ai","steam_id":76561198270951938,"connected_time":143000000000,"state":"active","ping":45},{"user_id":516,"name":"Crylec","steam_id":76561198092755279,"connected_time":1516000000000,"state":"active","ping":41},{"user_id":536,"name":"Mr. Dr. PhD Expert","steam_id":76561198151253061,"connected_time":125000000000,"state":"active","ping":74},{"user_id":537,"name":"GOLDIE","steam_id":76561199375258674,"connected_time":39000000000,"state":"spawning","ping":103},{"user_id":527,"name":"GameboyAdvancedSPMobileHotspot","steam_id":76561198413739460,"connected_time":496000000000,"state":"active","ping":92},{"user_id":530,"name":"dankdinkle","steam_id":76561198799406781,"connected_time":323000000000,"state":"active","ping":147},{"user_id":538,"name":"Laidan","steam_id":76561198140510239,"connected_time":32000000000,"state":"active","ping":35},{"user_id":510,"name":"Anxiety.mov","steam_id":76561198028145216,"connected_time":1639000000000,"state":"active","ping":31},{"user_id":511,"name":"xFactr","steam_id":76561198129007422,"connected_time":1609000000000,"state":"active","ping":38},{"user_id":512,"name":"kratomSnorter.1quarter","steam_id":76561198946987511,"connected_time":1603000000000,"state":"active","ping":82},{"user_id":539,"name":"Irritated Duck","steam_id":76561198247792076,"connected_time":31000000000,"state":"active","ping":138},{"user_id":514,"name":"Q47","steam_id":76561198087128341,"connected_time":1571000000000,"state":"active","ping":125},{"user_id":521,"name":"Architect","steam_id":76561198015242016,"connected_time":1007000000000,"state":"active","ping":60},{"user_id":523,"name":"beenis","steam_id":76561198174452350,"connected_time":788000000000,"state":"active","ping":54}]},{"server_id":15,"name":"Uncletopia | New York City | 3 | Stopwatch","name_short":"nyc-3","host":"nyc-1.us.uncletopia.com","port":27035,"enabled":true,"region":"us-east","cc":"us","latitude":40.73061,"longitude":-73.93524,"reserved":0,"last_update":"0001-01-01T00:00:00Z","name_a2s":"Uncletopia | New York City | 3 | Stopwatch","protocol":17,"map":"workshop/koth_product_final.ugc454272353","folder":"tf","game":"Team Fortress","app_id":440,"player_count":0,"max_players":24,"Bots":0,"server_type":"Dedicated","server_os":"Linux","password":true,"vac":true,"version":"7961495","steam_id":85568392924742820,"keywords":["cp","nocrits","nodmgspread","uncletopia"],"game_id":440,"stv_port":27036,"stv_name":"Uncletopia | New York City | 3 | Stopwatch | STV","players":null},{"server_id":16,"name":"Uncletopia | New York City | 4 | Community","name_short":"nyc-4","host":"nyc-1.us.uncletopia.com","port":27045,"enabled":true,"region":"us-east","cc":"us","latitude":40.73061,"longitude":-73.93524,"reserved":0,"last_update":"0001-01-01T00:00:00Z","name_a2s":"Uncletopia | New York City | 4 | Community","protocol":17,"map":"workshop/koth_ashville_final.ugc2130459942","folder":"tf","game":"Team Fortress","app_id":440,"player_count":12,"max_players":24,"Bots":0,"server_type":"Dedicated","server_os":"Linux","password":true,"vac":true,"version":"7961495","steam_id":85568392924742821,"keywords":["cp","nocrits","nodmgspread","uncletopia"],"game_id":440,"stv_port":27046,"stv_name":"Uncletopia | New York City | 4 | Community | STV","players":[{"user_id":225,"name":"Alexcattt","steam_id":76561198070912938,"connected_time":332000000000,"state":"active","ping":65},{"user_id":226,"name":"Laze_Mello","steam_id":76561199216124943,"connected_time":291000000000,"state":"active","ping":55},{"user_id":216,"name":"Just washed","steam_id":76561199030160932,"connected_time":1205000000000,"state":"active","ping":74},{"user_id":196,"name":"dave","steam_id":76561198135961731,"connected_time":2350000000000,"state":"active","ping":90},{"user_id":228,"name":"mush","steam_id":76561198310089797,"connected_time":57000000000,"state":"active","ping":68},{"user_id":167,"name":"alphanerd2","steam_id":76561198029109358,"connected_time":4676000000000,"state":"active","ping":54},{"user_id":142,"name":"Chedda Cheese","steam_id":76561198095536103,"connected_time":5840000000000,"state":"active","ping":62},{"user_id":160,"name":"Smiley Fries","steam_id":76561198052763637,"connected_time":4916000000000,"state":"active","ping":69},{"user_id":187,"name":"eatmysteel","steam_id":76561198976437527,"connected_time":2684000000000,"state":"active","ping":72},{"user_id":174,"name":"Bob","steam_id":76561198038708273,"connected_time":4102000000000,"state":"active","ping":75},{"user_id":165,"name":"MostWanted","steam_id":76561198118523992,"connected_time":4807000000000,"state":"active","ping":44},{"user_id":205,"name":"Just_Bad","steam_id":76561198145153093,"connected_time":1982000000000,"state":"active","ping":52}]},{"server_id":142,"name":"Uncletopia | S√£o Paulo | 1 | All Maps","name_short":"sao-1","host":"sao-1.br.uncletopia.com","port":27015,"enabled":true,"region":"sa","cc":"br","latitude":-23.533773,"longitude":-46.62529,"reserved":0,"last_update":"0001-01-01T00:00:00Z","name_a2s":"Uncletopia | S√£o Paulo | 1 | All Maps","protocol":17,"map":"pl_pier","folder":"tf","game":"Team Fortress","app_id":440,"player_count":0,"max_players":24,"Bots":0,"server_type":"Dedicated","server_os":"Linux","password":true,"vac":true,"version":"7961495","steam_id":85568392924469996,"keywords":["nocrits","nodmgspread","payload","uncletopia"],"game_id":440,"stv_port":27016,"stv_name":"Uncletopia | S√£o Paulo | 1 | All Maps | STV","players":null},{"server_id":143,"name":"Uncletopia | S√£o Paulo | 2 | Community","name_short":"sao-2","host":"sao-2.br.uncletopia.com","port":27015,"enabled":true,"region":"sa","cc":"br","latitude":-23.533773,"longitude":-46.62529,"reserved":0,"last_update":"0001-01-01T00:00:00Z","name_a2s":"Uncletopia | S√£o Paulo | 2 | Community","protocol":17,"map":"workshop/koth_product_final.ugc454272353","folder":"tf","game":"Team Fortress","app_id":440,"player_count":0,"max_players":24,"Bots":0,"server_type":"Dedicated","server_os":"Linux","password":true,"vac":true,"version":"7961495","steam_id":85568392924485349,"keywords":["cp","nocrits","nodmgspread","uncletopia"],"game_id":440,"stv_port":27016,"stv_name":"Uncletopia | S√£o Paulo | 2 | Community | STV","players":null},{"server_id":7,"name":"Uncletopia | Seattle | 1 | All Maps","name_short":"sea-1","host":"sea-1.us.uncletopia.com","port":27015,"enabled":true,"region":"us-west","cc":"us","latitude":47.608013,"longitude":-122.33517,"reserved":0,"last_update":"0001-01-01T00:00:00Z","name_a2s":"Uncletopia | Seattle | 1 | All Maps","protocol":17,"map":"pl_frontier_final","folder":"tf","game":"Team Fortress","app_id":440,"player_count":24,"max_players":24,"Bots":0,"server_type":"Dedicated","server_os":"Linux","password":true,"vac":true,"version":"7961495","steam_id":85568392924469997,"keywords":["nocrits","nodmgspread","payload","uncletopia"],"game_id":440,"stv_port":27016,"stv_name":"Uncletopia | Seattle | 1 | All Maps | STV","players":[{"user_id":658,"name":"Zetta","steam_id":76561198045710113,"connected_time":640000000000,"state":"active","ping":86},{"user_id":626,"name":"dust | it/she","steam_id":76561198045218909,"connected_time":5485000000000,"state":"active","ping":40},{"user_id":634,"name":"An Old Lady","steam_id":76561198047480318,"connected_time":4628000000000,"state":"active","ping":65},{"user_id":651,"name":"stinker","steam_id":76561198295640486,"connected_time":1696000000000,"state":"active","ping":72},{"user_id":648,"name":"aiko","steam_id":76561197970056960,"connected_time":1932000000000,"state":"active","ping":36},{"user_id":659,"name":"rosy noise","steam_id":76561199244000976,"connected_time":170000000000,"state":"active","ping":58},{"user_id":639,"name":"ORANGE","steam_id":76561198000401769,"connected_time":2885000000000,"state":"active","ping":46},{"user_id":660,"name":"toes","steam_id":76561198221151676,"connected_time":15000000000,"state":"spawning","ping":59},{"user_id":602,"name":"soup","steam_id":76561198043209046,"connected_time":6722000000000,"state":"active","ping":70},{"user_id":643,"name":"gleeby deeby","steam_id":76561198398383076,"connected_time":2539000000000,"state":"active","ping":95},{"user_id":571,"name":"jayeskae","steam_id":76561198144220801,"connected_time":9738000000000,"state":"active","ping":45},{"user_id":656,"name":"mega","steam_id":76561198089520959,"connected_time":830000000000,"state":"active","ping":90},{"user_id":645,"name":"S Q U I S H E  T H A T  C A T","steam_id":76561198293865429,"connected_time":2312000000000,"state":"active","ping":36},{"user_id":652,"name":"Alien Gamer Girl","steam_id":76561199247095754,"connected_time":843000000000,"state":"active","ping":57},{"user_id":618,"name":"Villchip","steam_id":76561198198599982,"connected_time":6058000000000,"state":"active","ping":47},{"user_id":552,"name":"Mignyanne :3","steam_id":76561198048754056,"connected_time":11577000000000,"state":"active","ping":61},{"user_id":646,"name":"THAT CAT","steam_id":76561198010828625,"connected_time":2128000000000,"state":"active","ping":39},{"user_id":625,"name":"Qas","steam_id":76561198067564482,"connected_time":5493000000000,"state":"active","ping":70},{"user_id":657,"name":"magunyamu","steam_id":76561198823083676,"connected_time":816000000000,"state":"active","ping":88},{"user_id":574,"name":"HotHead","steam_id":76561198138468982,"connected_time":8757000000000,"state":"active","ping":30},{"user_id":647,"name":"BLU3","steam_id":76561198059652670,"connected_time":2128000000000,"state":"active","ping":46},{"user_id":653,"name":"UV","steam_id":76561198083936918,"connected_time":843000000000,"state":"active","ping":45},{"user_id":638,"name":"MCMXC","steam_id":76561199017754044,"connected_time":3420000000000,"state":"active","ping":62},{"user_id":654,"name":"Squigzy_","steam_id":76561198061696667,"connected_time":842000000000,"state":"active","ping":90}]},{"server_id":119,"name":"Uncletopia | Seattle | 2 | All Maps","name_short":"sea-2","host":"sea-1.us.uncletopia.com","port":27025,"enabled":true,"region":"us-west","cc":"us","latitude":47.608013,"longitude":-122.33517,"reserved":0,"last_update":"0001-01-01T00:00:00Z","name_a2s":"Uncletopia | Seattle | 2 | All Maps","protocol":17,"map":"pl_pier","folder":"tf","game":"Team Fortress","app_id":440,"player_count":24,"max_players":24,"Bots":0,"server_type":"Dedicated","server_os":"Linux","password":true,"vac":true,"version":"7961495","steam_id":85568392924469998,"keywords":["nocrits","nodmgspread","payload","uncletopia"],"game_id":440,"stv_port":27026,"stv_name":"Uncletopia | Seattle | 2 | All Maps | STV","players":[{"user_id":533,"name":"Day Man","steam_id":76561198067154807,"connected_time":2859000000000,"state":"active","ping":46},{"user_id":540,"name":"Keamy","steam_id":76561199471434875,"connected_time":2176000000000,"state":"active","ping":37},{"user_id":561,"name":"blueboy23","steam_id":76561199121889873,"connected_time":1039000000000,"state":"active","ping":45},{"user_id":573,"name":"caca sniffer","steam_id":76561199099914725,"connected_time":197000000000,"state":"active","ping":71},{"user_id":571,"name":"SoldMyKidneyForCollege","steam_id":76561198096329559,"connected_time":441000000000,"state":"active","ping":64},{"user_id":544,"name":"Mayan","steam_id":76561198087915957,"connected_time":2110000000000,"state":"active","ping":93},{"user_id":515,"name":"Not Jack and Associates","steam_id":76561198076826733,"connected_time":3853000000000,"state":"active","ping":73},{"user_id":552,"name":"transbian disaster","steam_id":76561198407600762,"connected_time":1226000000000,"state":"active","ping":46},{"user_id":568,"name":"Person Man","steam_id":76561198293857963,"connected_time":561000000000,"state":"active","ping":88},{"user_id":577,"name":"zackdarkstar","steam_id":76561198039986133,"connected_time":101000000000,"state":"active","ping":54},{"user_id":548,"name":"Lili","steam_id":76561199488457138,"connected_time":1910000000000,"state":"active","ping":50},{"user_id":549,"name":"blest!","steam_id":76561198966232220,"connected_time":1814000000000,"state":"active","ping":54},{"user_id":555,"name":"ham gaming","steam_id":76561199047228098,"connected_time":1133000000000,"state":"active","ping":60},{"user_id":442,"name":"Legionnaire man","steam_id":76561199338313228,"connected_time":9206000000000,"state":"active","ping":73},{"user_id":509,"name":"ilun","steam_id":76561198042913843,"connected_time":4351000000000,"state":"active","ping":64},{"user_id":576,"name":"Laxoloni","steam_id":76561199197045700,"connected_time":109000000000,"state":"active","ping":76},{"user_id":574,"name":"Agave","steam_id":76561198108062629,"connected_time":176000000000,"state":"active","ping":73},{"user_id":557,"name":"Dryitcybutt","steam_id":76561199193380397,"connected_time":1126000000000,"state":"active","ping":50},{"user_id":559,"name":"[S]Mr. X [No Monitor]","steam_id":76561197963746035,"connected_time":1102000000000,"state":"active","ping":74},{"user_id":529,"name":"Monkey with a Shotgun","steam_id":76561198807260833,"connected_time":3198000000000,"state":"active","ping":119},{"user_id":526,"name":"Buswolley","steam_id":76561197995205571,"connected_time":3522000000000,"state":"active","ping":60},{"user_id":535,"name":"the baker","steam_id":76561199006886644,"connected_time":2670000000000,"state":"active","ping":71},{"user_id":575,"name":"Thanks Ants","steam_id":76561197966221018,"connected_time":141000000000,"state":"active","ping":44},{"user_id":560,"name":"California Police Department","steam_id":76561199071151136,"connected_time":1100000000000,"state":"active","ping":68}]},{"server_id":406,"name":"Uncletopia | Seattle | 3 | Stopwatch","name_short":"sea-3","host":"sea-1.us.uncletopia.com","port":27035,"enabled":true,"region":"us-west","cc":"us","latitude":47.608013,"longitude":-122.33517,"reserved":0,"last_update":"0001-01-01T00:00:00Z","name_a2s":"Uncletopia | Seattle | 3 | Stopwatch","protocol":17,"map":"workshop/koth_ashville_final.ugc2130459942","folder":"tf","game":"Team Fortress","app_id":440,"player_count":0,"max_players":24,"Bots":0,"server_type":"Dedicated","server_os":"Linux","password":true,"vac":true,"version":"7961495","steam_id":85568392924515217,"keywords":["cp","nocrits","nodmgspread","uncletopia"],"game_id":440,"stv_port":27036,"stv_name":"Uncletopia | Seattle | 3 | Stopwatch | STV","players":null},{"server_id":17,"name":"Uncletopia | San Francisco | 1 | All Maps","name_short":"sfo-1","host":"sfo-1.us.uncletopia.com","port":27015,"enabled":true,"region":"us-west","cc":"us","latitude":37.77397,"longitude":-122.4313,"reserved":0,"last_update":"0001-01-01T00:00:00Z","name_a2s":"Uncletopia | San Francisco | 1 | All Maps","protocol":17,"map":"koth_highpass","folder":"tf","game":"Team Fortress","app_id":440,"player_count":0,"max_players":24,"Bots":0,"server_type":"Dedicated","server_os":"Linux","password":true,"vac":true,"version":"7961495","steam_id":85568392924469999,"keywords":["cp","nocrits","nodmgspread","uncletopia"],"game_id":440,"stv_port":27016,"stv_name":"Uncletopia | San Francisco | 1 | All Maps | STV","players":null},{"server_id":18,"name":"Uncletopia | San Francisco | 2 | All Maps","name_short":"sfo-2","host":"sfo-1.us.uncletopia.com","port":27025,"enabled":true,"region":"us-west","cc":"us","latitude":37.77397,"longitude":-122.4313,"reserved":0,"last_update":"0001-01-01T00:00:00Z","name_a2s":"Uncletopia | San Francisco | 2 | All Maps","protocol":17,"map":"pl_thundermountain","folder":"tf","game":"Team Fortress","app_id":440,"player_count":23,"max_players":24,"Bots":0,"server_type":"Dedicated","server_os":"Linux","password":true,"vac":true,"version":"7961495","steam_id":85568392924470000,"keywords":["nocrits","nodmgspread","payload","uncletopia"],"game_id":440,"stv_port":27026,"stv_name":"Uncletopia | San Francisco | 2 | All Maps | STV","players":[{"user_id":360,"name":"Jadon576","steam_id":76561199027306315,"connected_time":2661000000000,"state":"active","ping":68},{"user_id":374,"name":"El pipe","steam_id":76561198008053387,"connected_time":1741000000000,"state":"active","ping":83},{"user_id":347,"name":"Subby Wubby Boi 0w0","steam_id":76561198297585031,"connected_time":4495000000000,"state":"active","ping":58},{"user_id":355,"name":"armdouz","steam_id":76561199170540341,"connected_time":3091000000000,"state":"active","ping":63},{"user_id":350,"name":"ars110","steam_id":76561198030492435,"connected_time":4157000000000,"state":"active","ping":86},{"user_id":365,"name":"Gerbias","steam_id":76561198001002427,"connected_time":2545000000000,"state":"active","ping":60},{"user_id":351,"name":"Brando","steam_id":76561198078306678,"connected_time":3843000000000,"state":"active","ping":79},{"user_id":310,"name":"Igrium","steam_id":76561198119549811,"connected_time":7688000000000,"state":"active","ping":56},{"user_id":375,"name":"alemini","steam_id":76561198831530811,"connected_time":1712000000000,"state":"active","ping":68},{"user_id":265,"name":"Chirunomo","steam_id":76561197963956138,"connected_time":9262000000000,"state":"active","ping":71},{"user_id":381,"name":"Lucky","steam_id":76561198124910662,"connected_time":1265000000000,"state":"active","ping":60},{"user_id":372,"name":"VanWic","steam_id":76561198094537538,"connected_time":2062000000000,"state":"active","ping":57},{"user_id":362,"name":"liftin'","steam_id":76561199089515791,"connected_time":2618000000000,"state":"active","ping":57},{"user_id":376,"name":"Ooglespoogle","steam_id":76561198031996194,"connected_time":1686000000000,"state":"active","ping":75},{"user_id":356,"name":"Isa","steam_id":76561199497669852,"connected_time":3057000000000,"state":"active","ping":121},{"user_id":363,"name":"011sra","steam_id":76561199489542125,"connected_time":2599000000000,"state":"active","ping":73},{"user_id":332,"name":"Overmeme","steam_id":76561199455124144,"connected_time":5950000000000,"state":"active","ping":79},{"user_id":367,"name":"Sgt. Eclair","steam_id":76561198156384194,"connected_time":2428000000000,"state":"active","ping":59},{"user_id":377,"name":"Chris P. Wiener","steam_id":76561198168808551,"connected_time":1623000000000,"state":"active","ping":83},{"user_id":378,"name":"Satori Komeiji","steam_id":76561198158211423,"connected_time":1622000000000,"state":"active","ping":56},{"user_id":385,"name":"Charles","steam_id":76561198155322277,"connected_time":469000000000,"state":"active","ping":45},{"user_id":382,"name":"i may be stupid","steam_id":76561198057017027,"connected_time":1235000000000,"state":"active","ping":74},{"user_id":369,"name":"Alf Creepypasta","steam_id":76561198841844093,"connected_time":2385000000000,"state":"active","ping":53}]},{"server_id":19,"name":"Uncletopia | San Francisco | 3 | Stopwatch","name_short":"sfo-3","host":"sfo-1.us.uncletopia.com","port":27035,"enabled":true,"region":"us-west","cc":"us","latitude":37.77397,"longitude":-122.4313,"reserved":0,"last_update":"0001-01-01T00:00:00Z","name_a2s":"Uncletopia | San Francisco | 3 | Stopwatch","protocol":17,"map":"workshop/koth_bagel_rc6.ugc2514036946","folder":"tf","game":"Team Fortress","app_id":440,"player_count":0,"max_players":24,"Bots":0,"server_type":"Dedicated","server_os":"Linux","password":true,"vac":true,"version":"7961495","steam_id":85568392924742824,"keywords":["cp","nocrits","nodmgspread","uncletopia"],"game_id":440,"stv_port":27036,"stv_name":"Uncletopia | San Francisco | 3 | Stopwatch | STV","players":null},{"server_id":20,"name":"Uncletopia | San Francisco | 4 | Community","name_short":"sfo-4","host":"sfo-1.us.uncletopia.com","port":27045,"enabled":true,"region":"us-west","cc":"us","latitude":37.77397,"longitude":-122.4313,"reserved":0,"last_update":"0001-01-01T00:00:00Z","name_a2s":"Uncletopia | San Francisco | 4 | Community","protocol":17,"map":"pl_pier","folder":"tf","game":"Team Fortress","app_id":440,"player_count":0,"max_players":24,"Bots":0,"server_type":"Dedicated","server_os":"Linux","password":true,"vac":true,"version":"7961495","steam_id":85568392924742826,"keywords":["nocrits","nodmgspread","payload","uncletopia"],"game_id":440,"stv_port":27046,"stv_name":"Uncletopia | San Francisco | 4 | Community | STV","players":null},{"server_id":141,"name":"Uncletopia | Sydney | 1 | All Maps","name_short":"syd-1","host":"syd-1.au.uncletopia.com","port":27015,"enabled":true,"region":"au","cc":"au","latitude":-33.865143,"longitude":151.2099,"reserved":0,"last_update":"0001-01-01T00:00:00Z","name_a2s":"Uncletopia | Sydney | 1 | All Maps","protocol":17,"map":"pl_swiftwater_final1","folder":"tf","game":"Team Fortress","app_id":440,"player_count":24,"max_players":24,"Bots":0,"server_type":"Dedicated","server_os":"Linux","password":true,"vac":true,"version":"7961495","steam_id":85568392924470001,"keywords":["nocrits","nodmgspread","payload","uncletopia"],"game_id":440,"stv_port":27016,"stv_name":"Uncletopia | Sydney | 1 | All Maps | STV","players":[{"user_id":311,"name":"piratespy22","steam_id":76561198042198744,"connected_time":1865000000000,"state":"active","ping":46},{"user_id":307,"name":"krandlez` (Any/All)","steam_id":76561198044839726,"connected_time":2011000000000,"state":"active","ping":45},{"user_id":318,"name":"Gaunern","steam_id":76561198075411902,"connected_time":1136000000000,"state":"active","ping":60},{"user_id":316,"name":"Ajtuay","steam_id":76561198221550108,"connected_time":1462000000000,"state":"active","ping":56},{"user_id":139,"name":"ash :)","steam_id":76561198127508905,"connected_time":14251000000000,"state":"active","ping":37},{"user_id":324,"name":"Malphas","steam_id":76561198011425371,"connected_time":417000000000,"state":"active","ping":56},{"user_id":310,"name":"Marmalade Cat","steam_id":76561198086309767,"connected_time":1877000000000,"state":"active","ping":62},{"user_id":321,"name":"tom :D","steam_id":76561198073393715,"connected_time":805000000000,"state":"active","ping":104},{"user_id":305,"name":"[GG] Cryo","steam_id":76561198062014383,"connected_time":2612000000000,"state":"active","ping":60},{"user_id":315,"name":"MINI S.","steam_id":76561198116179875,"connected_time":1652000000000,"state":"active","ping":57},{"user_id":327,"name":"Chez","steam_id":76561198089925051,"connected_time":367000000000,"state":"active","ping":91},{"user_id":325,"name":"the cream team","steam_id":76561198041276655,"connected_time":411000000000,"state":"active","ping":69},{"user_id":320,"name":"Grantymunk","steam_id":76561198051439179,"connected_time":1086000000000,"state":"active","ping":78},{"user_id":323,"name":"Calsaintski","steam_id":76561199081848498,"connected_time":535000000000,"state":"active","ping":68},{"user_id":331,"name":"Sentry Gun (EpicGuy4227)","steam_id":76561198094132328,"connected_time":183000000000,"state":"active","ping":54},{"user_id":309,"name":"Kraken223","steam_id":76561198036300533,"connected_time":1889000000000,"state":"active","ping":51},{"user_id":314,"name":"yarbinator","steam_id":76561198204678828,"connected_time":1710000000000,"state":"active","ping":49},{"user_id":329,"name":"fifra","steam_id":76561199080942003,"connected_time":269000000000,"state":"active","ping":56},{"user_id":330,"name":"morrissey apologist","steam_id":76561198133901159,"connected_time":269000000000,"state":"active","ping":75},{"user_id":302,"name":"I desire ass","steam_id":76561198118385786,"connected_time":3230000000000,"state":"active","ping":68},{"user_id":215,"name":"P. Ness","steam_id":76561198037664265,"connected_time":8901000000000,"state":"active","ping":60},{"user_id":192,"name":"fun haver","steam_id":76561197996866578,"connected_time":10125000000000,"state":"active","ping":58},{"user_id":298,"name":"kaiiyo","steam_id":76561199184299658,"connected_time":3665000000000,"state":"active","ping":64},{"user_id":317,"name":"papa","steam_id":76561198163034070,"connected_time":1201000000000,"state":"active","ping":51}]},{"server_id":123,"name":"Uncletopia | Sydney | 2 | All Maps","name_short":"syd-2","host":"syd-1.au.uncletopia.com","port":27025,"enabled":true,"region":"au","cc":"au","latitude":-33.865143,"longitude":151.2099,"reserved":0,"last_update":"0001-01-01T00:00:00Z","name_a2s":"Uncletopia | Sydney | 2 | All Maps","protocol":17,"map":"koth_lakeside_final","folder":"tf","game":"Team Fortress","app_id":440,"player_count":0,"max_players":24,"Bots":0,"server_type":"Dedicated","server_os":"Linux","password":true,"vac":true,"version":"7961495","steam_id":85568392924470002,"keywords":["cp","nocrits","nodmgspread","uncletopia"],"game_id":440,"stv_port":27026,"stv_name":"Uncletopia | Sydney | 2 | All Maps | STV","players":null},{"server_id":395,"name":"Uncletopia | Sydney | 3 | All Maps","name_short":"syd-3","host":"syd-1.au.uncletopia.com","port":27035,"enabled":true,"region":"au","cc":"au","latitude":-33.865143,"longitude":151.2099,"reserved":0,"last_update":"0001-01-01T00:00:00Z","name_a2s":"Uncletopia | Sydney | 3 | All Maps","protocol":17,"map":"koth_lakeside_final","folder":"tf","game":"Team Fortress","app_id":440,"player_count":0,"max_players":24,"Bots":0,"server_type":"Dedicated","server_os":"Linux","password":true,"vac":true,"version":"7961495","steam_id":85568392925194467,"keywords":["cp","nocrits","nodmgspread","uncletopia"],"game_id":440,"stv_port":27036,"stv_name":"Uncletopia | Sydney | 3 | All Maps | STV","players":null},{"server_id":396,"name":"Uncletopia | Sydney | 4 | All Maps","name_short":"syd-4","host":"syd-1.au.uncletopia.com","port":27045,"enabled":true,"region":"au","cc":"au","latitude":-33.865143,"longitude":151.2099,"reserved":0,"last_update":"0001-01-01T00:00:00Z","name_a2s":"Uncletopia | Sydney | 4 | All Maps","protocol":17,"map":"pl_badwater","folder":"tf","game":"Team Fortress","app_id":440,"player_count":0,"max_players":24,"Bots":0,"server_type":"Dedicated","server_os":"Linux","password":true,"vac":true,"version":"7961495","steam_id":85568392925397958,"keywords":["nocrits","nodmgspread","payload","uncletopia"],"game_id":440,"stv_port":27046,"stv_name":"Uncletopia | Sydney | 4 | All Maps | STV","players":null},{"server_id":58,"name":"Uncletopia | Sydney | 5 | Stopwatch","name_short":"syd-5","host":"syd-1.au.uncletopia.com","port":27055,"enabled":true,"region":"au","cc":"au","latitude":-33.865143,"longitude":151.2099,"reserved":0,"last_update":"0001-01-01T00:00:00Z","name_a2s":"Uncletopia | Sydney | 5 | Stopwatch","protocol":17,"map":"pl_frontier_final","folder":"tf","game":"Team Fortress","app_id":440,"player_count":0,"max_players":24,"Bots":0,"server_type":"Dedicated","server_os":"Linux","password":true,"vac":true,"version":"7961495","steam_id":85568392925397959,"keywords":["nocrits","nodmgspread","payload","uncletopia"],"game_id":440,"stv_port":27056,"stv_name":"Uncletopia | Sydney | 5 | Stopwatch | STV","players":null},{"server_id":59,"name":"Uncletopia | Sydney | 6 | Community","name_short":"syd-6","host":"syd-1.au.uncletopia.com","port":27065,"enabled":true,"region":"au","cc":"au","latitude":-33.865143,"longitude":151.2099,"reserved":0,"last_update":"0001-01-01T00:00:00Z","name_a2s":"Uncletopia | Sydney | 6 | Community","protocol":17,"map":"workshop/pl_cashworks_final1.ugc2904065412","folder":"tf","game":"Team Fortress","app_id":440,"player_count":0,"max_players":24,"Bots":0,"server_type":"Dedicated","server_os":"Linux","password":true,"vac":true,"version":"7961495","steam_id":85568392925397960,"keywords":["nocrits","nodmgspread","payload","uncletopia"],"game_id":440,"stv_port":27066,"stv_name":"Uncletopia | Sydney | 6 | Community | STV","players":null},{"server_id":49,"name":"Uncletopia | Warsaw | 1 | One Thousand Uncles","name_short":"waw-1","host":"waw-1.pl.uncletopia.com","port":27015,"enabled":true,"region":"eu","cc":"pl","latitude":52.2297,"longitude":21.017532,"reserved":0,"last_update":"0001-01-01T00:00:00Z","name_a2s":"Uncletopia | Warsaw | 1 | One Thousand Uncles","protocol":17,"map":"koth_highpass","folder":"tf","game":"Team Fortress","app_id":440,"player_count":0,"max_players":32,"Bots":0,"server_type":"Dedicated","server_os":"Linux","password":true,"vac":true,"version":"7961495","steam_id":85568392925397850,"keywords":["alltalk","cp","danepve","increased_maxplayers","nocrits","norespawntime","uncletopia"],"game_id":440,"stv_port":0,"stv_name":"","players":null},{"server_id":50,"name":"Uncletopia | Warsaw | 2 | One Thousand Uncles","name_short":"waw-2","host":"waw-1.pl.uncletopia.com","port":27025,"enabled":true,"region":"eu","cc":"pl","latitude":52.2297,"longitude":21.017532,"reserved":0,"last_update":"0001-01-01T00:00:00Z","name_a2s":"Uncletopia | Warsaw | 2 | One Thousand Uncles","protocol":17,"map":"pl_goldrush","folder":"tf","game":"Team Fortress","app_id":440,"player_count":0,"max_players":32,"Bots":0,"server_type":"Dedicated","server_os":"Linux","password":true,"vac":true,"version":"7961495","steam_id":85568392925397851,"keywords":["alltalk","danepve","increased_maxplayers","nocrits","norespawntime","payload","uncletopia"],"game_id":440,"stv_port":0,"stv_name":"","players":null},{"server_id":51,"name":"Uncletopia | Warsaw | 3 | All Maps","name_short":"waw-3","host":"waw-1.pl.uncletopia.com","port":27035,"enabled":true,"region":"eu","cc":"pl","latitude":52.2297,"longitude":21.017532,"reserved":0,"last_update":"0001-01-01T00:00:00Z","name_a2s":"Uncletopia | Warsaw | 3 | All Maps","protocol":17,"map":"plr_pipeline","folder":"tf","game":"Team Fortress","app_id":440,"player_count":0,"max_players":24,"Bots":0,"server_type":"Dedicated","server_os":"Linux","password":true,"vac":true,"version":"7961495","steam_id":85568392925397852,"keywords":["nocrits","nodmgspread","payload","uncletopia"],"game_id":440,"stv_port":27036,"stv_name":"Uncletopia | Warsaw | 3 | All Maps | STV","players":null},{"server_id":52,"name":"Uncletopia | Warsaw | 4 | All Maps","name_short":"waw-4","host":"waw-1.pl.uncletopia.com","port":27045,"enabled":true,"region":"eu","cc":"pl","latitude":52.2297,"longitude":21.017532,"reserved":0,"last_update":"0001-01-01T00:00:00Z","name_a2s":"Uncletopia | Warsaw | 4 | All Maps","protocol":17,"map":"cp_coldfront","folder":"tf","game":"Team Fortress","app_id":440,"player_count":0,"max_players":24,"Bots":0,"server_type":"Dedicated","server_os":"Linux","password":true,"vac":true,"version":"7961495","steam_id":85568392925397853,"keywords":["cp","nocrits","nodmgspread","uncletopia"],"game_id":440,"stv_port":27046,"stv_name":"Uncletopia | Warsaw | 4 | All Maps | STV","players":null},{"server_id":53,"name":"Uncletopia | Warsaw | 5 | Stopwatch","name_short":"waw-5","host":"waw-1.pl.uncletopia.com","port":27055,"enabled":true,"region":"eu","cc":"pl","latitude":52.2297,"longitude":21.017532,"reserved":0,"last_update":"0001-01-01T00:00:00Z","name_a2s":"Uncletopia | Warsaw | 5 | Stopwatch","protocol":17,"map":"workshop/koth_bagel_rc6.ugc2514036946","folder":"tf","game":"Team Fortress","app_id":440,"player_count":0,"max_players":24,"Bots":0,"server_type":"Dedicated","server_os":"Linux","password":true,"vac":true,"version":"7961495","steam_id":85568392925397854,"keywords":["cp","nocrits","nodmgspread","uncletopia"],"game_id":440,"stv_port":27056,"stv_name":"Uncletopia | Warsaw | 5 | Stopwatch | STV","players":null},{"server_id":54,"name":"Uncletopia | Warsaw | 6 | Community","name_short":"waw-6","host":"waw-1.pl.uncletopia.com","port":27065,"enabled":true,"region":"eu","cc":"pl","latitude":52.2297,"longitude":21.017532,"reserved":0,"last_update":"0001-01-01T00:00:00Z","name_a2s":"Uncletopia | Warsaw | 6 | Community","protocol":17,"map":"workshop/pl_badwater_pro_v12.ugc2142942074","folder":"tf","game":"Team Fortress","app_id":440,"player_count":0,"max_players":24,"Bots":0,"server_type":"Dedicated","server_os":"Linux","password":true,"vac":true,"version":"7961495","steam_id":85568392925397856,"keywords":["nocrits","nodmgspread","payload","uncletopia"],"game_id":440,"stv_port":27066,"stv_name":"Uncletopia | Warsaw | 6 | Community | STV","players":null}]}