{"status":true,"message":"","result":[{"server_id":9,"name":"Uncletopia | Atlanta | 1 | All Maps","name_short":"atl-1","host":"atl-1.us.uncletopia.com","port":27015,"enabled":true,"region":"us-east","cc":"us","latitude":33.753746,"longitude":-84.38633,"reserved":0,"last_update":"0001-01-01T00:00:00Z","name_a2s":"Uncletopia | Atlanta | 1 | All Maps","protocol":17,"map":"pl_goldrush","folder":"tf","game":"Team Fortress","app_id":440,"player_count":6,"max_players":24,"Bots":0,"server_type":"Dedicated","server_os":"Linux","password":true,"vac":true,"version":"7757534","steam_id":85568392924469982,"keywords":["nocrits","nodmgspread","payload","uncletopia"],"game_id":440,"stv_port":27016,"stv_name":"Uncletopia | Atlanta | 1 | All Maps | STV","players":[{"user_id":689,"name":"Mengle","steam_id":76561198001953684,"connected_time":849000000000,"state":"active","ping":78},{"user_id":691,"name":"Genetic Komodo (He/Him)","steam_id":76561198174806758,"connected_time":783000000000,"state":"active","ping":45},{"user_id":687,"name":"Yoshimelon","steam_id":76561198253054325,"connected_time":1519000000000,"state":"active","ping":62},{"user_id":694,"name":"are jay","steam_id":76561199160007012,"connected_time":234000000000,"state":"active","ping":84},{"user_id":695,"name":"Giant Dad","steam_id":76561198042088837,"connected_time":208000000000,"state":"active","ping":61},{"user_id":635,"name":"JestinJester","steam_id":76561198411846094,"connected_time":4312000000000,"state":"active","ping":61}]},{"server_id":104,"name":"Uncletopia | Atlanta | 2 | All Maps","name_short":"atl-2","host":"atl-1.us.uncletopia.com","port":27025,"enabled":true,"region":"us-east","cc":"us","latitude":33.753746,"longitude":-84.38633,"reserved":0,"last_update":"0001-01-01T00:00:00Z","name_a2s":"Uncletopia | Atlanta | 2 | All Maps","protocol":17,"map":"cp_mountainlab","folder":"tf","game":"Team Fortress","app_id":440,"player_count":24,"max_players":24,"Bots":0,"server_type":"Dedicated","server_os":"Linux","password":true,"vac":true,"version":"7757534","steam_id":85568392924469983,"keywords":["cp","nocrits","nodmgspread","uncletopia"],"game_id":440,"stv_port":27026,"stv_name":"Uncletopia | Atlanta | 2 | All Maps | STV","players":[{"user_id":950,"name":"Takumi-exe","steam_id":76561198155048645,"connected_time":3752000000000,"state":"active","ping":56},{"user_id":942,"name":"ZombieSlayer","steam_id":76561198256248374,"connected_time":4608000000000,"state":"active","ping":98},{"user_id":952,"name":".jpegged","steam_id":76561198120078454,"connected_time":3009000000000,"state":"active","ping":59},{"user_id":960,"name":"CPT. Giga Chad","steam_id":76561198059785363,"connected_time":2132000000000,"state":"active","ping":78},{"user_id":941,"name":"DigBickDino","steam_id":76561198249548638,"connected_time":4620000000000,"state":"active","ping":108},{"user_id":943,"name":"Janna","steam_id":76561198145229924,"connected_time":4585000000000,"state":"active","ping":61},{"user_id":976,"name":"Kaprinae","steam_id":76561199260109617,"connected_time":516000000000,"state":"active","ping":95},{"user_id":944,"name":"Miss The Rage","steam_id":76561199028431291,"connected_time":4573000000000,"state":"active","ping":121},{"user_id":945,"name":"plsplsplslol","steam_id":76561198868084626,"connected_time":4551000000000,"state":"active","ping":103},{"user_id":946,"name":"Spicy","steam_id":76561198963371720,"connected_time":4177000000000,"state":"active","ping":60},{"user_id":984,"name":"Rusted Cake","steam_id":76561198209755931,"connected_time":181000000000,"state":"active","ping":83},{"user_id":970,"name":"Yummy Kabobz","steam_id":76561198067661705,"connected_time":1282000000000,"state":"active","ping":58},{"user_id":972,"name":"stupid","steam_id":76561198353762582,"connected_time":1050000000000,"state":"active","ping":123},{"user_id":949,"name":"GltichBrah_T","steam_id":76561199467036505,"connected_time":4058000000000,"state":"active","ping":63},{"user_id":954,"name":"bob adams","steam_id":76561199038072811,"connected_time":2610000000000,"state":"active","ping":71},{"user_id":977,"name":"EpicGamer48484","steam_id":76561199230935031,"connected_time":512000000000,"state":"active","ping":76},{"user_id":966,"name":"Spy who plays on his PSVITA","steam_id":76561199225479871,"connected_time":1822000000000,"state":"active","ping":73},{"user_id":974,"name":"Mayo Monkey","steam_id":76561198090023039,"connected_time":814000000000,"state":"active","ping":96},{"user_id":980,"name":"Voodo133","steam_id":76561198042670351,"connected_time":364000000000,"state":"active","ping":80},{"user_id":981,"name":"Michaelpc1","steam_id":76561198088365519,"connected_time":354000000000,"state":"active","ping":73},{"user_id":983,"name":"Vem","steam_id":76561198117273112,"connected_time":251000000000,"state":"active","ping":82},{"user_id":985,"name":"Sol Badguy","steam_id":76561198264286323,"connected_time":158000000000,"state":"active","ping":113},{"user_id":986,"name":"Hyper","steam_id":76561198976760150,"connected_time":91000000000,"state":"active","ping":98},{"user_id":987,"name":"JPEG Image","steam_id":76561199126026126,"connected_time":35000000000,"state":"active","ping":118}]},{"server_id":400,"name":"Uncletopia | Atlanta | 3 | Community","name_short":"atl-3","host":"atl-1.us.uncletopia.com","port":27035,"enabled":true,"region":"us-east","cc":"us","latitude":33.753746,"longitude":-84.38633,"reserved":0,"last_update":"0001-01-01T00:00:00Z","name_a2s":"Uncletopia | Atlanta | 3 | Community","protocol":17,"map":"workshop/cp_glassworks_rc6a.ugc454118349","folder":"tf","game":"Team Fortress","app_id":440,"player_count":0,"max_players":24,"Bots":0,"server_type":"Dedicated","server_os":"Linux","password":true,"vac":true,"version":"7757534","steam_id":85568392924515187,"keywords":["cp","nocrits","nodmgspread","uncletopia"],"game_id":440,"stv_port":27036,"stv_name":"Uncletopia | Atlanta | 3 | Community | STV","players":null},{"server_id":401,"name":"Uncletopia | Atlanta | 4 | No Payload","name_short":"atl-4","host":"atl-1.us.uncletopia.com","port":27045,"enabled":true,"region":"us-east","cc":"us","latitude":33.753746,"longitude":-84.38633,"reserved":0,"last_update":"0001-01-01T00:00:00Z","name_a2s":"","protocol":0,"map":"","folder":"","game":"","app_id":0,"player_count":0,"max_players":0,"Bots":0,"server_type":"","server_os":"","password":false,"vac":false,"version":"","steam_id":0,"keywords":null,"game_id":0,"stv_port":0,"stv_name":"","players":null},{"server_id":2,"name":"Uncletopia | Chicago | 1 | All Maps","name_short":"chi-1","host":"chi-1.us.uncletopia.com","port":27015,"enabled":true,"region":"us-central","cc":"us","latitude":41.881832,"longitude":-87.62318,"reserved":0,"last_update":"0001-01-01T00:00:00Z","name_a2s":"Uncletopia | Chicago | 1 | All Maps","protocol":17,"map":"pl_upward","folder":"tf","game":"Team Fortress","app_id":440,"player_count":24,"max_players":24,"Bots":0,"server_type":"Dedicated","server_os":"Linux","password":true,"vac":true,"version":"7757534","steam_id":85568392924469984,"keywords":["nocrits","nodmgspread","payload","uncletopia"],"game_id":440,"stv_port":27016,"stv_name":"Uncletopia | Chicago | 1 | All Maps | STV","players":[{"user_id":834,"name":"ihave80hp","steam_id":76561199251621911,"connected_time":6544000000000,"state":"active","ping":90},{"user_id":893,"name":"Bearegard","steam_id":76561198061926542,"connected_time":1212000000000,"state":"active","ping":56},{"user_id":894,"name":"HTA","steam_id":76561198043879140,"connected_time":1035000000000,"state":"active","ping":46},{"user_id":892,"name":"Pop","steam_id":76561199012562851,"connected_time":1276000000000,"state":"active","ping":85},{"user_id":847,"name":"Scooter O'Boyl","steam_id":76561197971687069,"connected_time":5577000000000,"state":"active","ping":73},{"user_id":903,"name":"Slag","steam_id":76561198053839595,"connected_time":252000000000,"state":"active","ping":45},{"user_id":863,"name":"roast pig with apple in mouth","steam_id":76561198051353647,"connected_time":4223000000000,"state":"active","ping":59},{"user_id":852,"name":"alfredodan #RunThatBack","steam_id":76561198025011044,"connected_time":4682000000000,"state":"active","ping":75},{"user_id":881,"name":"GamingJoker2012","steam_id":76561198247589168,"connected_time":2397000000000,"state":"active","ping":62},{"user_id":879,"name":"Krome","steam_id":76561198087317232,"connected_time":2807000000000,"state":"active","ping":75},{"user_id":902,"name":"Larry","steam_id":76561198005056455,"connected_time":389000000000,"state":"active","ping":90},{"user_id":862,"name":"the right clicker","steam_id":76561198157983180,"connected_time":4375000000000,"state":"active","ping":59},{"user_id":906,"name":"hasaki","steam_id":76561198200002859,"connected_time":132000000000,"state":"active","ping":59},{"user_id":875,"name":"Stan","steam_id":76561199057962816,"connected_time":3186000000000,"state":"active","ping":60},{"user_id":819,"name":"Lemon Drop","steam_id":76561198023684559,"connected_time":8558000000000,"state":"active","ping":91},{"user_id":891,"name":"Spy Gaming","steam_id":76561198453295613,"connected_time":1330000000000,"state":"active","ping":109},{"user_id":896,"name":"Flaming O'Gaming","steam_id":76561198044185725,"connected_time":798000000000,"state":"active","ping":83},{"user_id":897,"name":"Galactamarx","steam_id":76561198028065755,"connected_time":788000000000,"state":"active","ping":106},{"user_id":888,"name":"quint","steam_id":76561198046797995,"connected_time":1725000000000,"state":"active","ping":53},{"user_id":828,"name":"Dot.","steam_id":76561198149463984,"connected_time":7544000000000,"state":"active","ping":49},{"user_id":898,"name":"Kng","steam_id":76561198993248203,"connected_time":705000000000,"state":"active","ping":78},{"user_id":899,"name":"seductive smell of oreos","steam_id":76561198032791567,"connected_time":577000000000,"state":"active","ping":100},{"user_id":867,"name":"Scout","steam_id":76561199030987614,"connected_time":4052000000000,"state":"active","ping":86},{"user_id":907,"name":"sweaterfan","steam_id":76561199389567214,"connected_time":113000000000,"state":"active","ping":83}]},{"server_id":106,"name":"Uncletopia | Chicago | 2 | All Maps","name_short":"chi-2","host":"chi-1.us.uncletopia.com","port":27025,"enabled":true,"region":"us-central","cc":"us","latitude":41.881832,"longitude":-87.62318,"reserved":0,"last_update":"0001-01-01T00:00:00Z","name_a2s":"Uncletopia | Chicago | 2 | All Maps","protocol":17,"map":"pl_snowycoast","folder":"tf","game":"Team Fortress","app_id":440,"player_count":23,"max_players":24,"Bots":0,"server_type":"Dedicated","server_os":"Linux","password":true,"vac":true,"version":"7757534","steam_id":85568392924469985,"keywords":["nocrits","nodmgspread","payload","uncletopia"],"game_id":440,"stv_port":27026,"stv_name":"Uncletopia | Chicago | 2 | All Maps | STV","players":[{"user_id":1021,"name":"m0r1","steam_id":76561198809800307,"connected_time":1184000000000,"state":"active","ping":112},{"user_id":1028,"name":"Placebo Effect","steam_id":76561198377630496,"connected_time":889000000000,"state":"active","ping":39},{"user_id":1023,"name":"codemode","steam_id":76561199058874617,"connected_time":1136000000000,"state":"active","ping":136},{"user_id":1035,"name":"PolyGarrett","steam_id":76561198149683308,"connected_time":82000000000,"state":"active","ping":88},{"user_id":1033,"name":"MoonWolf","steam_id":76561198095735033,"connected_time":378000000000,"state":"active","ping":75},{"user_id":1015,"name":"Vynthex","steam_id":76561198990762666,"connected_time":1806000000000,"state":"active","ping":86},{"user_id":1036,"name":"Ghoulbreath","steam_id":76561198062517442,"connected_time":75000000000,"state":"active","ping":128},{"user_id":974,"name":"googa","steam_id":76561198133130452,"connected_time":5090000000000,"state":"active","ping":60},{"user_id":1016,"name":"Rallen","steam_id":76561198088024663,"connected_time":1449000000000,"state":"active","ping":93},{"user_id":982,"name":"TheArachnidGamer","steam_id":76561198304986752,"connected_time":3899000000000,"state":"active","ping":61},{"user_id":1012,"name":"enmgxcltayiqoacx","steam_id":76561197974965536,"connected_time":1962000000000,"state":"active","ping":56},{"user_id":1025,"name":"-Dexter-","steam_id":76561198173324789,"connected_time":1085000000000,"state":"active","ping":76},{"user_id":1027,"name":"nuclear bong","steam_id":76561198361326855,"connected_time":1021000000000,"state":"active","ping":57},{"user_id":1014,"name":"FiZZy","steam_id":76561198990783547,"connected_time":1844000000000,"state":"active","ping":85},{"user_id":1017,"name":"SpaceDonut9","steam_id":76561199013502859,"connected_time":1424000000000,"state":"active","ping":46},{"user_id":1005,"name":"Kendrick LaFarm","steam_id":76561198099843841,"connected_time":2468000000000,"state":"active","ping":99},{"user_id":1006,"name":"PocketTieAMPLFY","steam_id":76561199080485881,"connected_time":2434000000000,"state":"active","ping":109},{"user_id":1032,"name":"skittle ducks jr.","steam_id":76561198309823950,"connected_time":479000000000,"state":"active","ping":83},{"user_id":1029,"name":"commander in queef","steam_id":76561198944353516,"connected_time":866000000000,"state":"active","ping":65},{"user_id":1030,"name":"dzcreeper","steam_id":76561198072250723,"connected_time":857000000000,"state":"active","ping":74},{"user_id":1010,"name":"kermitcreeper(ZAZA)","steam_id":76561199222829972,"connected_time":2329000000000,"state":"active","ping":47},{"user_id":1011,"name":"ae","steam_id":76561198012945016,"connected_time":2252000000000,"state":"active","ping":45},{"user_id":1034,"name":"Sirius","steam_id":76561198031295225,"connected_time":309000000000,"state":"active","ping":45}]},{"server_id":402,"name":"Uncletopia | Chicago | 3 | All Maps","name_short":"chi-3","host":"chi-1.us.uncletopia.com","port":27035,"enabled":true,"region":"us-central","cc":"us","latitude":41.881832,"longitude":-87.62318,"reserved":0,"last_update":"0001-01-01T00:00:00Z","name_a2s":"Uncletopia | Chicago | 3 | All Maps","protocol":17,"map":"pl_swiftwater_final1","folder":"tf","game":"Team Fortress","app_id":440,"player_count":0,"max_players":24,"Bots":0,"server_type":"Dedicated","server_os":"Linux","password":true,"vac":true,"version":"7757534","steam_id":85568392924515191,"keywords":["nocrits","nodmgspread","payload","uncletopia"],"game_id":440,"stv_port":27036,"stv_name":"Uncletopia | Chicago | 3 | All Maps | STV","players":null},{"server_id":403,"name":"Uncletopia | Chicago | 4 | All Maps","name_short":"chi-4","host":"chi-1.us.uncletopia.com","port":27045,"enabled":true,"region":"us-central","cc":"us","latitude":41.881832,"longitude":-87.62318,"reserved":0,"last_update":"0001-01-01T00:00:00Z","name_a2s":"Uncletopia | Chicago | 4 | All Maps","protocol":17,"map":"koth_cascade","folder":"tf","game":"Team Fortress","app_id":440,"player_count":0,"max_players":24,"Bots":0,"server_type":"Dedicated","server_os":"Linux","password":true,"vac":true,"version":"7757534","steam_id":85568392924515193,"keywords":["cp","nocrits","nodmgspread","uncletopia"],"game_id":440,"stv_port":27046,"stv_name":"Uncletopia | Chicago | 4 | All Maps | STV","players":null},{"server_id":36,"name":"Uncletopia | Chicago | 5 | All Maps","name_short":"chi-5","host":"chi-2.us.uncletopia.com","port":27015,"enabled":true,"region":"us-central","cc":"us","latitude":41.881832,"longitude":-87.62318,"reserved":0,"last_update":"0001-01-01T00:00:00Z","name_a2s":"Uncletopia | Chicago | 5 | All Maps","protocol":17,"map":"pl_snowycoast","folder":"tf","game":"Team Fortress","app_id":440,"player_count":0,"max_players":24,"Bots":0,"server_type":"Dedicated","server_os":"Linux","password":true,"vac":true,"version":"7757534","steam_id":85568392924866362,"keywords":["nocrits","nodmgspread","payload","uncletopia"],"game_id":440,"stv_port":27016,"stv_name":"Uncletopia | Chicago | 5 | All Maps | STV","players":null},{"server_id":37,"name":"Uncletopia | Chicago | 6 | All Maps","name_short":"chi-6","host":"chi-2.us.uncletopia.com","port":27025,"enabled":true,"region":"us-central","cc":"us","latitude":41.881832,"longitude":-87.62318,"reserved":0,"last_update":"0001-01-01T00:00:00Z","name_a2s":"Uncletopia | Chicago | 6 | All Maps","protocol":17,"map":"koth_viaduct","folder":"tf","game":"Team Fortress","app_id":440,"player_count":0,"max_players":24,"Bots":0,"server_type":"Dedicated","server_os":"Linux","password":true,"vac":true,"version":"7757534","steam_id":85568392924866363,"keywords":["cp","nocrits","nodmgspread","uncletopia"],"game_id":440,"stv_port":27026,"stv_name":"Uncletopia | Chicago | 6 | All Maps | STV","players":null},{"server_id":38,"name":"Uncletopia | Chicago | 7 | Stopwatch Beta","name_short":"chi-7","host":"chi-2.us.uncletopia.com","port":27035,"enabled":true,"region":"us-central","cc":"us","latitude":41.881832,"longitude":-87.62318,"reserved":0,"last_update":"0001-01-01T00:00:00Z","name_a2s":"Uncletopia | Chicago | 7 | Stopwatch Beta","protocol":17,"map":"workshop/pl_badwater_pro_v12.ugc2142942074","folder":"tf","game":"Team Fortress","app_id":440,"player_count":0,"max_players":24,"Bots":0,"server_type":"Dedicated","server_os":"Linux","password":true,"vac":true,"version":"7757534","steam_id":85568392924866364,"keywords":["nocrits","nodmgspread","payload","uncletopia"],"game_id":440,"stv_port":27036,"stv_name":"Uncletopia | Chicago | 7 | Stopwatch Beta | STV","players":null},{"server_id":39,"name":"Uncletopia | Chicago | 8 | Community","name_short":"chi-8","host":"chi-2.us.uncletopia.com","port":27045,"enabled":true,"region":"us-central","cc":"us","latitude":41.881832,"longitude":-87.62318,"reserved":0,"last_update":"0001-01-01T00:00:00Z","name_a2s":"Uncletopia | Chicago | 8 | Community","protocol":17,"map":"workshop/pl_barnblitz_pro7.ugc582280235","folder":"tf","game":"Team Fortress","app_id":440,"player_count":0,"max_players":24,"Bots":0,"server_type":"Dedicated","server_os":"Linux","password":true,"vac":true,"version":"7757534","steam_id":85568392924866365,"keywords":["nocrits","nodmgspread","payload","uncletopia"],"game_id":440,"stv_port":27046,"stv_name":"Uncletopia | Chicago | 8 | Community | STV","players":null},{"server_id":8,"name":"Uncletopia | Dallas | 1 | All Maps","name_short":"dal-1","host":"dal-1.us.uncletopia.com","port":27015,"enabled":true,"region":"us-central","cc":"us","latitude":32.779167,"longitude":-96.80889,"reserved":0,"last_update":"0001-01-01T00:00:00Z","name_a2s":"Uncletopia | Dallas | 1 | All Maps","protocol":17,"map":"pl_frontier_final","folder":"tf","game":"Team Fortress","app_id":440,"player_count":9,"max_players":24,"Bots":0,"server_type":"Dedicated","server_os":"Linux","password":true,"vac":true,"version":"7757534","steam_id":85568392924469986,"keywords":["nocrits","nodmgspread","payload","uncletopia"],"game_id":440,"stv_port":27016,"stv_name":"Uncletopia | Dallas | 1 | All Maps | STV","players":[{"user_id":802,"name":"Fargo","steam_id":76561198044703931,"connected_time":356000000000,"state":"active","ping":60},{"user_id":783,"name":"Monster Girls Are Hot","steam_id":76561198157914890,"connected_time":1802000000000,"state":"active","ping":110},{"user_id":803,"name":"Nekro Kitty","steam_id":76561198025054596,"connected_time":249000000000,"state":"active","ping":71},{"user_id":799,"name":"Brute","steam_id":76561198828790457,"connected_time":612000000000,"state":"active","ping":34},{"user_id":793,"name":"Tohru Adachi","steam_id":76561198302118756,"connected_time":911000000000,"state":"active","ping":102},{"user_id":791,"name":"George's Worst Nightmare","steam_id":76561198263739357,"connected_time":948000000000,"state":"active","ping":143},{"user_id":794,"name":"IDrinkCoffee","steam_id":76561198196987279,"connected_time":887000000000,"state":"active","ping":103},{"user_id":797,"name":"Two","steam_id":76561198207078715,"connected_time":850000000000,"state":"active","ping":81},{"user_id":742,"name":"KewlKris","steam_id":76561198260738308,"connected_time":5335000000000,"state":"active","ping":38}]},{"server_id":108,"name":"Uncletopia | Dallas | 2 | All Maps","name_short":"dal-2","host":"dal-1.us.uncletopia.com","port":27025,"enabled":true,"region":"us-central","cc":"us","latitude":32.779167,"longitude":-96.80889,"reserved":0,"last_update":"0001-01-01T00:00:00Z","name_a2s":"Uncletopia | Dallas | 2 | All Maps","protocol":17,"map":"pl_upward","folder":"tf","game":"Team Fortress","app_id":440,"player_count":4,"max_players":24,"Bots":0,"server_type":"Dedicated","server_os":"Linux","password":true,"vac":true,"version":"7757534","steam_id":85568392924469988,"keywords":["nocrits","nodmgspread","payload","uncletopia"],"game_id":440,"stv_port":27026,"stv_name":"Uncletopia | Dallas | 2 | All Maps | STV","players":[{"user_id":736,"name":"Mr.Roko","steam_id":76561198297223309,"connected_time":2563000000000,"state":"active","ping":75},{"user_id":737,"name":"GAMma","steam_id":76561198864820649,"connected_time":2556000000000,"state":"active","ping":62},{"user_id":741,"name":"GavinGame321","steam_id":76561199133341570,"connected_time":2237000000000,"state":"active","ping":70},{"user_id":742,"name":"destroya","steam_id":76561198204586049,"connected_time":2051000000000,"state":"active","ping":116}]},{"server_id":5,"name":"Uncletopia | Frankfurt | 1 | All Maps","name_short":"frk-1","host":"frk-1.de.uncletopia.com","port":27015,"enabled":true,"region":"eu","cc":"de","latitude":50.110924,"longitude":8.682127,"reserved":0,"last_update":"0001-01-01T00:00:00Z","name_a2s":"Uncletopia | Frankfurt | 1 | All Maps","protocol":17,"map":"pl_snowycoast","folder":"tf","game":"Team Fortress","app_id":440,"player_count":0,"max_players":24,"Bots":0,"server_type":"Dedicated","server_os":"Linux","password":true,"vac":true,"version":"7757534","steam_id":85568392924469989,"keywords":["nocrits","nodmgspread","payload","uncletopia"],"game_id":440,"stv_port":27016,"stv_name":"Uncletopia | Frankfurt | 1 | All Maps | STV","players":null},{"server_id":110,"name":"Uncletopia | Frankfurt | 2 | All Maps","name_short":"frk-2","host":"frk-1.de.uncletopia.com","port":27025,"enabled":true,"region":"eu","cc":"de","latitude":50.110924,"longitude":8.682127,"reserved":0,"last_update":"0001-01-01T00:00:00Z","name_a2s":"Uncletopia | Frankfurt | 2 | All Maps","protocol":17,"map":"cp_snakewater_final1","folder":"tf","game":"Team Fortress","app_id":440,"player_count":0,"max_players":24,"Bots":0,"server_type":"Dedicated","server_os":"Linux","password":true,"vac":true,"version":"7757534","steam_id":85568392924469990,"keywords":["cp","nocrits","nodmgspread","uncletopia"],"game_id":440,"stv_port":27026,"stv_name":"Uncletopia | Frankfurt | 2 | All Maps | STV","players":null},{"server_id":308,"name":"Uncletopia | Frankfurt | 3 | All Maps","name_short":"frk-3","host":"frk-1.de.uncletopia.com","port":27035,"enabled":true,"region":"eu","cc":"de","latitude":50.110924,"longitude":8.682127,"reserved":0,"last_update":"0001-01-01T00:00:00Z","name_a2s":"Uncletopia | Frankfurt | 3 | All Maps","protocol":17,"map":"pl_swiftwater_final1","folder":"tf","game":"Team Fortress","app_id":440,"player_count":0,"max_players":24,"Bots":0,"server_type":"Dedicated","server_os":"Linux","password":true,"vac":true,"version":"7757534","steam_id":85568392924504274,"keywords":["nocrits","nodmgspread","payload","uncletopia"],"game_id":440,"stv_port":27036,"stv_name":"Uncletopia | Frankfurt | 3 | All Maps | STV","players":null},{"server_id":309,"name":"Uncletopia | Frankfurt | 4 | All Maps","name_short":"frk-4","host":"frk-1.de.uncletopia.com","port":27045,"enabled":true,"region":"eu","cc":"de","latitude":50.110924,"longitude":8.682127,"reserved":0,"last_update":"0001-01-01T00:00:00Z","name_a2s":"Uncletopia | Frankfurt | 4 | All Maps","protocol":17,"map":"koth_viaduct","folder":"tf","game":"Team Fortress","app_id":440,"player_count":0,"max_players":24,"Bots":0,"server_type":"Dedicated","server_os":"Linux","password":true,"vac":true,"version":"7757534","steam_id":85568392924504275,"keywords":["cp","nocrits","nodmgspread","uncletopia"],"game_id":440,"stv_port":27046,"stv_name":"Uncletopia | Frankfurt | 4 | All Maps | STV","players":null},{"server_id":310,"name":"Uncletopia | Frankfurt | 5 | All Maps","name_short":"frk-5","host":"frk-1.de.uncletopia.com","port":27055,"enabled":true,"region":"eu","cc":"de","latitude":50.110924,"longitude":8.682127,"reserved":0,"last_update":"0001-01-01T00:00:00Z","name_a2s":"Uncletopia | Frankfurt | 5 | All Maps","protocol":17,"map":"koth_lakeside_final","folder":"tf","game":"Team Fortress","app_id":440,"player_count":0,"max_players":24,"Bots":0,"server_type":"Dedicated","server_os":"Linux","password":true,"vac":true,"version":"7757534","steam_id":85568392924504277,"keywords":["cp","nocrits","nodmgspread","uncletopia"],"game_id":440,"stv_port":27056,"stv_name":"Uncletopia | Frankfurt | 5 | All Maps | STV","players":null},{"server_id":311,"name":"Uncletopia | Frankfurt | 6 | All Maps","name_short":"frk-6","host":"frk-1.de.uncletopia.com","port":27065,"enabled":true,"region":"eu","cc":"de","latitude":50.110924,"longitude":8.682127,"reserved":0,"last_update":"0001-01-01T00:00:00Z","name_a2s":"Uncletopia | Frankfurt | 6 | All Maps","protocol":17,"map":"pl_frontier_final","folder":"tf","game":"Team Fortress","app_id":440,"player_count":0,"max_players":24,"Bots":0,"server_type":"Dedicated","server_os":"Linux","password":true,"vac":true,"version":"7757534","steam_id":85568392924504278,"keywords":["nocrits","nodmgspread","payload","uncletopia"],"game_id":440,"stv_port":27066,"stv_name":"Uncletopia | Frankfurt | 6 | All Maps | STV","players":null},{"server_id":23,"name":"Uncletopia | Frankfurt | 7 | Stopwatch Beta","name_short":"frk-7","host":"frk-1.de.uncletopia.com","port":27075,"enabled":true,"region":"eu","cc":"de","latitude":50.110924,"longitude":8.682127,"reserved":0,"last_update":"0001-01-01T00:00:00Z","name_a2s":"Uncletopia | Frankfurt | 7 | Stopwatch Beta","protocol":17,"map":"cp_sunshine","folder":"tf","game":"Team Fortress","app_id":440,"player_count":0,"max_players":24,"Bots":0,"server_type":"Dedicated","server_os":"Linux","password":true,"vac":true,"version":"7757534","steam_id":85568392924742827,"keywords":["cp","nocrits","nodmgspread","uncletopia"],"game_id":440,"stv_port":27076,"stv_name":"Uncletopia | Frankfurt | 7 | Stopwatch Beta | STV","players":null},{"server_id":24,"name":"Uncletopia | Frankfurt | 8 | Community","name_short":"frk-8","host":"frk-1.de.uncletopia.com","port":27085,"enabled":true,"region":"eu","cc":"de","latitude":50.110924,"longitude":8.682127,"reserved":0,"last_update":"0001-01-01T00:00:00Z","name_a2s":"Uncletopia | Frankfurt | 8 | Community","protocol":17,"map":"koth_lakeside_final","folder":"tf","game":"Team Fortress","app_id":440,"player_count":0,"max_players":24,"Bots":0,"server_type":"Dedicated","server_os":"Linux","password":true,"vac":true,"version":"7757534","steam_id":85568392924742828,"keywords":["cp","nocrits","nodmgspread","uncletopia"],"game_id":440,"stv_port":27086,"stv_name":"Uncletopia | Frankfurt | 8 | Community | STV","players":null},{"server_id":202,"name":"Uncletopia | Hong Kong | 1 | All Maps","name_short":"hgk-1","host":"hgk-1.hk.uncletopia.com","port":27015,"enabled":true,"region":"asia","cc":"hk","latitude":22.302711,"longitude":114.177216,"reserved":0,"last_update":"0001-01-01T00:00:00Z","name_a2s":"Uncletopia | Hong Kong | 1 | All Maps","protocol":17,"map":"pl_badwater","folder":"tf","game":"Team Fortress","app_id":440,"player_count":23,"max_players":24,"Bots":0,"server_type":"Dedicated","server_os":"Linux","password":true,"vac":true,"version":"7757534","steam_id":85568392924494504,"keywords":["nocrits","nodmgspread","payload","uncletopia"],"game_id":440,"stv_port":27016,"stv_name":"Uncletopia | Hong Kong | 1 | All Maps | STV","players":[{"user_id":100,"name":"Pantastic!","steam_id":76561199086337830,"connected_time":602000000000,"state":"active","ping":119},{"user_id":92,"name":"Windmill","steam_id":76561199230997986,"connected_time":1562000000000,"state":"active","ping":88},{"user_id":97,"name":"ketsu","steam_id":76561197966171554,"connected_time":775000000000,"state":"active","ping":112},{"user_id":96,"name":"i saved my fart for lunch","steam_id":76561199146847474,"connected_time":1044000000000,"state":"active","ping":81},{"user_id":83,"name":"Pyro","steam_id":76561198144194541,"connected_time":2686000000000,"state":"active","ping":106},{"user_id":101,"name":"Vesha","steam_id":76561199208233146,"connected_time":592000000000,"state":"active","ping":84},{"user_id":71,"name":"Male Detected!","steam_id":76561199082459598,"connected_time":4024000000000,"state":"active","ping":79},{"user_id":98,"name":"Arpazha","steam_id":76561199072257230,"connected_time":746000000000,"state":"active","ping":125},{"user_id":77,"name":"Milk❤","steam_id":76561198163911560,"connected_time":3514000000000,"state":"active","ping":106},{"user_id":84,"name":"c","steam_id":76561199099271055,"connected_time":2565000000000,"state":"active","ping":88},{"user_id":86,"name":"dax.","steam_id":76561198321885643,"connected_time":2469000000000,"state":"active","ping":41},{"user_id":99,"name":"ZERO™ ★ STAR","steam_id":76561197993249022,"connected_time":712000000000,"state":"active","ping":51},{"user_id":70,"name":":uroSmonk:","steam_id":76561198074339034,"connected_time":4097000000000,"state":"active","ping":75},{"user_id":74,"name":"twitch.tv/tf2ferb","steam_id":76561198074413124,"connected_time":3954000000000,"state":"active","ping":92},{"user_id":102,"name":"Topaz","steam_id":76561198097350308,"connected_time":587000000000,"state":"active","ping":89},{"user_id":75,"name":"Cloud-Verse","steam_id":76561198194370973,"connected_time":3744000000000,"state":"active","ping":86},{"user_id":52,"name":"Eugene the WISE","steam_id":76561198303608523,"connected_time":6146000000000,"state":"active","ping":112},{"user_id":94,"name":"Puddin","steam_id":76561198140052918,"connected_time":1084000000000,"state":"active","ping":92},{"user_id":90,"name":"junbi OK","steam_id":76561198116387218,"connected_time":1789000000000,"state":"active","ping":94},{"user_id":105,"name":". ᴗ.","steam_id":76561198208632261,"connected_time":332000000000,"state":"active","ping":42},{"user_id":103,"name":"DanDruff(quit TF2)","steam_id":76561199111490025,"connected_time":564000000000,"state":"active","ping":43},{"user_id":67,"name":"brainless bozo","steam_id":76561198055553140,"connected_time":4980000000000,"state":"active","ping":76},{"user_id":104,"name":"Xx_EpicTrickstabber_xX","steam_id":76561199024960087,"connected_time":547000000000,"state":"active","ping":60}]},{"server_id":1,"name":"Uncletopia | Los Angeles | 1 | All Maps","name_short":"lax-1","host":"lax-1.us.uncletopia.com","port":27015,"enabled":true,"region":"us-west","cc":"us","latitude":33.94279,"longitude":-118.41004,"reserved":0,"last_update":"0001-01-01T00:00:00Z","name_a2s":"Uncletopia | Los Angeles | 1 | All Maps","protocol":17,"map":"ctf_landfall","folder":"tf","game":"Team Fortress","app_id":440,"player_count":18,"max_players":24,"Bots":0,"server_type":"Dedicated","server_os":"Linux","password":true,"vac":true,"version":"7757534","steam_id":85568392924469991,"keywords":["ctf","nocrits","nodmgspread","uncletopia"],"game_id":440,"stv_port":27016,"stv_name":"Uncletopia | Los Angeles | 1 | All Maps | STV","players":[{"user_id":416,"name":"aqua","steam_id":76561199407709552,"connected_time":12884000000000,"state":"active","ping":90},{"user_id":546,"name":"MrHour","steam_id":76561198097762732,"connected_time":2087000000000,"state":"active","ping":44},{"user_id":540,"name":"triph","steam_id":76561198067196509,"connected_time":2839000000000,"state":"active","ping":30},{"user_id":561,"name":"jams","steam_id":76561198131701290,"connected_time":366000000000,"state":"active","ping":42},{"user_id":506,"name":"PunishedCrab","steam_id":76561198079650017,"connected_time":5779000000000,"state":"active","ping":54},{"user_id":551,"name":"cinnamonguyfromapplejacks","steam_id":76561198068351675,"connected_time":1468000000000,"state":"active","ping":77},{"user_id":527,"name":"Logan601 #savetf2","steam_id":76561198263116731,"connected_time":4067000000000,"state":"active","ping":55},{"user_id":549,"name":"GlossyBat","steam_id":76561198929313869,"connected_time":1764000000000,"state":"active","ping":54},{"user_id":544,"name":"MonkeyNobody","steam_id":76561199451266605,"connected_time":2233000000000,"state":"active","ping":50},{"user_id":529,"name":"Kidjays","steam_id":76561198124941901,"connected_time":4028000000000,"state":"active","ping":96},{"user_id":479,"name":"TeCon","steam_id":76561198049127236,"connected_time":7305000000000,"state":"active","ping":57},{"user_id":505,"name":"Thunder","steam_id":76561198097721532,"connected_time":5963000000000,"state":"active","ping":45},{"user_id":552,"name":"Star","steam_id":76561198150115757,"connected_time":1359000000000,"state":"active","ping":67},{"user_id":530,"name":"LF Collectors Market Gardener","steam_id":76561199192132061,"connected_time":4015000000000,"state":"active","ping":60},{"user_id":491,"name":"nori_420","steam_id":76561199117134203,"connected_time":6860000000000,"state":"active","ping":58},{"user_id":523,"name":"big car","steam_id":76561198067082350,"connected_time":4535000000000,"state":"active","ping":55},{"user_id":556,"name":"SpringIvan","steam_id":76561199133179509,"connected_time":1054000000000,"state":"active","ping":53},{"user_id":531,"name":"Captain Crunch_","steam_id":76561198117487062,"connected_time":3960000000000,"state":"active","ping":45}]},{"server_id":112,"name":"Uncletopia | Los Angeles | 2 | All Maps","name_short":"lax-2","host":"lax-1.us.uncletopia.com","port":27025,"enabled":true,"region":"us-west","cc":"us","latitude":33.94279,"longitude":-118.41004,"reserved":0,"last_update":"0001-01-01T00:00:00Z","name_a2s":"Uncletopia | Los Angeles | 2 | All Maps","protocol":17,"map":"pl_snowycoast","folder":"tf","game":"Team Fortress","app_id":440,"player_count":18,"max_players":24,"Bots":0,"server_type":"Dedicated","server_os":"Linux","password":true,"vac":true,"version":"7757534","steam_id":85568392924469992,"keywords":["nocrits","nodmgspread","payload","uncletopia"],"game_id":440,"stv_port":27026,"stv_name":"Uncletopia | Los Angeles | 2 | All Maps | STV","players":[{"user_id":465,"name":"party tim","steam_id":76561198034876389,"connected_time":1351000000000,"state":"active","ping":54},{"user_id":429,"name":"Jack from Jack in The Box","steam_id":76561199083594971,"connected_time":3381000000000,"state":"active","ping":49},{"user_id":479,"name":"Foghorn Tape","steam_id":76561199106422675,"connected_time":517000000000,"state":"active","ping":126},{"user_id":468,"name":"lol","steam_id":76561198026491738,"connected_time":1293000000000,"state":"active","ping":54},{"user_id":478,"name":"ʀ.ʚɞ.","steam_id":76561198029580420,"connected_time":649000000000,"state":"active","ping":151},{"user_id":487,"name":"Hong Xiuquan","steam_id":76561198110046630,"connected_time":179000000000,"state":"active","ping":89},{"user_id":480,"name":"rmbl","steam_id":76561198150137369,"connected_time":515000000000,"state":"active","ping":48},{"user_id":481,"name":"Pineapple Pizza","steam_id":76561197997233176,"connected_time":448000000000,"state":"active","ping":127},{"user_id":456,"name":"shoes","steam_id":76561198044104086,"connected_time":1696000000000,"state":"active","ping":59},{"user_id":432,"name":"la creatura","steam_id":76561199084061978,"connected_time":3316000000000,"state":"active","ping":60},{"user_id":459,"name":"Pudsla","steam_id":76561198258974036,"connected_time":1563000000000,"state":"active","ping":59},{"user_id":461,"name":"Chad","steam_id":76561199008751286,"connected_time":1535000000000,"state":"active","ping":89},{"user_id":474,"name":"[WG]Tank","steam_id":76561198038696495,"connected_time":1137000000000,"state":"active","ping":107},{"user_id":482,"name":"Joshy","steam_id":76561198823350392,"connected_time":440000000000,"state":"active","ping":70},{"user_id":449,"name":"Chris","steam_id":76561198180625579,"connected_time":1959000000000,"state":"active","ping":66},{"user_id":484,"name":"Soulistice","steam_id":76561199140430046,"connected_time":416000000000,"state":"active","ping":68},{"user_id":477,"name":"nella","steam_id":76561198079349621,"connected_time":853000000000,"state":"active","ping":55},{"user_id":411,"name":"DaΓkPuΓple","steam_id":76561198271462402,"connected_time":5013000000000,"state":"active","ping":93}]},{"server_id":324,"name":"Uncletopia | Los Angeles | 3 | All Maps","name_short":"lax-3","host":"lax-1.us.uncletopia.com","port":27035,"enabled":true,"region":"us-west","cc":"us","latitude":33.94279,"longitude":-118.41004,"reserved":0,"last_update":"0001-01-01T00:00:00Z","name_a2s":"Uncletopia | Los Angeles | 3 | All Maps","protocol":17,"map":"cp_dustbowl","folder":"tf","game":"Team Fortress","app_id":440,"player_count":0,"max_players":24,"Bots":0,"server_type":"Dedicated","server_os":"Linux","password":true,"vac":true,"version":"7757534","steam_id":85568392924510198,"keywords":["cp","nocrits","nodmgspread","uncletopia"],"game_id":440,"stv_port":27036,"stv_name":"Uncletopia | Los Angeles | 3 | All Maps | STV","players":null},{"server_id":25,"name":"Uncletopia | Los Angeles | 4 | Stopwatch Beta","name_short":"lax-4","host":"lax-1.us.uncletopia.com","port":27045,"enabled":true,"region":"us-west","cc":"us","latitude":33.94279,"longitude":-118.41004,"reserved":0,"last_update":"0001-01-01T00:00:00Z","name_a2s":"Uncletopia | Los Angeles | 4 | Stopwatch Beta","protocol":17,"map":"pl_swiftwater_final1","folder":"tf","game":"Team Fortress","app_id":440,"player_count":0,"max_players":24,"Bots":0,"server_type":"Dedicated","server_os":"Linux","password":true,"vac":true,"version":"7757534","steam_id":85568392924510199,"keywords":["nocrits","nodmgspread","payload","uncletopia"],"game_id":440,"stv_port":27046,"stv_name":"Uncletopia | Los Angeles | 4 | Stopwatch Beta | STV","players":null},{"server_id":11,"name":"Uncletopia | London | 1 | All Maps","name_short":"lon-1","host":"lon-1.uk.uncletopia.com","port":27015,"enabled":true,"region":"eu","cc":"gb","latitude":51.509865,"longitude":-0.118092,"reserved":0,"last_update":"0001-01-01T00:00:00Z","name_a2s":"Uncletopia | London | 1 | All Maps","protocol":17,"map":"pl_barnblitz","folder":"tf","game":"Team Fortress","app_id":440,"player_count":23,"max_players":24,"Bots":0,"server_type":"Dedicated","server_os":"Linux","password":true,"vac":true,"version":"7757534","steam_id":85568392924367362,"keywords":["nocrits","nodmgspread","payload","uncletopia"],"game_id":440,"stv_port":27016,"stv_name":"Uncletopia | London | 1 | All Maps | STV","players":[{"user_id":165,"name":"Snoucher","steam_id":76561198955323108,"connected_time":707000000000,"state":"active","ping":80},{"user_id":155,"name":"fried","steam_id":76561198307522022,"connected_time":1344000000000,"state":"active","ping":45},{"user_id":138,"name":"ayadam","steam_id":76561198161515769,"connected_time":2499000000000,"state":"active","ping":115},{"user_id":96,"name":"Raine","steam_id":76561198098860903,"connected_time":4974000000000,"state":"active","ping":56},{"user_id":162,"name":"trans werewolf","steam_id":76561198107235989,"connected_time":889000000000,"state":"active","ping":57},{"user_id":101,"name":"Gwishin","steam_id":76561198257158275,"connected_time":4361000000000,"state":"active","ping":151},{"user_id":146,"name":"I I","steam_id":76561199101935057,"connected_time":1934000000000,"state":"active","ping":92},{"user_id":118,"name":"Jagdtiger","steam_id":76561198244482480,"connected_time":3607000000000,"state":"active","ping":39},{"user_id":130,"name":"ja","steam_id":76561199228540618,"connected_time":2839000000000,"state":"active","ping":87},{"user_id":167,"name":"yh","steam_id":76561198013245606,"connected_time":576000000000,"state":"active","ping":42},{"user_id":131,"name":"A stripper","steam_id":76561198034865891,"connected_time":2826000000000,"state":"active","ping":55},{"user_id":171,"name":"killbind irl","steam_id":76561198180637374,"connected_time":2000000000,"state":"spawning","ping":82},{"user_id":156,"name":"no bitches nigusman","steam_id":76561199466723428,"connected_time":1253000000000,"state":"active","ping":89},{"user_id":159,"name":"tummaluppo taivaltaja","steam_id":76561198093458326,"connected_time":1175000000000,"state":"active","ping":72},{"user_id":168,"name":"on1on (fried)","steam_id":76561197995304137,"connected_time":209000000000,"state":"active","ping":70},{"user_id":149,"name":"Shynii","steam_id":76561198194682105,"connected_time":1769000000000,"state":"active","ping":60},{"user_id":150,"name":"Dododid","steam_id":76561198159185258,"connected_time":1758000000000,"state":"active","ping":51},{"user_id":157,"name":"ike","steam_id":76561198039845647,"connected_time":1219000000000,"state":"active","ping":57},{"user_id":144,"name":"Blob","steam_id":76561197971418993,"connected_time":2190000000000,"state":"active","ping":91},{"user_id":170,"name":"Gabe","steam_id":76561197994239444,"connected_time":155000000000,"state":"active","ping":116},{"user_id":161,"name":"swueuws","steam_id":76561198020716743,"connected_time":1040000000000,"state":"active","ping":60},{"user_id":142,"name":"Minecraftamere","steam_id":76561198045358081,"connected_time":2234000000000,"state":"active","ping":59},{"user_id":169,"name":"1ggy","steam_id":76561199051285912,"connected_time":176000000000,"state":"active","ping":82}]},{"server_id":114,"name":"Uncletopia | London | 2 | All Maps","name_short":"lon-2","host":"lon-1.uk.uncletopia.com","port":27025,"enabled":true,"region":"eu","cc":"gb","latitude":51.509865,"longitude":-0.118092,"reserved":0,"last_update":"0001-01-01T00:00:00Z","name_a2s":"Uncletopia | London | 2 | All Maps","protocol":17,"map":"koth_viaduct","folder":"tf","game":"Team Fortress","app_id":440,"player_count":0,"max_players":24,"Bots":0,"server_type":"Dedicated","server_os":"Linux","password":true,"vac":true,"version":"7757534","steam_id":85568392924470941,"keywords":["cp","nocrits","nodmgspread","uncletopia"],"game_id":440,"stv_port":27026,"stv_name":"Uncletopia | London | 2 | All Maps | STV","players":null},{"server_id":320,"name":"Uncletopia | London | 3 | All Maps","name_short":"lon-3","host":"lon-1.uk.uncletopia.com","port":27035,"enabled":true,"region":"eu","cc":"gb","latitude":51.509865,"longitude":-0.118092,"reserved":0,"last_update":"0001-01-01T00:00:00Z","name_a2s":"Uncletopia | London | 3 | All Maps","protocol":17,"map":"cp_dustbowl","folder":"tf","game":"Team Fortress","app_id":440,"player_count":0,"max_players":24,"Bots":0,"server_type":"Dedicated","server_os":"Linux","password":true,"vac":true,"version":"7757534","steam_id":85568392924510192,"keywords":["cp","nocrits","nodmgspread","uncletopia"],"game_id":440,"stv_port":27036,"stv_name":"Uncletopia | London | 3 | All Maps | STV","players":null},{"server_id":321,"name":"Uncletopia | London | 4 | All Maps","name_short":"lon-4","host":"lon-1.uk.uncletopia.com","port":27045,"enabled":true,"region":"eu","cc":"gb","latitude":51.509865,"longitude":-0.118092,"reserved":0,"last_update":"0001-01-01T00:00:00Z","name_a2s":"Uncletopia | London | 4 | All Maps","protocol":17,"map":"cp_dustbowl","folder":"tf","game":"Team Fortress","app_id":440,"player_count":0,"max_players":24,"Bots":0,"server_type":"Dedicated","server_os":"Linux","password":true,"vac":true,"version":"7757534","steam_id":85568392924510193,"keywords":["cp","nocrits","nodmgspread","uncletopia"],"game_id":440,"stv_port":27046,"stv_name":"Uncletopia | London | 4 | All Maps | STV","players":null},{"server_id":21,"name":"Uncletopia | London | 5 | All Maps","name_short":"lon-5","host":"lon-1.uk.uncletopia.com","port":27055,"enabled":true,"region":"eu","cc":"gb","latitude":51.509865,"longitude":-0.118092,"reserved":0,"last_update":"0001-01-01T00:00:00Z","name_a2s":"Uncletopia | London | 5 | All Maps","protocol":17,"map":"cp_altitude","folder":"tf","game":"Team Fortress","app_id":440,"player_count":0,"max_players":24,"Bots":0,"server_type":"Dedicated","server_os":"Linux","password":true,"vac":true,"version":"7757534","steam_id":85568392924742829,"keywords":["cp","nocrits","nodmgspread","uncletopia"],"game_id":440,"stv_port":27056,"stv_name":"Uncletopia | London | 5 | All Maps | STV","players":null},{"server_id":22,"name":"Uncletopia | London | 6 | All Maps","name_short":"lon-6","host":"lon-1.uk.uncletopia.com","port":27065,"enabled":true,"region":"eu","cc":"gb","latitude":51.509865,"longitude":-0.118092,"reserved":0,"last_update":"0001-01-01T00:00:00Z","name_a2s":"Uncletopia | London | 6 | All Maps","protocol":17,"map":"cp_mountainlab","folder":"tf","game":"Team Fortress","app_id":440,"player_count":0,"max_players":24,"Bots":0,"server_type":"Dedicated","server_os":"Linux","password":true,"vac":true,"version":"7757534","steam_id":85568392924742830,"keywords":["cp","nocrits","nodmgspread","uncletopia"],"game_id":440,"stv_port":27066,"stv_name":"Uncletopia | London | 6 | All Maps | STV","players":null},{"server_id":40,"name":"Uncletopia | London | 7 | No Payload","name_short":"lon-7","host":"lon-1.uk.uncletopia.com","port":27075,"enabled":true,"region":"eu","cc":"gb","latitude":51.509865,"longitude":-0.118092,"reserved":0,"last_update":"0001-01-01T00:00:00Z","name_a2s":"Uncletopia | London | 7 | No Payload","protocol":17,"map":"pl_badwater","folder":"tf","game":"Team Fortress","app_id":440,"player_count":0,"max_players":24,"Bots":0,"server_type":"Dedicated","server_os":"Linux","password":true,"vac":true,"version":"7757534","steam_id":85568392924964314,"keywords":["nocrits","nodmgspread","payload","uncletopia"],"game_id":440,"stv_port":27076,"stv_name":"Uncletopia | London | 7 | No Payload | STV","players":null},{"server_id":41,"name":"Uncletopia | London | 8 | Community","name_short":"lon-8","host":"lon-1.uk.uncletopia.com","port":27085,"enabled":true,"region":"eu","cc":"gb","latitude":51.509865,"longitude":-0.118092,"reserved":0,"last_update":"0001-01-01T00:00:00Z","name_a2s":"Uncletopia | London | 8 | Community","protocol":17,"map":"pl_barnblitz","folder":"tf","game":"Team Fortress","app_id":440,"player_count":0,"max_players":24,"Bots":0,"server_type":"Dedicated","server_os":"Linux","password":true,"vac":true,"version":"7757534","steam_id":85568392924964315,"keywords":["nocrits","nodmgspread","payload","uncletopia"],"game_id":440,"stv_port":27086,"stv_name":"Uncletopia | London | 8 | Community | STV","players":null},{"server_id":300,"name":"Uncletopia | Montréal | 1 | All Maps","name_short":"mtl-1","host":"mtl-1.ca.uncletopia.com","port":27015,"enabled":true,"region":"us-east","cc":"ca","latitude":45.50889,"longitude":-73.56167,"reserved":0,"last_update":"0001-01-01T00:00:00Z","name_a2s":"Uncletopia | Montréal | 1 | All Maps","protocol":17,"map":"koth_viaduct","folder":"tf","game":"Team Fortress","app_id":440,"player_count":0,"max_players":24,"Bots":0,"server_type":"Dedicated","server_os":"Linux","password":true,"vac":true,"version":"7757534","steam_id":85568392924500087,"keywords":["cp","nocrits","nodmgspread","uncletopia"],"game_id":440,"stv_port":27016,"stv_name":"Uncletopia | Montréal | 1 | All Maps | STV","players":null},{"server_id":301,"name":"Uncletopia | Montréal | 2 | All Maps","name_short":"mtl-2","host":"mtl-1.ca.uncletopia.com","port":27025,"enabled":true,"region":"us-east","cc":"ca","latitude":45.50889,"longitude":-73.56167,"reserved":0,"last_update":"0001-01-01T00:00:00Z","name_a2s":"Uncletopia | Montréal | 2 | All Maps","protocol":17,"map":"koth_lakeside_final","folder":"tf","game":"Team Fortress","app_id":440,"player_count":0,"max_players":24,"Bots":0,"server_type":"Dedicated","server_os":"Linux","password":true,"vac":true,"version":"7757534","steam_id":85568392924500088,"keywords":["cp","nocrits","nodmgspread","uncletopia"],"game_id":440,"stv_port":27026,"stv_name":"Uncletopia | Montréal | 2 | All Maps | STV","players":null},{"server_id":302,"name":"Uncletopia | Montréal | 3 | All Maps","name_short":"mtl-3","host":"mtl-1.ca.uncletopia.com","port":27035,"enabled":true,"region":"us-east","cc":"ca","latitude":45.50889,"longitude":-73.56167,"reserved":0,"last_update":"0001-01-01T00:00:00Z","name_a2s":"Uncletopia | Montréal | 3 | All Maps","protocol":17,"map":"koth_lakeside_final","folder":"tf","game":"Team Fortress","app_id":440,"player_count":5,"max_players":24,"Bots":0,"server_type":"Dedicated","server_os":"Linux","password":true,"vac":true,"version":"7757534","steam_id":85568392924500089,"keywords":["cp","nocrits","nodmgspread","uncletopia"],"game_id":440,"stv_port":27036,"stv_name":"Uncletopia | Montréal | 3 | All Maps | STV","players":[{"user_id":61,"name":"Tuzakci","steam_id":76561198438587196,"connected_time":12285000000000,"state":"active","ping":83},{"user_id":62,"name":"thebigannoyance","steam_id":76561198851604387,"connected_time":12282000000000,"state":"active","ping":63},{"user_id":63,"name":"kriglar","steam_id":76561198346652267,"connected_time":12222000000000,"state":"active","ping":71},{"user_id":85,"name":"Mario","steam_id":76561198321794277,"connected_time":3796000000000,"state":"active","ping":62},{"user_id":66,"name":"dtjauch","steam_id":76561198152364093,"connected_time":11987000000000,"state":"active","ping":55}]},{"server_id":303,"name":"Uncletopia | Montréal | 4 | No Payload","name_short":"mtl-4","host":"mtl-1.ca.uncletopia.com","port":27045,"enabled":true,"region":"us-east","cc":"ca","latitude":45.50889,"longitude":-73.56167,"reserved":0,"last_update":"0001-01-01T00:00:00Z","name_a2s":"Uncletopia | Montréal | 4 | No Payload","protocol":17,"map":"cp_mercenarypark","folder":"tf","game":"Team Fortress","app_id":440,"player_count":0,"max_players":24,"Bots":0,"server_type":"Dedicated","server_os":"Linux","password":true,"vac":true,"version":"7757534","steam_id":85568392924500090,"keywords":["cp","nocrits","nodmgspread","uncletopia"],"game_id":440,"stv_port":27046,"stv_name":"Uncletopia | Montréal | 4 | No Payload | STV","players":null},{"server_id":13,"name":"Uncletopia | New York City | 1 | All Maps","name_short":"nyc-1","host":"nyc-1.us.uncletopia.com","port":27015,"enabled":true,"region":"us-east","cc":"us","latitude":40.73061,"longitude":-73.93524,"reserved":0,"last_update":"0001-01-01T00:00:00Z","name_a2s":"Uncletopia | New York City | 1 | All Maps","protocol":17,"map":"cp_sunshine","folder":"tf","game":"Team Fortress","app_id":440,"player_count":0,"max_players":24,"Bots":0,"server_type":"Dedicated","server_os":"Linux","password":true,"vac":true,"version":"7757534","steam_id":85568392924469993,"keywords":["cp","nocrits","nodmgspread","uncletopia"],"game_id":440,"stv_port":27016,"stv_name":"Uncletopia | New York City | 1 | All Maps | STV","players":null},{"server_id":14,"name":"Uncletopia | New York City | 2 | All Maps","name_short":"nyc-2","host":"nyc-1.us.uncletopia.com","port":27025,"enabled":true,"region":"us-east","cc":"us","latitude":40.73061,"longitude":-73.93524,"reserved":0,"last_update":"0001-01-01T00:00:00Z","name_a2s":"Uncletopia | New York City | 2 | All Maps","protocol":17,"map":"pl_snowycoast","folder":"tf","game":"Team Fortress","app_id":440,"player_count":11,"max_players":24,"Bots":0,"server_type":"Dedicated","server_os":"Linux","password":true,"vac":true,"version":"7757534","steam_id":85568392924469994,"keywords":["nocrits","nodmgspread","payload","uncletopia"],"game_id":440,"stv_port":27026,"stv_name":"Uncletopia | New York City | 2 | All Maps | STV","players":[{"user_id":1117,"name":"Nero25","steam_id":76561198027720631,"connected_time":1152000000000,"state":"active","ping":111},{"user_id":1121,"name":"Andenm13","steam_id":76561198853857167,"connected_time":649000000000,"state":"active","ping":142},{"user_id":1122,"name":"Huey","steam_id":76561198972816386,"connected_time":534000000000,"state":"active","ping":75},{"user_id":1112,"name":"Dattallguy","steam_id":76561198873155093,"connected_time":1576000000000,"state":"active","ping":72},{"user_id":1120,"name":"medd","steam_id":76561198078238722,"connected_time":833000000000,"state":"active","ping":105},{"user_id":1118,"name":"Mum, I did VRChat ERP","steam_id":76561198234965408,"connected_time":1147000000000,"state":"active","ping":137},{"user_id":1119,"name":"luigi","steam_id":76561198108673753,"connected_time":1103000000000,"state":"active","ping":79},{"user_id":1097,"name":"J O S H³²","steam_id":76561198122603779,"connected_time":2655000000000,"state":"active","ping":115},{"user_id":1098,"name":"robot with human hair","steam_id":76561198018691308,"connected_time":2634000000000,"state":"active","ping":73},{"user_id":1099,"name":"returnofpussypoppinhondacivic","steam_id":76561198307012859,"connected_time":2618000000000,"state":"active","ping":104},{"user_id":1110,"name":"CatBerryLemonade","steam_id":76561198120932314,"connected_time":2108000000000,"state":"active","ping":79}]},{"server_id":15,"name":"Uncletopia | New York City | 3 | Stopwatch Beta","name_short":"nyc-3","host":"nyc-1.us.uncletopia.com","port":27035,"enabled":true,"region":"us-east","cc":"us","latitude":40.73061,"longitude":-73.93524,"reserved":0,"last_update":"0001-01-01T00:00:00Z","name_a2s":"Uncletopia | New York City | 3 | Stopwatch Beta","protocol":17,"map":"pl_upward","folder":"tf","game":"Team Fortress","app_id":440,"player_count":0,"max_players":24,"Bots":0,"server_type":"Dedicated","server_os":"Linux","password":true,"vac":true,"version":"7757534","steam_id":85568392924742820,"keywords":["nocrits","nodmgspread","payload","uncletopia"],"game_id":440,"stv_port":27036,"stv_name":"Uncletopia | New York City | 3 | Stopwatch Beta | STV","players":null},{"server_id":16,"name":"Uncletopia | New York City | 4 | Community","name_short":"nyc-4","host":"nyc-1.us.uncletopia.com","port":27045,"enabled":true,"region":"us-east","cc":"us","latitude":40.73061,"longitude":-73.93524,"reserved":0,"last_update":"0001-01-01T00:00:00Z","name_a2s":"Uncletopia | New York City | 4 | Community","protocol":17,"map":"workshop/cp_fulgur_rc2a.ugc2068252300","folder":"tf","game":"Team Fortress","app_id":440,"player_count":0,"max_players":24,"Bots":0,"server_type":"Dedicated","server_os":"Linux","password":true,"vac":true,"version":"7757534","steam_id":85568392924742821,"keywords":["cp","nocrits","nodmgspread","uncletopia"],"game_id":440,"stv_port":27046,"stv_name":"Uncletopia | New York City | 4 | Community | STV","players":null},{"server_id":142,"name":"Uncletopia | São Paulo | 1 | All Maps","name_short":"sao-1","host":"sao-1.br.uncletopia.com","port":27015,"enabled":true,"region":"sa","cc":"br","latitude":-23.533773,"longitude":-46.62529,"reserved":0,"last_update":"0001-01-01T00:00:00Z","name_a2s":"Uncletopia | São Paulo | 1 | All Maps","protocol":17,"map":"koth_lakeside_final","folder":"tf","game":"Team Fortress","app_id":440,"player_count":0,"max_players":24,"Bots":0,"server_type":"Dedicated","server_os":"Linux","password":true,"vac":true,"version":"7757534","steam_id":85568392924469996,"keywords":["cp","nocrits","nodmgspread","uncletopia"],"game_id":440,"stv_port":27016,"stv_name":"Uncletopia | São Paulo | 1 | All Maps | STV","players":null},{"server_id":143,"name":"Uncletopia | São Paulo | 2 | All Maps","name_short":"sao-2","host":"sao-2.br.uncletopia.com","port":27015,"enabled":true,"region":"sa","cc":"br","latitude":-23.533773,"longitude":-46.62529,"reserved":0,"last_update":"0001-01-01T00:00:00Z","name_a2s":"Uncletopia | São Paulo | 2 | All Maps","protocol":17,"map":"pl_borneo","folder":"tf","game":"Team Fortress","app_id":440,"player_count":0,"max_players":24,"Bots":0,"server_type":"Dedicated","server_os":"Linux","password":true,"vac":true,"version":"7757534","steam_id":85568392924485349,"keywords":["nocrits","nodmgspread","payload","uncletopia"],"game_id":440,"stv_port":27016,"stv_name":"Uncletopia | São Paulo | 2 | All Maps | STV","players":null},{"server_id":7,"name":"Uncletopia | Seattle | 1 | All Maps","name_short":"sea-1","host":"sea-1.us.uncletopia.com","port":27015,"enabled":true,"region":"us-west","cc":"us","latitude":47.608013,"longitude":-122.33517,"reserved":0,"last_update":"0001-01-01T00:00:00Z","name_a2s":"Uncletopia | Seattle | 1 | All Maps","protocol":17,"map":"pl_swiftwater_final1","folder":"tf","game":"Team Fortress","app_id":440,"player_count":24,"max_players":24,"Bots":0,"server_type":"Dedicated","server_os":"Linux","password":true,"vac":true,"version":"7757534","steam_id":85568392924469997,"keywords":["nocrits","nodmgspread","payload","uncletopia"],"game_id":440,"stv_port":27016,"stv_name":"Uncletopia | Seattle | 1 | All Maps | STV","players":[{"user_id":698,"name":"fleshyissneaky","steam_id":76561199098551283,"connected_time":4000000000,"state":"spawning","ping":94},{"user_id":626,"name":"Octo","steam_id":76561198024056355,"connected_time":6632000000000,"state":"active","ping":76},{"user_id":690,"name":"cringy","steam_id":76561198323000455,"connected_time":261000000000,"state":"active","ping":89},{"user_id":652,"name":"8 raw papers","steam_id":76561198424248616,"connected_time":4470000000000,"state":"active","ping":109},{"user_id":655,"name":"ExpDelta","steam_id":76561199126443129,"connected_time":4192000000000,"state":"active","ping":63},{"user_id":677,"name":"Yosh","steam_id":76561198027078899,"connected_time":1847000000000,"state":"active","ping":89},{"user_id":697,"name":"☆°•▪︎♡mason pines♡","steam_id":76561198282934310,"connected_time":28000000000,"state":"active","ping":118},{"user_id":654,"name":"[TrC] Dackstrus","steam_id":76561197973518509,"connected_time":4329000000000,"state":"active","ping":58},{"user_id":662,"name":"Monarch of Glass","steam_id":76561198165638237,"connected_time":2818000000000,"state":"active","ping":45},{"user_id":692,"name":"Lo-Pan","steam_id":76561198085670133,"connected_time":114000000000,"state":"active","ping":113},{"user_id":673,"name":"Blood Angels Fan #9328","steam_id":76561198217261328,"connected_time":2339000000000,"state":"active","ping":79},{"user_id":663,"name":"bengineer","steam_id":76561198171912174,"connected_time":2813000000000,"state":"active","ping":56},{"user_id":688,"name":"HellaCopter","steam_id":76561198062313698,"connected_time":632000000000,"state":"active","ping":56},{"user_id":694,"name":"Nov","steam_id":76561198384982192,"connected_time":95000000000,"state":"active","ping":75},{"user_id":599,"name":"Closed.","steam_id":76561198212598967,"connected_time":7605000000000,"state":"active","ping":72},{"user_id":689,"name":"[TrC] Nosy","steam_id":76561197978859310,"connected_time":387000000000,"state":"active","ping":61},{"user_id":666,"name":"exephur","steam_id":76561198135763234,"connected_time":2641000000000,"state":"active","ping":67},{"user_id":680,"name":"doopsies","steam_id":76561198083000867,"connected_time":1704000000000,"state":"active","ping":57},{"user_id":674,"name":"Boongadoonga","steam_id":76561198058525763,"connected_time":2273000000000,"state":"active","ping":124},{"user_id":684,"name":"smeasly","steam_id":76561198028718812,"connected_time":1228000000000,"state":"active","ping":45},{"user_id":676,"name":"Michiru","steam_id":76561198878701671,"connected_time":2095000000000,"state":"active","ping":105},{"user_id":695,"name":"alaska","steam_id":76561198017030029,"connected_time":70000000000,"state":"active","ping":72},{"user_id":603,"name":"gorlab","steam_id":76561198025089694,"connected_time":7398000000000,"state":"active","ping":68},{"user_id":696,"name":"xsorburax","steam_id":76561198152648165,"connected_time":53000000000,"state":"active","ping":116}]},{"server_id":119,"name":"Uncletopia | Seattle | 2 | All Maps","name_short":"sea-2","host":"sea-1.us.uncletopia.com","port":27025,"enabled":true,"region":"us-west","cc":"us","latitude":47.608013,"longitude":-122.33517,"reserved":0,"last_update":"0001-01-01T00:00:00Z","name_a2s":"Uncletopia | Seattle | 2 | All Maps","protocol":17,"map":"pl_goldrush","folder":"tf","game":"Team Fortress","app_id":440,"player_count":24,"max_players":24,"Bots":0,"server_type":"Dedicated","server_os":"Linux","password":true,"vac":true,"version":"7757534","steam_id":85568392924469998,"keywords":["nocrits","nodmgspread","payload","uncletopia"],"game_id":440,"stv_port":27026,"stv_name":"Uncletopia | Seattle | 2 | All Maps | STV","players":[{"user_id":910,"name":"splash o matic splatoon 3","steam_id":76561198219129496,"connected_time":372000000000,"state":"active","ping":75},{"user_id":899,"name":"Minedark","steam_id":76561198250995706,"connected_time":1052000000000,"state":"active","ping":53},{"user_id":908,"name":"amberenix","steam_id":76561198805110908,"connected_time":447000000000,"state":"active","ping":119},{"user_id":896,"name":"GreenGuy17","steam_id":76561198062289886,"connected_time":1624000000000,"state":"active","ping":102},{"user_id":877,"name":"People Order Our Patties","steam_id":76561198421913648,"connected_time":2599000000000,"state":"active","ping":46},{"user_id":911,"name":"Goblin Mode","steam_id":76561198064870076,"connected_time":351000000000,"state":"active","ping":119},{"user_id":880,"name":"Classic Muzz","steam_id":76561198835514043,"connected_time":2550000000000,"state":"active","ping":376},{"user_id":868,"name":"pineaple","steam_id":76561198119048742,"connected_time":3945000000000,"state":"active","ping":72},{"user_id":881,"name":"Keth","steam_id":76561198155903648,"connected_time":2545000000000,"state":"active","ping":54},{"user_id":900,"name":"DAYTONA","steam_id":76561198061975847,"connected_time":1035000000000,"state":"active","ping":84},{"user_id":883,"name":"i am ethan","steam_id":76561198128868891,"connected_time":2533000000000,"state":"active","ping":62},{"user_id":903,"name":"Cutie Pyro \u003c3","steam_id":76561197997820384,"connected_time":826000000000,"state":"active","ping":84},{"user_id":915,"name":"the forbidden one","steam_id":76561198844273999,"connected_time":68000000000,"state":"active","ping":45},{"user_id":893,"name":"raf","steam_id":76561197999439695,"connected_time":1808000000000,"state":"active","ping":84},{"user_id":912,"name":"enderlord99","steam_id":76561198158152954,"connected_time":334000000000,"state":"active","ping":48},{"user_id":887,"name":"Wacks","steam_id":76561198079476100,"connected_time":2168000000000,"state":"active","ping":63},{"user_id":906,"name":"deathstar0611","steam_id":76561198120476410,"connected_time":646000000000,"state":"active","ping":87},{"user_id":890,"name":"Alcohol Hominid","steam_id":76561198320313950,"connected_time":2014000000000,"state":"active","ping":114},{"user_id":873,"name":"The Rat King","steam_id":76561198164308630,"connected_time":3368000000000,"state":"active","ping":118},{"user_id":902,"name":"Rex The Mouse","steam_id":76561197995569428,"connected_time":897000000000,"state":"active","ping":141},{"user_id":891,"name":"Chubby Monarch","steam_id":76561198027487285,"connected_time":2011000000000,"state":"active","ping":120},{"user_id":897,"name":"R1verz","steam_id":76561198056087178,"connected_time":1384000000000,"state":"active","ping":68},{"user_id":909,"name":"louie, an ally","steam_id":76561198168084763,"connected_time":439000000000,"state":"active","ping":46},{"user_id":914,"name":"MakeMeKimochi","steam_id":76561198042516101,"connected_time":282000000000,"state":"active","ping":49}]},{"server_id":406,"name":"Uncletopia | Seattle | 3 | Stopwatch Beta","name_short":"sea-3","host":"sea-1.us.uncletopia.com","port":27035,"enabled":true,"region":"us-west","cc":"us","latitude":47.608013,"longitude":-122.33517,"reserved":0,"last_update":"0001-01-01T00:00:00Z","name_a2s":"Uncletopia | Seattle | 3 | Stopwatch Beta","protocol":17,"map":"workshop/pl_summercoast_rc8e.ugc1761528829","folder":"tf","game":"Team Fortress","app_id":440,"player_count":0,"max_players":24,"Bots":0,"server_type":"Dedicated","server_os":"Linux","password":true,"vac":true,"version":"7757534","steam_id":85568392924515217,"keywords":["nocrits","nodmgspread","payload","uncletopia"],"game_id":440,"stv_port":27036,"stv_name":"Uncletopia | Seattle | 3 | Stopwatch Beta | STV","players":null},{"server_id":17,"name":"Uncletopia | San Francisco | 1 | All Maps","name_short":"sfo-1","host":"sfo-1.us.uncletopia.com","port":27015,"enabled":true,"region":"us-west","cc":"us","latitude":37.77397,"longitude":-122.4313,"reserved":0,"last_update":"0001-01-01T00:00:00Z","name_a2s":"Uncletopia | San Francisco | 1 | All Maps","protocol":17,"map":"koth_viaduct","folder":"tf","game":"Team Fortress","app_id":440,"player_count":0,"max_players":24,"Bots":0,"server_type":"Dedicated","server_os":"Linux","password":true,"vac":true,"version":"7757534","steam_id":85568392924469999,"keywords":["cp","nocrits","nodmgspread","uncletopia"],"game_id":440,"stv_port":27016,"stv_name":"Uncletopia | San Francisco | 1 | All Maps | STV","players":null},{"server_id":18,"name":"Uncletopia | San Francisco | 2 | All Maps","name_short":"sfo-2","host":"sfo-1.us.uncletopia.com","port":27025,"enabled":true,"region":"us-west","cc":"us","latitude":37.77397,"longitude":-122.4313,"reserved":0,"last_update":"0001-01-01T00:00:00Z","name_a2s":"Uncletopia | San Francisco | 2 | All Maps","protocol":17,"map":"cp_sunshine","folder":"tf","game":"Team Fortress","app_id":440,"player_count":0,"max_players":24,"Bots":0,"server_type":"Dedicated","server_os":"Linux","password":true,"vac":true,"version":"7757534","steam_id":85568392924470000,"keywords":["cp","nocrits","nodmgspread","uncletopia"],"game_id":440,"stv_port":27026,"stv_name":"Uncletopia | San Francisco | 2 | All Maps | STV","players":null},{"server_id":19,"name":"Uncletopia | San Francisco | 3 | Stopwatch Beta","name_short":"sfo-3","host":"sfo-1.us.uncletopia.com","port":27035,"enabled":true,"region":"us-west","cc":"us","latitude":37.77397,"longitude":-122.4313,"reserved":0,"last_update":"0001-01-01T00:00:00Z","name_a2s":"Uncletopia | San Francisco | 3 | Stopwatch Beta","protocol":17,"map":"pl_borneo","folder":"tf","game":"Team Fortress","app_id":440,"player_count":0,"max_players":24,"Bots":0,"server_type":"Dedicated","server_os":"Linux","password":true,"vac":true,"version":"7757534","steam_id":85568392924742824,"keywords":["nocrits","nodmgspread","payload","uncletopia"],"game_id":440,"stv_port":27036,"stv_name":"Uncletopia | San Francisco | 3 | Stopwatch Beta | STV","players":null},{"server_id":20,"name":"Uncletopia | San Francisco | 4 | Community","name_short":"sfo-4","host":"sfo-1.us.uncletopia.com","port":27045,"enabled":true,"region":"us-west","cc":"us","latitude":37.77397,"longitude":-122.4313,"reserved":0,"last_update":"0001-01-01T00:00:00Z","name_a2s":"Uncletopia | San Francisco | 4 | Community","protocol":17,"map":"workshop/cp_snowbase_b18.ugc2081770490","folder":"tf","game":"Team Fortress","app_id":440,"player_count":0,"max_players":24,"Bots":0,"server_type":"Dedicated","server_os":"Linux","password":true,"vac":true,"version":"7757534","steam_id":85568392924742826,"keywords":["cp","nocrits","nodmgspread","uncletopia"],"game_id":440,"stv_port":27046,"stv_name":"Uncletopia | San Francisco | 4 | Community | STV","players":null},{"server_id":141,"name":"Uncletopia | Sydney | 1 | All Maps","name_short":"syd-1","host":"syd-1.au.uncletopia.com","port":27015,"enabled":true,"region":"au","cc":"au","latitude":-33.865143,"longitude":151.2099,"reserved":0,"last_update":"0001-01-01T00:00:00Z","name_a2s":"Uncletopia | Sydney | 1 | All Maps","protocol":17,"map":"koth_viaduct","folder":"tf","game":"Team Fortress","app_id":440,"player_count":2,"max_players":24,"Bots":0,"server_type":"Dedicated","server_os":"Linux","password":true,"vac":true,"version":"7757534","steam_id":85568392924470001,"keywords":["cp","nocrits","nodmgspread","uncletopia"],"game_id":440,"stv_port":27016,"stv_name":"Uncletopia | Sydney | 1 | All Maps | STV","players":[{"user_id":177,"name":"Laticauda","steam_id":76561198723915967,"connected_time":1483000000000,"state":"active","ping":73},{"user_id":180,"name":"Merson","steam_id":76561198346031228,"connected_time":1462000000000,"state":"active","ping":302}]},{"server_id":123,"name":"Uncletopia | Sydney | 2 | All Maps","name_short":"syd-2","host":"syd-1.au.uncletopia.com","port":27025,"enabled":true,"region":"au","cc":"au","latitude":-33.865143,"longitude":151.2099,"reserved":0,"last_update":"0001-01-01T00:00:00Z","name_a2s":"Uncletopia | Sydney | 2 | All Maps","protocol":17,"map":"cp_snakewater_final1","folder":"tf","game":"Team Fortress","app_id":440,"player_count":11,"max_players":24,"Bots":0,"server_type":"Dedicated","server_os":"Linux","password":true,"vac":true,"version":"7757534","steam_id":85568392924470002,"keywords":["cp","nocrits","nodmgspread","uncletopia"],"game_id":440,"stv_port":27026,"stv_name":"Uncletopia | Sydney | 2 | All Maps | STV","players":[{"user_id":39,"name":"there was me, what is alex","steam_id":76561199057568663,"connected_time":774000000000,"state":"active","ping":58},{"user_id":43,"name":"lasngngna","steam_id":76561198025246698,"connected_time":588000000000,"state":"active","ping":56},{"user_id":31,"name":"APVC","steam_id":76561199090168813,"connected_time":2942000000000,"state":"active","ping":50},{"user_id":32,"name":"Flat White","steam_id":76561198410190974,"connected_time":2664000000000,"state":"active","ping":88},{"user_id":33,"name":"Mr Mahal","steam_id":76561198123234137,"connected_time":1741000000000,"state":"active","ping":56},{"user_id":34,"name":"The Sneaky Snitch","steam_id":76561199446773766,"connected_time":1729000000000,"state":"active","ping":239},{"user_id":44,"name":"SaltierThanYou","steam_id":76561198444395188,"connected_time":454000000000,"state":"active","ping":78},{"user_id":45,"name":"Sparky","steam_id":76561198117687688,"connected_time":267000000000,"state":"active","ping":63},{"user_id":42,"name":"Cicerofrypan","steam_id":76561198317860338,"connected_time":671000000000,"state":"active","ping":57},{"user_id":47,"name":"alex","steam_id":76561198053382248,"connected_time":71000000000,"state":"active","ping":38},{"user_id":48,"name":"Slippo","steam_id":76561198079649290,"connected_time":5000000000,"state":"spawning","ping":46}]},{"server_id":395,"name":"Uncletopia | Sydney | 3 | All Maps","name_short":"syd-3","host":"syd-1.au.uncletopia.com","port":27035,"enabled":true,"region":"au","cc":"au","latitude":-33.865143,"longitude":151.2099,"reserved":0,"last_update":"0001-01-01T00:00:00Z","name_a2s":"Uncletopia | Sydney | 3 | All Maps","protocol":17,"map":"pl_barnblitz","folder":"tf","game":"Team Fortress","app_id":440,"player_count":24,"max_players":24,"Bots":0,"server_type":"Dedicated","server_os":"Linux","password":true,"vac":true,"version":"7757534","steam_id":85568392925194467,"keywords":["nocrits","nodmgspread","payload","uncletopia"],"game_id":440,"stv_port":27036,"stv_name":"Uncletopia | Sydney | 3 | All Maps | STV","players":[{"user_id":234,"name":"forever broken inside","steam_id":76561198132937542,"connected_time":3045000000000,"state":"active","ping":55},{"user_id":261,"name":"Jodelkönig Franzl Lang","steam_id":76561198007667830,"connected_time":1511000000000,"state":"active","ping":58},{"user_id":222,"name":"AzureFox","steam_id":76561198108179408,"connected_time":3741000000000,"state":"active","ping":81},{"user_id":219,"name":"Phobia²","steam_id":76561198038833524,"connected_time":4054000000000,"state":"active","ping":56},{"user_id":244,"name":"yoga","steam_id":76561199163801558,"connected_time":2024000000000,"state":"active","ping":40},{"user_id":242,"name":"Distilledrain41","steam_id":76561198272717119,"connected_time":2116000000000,"state":"active","ping":48},{"user_id":235,"name":"Jyu Viole Grace","steam_id":76561198150293480,"connected_time":3008000000000,"state":"active","ping":68},{"user_id":266,"name":"seiran","steam_id":76561198880907232,"connected_time":1214000000000,"state":"active","ping":102},{"user_id":264,"name":"Bigrichard","steam_id":76561198032092945,"connected_time":1324000000000,"state":"active","ping":79},{"user_id":273,"name":"Diming","steam_id":76561198325584599,"connected_time":725000000000,"state":"active","ping":71},{"user_id":274,"name":"Grace ♥","steam_id":76561198253763381,"connected_time":718000000000,"state":"active","ping":42},{"user_id":243,"name":"FrOStY","steam_id":76561198088155805,"connected_time":2105000000000,"state":"active","ping":84},{"user_id":247,"name":"Zoey","steam_id":76561198126153554,"connected_time":1913000000000,"state":"active","ping":78},{"user_id":194,"name":"perturb","steam_id":76561198085124297,"connected_time":6023000000000,"state":"active","ping":60},{"user_id":271,"name":"Xodohtro","steam_id":76561197986660525,"connected_time":928000000000,"state":"active","ping":54},{"user_id":230,"name":"Atner","steam_id":76561198442934454,"connected_time":3435000000000,"state":"active","ping":88},{"user_id":213,"name":"shaymii","steam_id":76561198058562392,"connected_time":4480000000000,"state":"active","ping":86},{"user_id":275,"name":"Trins","steam_id":76561198040922808,"connected_time":205000000000,"state":"active","ping":61},{"user_id":253,"name":"cakey","steam_id":76561198173746761,"connected_time":1755000000000,"state":"active","ping":48},{"user_id":256,"name":"Drakeo","steam_id":76561198268859184,"connected_time":1665000000000,"state":"active","ping":176},{"user_id":272,"name":"Pokelock","steam_id":76561198160389063,"connected_time":898000000000,"state":"active","ping":111},{"user_id":259,"name":"Cogzy","steam_id":76561198012463402,"connected_time":1558000000000,"state":"active","ping":66},{"user_id":260,"name":"michael","steam_id":76561198052848358,"connected_time":1549000000000,"state":"active","ping":64},{"user_id":208,"name":"Sentry Gun (EpicGuy4227)","steam_id":76561198094132328,"connected_time":5066000000000,"state":"active","ping":67}]},{"server_id":396,"name":"Uncletopia | Sydney | 4 | All Maps","name_short":"syd-4","host":"syd-1.au.uncletopia.com","port":27045,"enabled":true,"region":"au","cc":"au","latitude":-33.865143,"longitude":151.2099,"reserved":0,"last_update":"0001-01-01T00:00:00Z","name_a2s":"Uncletopia | Sydney | 4 | All Maps","protocol":17,"map":"koth_highpass","folder":"tf","game":"Team Fortress","app_id":440,"player_count":0,"max_players":24,"Bots":0,"server_type":"Dedicated","server_os":"Linux","password":true,"vac":true,"version":"7757534","steam_id":85568392925397958,"keywords":["cp","nocrits","nodmgspread","uncletopia"],"game_id":440,"stv_port":27046,"stv_name":"Uncletopia | Sydney | 4 | All Maps | STV","players":null},{"server_id":58,"name":"Uncletopia | Sydney | 5 | Stopwatch Beta","name_short":"syd-5","host":"syd-1.au.uncletopia.com","port":27055,"enabled":true,"region":"au","cc":"au","latitude":-33.865143,"longitude":151.2099,"reserved":0,"last_update":"0001-01-01T00:00:00Z","name_a2s":"Uncletopia | Sydney | 5 | Stopwatch Beta","protocol":17,"map":"pl_upward","folder":"tf","game":"Team Fortress","app_id":440,"player_count":0,"max_players":24,"Bots":0,"server_type":"Dedicated","server_os":"Linux","password":true,"vac":true,"version":"7757534","steam_id":85568392925397959,"keywords":["nocrits","nodmgspread","payload","uncletopia"],"game_id":440,"stv_port":27056,"stv_name":"Uncletopia | Sydney | 5 | Stopwatch Beta | STV","players":null},{"server_id":59,"name":"Uncletopia | Sydney | 6 | Community","name_short":"syd-6","host":"syd-1.au.uncletopia.com","port":27065,"enabled":true,"region":"au","cc":"au","latitude":-33.865143,"longitude":151.2099,"reserved":0,"last_update":"0001-01-01T00:00:00Z","name_a2s":"Uncletopia | Sydney | 6 | Community","protocol":17,"map":"workshop/koth_ashville_final.ugc2130459942","folder":"tf","game":"Team Fortress","app_id":440,"player_count":0,"max_players":24,"Bots":0,"server_type":"Dedicated","server_os":"Linux","password":true,"vac":true,"version":"7757534","steam_id":85568392925397960,"keywords":["cp","nocrits","nodmgspread","uncletopia"],"game_id":440,"stv_port":27066,"stv_name":"Uncletopia | Sydney | 6 | Community | STV","players":null},{"server_id":49,"name":"Uncletopia | Warsaw | 1 | All Maps","name_short":"waw-1","host":"waw-1.pl.uncletopia.com","port":27015,"enabled":true,"region":"eu","cc":"pl","latitude":52.2297,"longitude":21.017532,"reserved":0,"last_update":"0001-01-01T00:00:00Z","name_a2s":"","protocol":0,"map":"","folder":"","game":"","app_id":0,"player_count":0,"max_players":0,"Bots":0,"server_type":"","server_os":"","password":false,"vac":false,"version":"","steam_id":0,"keywords":null,"game_id":0,"stv_port":0,"stv_name":"","players":null},{"server_id":50,"name":"Uncletopia | Warsaw | 2 | All Maps","name_short":"waw-2","host":"waw-1.pl.uncletopia.com","port":27025,"enabled":true,"region":"eu","cc":"pl","latitude":52.2297,"longitude":21.017532,"reserved":0,"last_update":"0001-01-01T00:00:00Z","name_a2s":"Uncletopia | Warsaw | 2 | All Maps","protocol":17,"map":"koth_viaduct","folder":"tf","game":"Team Fortress","app_id":440,"player_count":0,"max_players":24,"Bots":0,"server_type":"Dedicated","server_os":"Linux","password":true,"vac":true,"version":"7757534","steam_id":85568392925397851,"keywords":["cp","nocrits","nodmgspread","uncletopia"],"game_id":440,"stv_port":27026,"stv_name":"Uncletopia | Warsaw | 2 | All Maps | STV","players":null},{"server_id":51,"name":"Uncletopia | Warsaw | 3 | All Maps","name_short":"waw-3","host":"waw-1.pl.uncletopia.com","port":27035,"enabled":true,"region":"eu","cc":"pl","latitude":52.2297,"longitude":21.017532,"reserved":0,"last_update":"0001-01-01T00:00:00Z","name_a2s":"Uncletopia | Warsaw | 3 | All Maps","protocol":17,"map":"pl_badwater","folder":"tf","game":"Team Fortress","app_id":440,"player_count":0,"max_players":24,"Bots":0,"server_type":"Dedicated","server_os":"Linux","password":true,"vac":true,"version":"7757534","steam_id":85568392925397852,"keywords":["nocrits","nodmgspread","payload","uncletopia"],"game_id":440,"stv_port":27036,"stv_name":"Uncletopia | Warsaw | 3 | All Maps | STV","players":null},{"server_id":52,"name":"Uncletopia | Warsaw | 4 | All Maps","name_short":"waw-4","host":"waw-1.pl.uncletopia.com","port":27045,"enabled":true,"region":"eu","cc":"pl","latitude":52.2297,"longitude":21.017532,"reserved":0,"last_update":"0001-01-01T00:00:00Z","name_a2s":"Uncletopia | Warsaw | 4 | All Maps","protocol":17,"map":"koth_lakeside_final","folder":"tf","game":"Team Fortress","app_id":440,"player_count":0,"max_players":24,"Bots":0,"server_type":"Dedicated","server_os":"Linux","password":true,"vac":true,"version":"7757534","steam_id":85568392925397853,"keywords":["cp","nocrits","nodmgspread","uncletopia"],"game_id":440,"stv_port":27046,"stv_name":"Uncletopia | Warsaw | 4 | All Maps | STV","players":null},{"server_id":53,"name":"Uncletopia | Warsaw | 5 | Stopwatch Beta","name_short":"waw-5","host":"waw-1.pl.uncletopia.com","port":27055,"enabled":true,"region":"eu","cc":"pl","latitude":52.2297,"longitude":21.017532,"reserved":0,"last_update":"0001-01-01T00:00:00Z","name_a2s":"Uncletopia | Warsaw | 5 | Stopwatch Beta","protocol":17,"map":"pl_borneo","folder":"tf","game":"Team Fortress","app_id":440,"player_count":0,"max_players":24,"Bots":0,"server_type":"Dedicated","server_os":"Linux","password":true,"vac":true,"version":"7757534","steam_id":85568392925397854,"keywords":["nocrits","nodmgspread","payload","uncletopia"],"game_id":440,"stv_port":27056,"stv_name":"Uncletopia | Warsaw | 5 | Stopwatch Beta | STV","players":null},{"server_id":54,"name":"Uncletopia | Warsaw | 6 | Community","name_short":"waw-6","host":"waw-1.pl.uncletopia.com","port":27065,"enabled":true,"region":"eu","cc":"pl","latitude":52.2297,"longitude":21.017532,"reserved":0,"last_update":"0001-01-01T00:00:00Z","name_a2s":"Uncletopia | Warsaw | 6 | Community","protocol":17,"map":"koth_lakeside_final","folder":"tf","game":"Team Fortress","app_id":440,"player_count":0,"max_players":24,"Bots":0,"server_type":"Dedicated","server_os":"Linux","password":true,"vac":true,"version":"7757534","steam_id":85568392925397856,"keywords":["cp","nocrits","nodmgspread","uncletopia"],"game_id":440,"stv_port":27066,"stv_name":"Uncletopia | Warsaw | 6 | Community | STV","players":null}]}