{"status":true,"message":"","result":[{"server_id":9,"name":"Uncletopia | Atlanta | 1 | All Maps","name_short":"atl-1","host":"atl-1.us.uncletopia.com","port":27015,"enabled":true,"region":"us-east","cc":"us","latitude":33.753746,"longitude":-84.38633,"reserved":0,"last_update":"0001-01-01T00:00:00Z","name_a2s":"Uncletopia | Atlanta | 1 | All Maps","protocol":17,"map":"pl_frontier_final","folder":"tf","game":"Team Fortress","app_id":440,"player_count":6,"max_players":24,"Bots":0,"server_type":"Dedicated","server_os":"Linux","password":true,"vac":true,"version":"7882260","steam_id":85568392924469982,"keywords":["nocrits","nodmgspread","payload","uncletopia"],"game_id":440,"stv_port":27016,"stv_name":"Uncletopia | Atlanta | 1 | All Maps | STV","players":[{"user_id":216,"name":"Kid named nuclear bomb","steam_id":76561199485140595,"connected_time":114000000000,"state":"active","ping":246},{"user_id":209,"name":"KBoneski ♡","steam_id":76561198307409065,"connected_time":1364000000000,"state":"active","ping":93},{"user_id":197,"name":"TheCrimeSkeleton","steam_id":76561198339067349,"connected_time":2665000000000,"state":"active","ping":125},{"user_id":213,"name":"souljaboytellem.com","steam_id":76561198111975583,"connected_time":708000000000,"state":"active","ping":61},{"user_id":32,"name":"eish","steam_id":76561198089463603,"connected_time":15021000000000,"state":"active","ping":113},{"user_id":214,"name":"richarven","steam_id":76561198189429665,"connected_time":703000000000,"state":"active","ping":57}]},{"server_id":104,"name":"Uncletopia | Atlanta | 2 | All Maps","name_short":"atl-2","host":"atl-1.us.uncletopia.com","port":27025,"enabled":true,"region":"us-east","cc":"us","latitude":33.753746,"longitude":-84.38633,"reserved":0,"last_update":"0001-01-01T00:00:00Z","name_a2s":"Uncletopia | Atlanta | 2 | All Maps","protocol":17,"map":"koth_nucleus","folder":"tf","game":"Team Fortress","app_id":440,"player_count":0,"max_players":24,"Bots":0,"server_type":"Dedicated","server_os":"Linux","password":true,"vac":true,"version":"7882260","steam_id":85568392924469983,"keywords":["cp","nocrits","nodmgspread","uncletopia"],"game_id":440,"stv_port":27026,"stv_name":"Uncletopia | Atlanta | 2 | All Maps | STV","players":null},{"server_id":400,"name":"Uncletopia | Atlanta | 3 | Community","name_short":"atl-3","host":"atl-1.us.uncletopia.com","port":27035,"enabled":true,"region":"us-east","cc":"us","latitude":33.753746,"longitude":-84.38633,"reserved":0,"last_update":"0001-01-01T00:00:00Z","name_a2s":"Uncletopia | Atlanta | 3 | Community","protocol":17,"map":"workshop/cp_bruhstbowl_b5.ugc2878604990","folder":"tf","game":"Team Fortress","app_id":440,"player_count":0,"max_players":24,"Bots":0,"server_type":"Dedicated","server_os":"Linux","password":true,"vac":true,"version":"7882260","steam_id":85568392924515187,"keywords":["cp","nocrits","nodmgspread","uncletopia"],"game_id":440,"stv_port":27036,"stv_name":"Uncletopia | Atlanta | 3 | Community | STV","players":null},{"server_id":401,"name":"Uncletopia | Atlanta | 4 | No Payload","name_short":"atl-4","host":"atl-1.us.uncletopia.com","port":27045,"enabled":true,"region":"us-east","cc":"us","latitude":33.753746,"longitude":-84.38633,"reserved":0,"last_update":"0001-01-01T00:00:00Z","name_a2s":"","protocol":0,"map":"","folder":"","game":"","app_id":0,"player_count":0,"max_players":0,"Bots":0,"server_type":"","server_os":"","password":false,"vac":false,"version":"","steam_id":0,"keywords":null,"game_id":0,"stv_port":0,"stv_name":"","players":null},{"server_id":2,"name":"Uncletopia | Chicago | 1 | All Maps","name_short":"chi-1","host":"chi-1.us.uncletopia.com","port":27015,"enabled":true,"region":"us-central","cc":"us","latitude":41.881832,"longitude":-87.62318,"reserved":0,"last_update":"0001-01-01T00:00:00Z","name_a2s":"Uncletopia | Chicago | 1 | All Maps","protocol":17,"map":"koth_highpass","folder":"tf","game":"Team Fortress","app_id":440,"player_count":0,"max_players":24,"Bots":0,"server_type":"Dedicated","server_os":"Linux","password":true,"vac":true,"version":"7882260","steam_id":85568392924469984,"keywords":["cp","nocrits","nodmgspread","uncletopia"],"game_id":440,"stv_port":27016,"stv_name":"Uncletopia | Chicago | 1 | All Maps | STV","players":null},{"server_id":106,"name":"Uncletopia | Chicago | 2 | All Maps","name_short":"chi-2","host":"chi-1.us.uncletopia.com","port":27025,"enabled":true,"region":"us-central","cc":"us","latitude":41.881832,"longitude":-87.62318,"reserved":0,"last_update":"0001-01-01T00:00:00Z","name_a2s":"Uncletopia | Chicago | 2 | All Maps","protocol":17,"map":"pl_frontier_final","folder":"tf","game":"Team Fortress","app_id":440,"player_count":18,"max_players":24,"Bots":0,"server_type":"Dedicated","server_os":"Linux","password":true,"vac":true,"version":"7882260","steam_id":85568392924469985,"keywords":["nocrits","nodmgspread","payload","uncletopia"],"game_id":440,"stv_port":27026,"stv_name":"Uncletopia | Chicago | 2 | All Maps | STV","players":[{"user_id":225,"name":"Core Dump:DHC:","steam_id":76561197969394177,"connected_time":1116000000000,"state":"active","ping":75},{"user_id":175,"name":"Dr. Egon Spengler:DHC:","steam_id":76561198073199109,"connected_time":4491000000000,"state":"active","ping":96},{"user_id":187,"name":"Jimjonjoe","steam_id":76561199195695913,"connected_time":3744000000000,"state":"active","ping":77},{"user_id":219,"name":"spirit","steam_id":76561198102040731,"connected_time":1691000000000,"state":"active","ping":52},{"user_id":235,"name":"McDonald's Hashbrown at 4am","steam_id":76561198273769337,"connected_time":553000000000,"state":"active","ping":62},{"user_id":212,"name":"NoodlePup :D","steam_id":76561198184510919,"connected_time":1811000000000,"state":"active","ping":75},{"user_id":232,"name":"jt","steam_id":76561198059575962,"connected_time":729000000000,"state":"active","ping":54},{"user_id":239,"name":"mEch114","steam_id":76561198236936060,"connected_time":134000000000,"state":"active","ping":64},{"user_id":177,"name":"Surfing Garchomp","steam_id":76561199107236884,"connected_time":4451000000000,"state":"active","ping":102},{"user_id":233,"name":"frog from pond","steam_id":76561198184900753,"connected_time":697000000000,"state":"active","ping":53},{"user_id":200,"name":"Kaywan","steam_id":76561198068271015,"connected_time":2911000000000,"state":"active","ping":81},{"user_id":226,"name":"Blade","steam_id":76561198153163098,"connected_time":1107000000000,"state":"active","ping":78},{"user_id":236,"name":"bobo","steam_id":76561198123287268,"connected_time":539000000000,"state":"active","ping":45},{"user_id":216,"name":"King Of Kings","steam_id":76561199224534493,"connected_time":1751000000000,"state":"active","ping":77},{"user_id":237,"name":"chicago grim reaper","steam_id":76561198126358045,"connected_time":400000000000,"state":"active","ping":64},{"user_id":208,"name":"ae","steam_id":76561198185490827,"connected_time":2474000000000,"state":"active","ping":87},{"user_id":218,"name":"The Horselords and Animal Gods","steam_id":76561197975094050,"connected_time":1739000000000,"state":"active","ping":113},{"user_id":221,"name":"cal","steam_id":76561198067015101,"connected_time":1647000000000,"state":"active","ping":84}]},{"server_id":402,"name":"Uncletopia | Chicago | 3 | All Maps","name_short":"chi-3","host":"chi-1.us.uncletopia.com","port":27035,"enabled":true,"region":"us-central","cc":"us","latitude":41.881832,"longitude":-87.62318,"reserved":0,"last_update":"0001-01-01T00:00:00Z","name_a2s":"Uncletopia | Chicago | 3 | All Maps","protocol":17,"map":"pl_borneo","folder":"tf","game":"Team Fortress","app_id":440,"player_count":17,"max_players":24,"Bots":0,"server_type":"Dedicated","server_os":"Linux","password":true,"vac":true,"version":"7882260","steam_id":85568392924515191,"keywords":["nocrits","nodmgspread","payload","uncletopia"],"game_id":440,"stv_port":27036,"stv_name":"Uncletopia | Chicago | 3 | All Maps | STV","players":[{"user_id":253,"name":"RatLord69","steam_id":76561199116799872,"connected_time":184000000000,"state":"active","ping":101},{"user_id":225,"name":"SaucySandwichKid","steam_id":76561199372590934,"connected_time":1724000000000,"state":"active","ping":141},{"user_id":182,"name":"dyyd7706","steam_id":76561199230461523,"connected_time":4726000000000,"state":"active","ping":75},{"user_id":233,"name":"Tommy Provolone's #1 Fan","steam_id":76561198358974675,"connected_time":1221000000000,"state":"active","ping":79},{"user_id":249,"name":"Nice \u003e:]","steam_id":76561198297163650,"connected_time":383000000000,"state":"active","ping":63},{"user_id":236,"name":"wise","steam_id":76561198030066204,"connected_time":1126000000000,"state":"active","ping":45},{"user_id":250,"name":"Tony hawks pro skater 2 dlc","steam_id":76561198243387974,"connected_time":286000000000,"state":"active","ping":69},{"user_id":251,"name":"Lore","steam_id":76561198098407538,"connected_time":271000000000,"state":"active","ping":45},{"user_id":254,"name":"Shek240pEspanol","steam_id":76561198329104604,"connected_time":171000000000,"state":"active","ping":73},{"user_id":215,"name":"TÖZI","steam_id":76561198045268695,"connected_time":2170000000000,"state":"active","ping":83},{"user_id":242,"name":"STILLZ","steam_id":76561198131892406,"connected_time":782000000000,"state":"active","ping":80},{"user_id":252,"name":"Preston","steam_id":76561198036177781,"connected_time":258000000000,"state":"active","ping":64},{"user_id":241,"name":"Trippy","steam_id":76561199090730294,"connected_time":970000000000,"state":"active","ping":56},{"user_id":235,"name":"JelloIsOkay","steam_id":76561198275804463,"connected_time":1166000000000,"state":"active","ping":74},{"user_id":256,"name":"AlmondMilk","steam_id":76561198151229725,"connected_time":76000000000,"state":"active","ping":52},{"user_id":234,"name":"Lex","steam_id":76561198069948353,"connected_time":1195000000000,"state":"active","ping":156},{"user_id":223,"name":"ContinuedBear","steam_id":76561198265176919,"connected_time":1759000000000,"state":"active","ping":60}]},{"server_id":403,"name":"Uncletopia | Chicago | 4 | All Maps","name_short":"chi-4","host":"chi-1.us.uncletopia.com","port":27045,"enabled":true,"region":"us-central","cc":"us","latitude":41.881832,"longitude":-87.62318,"reserved":0,"last_update":"0001-01-01T00:00:00Z","name_a2s":"Uncletopia | Chicago | 4 | All Maps","protocol":17,"map":"koth_viaduct","folder":"tf","game":"Team Fortress","app_id":440,"player_count":0,"max_players":24,"Bots":0,"server_type":"Dedicated","server_os":"Linux","password":true,"vac":true,"version":"7882260","steam_id":85568392924515193,"keywords":["cp","nocrits","nodmgspread","uncletopia"],"game_id":440,"stv_port":27046,"stv_name":"Uncletopia | Chicago | 4 | All Maps | STV","players":null},{"server_id":36,"name":"Uncletopia | Chicago | 5 | All Maps","name_short":"chi-5","host":"chi-2.us.uncletopia.com","port":27015,"enabled":true,"region":"us-central","cc":"us","latitude":41.881832,"longitude":-87.62318,"reserved":0,"last_update":"0001-01-01T00:00:00Z","name_a2s":"Uncletopia | Chicago | 5 | All Maps","protocol":17,"map":"koth_highpass","folder":"tf","game":"Team Fortress","app_id":440,"player_count":0,"max_players":24,"Bots":0,"server_type":"Dedicated","server_os":"Linux","password":true,"vac":true,"version":"7882260","steam_id":85568392924866362,"keywords":["cp","nocrits","nodmgspread","uncletopia"],"game_id":440,"stv_port":27016,"stv_name":"Uncletopia | Chicago | 5 | All Maps | STV","players":null},{"server_id":37,"name":"Uncletopia | Chicago | 6 | All Maps","name_short":"chi-6","host":"chi-2.us.uncletopia.com","port":27025,"enabled":true,"region":"us-central","cc":"us","latitude":41.881832,"longitude":-87.62318,"reserved":0,"last_update":"0001-01-01T00:00:00Z","name_a2s":"Uncletopia | Chicago | 6 | All Maps","protocol":17,"map":"pl_frontier_final","folder":"tf","game":"Team Fortress","app_id":440,"player_count":23,"max_players":24,"Bots":0,"server_type":"Dedicated","server_os":"Linux","password":true,"vac":true,"version":"7882260","steam_id":85568392924866363,"keywords":["nocrits","nodmgspread","payload","uncletopia"],"game_id":440,"stv_port":27026,"stv_name":"Uncletopia | Chicago | 6 | All Maps | STV","players":[{"user_id":169,"name":"seldom","steam_id":76561198166193756,"connected_time":5213000000000,"state":"active","ping":51},{"user_id":221,"name":"[DEEP] Danmar33","steam_id":76561198056453091,"connected_time":1324000000000,"state":"active","ping":45},{"user_id":144,"name":"JiffyJelly","steam_id":76561198407800887,"connected_time":6094000000000,"state":"active","ping":74},{"user_id":222,"name":"Witchings","steam_id":76561198247431254,"connected_time":1168000000000,"state":"active","ping":53},{"user_id":212,"name":"TheXenoKing","steam_id":76561198127424141,"connected_time":2303000000000,"state":"active","ping":95},{"user_id":215,"name":"The Rabbi","steam_id":76561198047999337,"connected_time":1576000000000,"state":"active","ping":58},{"user_id":148,"name":"floofy","steam_id":76561198389769098,"connected_time":5862000000000,"state":"active","ping":75},{"user_id":183,"name":"GruntRule","steam_id":76561198039987143,"connected_time":4202000000000,"state":"active","ping":83},{"user_id":149,"name":"Greasy Garmadon","steam_id":76561198142416272,"connected_time":5854000000000,"state":"active","ping":66},{"user_id":150,"name":"fruit brute fiend","steam_id":76561198811500361,"connected_time":5826000000000,"state":"active","ping":98},{"user_id":228,"name":"Khaiden","steam_id":76561198104454754,"connected_time":300000000000,"state":"active","ping":171},{"user_id":217,"name":"frank","steam_id":76561198137777483,"connected_time":1493000000000,"state":"active","ping":68},{"user_id":223,"name":"squiddy101","steam_id":76561198210199168,"connected_time":1128000000000,"state":"active","ping":92},{"user_id":213,"name":"Grand Wizard Autismo","steam_id":76561198069834979,"connected_time":2202000000000,"state":"active","ping":65},{"user_id":197,"name":"AeroFortune","steam_id":76561198204736219,"connected_time":2973000000000,"state":"active","ping":120},{"user_id":186,"name":"Elon Tusk","steam_id":76561198977359400,"connected_time":4069000000000,"state":"active","ping":72},{"user_id":227,"name":"e","steam_id":76561198137759797,"connected_time":537000000000,"state":"active","ping":120},{"user_id":225,"name":"Mitsubishi Materials","steam_id":76561198151871198,"connected_time":1073000000000,"state":"active","ping":57},{"user_id":218,"name":"Joey Diaz","steam_id":76561198194796010,"connected_time":1451000000000,"state":"active","ping":88},{"user_id":210,"name":"thorn648","steam_id":76561198012565777,"connected_time":2426000000000,"state":"active","ping":67},{"user_id":219,"name":"Specter the Unchained","steam_id":76561198348354629,"connected_time":1443000000000,"state":"active","ping":94},{"user_id":226,"name":"SharpshooterMM3","steam_id":76561198252175282,"connected_time":814000000000,"state":"active","ping":82},{"user_id":165,"name":"LerN","steam_id":76561198083463877,"connected_time":5365000000000,"state":"active","ping":59}]},{"server_id":38,"name":"Uncletopia | Chicago | 7 | Stopwatch Beta","name_short":"chi-7","host":"chi-2.us.uncletopia.com","port":27035,"enabled":true,"region":"us-central","cc":"us","latitude":41.881832,"longitude":-87.62318,"reserved":0,"last_update":"0001-01-01T00:00:00Z","name_a2s":"Uncletopia | Chicago | 7 | Stopwatch Beta","protocol":17,"map":"pl_upward","folder":"tf","game":"Team Fortress","app_id":440,"player_count":0,"max_players":24,"Bots":0,"server_type":"Dedicated","server_os":"Linux","password":true,"vac":true,"version":"7882260","steam_id":85568392924866364,"keywords":["nocrits","nodmgspread","payload","uncletopia"],"game_id":440,"stv_port":27036,"stv_name":"Uncletopia | Chicago | 7 | Stopwatch Beta | STV","players":null},{"server_id":39,"name":"Uncletopia | Chicago | 8 | Community","name_short":"chi-8","host":"chi-2.us.uncletopia.com","port":27045,"enabled":true,"region":"us-central","cc":"us","latitude":41.881832,"longitude":-87.62318,"reserved":0,"last_update":"0001-01-01T00:00:00Z","name_a2s":"Uncletopia | Chicago | 8 | Community","protocol":17,"map":"workshop/gg_dust2_dmvm.ugc2942103642","folder":"tf","game":"Team Fortress","app_id":440,"player_count":0,"max_players":24,"Bots":0,"server_type":"Dedicated","server_os":"Linux","password":true,"vac":true,"version":"7882260","steam_id":85568392924866365,"keywords":["friendlyfire","nocrits","nodmgspread","norespawntime","uncletopia"],"game_id":440,"stv_port":27046,"stv_name":"Uncletopia | Chicago | 8 | Community | STV","players":null},{"server_id":8,"name":"Uncletopia | Dallas | 1 | All Maps","name_short":"dal-1","host":"dal-1.us.uncletopia.com","port":27015,"enabled":true,"region":"us-central","cc":"us","latitude":32.779167,"longitude":-96.80889,"reserved":0,"last_update":"0001-01-01T00:00:00Z","name_a2s":"Uncletopia | Dallas | 1 | All Maps","protocol":17,"map":"pl_badwater","folder":"tf","game":"Team Fortress","app_id":440,"player_count":12,"max_players":24,"Bots":0,"server_type":"Dedicated","server_os":"Linux","password":true,"vac":true,"version":"7882260","steam_id":85568392924469986,"keywords":["nocrits","nodmgspread","payload","uncletopia"],"game_id":440,"stv_port":27016,"stv_name":"Uncletopia | Dallas | 1 | All Maps | STV","players":[{"user_id":230,"name":"can","steam_id":76561198090531755,"connected_time":322000000000,"state":"active","ping":35},{"user_id":229,"name":"worst tf2 player ever","steam_id":76561198330205913,"connected_time":433000000000,"state":"active","ping":89},{"user_id":231,"name":"woot ivan","steam_id":76561198339929050,"connected_time":219000000000,"state":"active","ping":74},{"user_id":232,"name":"Gelliterate","steam_id":76561198107233070,"connected_time":192000000000,"state":"active","ping":47},{"user_id":10,"name":"Pizza","steam_id":76561198118748364,"connected_time":16420000000000,"state":"active","ping":71},{"user_id":225,"name":"Guardians","steam_id":76561198803811910,"connected_time":1155000000000,"state":"active","ping":38},{"user_id":216,"name":"C∅RVUS","steam_id":76561198100640019,"connected_time":2699000000000,"state":"active","ping":100},{"user_id":221,"name":"MasterGeek.MX","steam_id":76561198063355220,"connected_time":1641000000000,"state":"active","ping":89},{"user_id":207,"name":"LederBoy","steam_id":76561198051822369,"connected_time":3306000000000,"state":"active","ping":71},{"user_id":45,"name":"Grimm","steam_id":76561199242664677,"connected_time":14895000000000,"state":"active","ping":57},{"user_id":224,"name":"Xeno808","steam_id":76561198103758081,"connected_time":1397000000000,"state":"active","ping":36},{"user_id":33,"name":"Makina","steam_id":76561198057475567,"connected_time":15965000000000,"state":"active","ping":95}]},{"server_id":108,"name":"Uncletopia | Dallas | 2 | All Maps","name_short":"dal-2","host":"dal-1.us.uncletopia.com","port":27025,"enabled":true,"region":"us-central","cc":"us","latitude":32.779167,"longitude":-96.80889,"reserved":0,"last_update":"0001-01-01T00:00:00Z","name_a2s":"Uncletopia | Dallas | 2 | All Maps","protocol":17,"map":"pl_badwater","folder":"tf","game":"Team Fortress","app_id":440,"player_count":23,"max_players":24,"Bots":0,"server_type":"Dedicated","server_os":"Linux","password":true,"vac":true,"version":"7882260","steam_id":85568392924469988,"keywords":["nocrits","nodmgspread","payload","uncletopia"],"game_id":440,"stv_port":27026,"stv_name":"Uncletopia | Dallas | 2 | All Maps | STV","players":[{"user_id":248,"name":"Benwyatt88","steam_id":76561198823755174,"connected_time":1556000000000,"state":"active","ping":72},{"user_id":239,"name":"M4tT","steam_id":76561198118764868,"connected_time":2136000000000,"state":"active","ping":63},{"user_id":254,"name":"YASAI JUICE","steam_id":76561198131971992,"connected_time":794000000000,"state":"active","ping":43},{"user_id":259,"name":"the tf2 player of all time","steam_id":76561198881665250,"connected_time":103000000000,"state":"active","ping":98},{"user_id":240,"name":"avant","steam_id":76561198104921055,"connected_time":2112000000000,"state":"active","ping":91},{"user_id":163,"name":"Snoopy","steam_id":76561198273735974,"connected_time":6896000000000,"state":"active","ping":74},{"user_id":263,"name":"Gek Ambassador","steam_id":76561199080135821,"connected_time":62000000000,"state":"active","ping":67},{"user_id":260,"name":"kill me","steam_id":76561198405745855,"connected_time":99000000000,"state":"active","ping":125},{"user_id":243,"name":"Debiru","steam_id":76561198044924051,"connected_time":1939000000000,"state":"active","ping":73},{"user_id":188,"name":"quek","steam_id":76561198181048813,"connected_time":5613000000000,"state":"active","ping":86},{"user_id":220,"name":"CHIKN","steam_id":76561198277792665,"connected_time":2933000000000,"state":"active","ping":76},{"user_id":262,"name":"plink","steam_id":76561198057829889,"connected_time":66000000000,"state":"spawning","ping":55},{"user_id":250,"name":"An Unhappy Clown","steam_id":76561198175516514,"connected_time":945000000000,"state":"active","ping":46},{"user_id":264,"name":"TheDieeg","steam_id":76561199443116996,"connected_time":55000000000,"state":"active","ping":76},{"user_id":249,"name":"josh","steam_id":76561198077902438,"connected_time":1022000000000,"state":"active","ping":74},{"user_id":206,"name":"Riff III","steam_id":76561198066921423,"connected_time":3833000000000,"state":"active","ping":59},{"user_id":229,"name":"dang it/darn it/crap","steam_id":76561198204593875,"connected_time":2619000000000,"state":"active","ping":60},{"user_id":256,"name":"Spritz?","steam_id":76561198095118798,"connected_time":584000000000,"state":"active","ping":89},{"user_id":258,"name":"InstaGator","steam_id":76561198352485923,"connected_time":142000000000,"state":"active","ping":57},{"user_id":265,"name":"harlowng","steam_id":76561198060542928,"connected_time":14000000000,"state":"spawning","ping":92},{"user_id":235,"name":"2 for $3.50 McChickens","steam_id":76561198089908660,"connected_time":2338000000000,"state":"active","ping":61},{"user_id":236,"name":"Blows","steam_id":76561198065349185,"connected_time":2333000000000,"state":"active","ping":79},{"user_id":246,"name":"Julian++","steam_id":76561198334000653,"connected_time":1854000000000,"state":"active","ping":43}]},{"server_id":5,"name":"Uncletopia | Frankfurt | 1 | All Maps","name_short":"frk-1","host":"frk-1.de.uncletopia.com","port":27015,"enabled":true,"region":"eu","cc":"de","latitude":50.110924,"longitude":8.682127,"reserved":0,"last_update":"0001-01-01T00:00:00Z","name_a2s":"Uncletopia | Frankfurt | 1 | All Maps","protocol":17,"map":"pl_snowycoast","folder":"tf","game":"Team Fortress","app_id":440,"player_count":0,"max_players":24,"Bots":0,"server_type":"Dedicated","server_os":"Linux","password":true,"vac":true,"version":"7882260","steam_id":85568392924469989,"keywords":["nocrits","nodmgspread","payload","uncletopia"],"game_id":440,"stv_port":27016,"stv_name":"Uncletopia | Frankfurt | 1 | All Maps | STV","players":null},{"server_id":110,"name":"Uncletopia | Frankfurt | 2 | All Maps","name_short":"frk-2","host":"frk-1.de.uncletopia.com","port":27025,"enabled":true,"region":"eu","cc":"de","latitude":50.110924,"longitude":8.682127,"reserved":0,"last_update":"0001-01-01T00:00:00Z","name_a2s":"Uncletopia | Frankfurt | 2 | All Maps","protocol":17,"map":"pl_upward","folder":"tf","game":"Team Fortress","app_id":440,"player_count":0,"max_players":24,"Bots":0,"server_type":"Dedicated","server_os":"Linux","password":true,"vac":true,"version":"7882260","steam_id":85568392924469990,"keywords":["nocrits","nodmgspread","payload","uncletopia"],"game_id":440,"stv_port":27026,"stv_name":"Uncletopia | Frankfurt | 2 | All Maps | STV","players":null},{"server_id":308,"name":"Uncletopia | Frankfurt | 3 | All Maps","name_short":"frk-3","host":"frk-1.de.uncletopia.com","port":27035,"enabled":true,"region":"eu","cc":"de","latitude":50.110924,"longitude":8.682127,"reserved":0,"last_update":"0001-01-01T00:00:00Z","name_a2s":"Uncletopia | Frankfurt | 3 | All Maps","protocol":17,"map":"pl_borneo","folder":"tf","game":"Team Fortress","app_id":440,"player_count":0,"max_players":24,"Bots":0,"server_type":"Dedicated","server_os":"Linux","password":true,"vac":true,"version":"7882260","steam_id":85568392924504274,"keywords":["nocrits","nodmgspread","payload","uncletopia"],"game_id":440,"stv_port":27036,"stv_name":"Uncletopia | Frankfurt | 3 | All Maps | STV","players":null},{"server_id":309,"name":"Uncletopia | Frankfurt | 4 | All Maps","name_short":"frk-4","host":"frk-1.de.uncletopia.com","port":27045,"enabled":true,"region":"eu","cc":"de","latitude":50.110924,"longitude":8.682127,"reserved":0,"last_update":"0001-01-01T00:00:00Z","name_a2s":"Uncletopia | Frankfurt | 4 | All Maps","protocol":17,"map":"pl_swiftwater_final1","folder":"tf","game":"Team Fortress","app_id":440,"player_count":0,"max_players":24,"Bots":0,"server_type":"Dedicated","server_os":"Linux","password":true,"vac":true,"version":"7882260","steam_id":85568392924504275,"keywords":["nocrits","nodmgspread","payload","uncletopia"],"game_id":440,"stv_port":27046,"stv_name":"Uncletopia | Frankfurt | 4 | All Maps | STV","players":null},{"server_id":310,"name":"Uncletopia | Frankfurt | 5 | All Maps","name_short":"frk-5","host":"frk-1.de.uncletopia.com","port":27055,"enabled":true,"region":"eu","cc":"de","latitude":50.110924,"longitude":8.682127,"reserved":0,"last_update":"0001-01-01T00:00:00Z","name_a2s":"Uncletopia | Frankfurt | 5 | All Maps","protocol":17,"map":"pl_borneo","folder":"tf","game":"Team Fortress","app_id":440,"player_count":0,"max_players":24,"Bots":0,"server_type":"Dedicated","server_os":"Linux","password":true,"vac":true,"version":"7882260","steam_id":85568392924504277,"keywords":["nocrits","nodmgspread","payload","uncletopia"],"game_id":440,"stv_port":27056,"stv_name":"Uncletopia | Frankfurt | 5 | All Maps | STV","players":null},{"server_id":311,"name":"Uncletopia | Frankfurt | 6 | All Maps","name_short":"frk-6","host":"frk-1.de.uncletopia.com","port":27065,"enabled":true,"region":"eu","cc":"de","latitude":50.110924,"longitude":8.682127,"reserved":0,"last_update":"0001-01-01T00:00:00Z","name_a2s":"Uncletopia | Frankfurt | 6 | All Maps","protocol":17,"map":"cp_snakewater_final1","folder":"tf","game":"Team Fortress","app_id":440,"player_count":0,"max_players":24,"Bots":0,"server_type":"Dedicated","server_os":"Linux","password":true,"vac":true,"version":"7882260","steam_id":85568392924504278,"keywords":["cp","nocrits","nodmgspread","uncletopia"],"game_id":440,"stv_port":27066,"stv_name":"Uncletopia | Frankfurt | 6 | All Maps | STV","players":null},{"server_id":23,"name":"Uncletopia | Frankfurt | 7 | Stopwatch Beta","name_short":"frk-7","host":"frk-1.de.uncletopia.com","port":27075,"enabled":true,"region":"eu","cc":"de","latitude":50.110924,"longitude":8.682127,"reserved":0,"last_update":"0001-01-01T00:00:00Z","name_a2s":"Uncletopia | Frankfurt | 7 | Stopwatch Beta","protocol":17,"map":"cp_snakewater_final1","folder":"tf","game":"Team Fortress","app_id":440,"player_count":0,"max_players":24,"Bots":0,"server_type":"Dedicated","server_os":"Linux","password":true,"vac":true,"version":"7882260","steam_id":85568392924742827,"keywords":["cp","nocrits","nodmgspread","uncletopia"],"game_id":440,"stv_port":27076,"stv_name":"Uncletopia | Frankfurt | 7 | Stopwatch Beta | STV","players":null},{"server_id":24,"name":"Uncletopia | Frankfurt | 8 | Community","name_short":"frk-8","host":"frk-1.de.uncletopia.com","port":27085,"enabled":true,"region":"eu","cc":"de","latitude":50.110924,"longitude":8.682127,"reserved":0,"last_update":"0001-01-01T00:00:00Z","name_a2s":"Uncletopia | Frankfurt | 8 | Community","protocol":17,"map":"cp_mountainlab","folder":"tf","game":"Team Fortress","app_id":440,"player_count":0,"max_players":24,"Bots":0,"server_type":"Dedicated","server_os":"Linux","password":true,"vac":true,"version":"7882260","steam_id":85568392924742828,"keywords":["cp","nocrits","nodmgspread","uncletopia"],"game_id":440,"stv_port":27086,"stv_name":"Uncletopia | Frankfurt | 8 | Community | STV","players":null},{"server_id":202,"name":"Uncletopia | Hong Kong | 1 | All Maps","name_short":"hgk-1","host":"hgk-1.hk.uncletopia.com","port":27015,"enabled":true,"region":"asia","cc":"hk","latitude":22.302711,"longitude":114.177216,"reserved":0,"last_update":"0001-01-01T00:00:00Z","name_a2s":"Uncletopia | Hong Kong | 1 | All Maps","protocol":17,"map":"cp_snakewater_final1","folder":"tf","game":"Team Fortress","app_id":440,"player_count":10,"max_players":24,"Bots":0,"server_type":"Dedicated","server_os":"Linux","password":true,"vac":true,"version":"7882260","steam_id":85568392924494504,"keywords":["cp","nocrits","nodmgspread","uncletopia"],"game_id":440,"stv_port":27016,"stv_name":"Uncletopia | Hong Kong | 1 | All Maps | STV","players":[{"user_id":30,"name":"BAD PYRO PLAYER","steam_id":76561198074339034,"connected_time":2460000000000,"state":"active","ping":75},{"user_id":31,"name":"Dr. Piss Rat","steam_id":76561199074809838,"connected_time":2440000000000,"state":"active","ping":68},{"user_id":41,"name":"eekynetwo(F2P Piss Sniper)","steam_id":76561198990017441,"connected_time":1413000000000,"state":"active","ping":88},{"user_id":37,"name":"coakDeLera","steam_id":76561199262817512,"connected_time":1592000000000,"state":"active","ping":97},{"user_id":21,"name":"broccoli","steam_id":76561198838171912,"connected_time":3516000000000,"state":"active","ping":87},{"user_id":39,"name":"cstr","steam_id":76561198125946388,"connected_time":1478000000000,"state":"active","ping":98},{"user_id":27,"name":"Chomer","steam_id":76561199034546642,"connected_time":2923000000000,"state":"active","ping":105},{"user_id":26,"name":"im_0ff","steam_id":76561198339346695,"connected_time":3204000000000,"state":"active","ping":116},{"user_id":33,"name":"プロゲーマー","steam_id":76561199017344476,"connected_time":2212000000000,"state":"active","ping":79},{"user_id":47,"name":"Luzyyss","steam_id":76561198320532821,"connected_time":993000000000,"state":"active","ping":61}]},{"server_id":1,"name":"Uncletopia | Los Angeles | 1 | All Maps","name_short":"lax-1","host":"lax-1.us.uncletopia.com","port":27015,"enabled":true,"region":"us-west","cc":"us","latitude":33.94279,"longitude":-118.41004,"reserved":0,"last_update":"0001-01-01T00:00:00Z","name_a2s":"Uncletopia | Los Angeles | 1 | All Maps","protocol":17,"map":"cp_snakewater_final1","folder":"tf","game":"Team Fortress","app_id":440,"player_count":14,"max_players":24,"Bots":0,"server_type":"Dedicated","server_os":"Linux","password":true,"vac":true,"version":"7882260","steam_id":85568392924469991,"keywords":["cp","nocrits","nodmgspread","uncletopia"],"game_id":440,"stv_port":27016,"stv_name":"Uncletopia | Los Angeles | 1 | All Maps | STV","players":[{"user_id":412,"name":"CreativeName","steam_id":76561198853344895,"connected_time":472000000000,"state":"active","ping":56},{"user_id":382,"name":"Drakon","steam_id":76561198078210822,"connected_time":2718000000000,"state":"active","ping":61},{"user_id":414,"name":"Da Wizard","steam_id":76561198842482031,"connected_time":379000000000,"state":"active","ping":73},{"user_id":395,"name":"Quackjack","steam_id":76561198304506868,"connected_time":1405000000000,"state":"active","ping":99},{"user_id":392,"name":"nori_420 (mute)","steam_id":76561199117134203,"connected_time":1730000000000,"state":"active","ping":54},{"user_id":413,"name":"vuldrin","steam_id":76561198383695069,"connected_time":436000000000,"state":"active","ping":94},{"user_id":396,"name":"Zirkel","steam_id":76561198091428512,"connected_time":1369000000000,"state":"active","ping":41},{"user_id":410,"name":"Doodled PING","steam_id":76561199086104720,"connected_time":549000000000,"state":"active","ping":85},{"user_id":417,"name":"poofysters","steam_id":76561198800118537,"connected_time":52000000000,"state":"active","ping":54},{"user_id":372,"name":"Vintage TV","steam_id":76561198800334545,"connected_time":3416000000000,"state":"active","ping":42},{"user_id":399,"name":"trans gaming","steam_id":76561198850577111,"connected_time":972000000000,"state":"active","ping":103},{"user_id":379,"name":"noellehound","steam_id":76561198108844158,"connected_time":3098000000000,"state":"active","ping":59},{"user_id":402,"name":"Assassin","steam_id":76561198321410235,"connected_time":906000000000,"state":"active","ping":35},{"user_id":408,"name":"xjlm","steam_id":76561198043497260,"connected_time":640000000000,"state":"active","ping":69}]},{"server_id":112,"name":"Uncletopia | Los Angeles | 2 | All Maps","name_short":"lax-2","host":"lax-1.us.uncletopia.com","port":27025,"enabled":true,"region":"us-west","cc":"us","latitude":33.94279,"longitude":-118.41004,"reserved":0,"last_update":"0001-01-01T00:00:00Z","name_a2s":"Uncletopia | Los Angeles | 2 | All Maps","protocol":17,"map":"cp_steel","folder":"tf","game":"Team Fortress","app_id":440,"player_count":23,"max_players":24,"Bots":0,"server_type":"Dedicated","server_os":"Linux","password":true,"vac":true,"version":"7882260","steam_id":85568392924469992,"keywords":["cp","nocrits","nodmgspread","uncletopia"],"game_id":440,"stv_port":27026,"stv_name":"Uncletopia | Los Angeles | 2 | All Maps | STV","players":[{"user_id":202,"name":"vioxynteris","steam_id":76561198161428666,"connected_time":2965000000000,"state":"active","ping":32},{"user_id":229,"name":"gerg","steam_id":76561197997127387,"connected_time":730000000000,"state":"active","ping":59},{"user_id":193,"name":"paste!","steam_id":76561198085388962,"connected_time":4118000000000,"state":"active","ping":90},{"user_id":231,"name":"playguy carter","steam_id":76561198080679337,"connected_time":649000000000,"state":"active","ping":105},{"user_id":223,"name":"Whip it","steam_id":76561198123261072,"connected_time":858000000000,"state":"active","ping":114},{"user_id":222,"name":"Pre Pissed Pants","steam_id":76561198042143837,"connected_time":1090000000000,"state":"active","ping":92},{"user_id":227,"name":"Chiaki Nanami","steam_id":76561198164782653,"connected_time":759000000000,"state":"active","ping":119},{"user_id":228,"name":"social distance warrior","steam_id":76561198128992994,"connected_time":753000000000,"state":"active","ping":75},{"user_id":235,"name":"MithStyck","steam_id":76561198071538489,"connected_time":128000000000,"state":"active","ping":84},{"user_id":230,"name":"Can You Feel It Mr.Krabs","steam_id":76561198128302414,"connected_time":695000000000,"state":"active","ping":53},{"user_id":217,"name":"The Ghost™","steam_id":76561198061292612,"connected_time":1812000000000,"state":"active","ping":56},{"user_id":201,"name":"Asada Gaming","steam_id":76561198890404100,"connected_time":3079000000000,"state":"active","ping":59},{"user_id":219,"name":"Alf Creepypasta","steam_id":76561198841844093,"connected_time":1616000000000,"state":"active","ping":46},{"user_id":233,"name":"The Assistant Regional Manager","steam_id":76561199221484936,"connected_time":470000000000,"state":"active","ping":59},{"user_id":221,"name":"iKickBabies","steam_id":76561199337400258,"connected_time":1464000000000,"state":"active","ping":70},{"user_id":192,"name":"monkey squirts","steam_id":76561197983101644,"connected_time":4403000000000,"state":"active","ping":48},{"user_id":234,"name":"Drac0c4t","steam_id":76561199073871583,"connected_time":456000000000,"state":"active","ping":112},{"user_id":176,"name":"Feel the bern","steam_id":76561198078824519,"connected_time":5582000000000,"state":"active","ping":47},{"user_id":209,"name":"twink-182","steam_id":76561198109480519,"connected_time":2511000000000,"state":"active","ping":109},{"user_id":210,"name":"♥ur :3 medic gf♥ (51ref/hr)","steam_id":76561198816778484,"connected_time":2497000000000,"state":"active","ping":143},{"user_id":225,"name":"Paul Allen","steam_id":76561198205346760,"connected_time":781000000000,"state":"active","ping":104},{"user_id":226,"name":"steady","steam_id":76561198210433363,"connected_time":781000000000,"state":"active","ping":93}]},{"server_id":324,"name":"Uncletopia | Los Angeles | 3 | All Maps","name_short":"lax-3","host":"lax-1.us.uncletopia.com","port":27035,"enabled":true,"region":"us-west","cc":"us","latitude":33.94279,"longitude":-118.41004,"reserved":0,"last_update":"0001-01-01T00:00:00Z","name_a2s":"Uncletopia | Los Angeles | 3 | All Maps","protocol":17,"map":"pl_snowycoast","folder":"tf","game":"Team Fortress","app_id":440,"player_count":24,"max_players":24,"Bots":0,"server_type":"Dedicated","server_os":"Linux","password":true,"vac":true,"version":"7882260","steam_id":85568392924510198,"keywords":["nocrits","nodmgspread","payload","uncletopia"],"game_id":440,"stv_port":27036,"stv_name":"Uncletopia | Los Angeles | 3 | All Maps | STV","players":[{"user_id":147,"name":"Quibits","steam_id":76561198032944405,"connected_time":1820000000000,"state":"active","ping":50},{"user_id":163,"name":"PinguEnjoyer6","steam_id":76561199186723516,"connected_time":1108000000000,"state":"active","ping":34},{"user_id":158,"name":"CherryPieRed2023","steam_id":76561198998007496,"connected_time":1398000000000,"state":"active","ping":62},{"user_id":144,"name":"eau:","steam_id":76561198110020262,"connected_time":2338000000000,"state":"active","ping":39},{"user_id":175,"name":"Sock","steam_id":76561198060060747,"connected_time":53000000000,"state":"active","ping":175},{"user_id":162,"name":"BlitzB@t","steam_id":76561198299318000,"connected_time":1178000000000,"state":"active","ping":77},{"user_id":130,"name":"californjoe","steam_id":76561197965047795,"connected_time":3409000000000,"state":"active","ping":55},{"user_id":164,"name":"JohnnyGitGud","steam_id":76561198401455467,"connected_time":1020000000000,"state":"active","ping":57},{"user_id":145,"name":"perc 10","steam_id":76561198116471653,"connected_time":2301000000000,"state":"active","ping":57},{"user_id":152,"name":"Fluffy","steam_id":76561198213561811,"connected_time":1639000000000,"state":"active","ping":52},{"user_id":173,"name":"ChrisH5764","steam_id":76561199174433545,"connected_time":373000000000,"state":"active","ping":93},{"user_id":62,"name":"bigman1","steam_id":76561198050225055,"connected_time":8444000000000,"state":"active","ping":46},{"user_id":161,"name":"Mr. Yoshida","steam_id":76561198263829831,"connected_time":1230000000000,"state":"active","ping":72},{"user_id":165,"name":"Call Me Ishmael","steam_id":76561198030696516,"connected_time":1018000000000,"state":"active","ping":60},{"user_id":83,"name":"murph","steam_id":76561197973805634,"connected_time":6759000000000,"state":"active","ping":67},{"user_id":151,"name":"Sleempreem","steam_id":76561198131987251,"connected_time":1674000000000,"state":"active","ping":42},{"user_id":166,"name":"chrome 2008 (she/they)","steam_id":76561198321277216,"connected_time":998000000000,"state":"active","ping":62},{"user_id":174,"name":"Jokezonyu","steam_id":76561198213167893,"connected_time":331000000000,"state":"active","ping":62},{"user_id":167,"name":"bengineer","steam_id":76561198171912174,"connected_time":993000000000,"state":"active","ping":86},{"user_id":135,"name":"Rango","steam_id":76561198067275912,"connected_time":3202000000000,"state":"active","ping":66},{"user_id":59,"name":"Tuba","steam_id":76561198209166329,"connected_time":8471000000000,"state":"active","ping":73},{"user_id":170,"name":"00","steam_id":76561198041700636,"connected_time":876000000000,"state":"active","ping":53},{"user_id":171,"name":"Mr Sir Logan","steam_id":76561198088803891,"connected_time":858000000000,"state":"active","ping":60},{"user_id":125,"name":"cringy","steam_id":76561198323000455,"connected_time":3598000000000,"state":"active","ping":65}]},{"server_id":25,"name":"Uncletopia | Los Angeles | 4 | Stopwatch Beta","name_short":"lax-4","host":"lax-1.us.uncletopia.com","port":27045,"enabled":true,"region":"us-west","cc":"us","latitude":33.94279,"longitude":-118.41004,"reserved":0,"last_update":"0001-01-01T00:00:00Z","name_a2s":"Uncletopia | Los Angeles | 4 | Stopwatch Beta","protocol":17,"map":"koth_viaduct","folder":"tf","game":"Team Fortress","app_id":440,"player_count":0,"max_players":24,"Bots":0,"server_type":"Dedicated","server_os":"Linux","password":true,"vac":true,"version":"7882260","steam_id":85568392924510199,"keywords":["cp","nocrits","nodmgspread","uncletopia"],"game_id":440,"stv_port":27046,"stv_name":"Uncletopia | Los Angeles | 4 | Stopwatch Beta | STV","players":null},{"server_id":11,"name":"Uncletopia | London | 1 | All Maps","name_short":"lon-1","host":"lon-1.uk.uncletopia.com","port":27015,"enabled":true,"region":"eu","cc":"gb","latitude":51.509865,"longitude":-0.118092,"reserved":0,"last_update":"0001-01-01T00:00:00Z","name_a2s":"Uncletopia | London | 1 | All Maps","protocol":17,"map":"pl_borneo","folder":"tf","game":"Team Fortress","app_id":440,"player_count":23,"max_players":24,"Bots":0,"server_type":"Dedicated","server_os":"Linux","password":true,"vac":true,"version":"7882260","steam_id":85568392924367362,"keywords":["nocrits","nodmgspread","payload","uncletopia"],"game_id":440,"stv_port":27016,"stv_name":"Uncletopia | London | 1 | All Maps | STV","players":[{"user_id":3,"name":"CumbustiblePunda","steam_id":76561197974274677,"connected_time":3328000000000,"state":"active","ping":55},{"user_id":51,"name":"Gigachad_floppa","steam_id":76561199063325086,"connected_time":476000000000,"state":"active","ping":64},{"user_id":19,"name":"the man","steam_id":76561199071710430,"connected_time":2867000000000,"state":"active","ping":107},{"user_id":6,"name":"cheese88","steam_id":76561198103670631,"connected_time":3307000000000,"state":"active","ping":115},{"user_id":31,"name":"yousef10kh","steam_id":76561199229130901,"connected_time":2036000000000,"state":"active","ping":174},{"user_id":24,"name":"voco","steam_id":76561198179250642,"connected_time":2364000000000,"state":"active","ping":113},{"user_id":38,"name":"Niko","steam_id":76561199006295285,"connected_time":1481000000000,"state":"active","ping":71},{"user_id":52,"name":"H₂SO₄","steam_id":76561198846349729,"connected_time":432000000000,"state":"active","ping":121},{"user_id":64,"name":"lenny","steam_id":76561198064545300,"connected_time":2000000000,"state":"spawning","ping":74},{"user_id":33,"name":"germinator","steam_id":76561199387893648,"connected_time":1836000000000,"state":"active","ping":103},{"user_id":23,"name":"Corpus Christi","steam_id":76561198417999443,"connected_time":2536000000000,"state":"active","ping":110},{"user_id":53,"name":"Genesis","steam_id":76561198813265235,"connected_time":431000000000,"state":"active","ping":76},{"user_id":43,"name":"hilde","steam_id":76561198231786924,"connected_time":1102000000000,"state":"active","ping":85},{"user_id":54,"name":"Falcon","steam_id":76561198211463916,"connected_time":323000000000,"state":"active","ping":89},{"user_id":55,"name":"minn","steam_id":76561198099101232,"connected_time":319000000000,"state":"active","ping":50},{"user_id":28,"name":"Боевой комар","steam_id":76561198796564094,"connected_time":2306000000000,"state":"active","ping":91},{"user_id":63,"name":"fried","steam_id":76561198307522022,"connected_time":19000000000,"state":"active","ping":50},{"user_id":47,"name":"Boxtrot","steam_id":76561198026321441,"connected_time":829000000000,"state":"active","ping":66},{"user_id":48,"name":"sSolle","steam_id":76561198085269924,"connected_time":818000000000,"state":"active","ping":70},{"user_id":49,"name":"Witch","steam_id":76561198212059683,"connected_time":792000000000,"state":"active","ping":70},{"user_id":50,"name":"Lord Of The Ping","steam_id":76561198133567407,"connected_time":666000000000,"state":"active","ping":130},{"user_id":57,"name":"[IVe/LO]Jadore_les_Currywurst","steam_id":76561198005084382,"connected_time":275000000000,"state":"active","ping":83},{"user_id":59,"name":"Fus in Boots","steam_id":76561198053897722,"connected_time":206000000000,"state":"active","ping":49}]},{"server_id":114,"name":"Uncletopia | London | 2 | All Maps","name_short":"lon-2","host":"lon-1.uk.uncletopia.com","port":27025,"enabled":true,"region":"eu","cc":"gb","latitude":51.509865,"longitude":-0.118092,"reserved":0,"last_update":"0001-01-01T00:00:00Z","name_a2s":"Uncletopia | London | 2 | All Maps","protocol":17,"map":"koth_highpass","folder":"tf","game":"Team Fortress","app_id":440,"player_count":0,"max_players":24,"Bots":0,"server_type":"Dedicated","server_os":"Linux","password":true,"vac":true,"version":"7882260","steam_id":85568392924470941,"keywords":["cp","nocrits","nodmgspread","uncletopia"],"game_id":440,"stv_port":27026,"stv_name":"Uncletopia | London | 2 | All Maps | STV","players":null},{"server_id":320,"name":"Uncletopia | London | 3 | All Maps","name_short":"lon-3","host":"lon-1.uk.uncletopia.com","port":27035,"enabled":true,"region":"eu","cc":"gb","latitude":51.509865,"longitude":-0.118092,"reserved":0,"last_update":"0001-01-01T00:00:00Z","name_a2s":"Uncletopia | London | 3 | All Maps","protocol":17,"map":"pl_upward","folder":"tf","game":"Team Fortress","app_id":440,"player_count":0,"max_players":24,"Bots":0,"server_type":"Dedicated","server_os":"Linux","password":true,"vac":true,"version":"7882260","steam_id":85568392924510192,"keywords":["nocrits","nodmgspread","payload","uncletopia"],"game_id":440,"stv_port":27036,"stv_name":"Uncletopia | London | 3 | All Maps | STV","players":null},{"server_id":321,"name":"Uncletopia | London | 4 | All Maps","name_short":"lon-4","host":"lon-1.uk.uncletopia.com","port":27045,"enabled":true,"region":"eu","cc":"gb","latitude":51.509865,"longitude":-0.118092,"reserved":0,"last_update":"0001-01-01T00:00:00Z","name_a2s":"Uncletopia | London | 4 | All Maps","protocol":17,"map":"cp_dustbowl","folder":"tf","game":"Team Fortress","app_id":440,"player_count":0,"max_players":24,"Bots":0,"server_type":"Dedicated","server_os":"Linux","password":true,"vac":true,"version":"7882260","steam_id":85568392924510193,"keywords":["cp","nocrits","nodmgspread","uncletopia"],"game_id":440,"stv_port":27046,"stv_name":"Uncletopia | London | 4 | All Maps | STV","players":null},{"server_id":21,"name":"Uncletopia | London | 5 | All Maps","name_short":"lon-5","host":"lon-1.uk.uncletopia.com","port":27055,"enabled":true,"region":"eu","cc":"gb","latitude":51.509865,"longitude":-0.118092,"reserved":0,"last_update":"0001-01-01T00:00:00Z","name_a2s":"Uncletopia | London | 5 | All Maps","protocol":17,"map":"koth_viaduct","folder":"tf","game":"Team Fortress","app_id":440,"player_count":0,"max_players":24,"Bots":0,"server_type":"Dedicated","server_os":"Linux","password":true,"vac":true,"version":"7882260","steam_id":85568392924742829,"keywords":["cp","nocrits","nodmgspread","uncletopia"],"game_id":440,"stv_port":27056,"stv_name":"Uncletopia | London | 5 | All Maps | STV","players":null},{"server_id":22,"name":"Uncletopia | London | 6 | All Maps","name_short":"lon-6","host":"lon-1.uk.uncletopia.com","port":27065,"enabled":true,"region":"eu","cc":"gb","latitude":51.509865,"longitude":-0.118092,"reserved":0,"last_update":"0001-01-01T00:00:00Z","name_a2s":"Uncletopia | London | 6 | All Maps","protocol":17,"map":"koth_lakeside_final","folder":"tf","game":"Team Fortress","app_id":440,"player_count":0,"max_players":24,"Bots":0,"server_type":"Dedicated","server_os":"Linux","password":true,"vac":true,"version":"7882260","steam_id":85568392924742830,"keywords":["cp","nocrits","nodmgspread","uncletopia"],"game_id":440,"stv_port":27066,"stv_name":"Uncletopia | London | 6 | All Maps | STV","players":null},{"server_id":40,"name":"Uncletopia | London | 7 | No Payload","name_short":"lon-7","host":"lon-1.uk.uncletopia.com","port":27075,"enabled":true,"region":"eu","cc":"gb","latitude":51.509865,"longitude":-0.118092,"reserved":0,"last_update":"0001-01-01T00:00:00Z","name_a2s":"Uncletopia | London | 7 | No Payload","protocol":17,"map":"pl_upward","folder":"tf","game":"Team Fortress","app_id":440,"player_count":0,"max_players":24,"Bots":0,"server_type":"Dedicated","server_os":"Linux","password":true,"vac":true,"version":"7882260","steam_id":85568392924964314,"keywords":["nocrits","nodmgspread","payload","uncletopia"],"game_id":440,"stv_port":27076,"stv_name":"Uncletopia | London | 7 | No Payload | STV","players":null},{"server_id":41,"name":"Uncletopia | London | 8 | Community","name_short":"lon-8","host":"lon-1.uk.uncletopia.com","port":27085,"enabled":true,"region":"eu","cc":"gb","latitude":51.509865,"longitude":-0.118092,"reserved":0,"last_update":"0001-01-01T00:00:00Z","name_a2s":"Uncletopia | London | 8 | Community","protocol":17,"map":"pl_upward","folder":"tf","game":"Team Fortress","app_id":440,"player_count":0,"max_players":24,"Bots":0,"server_type":"Dedicated","server_os":"Linux","password":true,"vac":true,"version":"7882260","steam_id":85568392924964315,"keywords":["nocrits","nodmgspread","payload","uncletopia"],"game_id":440,"stv_port":27086,"stv_name":"Uncletopia | London | 8 | Community | STV","players":null},{"server_id":300,"name":"Uncletopia | Montréal | 1 | All Maps","name_short":"mtl-1","host":"mtl-1.ca.uncletopia.com","port":27015,"enabled":true,"region":"us-east","cc":"ca","latitude":45.50889,"longitude":-73.56167,"reserved":0,"last_update":"0001-01-01T00:00:00Z","name_a2s":"Uncletopia | Montréal | 1 | All Maps","protocol":17,"map":"cp_dustbowl","folder":"tf","game":"Team Fortress","app_id":440,"player_count":0,"max_players":24,"Bots":0,"server_type":"Dedicated","server_os":"Linux","password":true,"vac":true,"version":"7882260","steam_id":85568392924500087,"keywords":["cp","nocrits","nodmgspread","uncletopia"],"game_id":440,"stv_port":27016,"stv_name":"Uncletopia | Montréal | 1 | All Maps | STV","players":null},{"server_id":301,"name":"Uncletopia | Montréal | 2 | All Maps","name_short":"mtl-2","host":"mtl-1.ca.uncletopia.com","port":27025,"enabled":true,"region":"us-east","cc":"ca","latitude":45.50889,"longitude":-73.56167,"reserved":0,"last_update":"0001-01-01T00:00:00Z","name_a2s":"Uncletopia | Montréal | 2 | All Maps","protocol":17,"map":"koth_highpass","folder":"tf","game":"Team Fortress","app_id":440,"player_count":0,"max_players":24,"Bots":0,"server_type":"Dedicated","server_os":"Linux","password":true,"vac":true,"version":"7882260","steam_id":85568392924500088,"keywords":["cp","nocrits","nodmgspread","uncletopia"],"game_id":440,"stv_port":27026,"stv_name":"Uncletopia | Montréal | 2 | All Maps | STV","players":null},{"server_id":302,"name":"Uncletopia | Montréal | 3 | All Maps","name_short":"mtl-3","host":"mtl-1.ca.uncletopia.com","port":27035,"enabled":true,"region":"us-east","cc":"ca","latitude":45.50889,"longitude":-73.56167,"reserved":0,"last_update":"0001-01-01T00:00:00Z","name_a2s":"Uncletopia | Montréal | 3 | All Maps","protocol":17,"map":"koth_highpass","folder":"tf","game":"Team Fortress","app_id":440,"player_count":0,"max_players":24,"Bots":0,"server_type":"Dedicated","server_os":"Linux","password":true,"vac":true,"version":"7882260","steam_id":85568392924500089,"keywords":["cp","nocrits","nodmgspread","uncletopia"],"game_id":440,"stv_port":27036,"stv_name":"Uncletopia | Montréal | 3 | All Maps | STV","players":null},{"server_id":303,"name":"Uncletopia | Montréal | 4 | No Payload","name_short":"mtl-4","host":"mtl-1.ca.uncletopia.com","port":27045,"enabled":true,"region":"us-east","cc":"ca","latitude":45.50889,"longitude":-73.56167,"reserved":0,"last_update":"0001-01-01T00:00:00Z","name_a2s":"Uncletopia | Montréal | 4 | No Payload","protocol":17,"map":"koth_highpass","folder":"tf","game":"Team Fortress","app_id":440,"player_count":0,"max_players":24,"Bots":0,"server_type":"Dedicated","server_os":"Linux","password":true,"vac":true,"version":"7882260","steam_id":85568392924500090,"keywords":["cp","nocrits","nodmgspread","uncletopia"],"game_id":440,"stv_port":27046,"stv_name":"Uncletopia | Montréal | 4 | No Payload | STV","players":null},{"server_id":13,"name":"Uncletopia | New York City | 1 | All Maps","name_short":"nyc-1","host":"nyc-1.us.uncletopia.com","port":27015,"enabled":true,"region":"us-east","cc":"us","latitude":40.73061,"longitude":-73.93524,"reserved":0,"last_update":"0001-01-01T00:00:00Z","name_a2s":"Uncletopia | New York City | 1 | All Maps","protocol":17,"map":"koth_nucleus","folder":"tf","game":"Team Fortress","app_id":440,"player_count":4,"max_players":24,"Bots":0,"server_type":"Dedicated","server_os":"Linux","password":true,"vac":true,"version":"7882260","steam_id":85568392924469993,"keywords":["cp","nocrits","nodmgspread","uncletopia"],"game_id":440,"stv_port":27016,"stv_name":"Uncletopia | New York City | 1 | All Maps | STV","players":[{"user_id":168,"name":"Banana Man","steam_id":76561198093907186,"connected_time":4839000000000,"state":"active","ping":68},{"user_id":208,"name":"scout lip kisser","steam_id":76561198118961458,"connected_time":852000000000,"state":"active","ping":88},{"user_id":155,"name":"Devoid","steam_id":76561198254039012,"connected_time":6752000000000,"state":"active","ping":45},{"user_id":121,"name":"Periculosum PhD in Funny","steam_id":76561198123370914,"connected_time":9923000000000,"state":"active","ping":84}]},{"server_id":14,"name":"Uncletopia | New York City | 2 | All Maps","name_short":"nyc-2","host":"nyc-1.us.uncletopia.com","port":27025,"enabled":true,"region":"us-east","cc":"us","latitude":40.73061,"longitude":-73.93524,"reserved":0,"last_update":"0001-01-01T00:00:00Z","name_a2s":"Uncletopia | New York City | 2 | All Maps","protocol":17,"map":"koth_lakeside_final","folder":"tf","game":"Team Fortress","app_id":440,"player_count":0,"max_players":24,"Bots":0,"server_type":"Dedicated","server_os":"Linux","password":true,"vac":true,"version":"7882260","steam_id":85568392924469994,"keywords":["cp","nocrits","nodmgspread","uncletopia"],"game_id":440,"stv_port":27026,"stv_name":"Uncletopia | New York City | 2 | All Maps | STV","players":null},{"server_id":15,"name":"Uncletopia | New York City | 3 | Stopwatch Beta","name_short":"nyc-3","host":"nyc-1.us.uncletopia.com","port":27035,"enabled":true,"region":"us-east","cc":"us","latitude":40.73061,"longitude":-73.93524,"reserved":0,"last_update":"0001-01-01T00:00:00Z","name_a2s":"Uncletopia | New York City | 3 | Stopwatch Beta","protocol":17,"map":"workshop/koth_clearcut_b15.ugc2107050255","folder":"tf","game":"Team Fortress","app_id":440,"player_count":0,"max_players":24,"Bots":0,"server_type":"Dedicated","server_os":"Linux","password":true,"vac":true,"version":"7882260","steam_id":85568392924742820,"keywords":["cp","nocrits","nodmgspread","uncletopia"],"game_id":440,"stv_port":27036,"stv_name":"Uncletopia | New York City | 3 | Stopwatch Beta | STV","players":null},{"server_id":16,"name":"Uncletopia | New York City | 4 | Community","name_short":"nyc-4","host":"nyc-1.us.uncletopia.com","port":27045,"enabled":true,"region":"us-east","cc":"us","latitude":40.73061,"longitude":-73.93524,"reserved":0,"last_update":"0001-01-01T00:00:00Z","name_a2s":"Uncletopia | New York City | 4 | Community","protocol":17,"map":"workshop/koth_product_final.ugc454272353","folder":"tf","game":"Team Fortress","app_id":440,"player_count":1,"max_players":24,"Bots":0,"server_type":"Dedicated","server_os":"Linux","password":true,"vac":true,"version":"7882260","steam_id":85568392924742821,"keywords":["cp","nocrits","nodmgspread","uncletopia"],"game_id":440,"stv_port":27046,"stv_name":"Uncletopia | New York City | 4 | Community | STV","players":[{"user_id":164,"name":"Linkedfurhire","steam_id":76561198149363268,"connected_time":3357000000000,"state":"active","ping":51}]},{"server_id":142,"name":"Uncletopia | São Paulo | 1 | All Maps","name_short":"sao-1","host":"sao-1.br.uncletopia.com","port":27015,"enabled":true,"region":"sa","cc":"br","latitude":-23.533773,"longitude":-46.62529,"reserved":0,"last_update":"0001-01-01T00:00:00Z","name_a2s":"Uncletopia | São Paulo | 1 | All Maps","protocol":17,"map":"pl_upward","folder":"tf","game":"Team Fortress","app_id":440,"player_count":0,"max_players":24,"Bots":0,"server_type":"Dedicated","server_os":"Linux","password":true,"vac":true,"version":"7882260","steam_id":85568392924469996,"keywords":["nocrits","nodmgspread","payload","uncletopia"],"game_id":440,"stv_port":27016,"stv_name":"Uncletopia | São Paulo | 1 | All Maps | STV","players":null},{"server_id":143,"name":"Uncletopia | São Paulo | 2 | All Maps","name_short":"sao-2","host":"sao-2.br.uncletopia.com","port":27015,"enabled":true,"region":"sa","cc":"br","latitude":-23.533773,"longitude":-46.62529,"reserved":0,"last_update":"0001-01-01T00:00:00Z","name_a2s":"Uncletopia | São Paulo | 2 | All Maps","protocol":17,"map":"koth_lakeside_final","folder":"tf","game":"Team Fortress","app_id":440,"player_count":0,"max_players":24,"Bots":0,"server_type":"Dedicated","server_os":"Linux","password":true,"vac":true,"version":"7882260","steam_id":85568392924485349,"keywords":["cp","nocrits","nodmgspread","uncletopia"],"game_id":440,"stv_port":27016,"stv_name":"Uncletopia | São Paulo | 2 | All Maps | STV","players":null},{"server_id":7,"name":"Uncletopia | Seattle | 1 | All Maps","name_short":"sea-1","host":"sea-1.us.uncletopia.com","port":27015,"enabled":true,"region":"us-west","cc":"us","latitude":47.608013,"longitude":-122.33517,"reserved":0,"last_update":"0001-01-01T00:00:00Z","name_a2s":"Uncletopia | Seattle | 1 | All Maps","protocol":17,"map":"pl_badwater","folder":"tf","game":"Team Fortress","app_id":440,"player_count":24,"max_players":24,"Bots":0,"server_type":"Dedicated","server_os":"Linux","password":true,"vac":true,"version":"7882260","steam_id":85568392924469997,"keywords":["nocrits","nodmgspread","payload","uncletopia"],"game_id":440,"stv_port":27016,"stv_name":"Uncletopia | Seattle | 1 | All Maps | STV","players":[{"user_id":126,"name":"Manchurian Bandit","steam_id":76561198072410042,"connected_time":4159000000000,"state":"active","ping":76},{"user_id":147,"name":"medd","steam_id":76561198078238722,"connected_time":3054000000000,"state":"active","ping":57},{"user_id":164,"name":"Rook","steam_id":76561198372780831,"connected_time":1442000000000,"state":"active","ping":97},{"user_id":180,"name":"keikun","steam_id":76561198059322970,"connected_time":138000000000,"state":"active","ping":53},{"user_id":166,"name":"Rocket Drifter","steam_id":76561198046952513,"connected_time":1037000000000,"state":"active","ping":45},{"user_id":137,"name":"AceRepublicRT","steam_id":76561198362676166,"connected_time":3533000000000,"state":"active","ping":78},{"user_id":172,"name":"c a c t u s","steam_id":76561199273395913,"connected_time":694000000000,"state":"active","ping":52},{"user_id":129,"name":"Toooru","steam_id":76561198857237473,"connected_time":3859000000000,"state":"active","ping":45},{"user_id":175,"name":"JZ","steam_id":76561198377029198,"connected_time":520000000000,"state":"active","ping":124},{"user_id":130,"name":"souljaboytellem.com","steam_id":76561198095824426,"connected_time":3849000000000,"state":"active","ping":71},{"user_id":165,"name":"ChefBunny","steam_id":76561198243610560,"connected_time":1134000000000,"state":"active","ping":74},{"user_id":173,"name":"Aribari (She/Her)","steam_id":76561198117327938,"connected_time":662000000000,"state":"active","ping":103},{"user_id":151,"name":"Tea","steam_id":76561198004133638,"connected_time":2667000000000,"state":"active","ping":77},{"user_id":179,"name":"colespudzo","steam_id":76561198051127147,"connected_time":262000000000,"state":"active","ping":45},{"user_id":176,"name":"iwakvra","steam_id":76561198128164970,"connected_time":507000000000,"state":"active","ping":68},{"user_id":170,"name":"PheebsyDeebsy","steam_id":76561198101509436,"connected_time":793000000000,"state":"active","ping":62},{"user_id":80,"name":"lavender","steam_id":76561199069518286,"connected_time":8978000000000,"state":"active","ping":66},{"user_id":167,"name":"Bishuhp","steam_id":76561198015062850,"connected_time":970000000000,"state":"active","ping":39},{"user_id":177,"name":"Out Like a Light","steam_id":76561198410957728,"connected_time":487000000000,"state":"active","ping":104},{"user_id":149,"name":"Meef","steam_id":76561198039987329,"connected_time":2885000000000,"state":"active","ping":94},{"user_id":154,"name":"Finkly","steam_id":76561198049828110,"connected_time":2548000000000,"state":"active","ping":45},{"user_id":124,"name":"arsenic","steam_id":76561198176391550,"connected_time":4285000000000,"state":"active","ping":91},{"user_id":161,"name":"Literally Me","steam_id":76561198269487635,"connected_time":1656000000000,"state":"active","ping":91},{"user_id":178,"name":"COVID-9000","steam_id":76561198042458180,"connected_time":454000000000,"state":"active","ping":38}]},{"server_id":119,"name":"Uncletopia | Seattle | 2 | All Maps","name_short":"sea-2","host":"sea-1.us.uncletopia.com","port":27025,"enabled":true,"region":"us-west","cc":"us","latitude":47.608013,"longitude":-122.33517,"reserved":0,"last_update":"0001-01-01T00:00:00Z","name_a2s":"Uncletopia | Seattle | 2 | All Maps","protocol":17,"map":"cp_mercenarypark","folder":"tf","game":"Team Fortress","app_id":440,"player_count":19,"max_players":24,"Bots":0,"server_type":"Dedicated","server_os":"Linux","password":true,"vac":true,"version":"7882260","steam_id":85568392924469998,"keywords":["cp","nocrits","nodmgspread","uncletopia"],"game_id":440,"stv_port":27026,"stv_name":"Uncletopia | Seattle | 2 | All Maps | STV","players":[{"user_id":199,"name":"MyMonkeyBaby","steam_id":76561198046896670,"connected_time":4261000000000,"state":"active","ping":59},{"user_id":188,"name":"schrödinger","steam_id":76561198123475433,"connected_time":4818000000000,"state":"active","ping":63},{"user_id":229,"name":"seats","steam_id":76561197998756039,"connected_time":2752000000000,"state":"active","ping":70},{"user_id":237,"name":"SadFapping","steam_id":76561198076651049,"connected_time":2205000000000,"state":"active","ping":54},{"user_id":280,"name":"SvicidalBug","steam_id":76561198221390504,"connected_time":981000000000,"state":"active","ping":60},{"user_id":284,"name":"Viena","steam_id":76561198346193512,"connected_time":97000000000,"state":"active","ping":27},{"user_id":285,"name":"oil","steam_id":76561198099980149,"connected_time":80000000000,"state":"active","ping":71},{"user_id":281,"name":"An Old Lady","steam_id":76561198047480318,"connected_time":529000000000,"state":"active","ping":68},{"user_id":286,"name":"Willy Wonker","steam_id":76561198082944789,"connected_time":70000000000,"state":"active","ping":61},{"user_id":287,"name":"A Little Guy","steam_id":76561198142464684,"connected_time":50000000000,"state":"active","ping":89},{"user_id":236,"name":"Auggy","steam_id":76561198041816037,"connected_time":2306000000000,"state":"active","ping":71},{"user_id":282,"name":"cheeto dorito","steam_id":76561198107941274,"connected_time":198000000000,"state":"active","ping":76},{"user_id":209,"name":"Peter, what are you doing?","steam_id":76561198066452726,"connected_time":3569000000000,"state":"active","ping":75},{"user_id":157,"name":"The dreaded jar","steam_id":76561199087010656,"connected_time":6973000000000,"state":"active","ping":56},{"user_id":244,"name":"abaddon_amogTTV #savetf2","steam_id":76561198268581959,"connected_time":1932000000000,"state":"active","ping":62},{"user_id":246,"name":"RuinHasComeToOurFamily","steam_id":76561199075273861,"connected_time":1917000000000,"state":"active","ping":138},{"user_id":278,"name":"p i n e ↟ ↟","steam_id":76561198058199952,"connected_time":1147000000000,"state":"active","ping":40},{"user_id":250,"name":"hug a bee","steam_id":76561198119635547,"connected_time":1859000000000,"state":"active","ping":47},{"user_id":187,"name":"Shm0g0","steam_id":76561198097331670,"connected_time":4934000000000,"state":"active","ping":69}]},{"server_id":406,"name":"Uncletopia | Seattle | 3 | Stopwatch Beta","name_short":"sea-3","host":"sea-1.us.uncletopia.com","port":27035,"enabled":true,"region":"us-west","cc":"us","latitude":47.608013,"longitude":-122.33517,"reserved":0,"last_update":"0001-01-01T00:00:00Z","name_a2s":"Uncletopia | Seattle | 3 | Stopwatch Beta","protocol":17,"map":"pl_swiftwater_final1","folder":"tf","game":"Team Fortress","app_id":440,"player_count":0,"max_players":24,"Bots":0,"server_type":"Dedicated","server_os":"Linux","password":true,"vac":true,"version":"7882260","steam_id":85568392924515217,"keywords":["nocrits","nodmgspread","payload","uncletopia"],"game_id":440,"stv_port":27036,"stv_name":"Uncletopia | Seattle | 3 | Stopwatch Beta | STV","players":null},{"server_id":17,"name":"Uncletopia | San Francisco | 1 | All Maps","name_short":"sfo-1","host":"sfo-1.us.uncletopia.com","port":27015,"enabled":true,"region":"us-west","cc":"us","latitude":37.77397,"longitude":-122.4313,"reserved":0,"last_update":"0001-01-01T00:00:00Z","name_a2s":"Uncletopia | San Francisco | 1 | All Maps","protocol":17,"map":"koth_viaduct","folder":"tf","game":"Team Fortress","app_id":440,"player_count":0,"max_players":24,"Bots":0,"server_type":"Dedicated","server_os":"Linux","password":true,"vac":true,"version":"7882260","steam_id":85568392924469999,"keywords":["cp","nocrits","nodmgspread","uncletopia"],"game_id":440,"stv_port":27016,"stv_name":"Uncletopia | San Francisco | 1 | All Maps | STV","players":null},{"server_id":18,"name":"Uncletopia | San Francisco | 2 | All Maps","name_short":"sfo-2","host":"sfo-1.us.uncletopia.com","port":27025,"enabled":true,"region":"us-west","cc":"us","latitude":37.77397,"longitude":-122.4313,"reserved":0,"last_update":"0001-01-01T00:00:00Z","name_a2s":"Uncletopia | San Francisco | 2 | All Maps","protocol":17,"map":"cp_mountainlab","folder":"tf","game":"Team Fortress","app_id":440,"player_count":0,"max_players":24,"Bots":0,"server_type":"Dedicated","server_os":"Linux","password":true,"vac":true,"version":"7882260","steam_id":85568392924470000,"keywords":["cp","nocrits","nodmgspread","uncletopia"],"game_id":440,"stv_port":27026,"stv_name":"Uncletopia | San Francisco | 2 | All Maps | STV","players":null},{"server_id":19,"name":"Uncletopia | San Francisco | 3 | Stopwatch Beta","name_short":"sfo-3","host":"sfo-1.us.uncletopia.com","port":27035,"enabled":true,"region":"us-west","cc":"us","latitude":37.77397,"longitude":-122.4313,"reserved":0,"last_update":"0001-01-01T00:00:00Z","name_a2s":"Uncletopia | San Francisco | 3 | Stopwatch Beta","protocol":17,"map":"pl_snowycoast","folder":"tf","game":"Team Fortress","app_id":440,"player_count":0,"max_players":24,"Bots":0,"server_type":"Dedicated","server_os":"Linux","password":true,"vac":true,"version":"7882260","steam_id":85568392924742824,"keywords":["nocrits","nodmgspread","payload","uncletopia"],"game_id":440,"stv_port":27036,"stv_name":"Uncletopia | San Francisco | 3 | Stopwatch Beta | STV","players":null},{"server_id":20,"name":"Uncletopia | San Francisco | 4 | Community","name_short":"sfo-4","host":"sfo-1.us.uncletopia.com","port":27045,"enabled":true,"region":"us-west","cc":"us","latitude":37.77397,"longitude":-122.4313,"reserved":0,"last_update":"0001-01-01T00:00:00Z","name_a2s":"Uncletopia | San Francisco | 4 | Community","protocol":17,"map":"workshop/pl_barnblitz_pro7.ugc582280235","folder":"tf","game":"Team Fortress","app_id":440,"player_count":24,"max_players":24,"Bots":0,"server_type":"Dedicated","server_os":"Linux","password":true,"vac":true,"version":"7882260","steam_id":85568392924742826,"keywords":["nocrits","nodmgspread","payload","uncletopia"],"game_id":440,"stv_port":27046,"stv_name":"Uncletopia | San Francisco | 4 | Community | STV","players":[{"user_id":228,"name":"Florist","steam_id":76561198009121060,"connected_time":1023000000000,"state":"active","ping":60},{"user_id":209,"name":"A_Un1t_0","steam_id":76561197966223353,"connected_time":4186000000000,"state":"active","ping":52},{"user_id":230,"name":"Super Saiyan Bear","steam_id":76561198063118280,"connected_time":779000000000,"state":"active","ping":68},{"user_id":236,"name":"goldhed","steam_id":76561198051751133,"connected_time":559000000000,"state":"active","ping":70},{"user_id":225,"name":"mega","steam_id":76561198089520959,"connected_time":1628000000000,"state":"active","ping":114},{"user_id":154,"name":"freyja","steam_id":76561198012480197,"connected_time":8421000000000,"state":"active","ping":44},{"user_id":155,"name":"Willowl","steam_id":76561198074612980,"connected_time":8407000000000,"state":"active","ping":137},{"user_id":229,"name":"A.xngel","steam_id":76561198157457036,"connected_time":875000000000,"state":"active","ping":71},{"user_id":196,"name":"smeasly","steam_id":76561198028718812,"connected_time":5508000000000,"state":"active","ping":60},{"user_id":216,"name":"squash","steam_id":76561198150281353,"connected_time":3514000000000,"state":"active","ping":79},{"user_id":197,"name":"jorts","steam_id":76561199041179985,"connected_time":5464000000000,"state":"active","ping":79},{"user_id":233,"name":"Legendary Fro","steam_id":76561198099981980,"connected_time":666000000000,"state":"active","ping":101},{"user_id":222,"name":"NEBULA","steam_id":76561198086878595,"connected_time":2169000000000,"state":"active","ping":54},{"user_id":215,"name":"roryisonamobilehotspot","steam_id":76561198065825165,"connected_time":3860000000000,"state":"active","ping":101},{"user_id":240,"name":"nivekuil","steam_id":76561198043892129,"connected_time":394000000000,"state":"active","ping":59},{"user_id":237,"name":"sleepy boo","steam_id":76561198072879485,"connected_time":426000000000,"state":"active","ping":65},{"user_id":202,"name":"ilikeballs","steam_id":76561198249980016,"connected_time":4481000000000,"state":"active","ping":78},{"user_id":156,"name":"Ahten Xevious","steam_id":76561198075469828,"connected_time":8393000000000,"state":"active","ping":112},{"user_id":191,"name":"pyrotechnic","steam_id":76561198043558709,"connected_time":5643000000000,"state":"active","ping":61},{"user_id":238,"name":"One Horned Bitch Destroyer","steam_id":76561198045810191,"connected_time":402000000000,"state":"active","ping":60},{"user_id":226,"name":"ikola","steam_id":76561198841721149,"connected_time":1606000000000,"state":"active","ping":72},{"user_id":241,"name":"Rusty","steam_id":76561198055585129,"connected_time":376000000000,"state":"active","ping":74},{"user_id":242,"name":"thunderous prophet","steam_id":76561198131166135,"connected_time":348000000000,"state":"active","ping":54},{"user_id":195,"name":"Shields","steam_id":76561198043216746,"connected_time":5541000000000,"state":"active","ping":77}]},{"server_id":141,"name":"Uncletopia | Sydney | 1 | All Maps","name_short":"syd-1","host":"syd-1.au.uncletopia.com","port":27015,"enabled":true,"region":"au","cc":"au","latitude":-33.865143,"longitude":151.2099,"reserved":0,"last_update":"0001-01-01T00:00:00Z","name_a2s":"Uncletopia | Sydney | 1 | All Maps","protocol":17,"map":"pl_borneo","folder":"tf","game":"Team Fortress","app_id":440,"player_count":24,"max_players":24,"Bots":0,"server_type":"Dedicated","server_os":"Linux","password":true,"vac":true,"version":"7882260","steam_id":85568392924470001,"keywords":["nocrits","nodmgspread","payload","uncletopia"],"game_id":440,"stv_port":27016,"stv_name":"Uncletopia | Sydney | 1 | All Maps | STV","players":[{"user_id":198,"name":"mc.sleek","steam_id":76561198057602720,"connected_time":1745000000000,"state":"active","ping":76},{"user_id":180,"name":"SkoKiE","steam_id":76561198283542986,"connected_time":3377000000000,"state":"active","ping":54},{"user_id":208,"name":"skye","steam_id":76561198037129845,"connected_time":337000000000,"state":"active","ping":44},{"user_id":161,"name":"locust no.2","steam_id":76561198060024585,"connected_time":4942000000000,"state":"active","ping":34},{"user_id":186,"name":"Local Trash Expert","steam_id":76561198145598622,"connected_time":2820000000000,"state":"active","ping":76},{"user_id":195,"name":"I too have an uncle","steam_id":76561198073619528,"connected_time":1857000000000,"state":"active","ping":56},{"user_id":209,"name":"OofImDuck","steam_id":76561198806600517,"connected_time":265000000000,"state":"active","ping":64},{"user_id":147,"name":"thrax","steam_id":76561197992385270,"connected_time":5756000000000,"state":"active","ping":54},{"user_id":199,"name":"Das Ist Scheisse","steam_id":76561198886094239,"connected_time":1605000000000,"state":"active","ping":51},{"user_id":200,"name":"Dean","steam_id":76561198224787784,"connected_time":1599000000000,"state":"active","ping":71},{"user_id":202,"name":"fatmod","steam_id":76561198128889890,"connected_time":1331000000000,"state":"active","ping":82},{"user_id":206,"name":"krandlez` (Any/All)","steam_id":76561198044839726,"connected_time":648000000000,"state":"active","ping":45},{"user_id":191,"name":"voxii","steam_id":76561198099698281,"connected_time":1986000000000,"state":"active","ping":74},{"user_id":204,"name":"AmethystDragon10","steam_id":76561198412979983,"connected_time":658000000000,"state":"active","ping":95},{"user_id":207,"name":"Dr. Hoppity","steam_id":76561197999715646,"connected_time":476000000000,"state":"active","ping":64},{"user_id":190,"name":"cat :)","steam_id":76561198127508905,"connected_time":2133000000000,"state":"active","ping":35},{"user_id":46,"name":"Kremmen","steam_id":76561198051368641,"connected_time":12143000000000,"state":"active","ping":71},{"user_id":137,"name":"Mooty","steam_id":76561198301293435,"connected_time":6673000000000,"state":"active","ping":48},{"user_id":158,"name":"LaFleur","steam_id":76561198869499113,"connected_time":5064000000000,"state":"active","ping":63},{"user_id":179,"name":"CHOIB","steam_id":76561198387938667,"connected_time":3426000000000,"state":"active","ping":45},{"user_id":188,"name":"zorbingus blurgorgus","steam_id":76561198063481761,"connected_time":2456000000000,"state":"active","ping":45},{"user_id":183,"name":"Qwertles","steam_id":76561198033779273,"connected_time":3350000000000,"state":"active","ping":57},{"user_id":205,"name":"exceptional hygiene","steam_id":76561198039920735,"connected_time":656000000000,"state":"active","ping":37},{"user_id":170,"name":"a shoulder to Brian","steam_id":76561198301282416,"connected_time":4295000000000,"state":"active","ping":57}]},{"server_id":123,"name":"Uncletopia | Sydney | 2 | All Maps","name_short":"syd-2","host":"syd-1.au.uncletopia.com","port":27025,"enabled":true,"region":"au","cc":"au","latitude":-33.865143,"longitude":151.2099,"reserved":0,"last_update":"0001-01-01T00:00:00Z","name_a2s":"Uncletopia | Sydney | 2 | All Maps","protocol":17,"map":"pl_barnblitz","folder":"tf","game":"Team Fortress","app_id":440,"player_count":24,"max_players":24,"Bots":0,"server_type":"Dedicated","server_os":"Linux","password":true,"vac":true,"version":"7882260","steam_id":85568392924470002,"keywords":["nocrits","nodmgspread","payload","uncletopia"],"game_id":440,"stv_port":27026,"stv_name":"Uncletopia | Sydney | 2 | All Maps | STV","players":[{"user_id":52,"name":"Zepi","steam_id":76561198018887052,"connected_time":1870000000000,"state":"active","ping":62},{"user_id":57,"name":"Rodan","steam_id":76561198038401873,"connected_time":1412000000000,"state":"active","ping":86},{"user_id":76,"name":"wejsnadf","steam_id":76561198829242996,"connected_time":588000000000,"state":"active","ping":67},{"user_id":36,"name":"WussPoppinJimbo","steam_id":76561199111828033,"connected_time":3508000000000,"state":"active","ping":136},{"user_id":35,"name":"MikkyD","steam_id":76561198043452962,"connected_time":3570000000000,"state":"active","ping":62},{"user_id":58,"name":"Jacob","steam_id":76561198059341907,"connected_time":1403000000000,"state":"active","ping":44},{"user_id":74,"name":"Sir Bigg","steam_id":76561199080759165,"connected_time":696000000000,"state":"active","ping":65},{"user_id":84,"name":"Asl:3x","steam_id":76561198972095766,"connected_time":139000000000,"state":"active","ping":32},{"user_id":60,"name":"Quetap","steam_id":76561198327462566,"connected_time":1370000000000,"state":"active","ping":54},{"user_id":61,"name":"Snowy","steam_id":76561198255720598,"connected_time":1369000000000,"state":"active","ping":47},{"user_id":49,"name":"hive","steam_id":76561199099744527,"connected_time":2024000000000,"state":"active","ping":45},{"user_id":50,"name":"鬼","steam_id":76561198241303512,"connected_time":1976000000000,"state":"active","ping":55},{"user_id":70,"name":"michael","steam_id":76561198052848358,"connected_time":880000000000,"state":"active","ping":69},{"user_id":75,"name":"cringe rizz","steam_id":76561198855798566,"connected_time":660000000000,"state":"active","ping":64},{"user_id":71,"name":"Ahsasin8","steam_id":76561198069097729,"connected_time":853000000000,"state":"active","ping":79},{"user_id":65,"name":"Lobarté","steam_id":76561198090116136,"connected_time":1246000000000,"state":"active","ping":64},{"user_id":77,"name":"ikilluinhalf","steam_id":76561198042917179,"connected_time":523000000000,"state":"active","ping":85},{"user_id":78,"name":"Green Guy","steam_id":76561198267184450,"connected_time":499000000000,"state":"active","ping":80},{"user_id":72,"name":"applepine","steam_id":76561198128399166,"connected_time":852000000000,"state":"active","ping":73},{"user_id":79,"name":"Second Lieutenant Pisser","steam_id":76561198866538028,"connected_time":436000000000,"state":"active","ping":71},{"user_id":80,"name":"YeahAurelia","steam_id":76561197972786509,"connected_time":414000000000,"state":"active","ping":82},{"user_id":81,"name":"Sentry Gun (EpicGuy4227)","steam_id":76561198094132328,"connected_time":335000000000,"state":"active","ping":55},{"user_id":82,"name":"Rashid Of The Dank Memes","steam_id":76561198281398078,"connected_time":273000000000,"state":"active","ping":65},{"user_id":83,"name":"Trum-Boned","steam_id":76561199450599387,"connected_time":223000000000,"state":"active","ping":73}]},{"server_id":395,"name":"Uncletopia | Sydney | 3 | All Maps","name_short":"syd-3","host":"syd-1.au.uncletopia.com","port":27035,"enabled":true,"region":"au","cc":"au","latitude":-33.865143,"longitude":151.2099,"reserved":0,"last_update":"0001-01-01T00:00:00Z","name_a2s":"Uncletopia | Sydney | 3 | All Maps","protocol":17,"map":"koth_viaduct","folder":"tf","game":"Team Fortress","app_id":440,"player_count":0,"max_players":24,"Bots":0,"server_type":"Dedicated","server_os":"Linux","password":true,"vac":true,"version":"7882260","steam_id":85568392925194467,"keywords":["cp","nocrits","nodmgspread","uncletopia"],"game_id":440,"stv_port":27036,"stv_name":"Uncletopia | Sydney | 3 | All Maps | STV","players":null},{"server_id":396,"name":"Uncletopia | Sydney | 4 | All Maps","name_short":"syd-4","host":"syd-1.au.uncletopia.com","port":27045,"enabled":true,"region":"au","cc":"au","latitude":-33.865143,"longitude":151.2099,"reserved":0,"last_update":"0001-01-01T00:00:00Z","name_a2s":"Uncletopia | Sydney | 4 | All Maps","protocol":17,"map":"cp_altitude","folder":"tf","game":"Team Fortress","app_id":440,"player_count":0,"max_players":24,"Bots":0,"server_type":"Dedicated","server_os":"Linux","password":true,"vac":true,"version":"7882260","steam_id":85568392925397958,"keywords":["cp","nocrits","nodmgspread","uncletopia"],"game_id":440,"stv_port":27046,"stv_name":"Uncletopia | Sydney | 4 | All Maps | STV","players":null},{"server_id":58,"name":"Uncletopia | Sydney | 5 | Stopwatch Beta","name_short":"syd-5","host":"syd-1.au.uncletopia.com","port":27055,"enabled":true,"region":"au","cc":"au","latitude":-33.865143,"longitude":151.2099,"reserved":0,"last_update":"0001-01-01T00:00:00Z","name_a2s":"Uncletopia | Sydney | 5 | Stopwatch Beta","protocol":17,"map":"koth_viaduct","folder":"tf","game":"Team Fortress","app_id":440,"player_count":0,"max_players":24,"Bots":0,"server_type":"Dedicated","server_os":"Linux","password":true,"vac":true,"version":"7882260","steam_id":85568392925397959,"keywords":["cp","nocrits","nodmgspread","uncletopia"],"game_id":440,"stv_port":27056,"stv_name":"Uncletopia | Sydney | 5 | Stopwatch Beta | STV","players":null},{"server_id":59,"name":"Uncletopia | Sydney | 6 | Community","name_short":"syd-6","host":"syd-1.au.uncletopia.com","port":27065,"enabled":true,"region":"au","cc":"au","latitude":-33.865143,"longitude":151.2099,"reserved":0,"last_update":"0001-01-01T00:00:00Z","name_a2s":"Uncletopia | Sydney | 6 | Community","protocol":17,"map":"workshop/pl_boundary_final1.ugc456799153","folder":"tf","game":"Team Fortress","app_id":440,"player_count":0,"max_players":24,"Bots":0,"server_type":"Dedicated","server_os":"Linux","password":true,"vac":true,"version":"7882260","steam_id":85568392925397960,"keywords":["nocrits","nodmgspread","payload","uncletopia"],"game_id":440,"stv_port":27066,"stv_name":"Uncletopia | Sydney | 6 | Community | STV","players":null},{"server_id":49,"name":"Uncletopia | Warsaw | 1 | All Maps","name_short":"waw-1","host":"waw-1.pl.uncletopia.com","port":27015,"enabled":true,"region":"eu","cc":"pl","latitude":52.2297,"longitude":21.017532,"reserved":0,"last_update":"0001-01-01T00:00:00Z","name_a2s":"","protocol":0,"map":"","folder":"","game":"","app_id":0,"player_count":0,"max_players":0,"Bots":0,"server_type":"","server_os":"","password":false,"vac":false,"version":"","steam_id":0,"keywords":null,"game_id":0,"stv_port":0,"stv_name":"","players":null},{"server_id":50,"name":"Uncletopia | Warsaw | 2 | All Maps","name_short":"waw-2","host":"waw-1.pl.uncletopia.com","port":27025,"enabled":true,"region":"eu","cc":"pl","latitude":52.2297,"longitude":21.017532,"reserved":0,"last_update":"0001-01-01T00:00:00Z","name_a2s":"Uncletopia | Warsaw | 2 | All Maps","protocol":17,"map":"koth_viaduct","folder":"tf","game":"Team Fortress","app_id":440,"player_count":0,"max_players":24,"Bots":0,"server_type":"Dedicated","server_os":"Linux","password":true,"vac":true,"version":"7882260","steam_id":85568392925397851,"keywords":["cp","nocrits","nodmgspread","uncletopia"],"game_id":440,"stv_port":27026,"stv_name":"Uncletopia | Warsaw | 2 | All Maps | STV","players":null},{"server_id":51,"name":"Uncletopia | Warsaw | 3 | All Maps","name_short":"waw-3","host":"waw-1.pl.uncletopia.com","port":27035,"enabled":true,"region":"eu","cc":"pl","latitude":52.2297,"longitude":21.017532,"reserved":0,"last_update":"0001-01-01T00:00:00Z","name_a2s":"Uncletopia | Warsaw | 3 | All Maps","protocol":17,"map":"pl_badwater","folder":"tf","game":"Team Fortress","app_id":440,"player_count":0,"max_players":24,"Bots":0,"server_type":"Dedicated","server_os":"Linux","password":true,"vac":true,"version":"7882260","steam_id":85568392925397852,"keywords":["nocrits","nodmgspread","payload","uncletopia"],"game_id":440,"stv_port":27036,"stv_name":"Uncletopia | Warsaw | 3 | All Maps | STV","players":null},{"server_id":52,"name":"Uncletopia | Warsaw | 4 | All Maps","name_short":"waw-4","host":"waw-1.pl.uncletopia.com","port":27045,"enabled":true,"region":"eu","cc":"pl","latitude":52.2297,"longitude":21.017532,"reserved":0,"last_update":"0001-01-01T00:00:00Z","name_a2s":"Uncletopia | Warsaw | 4 | All Maps","protocol":17,"map":"koth_cascade","folder":"tf","game":"Team Fortress","app_id":440,"player_count":0,"max_players":24,"Bots":0,"server_type":"Dedicated","server_os":"Linux","password":true,"vac":true,"version":"7882260","steam_id":85568392925397853,"keywords":["cp","nocrits","nodmgspread","uncletopia"],"game_id":440,"stv_port":27046,"stv_name":"Uncletopia | Warsaw | 4 | All Maps | STV","players":null},{"server_id":53,"name":"Uncletopia | Warsaw | 5 | Stopwatch Beta","name_short":"waw-5","host":"waw-1.pl.uncletopia.com","port":27055,"enabled":true,"region":"eu","cc":"pl","latitude":52.2297,"longitude":21.017532,"reserved":0,"last_update":"0001-01-01T00:00:00Z","name_a2s":"Uncletopia | Warsaw | 5 | Stopwatch Beta","protocol":17,"map":"cp_dustbowl","folder":"tf","game":"Team Fortress","app_id":440,"player_count":0,"max_players":24,"Bots":0,"server_type":"Dedicated","server_os":"Linux","password":true,"vac":true,"version":"7882260","steam_id":85568392925397854,"keywords":["cp","nocrits","nodmgspread","uncletopia"],"game_id":440,"stv_port":27056,"stv_name":"Uncletopia | Warsaw | 5 | Stopwatch Beta | STV","players":null},{"server_id":54,"name":"Uncletopia | Warsaw | 6 | Community","name_short":"waw-6","host":"waw-1.pl.uncletopia.com","port":27065,"enabled":true,"region":"eu","cc":"pl","latitude":52.2297,"longitude":21.017532,"reserved":0,"last_update":"0001-01-01T00:00:00Z","name_a2s":"Uncletopia | Warsaw | 6 | Community","protocol":17,"map":"cp_dustbowl","folder":"tf","game":"Team Fortress","app_id":440,"player_count":0,"max_players":24,"Bots":0,"server_type":"Dedicated","server_os":"Linux","password":true,"vac":true,"version":"7882260","steam_id":85568392925397856,"keywords":["cp","nocrits","nodmgspread","uncletopia"],"game_id":440,"stv_port":27066,"stv_name":"Uncletopia | Warsaw | 6 | Community | STV","players":null}]}