{"status":true,"message":"","result":[{"server_id":9,"name":"Uncletopia | Atlanta | 1 | All Maps","name_short":"atl-1","host":"atl-1.us.uncletopia.com","port":27015,"enabled":true,"region":"us-east","cc":"us","latitude":33.753746,"longitude":-84.38633,"reserved":0,"last_update":"0001-01-01T00:00:00Z","name_a2s":"Uncletopia | Atlanta | 1 | All Maps","protocol":17,"map":"cp_dustbowl","folder":"tf","game":"Team Fortress","app_id":440,"player_count":0,"max_players":24,"Bots":0,"server_type":"Dedicated","server_os":"Linux","password":true,"vac":true,"version":"7961495","steam_id":85568392924469982,"keywords":["cp","nocrits","nodmgspread","uncletopia"],"game_id":440,"stv_port":27016,"stv_name":"Uncletopia | Atlanta | 1 | All Maps | STV","players":null},{"server_id":104,"name":"Uncletopia | Atlanta | 2 | All Maps","name_short":"atl-2","host":"atl-1.us.uncletopia.com","port":27025,"enabled":true,"region":"us-east","cc":"us","latitude":33.753746,"longitude":-84.38633,"reserved":0,"last_update":"0001-01-01T00:00:00Z","name_a2s":"Uncletopia | Atlanta | 2 | All Maps","protocol":17,"map":"koth_cascade","folder":"tf","game":"Team Fortress","app_id":440,"player_count":0,"max_players":24,"Bots":0,"server_type":"Dedicated","server_os":"Linux","password":true,"vac":true,"version":"7961495","steam_id":85568392924469983,"keywords":["cp","nocrits","nodmgspread","uncletopia"],"game_id":440,"stv_port":27026,"stv_name":"Uncletopia | Atlanta | 2 | All Maps | STV","players":null},{"server_id":400,"name":"Uncletopia | Atlanta | 3 | Stopwatch","name_short":"atl-3","host":"atl-1.us.uncletopia.com","port":27035,"enabled":true,"region":"us-east","cc":"us","latitude":33.753746,"longitude":-84.38633,"reserved":0,"last_update":"0001-01-01T00:00:00Z","name_a2s":"Uncletopia | Atlanta | 3 | Stopwatch","protocol":17,"map":"pl_badwater","folder":"tf","game":"Team Fortress","app_id":440,"player_count":0,"max_players":24,"Bots":0,"server_type":"Dedicated","server_os":"Linux","password":true,"vac":true,"version":"7961495","steam_id":85568392924515187,"keywords":["nocrits","nodmgspread","payload","uncletopia"],"game_id":440,"stv_port":27036,"stv_name":"Uncletopia | Atlanta | 3 | Stopwatch | STV","players":null},{"server_id":401,"name":"Uncletopia | Atlanta | 4 | Community","name_short":"atl-4","host":"atl-1.us.uncletopia.com","port":27045,"enabled":true,"region":"us-east","cc":"us","latitude":33.753746,"longitude":-84.38633,"reserved":0,"last_update":"0001-01-01T00:00:00Z","name_a2s":"Uncletopia | Atlanta | 4 | Community","protocol":17,"map":"cp_sunshine","folder":"tf","game":"Team Fortress","app_id":440,"player_count":0,"max_players":24,"Bots":0,"server_type":"Dedicated","server_os":"Linux","password":true,"vac":true,"version":"7961495","steam_id":85568392924515188,"keywords":["cp","nocrits","nodmgspread","uncletopia"],"game_id":440,"stv_port":27046,"stv_name":"Uncletopia | Atlanta | 4 | Community | STV","players":null},{"server_id":2,"name":"Uncletopia | Chicago | 1 | All Maps","name_short":"chi-1","host":"chi-1.us.uncletopia.com","port":27015,"enabled":true,"region":"us-central","cc":"us","latitude":41.881832,"longitude":-87.62318,"reserved":0,"last_update":"0001-01-01T00:00:00Z","name_a2s":"Uncletopia | Chicago | 1 | All Maps","protocol":17,"map":"pl_snowycoast","folder":"tf","game":"Team Fortress","app_id":440,"player_count":24,"max_players":24,"Bots":0,"server_type":"Dedicated","server_os":"Linux","password":true,"vac":true,"version":"7961495","steam_id":85568392924469984,"keywords":["nocrits","nodmgspread","payload","uncletopia"],"game_id":440,"stv_port":27016,"stv_name":"Uncletopia | Chicago | 1 | All Maps | STV","players":[{"user_id":254,"name":"Sicko Mode (Chris Pratt Cover)","steam_id":76561198315786174,"connected_time":397000000000,"state":"active","ping":112},{"user_id":190,"name":"DerpyNate","steam_id":76561198100249037,"connected_time":4340000000000,"state":"active","ping":38},{"user_id":241,"name":"YummerBummer","steam_id":76561198094773987,"connected_time":1376000000000,"state":"active","ping":70},{"user_id":261,"name":"Kraftlos","steam_id":76561198074350350,"connected_time":68000000000,"state":"active","ping":80},{"user_id":262,"name":"cbv dsjlakflkwijipgjv3rp[tcv","steam_id":76561198304661367,"connected_time":50000000000,"state":"active","ping":82},{"user_id":244,"name":"The_Epic_Conclusion","steam_id":76561198084250179,"connected_time":1086000000000,"state":"active","ping":72},{"user_id":237,"name":"your moms car","steam_id":76561199389283507,"connected_time":1570000000000,"state":"active","ping":72},{"user_id":221,"name":"Celestial Bodies","steam_id":76561198212572955,"connected_time":2604000000000,"state":"active","ping":83},{"user_id":234,"name":"Yarn","steam_id":76561199227148369,"connected_time":1624000000000,"state":"active","ping":90},{"user_id":256,"name":"Im High","steam_id":76561198049954886,"connected_time":374000000000,"state":"active","ping":73},{"user_id":185,"name":"Coach McFish","steam_id":76561198210456405,"connected_time":4954000000000,"state":"active","ping":77},{"user_id":259,"name":"Florian","steam_id":76561197998901116,"connected_time":210000000000,"state":"active","ping":77},{"user_id":224,"name":"snail2646","steam_id":76561198061411251,"connected_time":2477000000000,"state":"active","ping":47},{"user_id":253,"name":"what","steam_id":76561198082336619,"connected_time":416000000000,"state":"active","ping":76},{"user_id":217,"name":"bagel cream cheese","steam_id":76561198017954785,"connected_time":2677000000000,"state":"active","ping":75},{"user_id":207,"name":"og biden pack cart","steam_id":76561198253731826,"connected_time":3305000000000,"state":"active","ping":63},{"user_id":260,"name":"Hephaestus","steam_id":76561198071538893,"connected_time":145000000000,"state":"active","ping":75},{"user_id":232,"name":"THORNFIELDGAMER","steam_id":76561199087167473,"connected_time":1638000000000,"state":"active","ping":89},{"user_id":257,"name":"ThreatLvl 9 (she/her)","steam_id":76561198079410533,"connected_time":369000000000,"state":"active","ping":76},{"user_id":258,"name":"mkl","steam_id":76561197986401685,"connected_time":341000000000,"state":"active","ping":83},{"user_id":250,"name":"Vin","steam_id":76561198043601929,"connected_time":694000000000,"state":"active","ping":120},{"user_id":252,"name":"Mr_Frosty","steam_id":76561199380389079,"connected_time":445000000000,"state":"active","ping":89},{"user_id":166,"name":"Hazeyboi","steam_id":76561198130687838,"connected_time":6711000000000,"state":"active","ping":59},{"user_id":236,"name":"Twattat","steam_id":76561198074563850,"connected_time":1603000000000,"state":"active","ping":97}]},{"server_id":106,"name":"Uncletopia | Chicago | 2 | All Maps","name_short":"chi-2","host":"chi-1.us.uncletopia.com","port":27025,"enabled":true,"region":"us-central","cc":"us","latitude":41.881832,"longitude":-87.62318,"reserved":0,"last_update":"0001-01-01T00:00:00Z","name_a2s":"Uncletopia | Chicago | 2 | All Maps","protocol":17,"map":"koth_lakeside_final","folder":"tf","game":"Team Fortress","app_id":440,"player_count":24,"max_players":24,"Bots":0,"server_type":"Dedicated","server_os":"Linux","password":true,"vac":true,"version":"7961495","steam_id":85568392924469985,"keywords":["cp","nocrits","nodmgspread","uncletopia"],"game_id":440,"stv_port":27026,"stv_name":"Uncletopia | Chicago | 2 | All Maps | STV","players":[{"user_id":337,"name":"Succulent Chinese Mayo","steam_id":76561198092483430,"connected_time":1309000000000,"state":"active","ping":75},{"user_id":303,"name":"Bishop","steam_id":76561198033860186,"connected_time":3577000000000,"state":"active","ping":83},{"user_id":333,"name":"carrot cake","steam_id":76561198055174915,"connected_time":1797000000000,"state":"active","ping":64},{"user_id":336,"name":"super_padd","steam_id":76561199091514116,"connected_time":1384000000000,"state":"active","ping":109},{"user_id":334,"name":"pelt","steam_id":76561197993593754,"connected_time":1691000000000,"state":"active","ping":47},{"user_id":344,"name":"Shrek Jackson","steam_id":76561198844790038,"connected_time":711000000000,"state":"active","ping":108},{"user_id":345,"name":"HailStone EQ","steam_id":76561198167566733,"connected_time":704000000000,"state":"active","ping":83},{"user_id":352,"name":"CWITS","steam_id":76561199171515178,"connected_time":328000000000,"state":"active","ping":89},{"user_id":315,"name":"sunglasses","steam_id":76561198173747227,"connected_time":2750000000000,"state":"active","ping":70},{"user_id":340,"name":"OH BOY","steam_id":76561199052273428,"connected_time":1268000000000,"state":"active","ping":54},{"user_id":347,"name":"Gnome Tank","steam_id":76561198984179092,"connected_time":678000000000,"state":"active","ping":76},{"user_id":348,"name":"Weary","steam_id":76561198145767546,"connected_time":643000000000,"state":"active","ping":83},{"user_id":311,"name":"MikeLovesRabbit","steam_id":76561197997742625,"connected_time":3109000000000,"state":"active","ping":61},{"user_id":305,"name":"Ajax","steam_id":76561197962240140,"connected_time":3461000000000,"state":"active","ping":58},{"user_id":328,"name":"BIG-GER BOSS","steam_id":76561198097981127,"connected_time":2343000000000,"state":"active","ping":91},{"user_id":300,"name":"squaggles!","steam_id":76561197994995011,"connected_time":3773000000000,"state":"active","ping":53},{"user_id":349,"name":"Chillin Turt","steam_id":76561198025796849,"connected_time":632000000000,"state":"active","ping":71},{"user_id":342,"name":"TheoLynwood","steam_id":76561198079596878,"connected_time":966000000000,"state":"active","ping":73},{"user_id":203,"name":"４０ ＦＰＳ","steam_id":76561198272394965,"connected_time":7819000000000,"state":"active","ping":134},{"user_id":327,"name":"Boi Pussy♥","steam_id":76561199121980584,"connected_time":2453000000000,"state":"active","ping":60},{"user_id":310,"name":"Varveer","steam_id":76561198218897383,"connected_time":3149000000000,"state":"active","ping":68},{"user_id":299,"name":"viedoamges","steam_id":76561198025295263,"connected_time":3794000000000,"state":"active","ping":89},{"user_id":325,"name":"Luke","steam_id":76561198253533632,"connected_time":2516000000000,"state":"active","ping":60},{"user_id":350,"name":"leumas","steam_id":76561198240408540,"connected_time":630000000000,"state":"active","ping":59}]},{"server_id":402,"name":"Uncletopia | Chicago | 3 | All Maps","name_short":"chi-3","host":"chi-1.us.uncletopia.com","port":27035,"enabled":true,"region":"us-central","cc":"us","latitude":41.881832,"longitude":-87.62318,"reserved":0,"last_update":"0001-01-01T00:00:00Z","name_a2s":"Uncletopia | Chicago | 3 | All Maps","protocol":17,"map":"pl_rumford_event","folder":"tf","game":"Team Fortress","app_id":440,"player_count":6,"max_players":24,"Bots":0,"server_type":"Dedicated","server_os":"Linux","password":true,"vac":true,"version":"7961495","steam_id":85568392924515191,"keywords":["nocrits","nodmgspread","payload","uncletopia"],"game_id":440,"stv_port":27036,"stv_name":"Uncletopia | Chicago | 3 | All Maps | STV","players":[{"user_id":19,"name":"101_the_Robot","steam_id":76561198331039848,"connected_time":1032000000000,"state":"active","ping":186},{"user_id":20,"name":"Blippity Blop","steam_id":76561198830927973,"connected_time":1013000000000,"state":"active","ping":187},{"user_id":22,"name":"filthycasual","steam_id":76561199138226238,"connected_time":685000000000,"state":"active","ping":83},{"user_id":25,"name":"Boot Mcstink","steam_id":76561199226873917,"connected_time":48000000000,"state":"active","ping":93},{"user_id":24,"name":"ryan.m.pomeroy","steam_id":76561199122432930,"connected_time":307000000000,"state":"active","ping":76},{"user_id":26,"name":"6 million bees","steam_id":76561198400438007,"connected_time":5000000000,"state":"spawning","ping":55}]},{"server_id":403,"name":"Uncletopia | Chicago | 4 | All Maps","name_short":"chi-4","host":"chi-1.us.uncletopia.com","port":27045,"enabled":true,"region":"us-central","cc":"us","latitude":41.881832,"longitude":-87.62318,"reserved":0,"last_update":"0001-01-01T00:00:00Z","name_a2s":"Uncletopia | Chicago | 4 | All Maps","protocol":17,"map":"pl_upward","folder":"tf","game":"Team Fortress","app_id":440,"player_count":24,"max_players":24,"Bots":0,"server_type":"Dedicated","server_os":"Linux","password":true,"vac":true,"version":"7961495","steam_id":85568392924515193,"keywords":["nocrits","nodmgspread","payload","uncletopia"],"game_id":440,"stv_port":27046,"stv_name":"Uncletopia | Chicago | 4 | All Maps | STV","players":[{"user_id":460,"name":"JucaPirama","steam_id":76561198004473680,"connected_time":805000000000,"state":"active","ping":169},{"user_id":477,"name":"Indigolake","steam_id":76561198202215807,"connected_time":142000000000,"state":"active","ping":85},{"user_id":457,"name":"Slope115117","steam_id":76561199028794627,"connected_time":998000000000,"state":"active","ping":104},{"user_id":478,"name":"shadowtaco69","steam_id":76561198112453714,"connected_time":128000000000,"state":"active","ping":86},{"user_id":414,"name":"SexySpectacles","steam_id":76561198211449103,"connected_time":5130000000000,"state":"active","ping":43},{"user_id":407,"name":"Decolour","steam_id":76561199045608372,"connected_time":5481000000000,"state":"active","ping":93},{"user_id":454,"name":"dr peppah chug!","steam_id":76561198068835693,"connected_time":1030000000000,"state":"active","ping":92},{"user_id":459,"name":"zacmattsmith","steam_id":76561199027704149,"connected_time":847000000000,"state":"active","ping":77},{"user_id":472,"name":"jimmz","steam_id":76561199076776118,"connected_time":510000000000,"state":"active","ping":58},{"user_id":467,"name":"The All-Seeing Tim","steam_id":76561198075510786,"connected_time":583000000000,"state":"active","ping":65},{"user_id":462,"name":"cognitiveAfflatus","steam_id":76561198295181426,"connected_time":776000000000,"state":"active","ping":67},{"user_id":469,"name":"if looks could kill","steam_id":76561198117505303,"connected_time":521000000000,"state":"active","ping":75},{"user_id":439,"name":"Bobato Chaps","steam_id":76561198065103552,"connected_time":2369000000000,"state":"active","ping":45},{"user_id":470,"name":"Mikael_01","steam_id":76561199080253129,"connected_time":517000000000,"state":"active","ping":189},{"user_id":435,"name":"Window Licker #pride","steam_id":76561198386717007,"connected_time":3569000000000,"state":"active","ping":51},{"user_id":451,"name":"guy","steam_id":76561198079925551,"connected_time":1229000000000,"state":"active","ping":73},{"user_id":471,"name":"Anti-Clown","steam_id":76561199041966659,"connected_time":515000000000,"state":"active","ping":88},{"user_id":458,"name":"Taco","steam_id":76561198158621392,"connected_time":989000000000,"state":"active","ping":59},{"user_id":476,"name":"Lunatic","steam_id":76561198288676997,"connected_time":268000000000,"state":"active","ping":101},{"user_id":473,"name":"Novu","steam_id":76561198886997024,"connected_time":498000000000,"state":"active","ping":89},{"user_id":418,"name":"Ok-Par","steam_id":76561199221067945,"connected_time":4960000000000,"state":"active","ping":97},{"user_id":479,"name":"coda","steam_id":76561198092052685,"connected_time":126000000000,"state":"active","ping":60},{"user_id":445,"name":"lonely","steam_id":76561198096347625,"connected_time":2268000000000,"state":"active","ping":75},{"user_id":475,"name":"popfulmail","steam_id":76561198865971290,"connected_time":358000000000,"state":"active","ping":85}]},{"server_id":36,"name":"Uncletopia | Chicago | 5 | All Maps","name_short":"chi-5","host":"chi-2.us.uncletopia.com","port":27015,"enabled":true,"region":"us-central","cc":"us","latitude":41.881832,"longitude":-87.62318,"reserved":0,"last_update":"0001-01-01T00:00:00Z","name_a2s":"Uncletopia | Chicago | 5 | All Maps","protocol":17,"map":"pl_upward","folder":"tf","game":"Team Fortress","app_id":440,"player_count":24,"max_players":24,"Bots":0,"server_type":"Dedicated","server_os":"Linux","password":true,"vac":true,"version":"7961495","steam_id":85568392924866362,"keywords":["nocrits","nodmgspread","payload","uncletopia"],"game_id":440,"stv_port":27016,"stv_name":"Uncletopia | Chicago | 5 | All Maps | STV","players":[{"user_id":326,"name":"gillmore.samuel","steam_id":76561198109742336,"connected_time":1619000000000,"state":"active","ping":69},{"user_id":327,"name":"I shat my pants","steam_id":76561199105515243,"connected_time":1573000000000,"state":"active","ping":116},{"user_id":340,"name":"i love the government :)","steam_id":76561199015353035,"connected_time":1038000000000,"state":"active","ping":85},{"user_id":320,"name":"鸡炒面组合板","steam_id":76561198032627384,"connected_time":2050000000000,"state":"active","ping":100},{"user_id":312,"name":"BoysWhoCry(MEGAFAN)","steam_id":76561198106967143,"connected_time":2478000000000,"state":"active","ping":71},{"user_id":272,"name":"Macko","steam_id":76561198452005461,"connected_time":7487000000000,"state":"active","ping":78},{"user_id":328,"name":"gunna sayit","steam_id":76561198034339940,"connected_time":1538000000000,"state":"active","ping":54},{"user_id":310,"name":"graham crackr","steam_id":76561199072720886,"connected_time":2762000000000,"state":"active","ping":65},{"user_id":331,"name":"mini boss","steam_id":76561198062763756,"connected_time":1365000000000,"state":"active","ping":53},{"user_id":351,"name":"Sayeun","steam_id":76561198020835288,"connected_time":494000000000,"state":"active","ping":104},{"user_id":302,"name":"SpongeBucket","steam_id":76561198111399192,"connected_time":4005000000000,"state":"active","ping":67},{"user_id":348,"name":"single celled organism","steam_id":76561199217620385,"connected_time":658000000000,"state":"active","ping":73},{"user_id":344,"name":"jorjor wells","steam_id":76561199073429082,"connected_time":880000000000,"state":"active","ping":70},{"user_id":319,"name":"Training Bot [Easy]","steam_id":76561199119473164,"connected_time":2075000000000,"state":"active","ping":78},{"user_id":308,"name":"Jango","steam_id":76561198084589742,"connected_time":2820000000000,"state":"active","ping":76},{"user_id":342,"name":"ATL1 | to4st","steam_id":76561198981009008,"connected_time":950000000000,"state":"active","ping":56},{"user_id":335,"name":"Kaestal","steam_id":76561198033174157,"connected_time":1134000000000,"state":"active","ping":69},{"user_id":349,"name":"B.","steam_id":76561198040445907,"connected_time":591000000000,"state":"active","ping":73},{"user_id":336,"name":"SCATTER","steam_id":76561198405168492,"connected_time":1099000000000,"state":"active","ping":77},{"user_id":345,"name":"Adam Sandler (from grown ups)","steam_id":76561199251933053,"connected_time":792000000000,"state":"active","ping":95},{"user_id":283,"name":"Schizoid","steam_id":76561198088687988,"connected_time":6425000000000,"state":"active","ping":54},{"user_id":350,"name":"RandyPickleshoes","steam_id":76561198064139260,"connected_time":511000000000,"state":"active","ping":72},{"user_id":346,"name":"sheeesh","steam_id":76561198038080028,"connected_time":792000000000,"state":"active","ping":92},{"user_id":341,"name":"mk","steam_id":76561197977347045,"connected_time":1038000000000,"state":"active","ping":78}]},{"server_id":37,"name":"Uncletopia | Chicago | 6 | All Maps","name_short":"chi-6","host":"chi-2.us.uncletopia.com","port":27025,"enabled":true,"region":"us-central","cc":"us","latitude":41.881832,"longitude":-87.62318,"reserved":0,"last_update":"0001-01-01T00:00:00Z","name_a2s":"Uncletopia | Chicago | 6 | All Maps","protocol":17,"map":"pl_upward","folder":"tf","game":"Team Fortress","app_id":440,"player_count":24,"max_players":24,"Bots":0,"server_type":"Dedicated","server_os":"Linux","password":true,"vac":true,"version":"7961495","steam_id":85568392924866363,"keywords":["nocrits","nodmgspread","payload","uncletopia"],"game_id":440,"stv_port":27026,"stv_name":"Uncletopia | Chicago | 6 | All Maps | STV","players":[{"user_id":6,"name":"Chad Soupcan","steam_id":76561198837618838,"connected_time":3420000000000,"state":"active","ping":60},{"user_id":47,"name":"Fanatic","steam_id":76561197998548387,"connected_time":1015000000000,"state":"active","ping":61},{"user_id":42,"name":"Lex","steam_id":76561198069948353,"connected_time":1363000000000,"state":"active","ping":90},{"user_id":52,"name":"its chicken casserole not cum","steam_id":76561198113156438,"connected_time":212000000000,"state":"active","ping":49},{"user_id":51,"name":"Merchant","steam_id":76561198130468663,"connected_time":403000000000,"state":"active","ping":58},{"user_id":43,"name":"Max_Attack","steam_id":76561198944028607,"connected_time":1360000000000,"state":"active","ping":79},{"user_id":49,"name":"cool beans","steam_id":76561198321591685,"connected_time":989000000000,"state":"active","ping":79},{"user_id":15,"name":"Rawhide Kobayashi","steam_id":76561198067051062,"connected_time":2151000000000,"state":"active","ping":43},{"user_id":53,"name":"BumpofNight","steam_id":76561198011581312,"connected_time":204000000000,"state":"active","ping":89},{"user_id":46,"name":"Future Tusk","steam_id":76561198199635217,"connected_time":1145000000000,"state":"active","ping":108},{"user_id":27,"name":"NeoWolf","steam_id":76561198144759784,"connected_time":1900000000000,"state":"active","ping":100},{"user_id":45,"name":"Skanderbruh","steam_id":76561198073110527,"connected_time":1220000000000,"state":"active","ping":89},{"user_id":54,"name":"ono","steam_id":76561198024377986,"connected_time":162000000000,"state":"active","ping":91},{"user_id":22,"name":"MTGbigdog","steam_id":76561198838760637,"connected_time":1982000000000,"state":"active","ping":84},{"user_id":41,"name":"Scrux","steam_id":76561198129763115,"connected_time":1465000000000,"state":"active","ping":109},{"user_id":48,"name":"1998 Volvo S70 T5","steam_id":76561198258615044,"connected_time":1004000000000,"state":"active","ping":91},{"user_id":55,"name":"Gotta Move That Gear Up","steam_id":76561197993467034,"connected_time":32000000000,"state":"active","ping":50},{"user_id":36,"name":"Osteo-Oligarch","steam_id":76561198164731896,"connected_time":1791000000000,"state":"active","ping":77},{"user_id":50,"name":"Mr.brapswason","steam_id":76561198313133260,"connected_time":509000000000,"state":"active","ping":50},{"user_id":31,"name":"Bunt","steam_id":76561198124477567,"connected_time":1827000000000,"state":"active","ping":64},{"user_id":32,"name":"scauroboros","steam_id":76561198279392720,"connected_time":1813000000000,"state":"active","ping":67},{"user_id":33,"name":"✨ Rarity ✨","steam_id":76561199172206856,"connected_time":1806000000000,"state":"active","ping":87},{"user_id":34,"name":"SIN K4RMA","steam_id":76561198869287223,"connected_time":1803000000000,"state":"active","ping":84},{"user_id":44,"name":"the flying spoon","steam_id":76561199039152146,"connected_time":1311000000000,"state":"active","ping":75}]},{"server_id":38,"name":"Uncletopia | Chicago | 7 | Stopwatch","name_short":"chi-7","host":"chi-2.us.uncletopia.com","port":27035,"enabled":true,"region":"us-central","cc":"us","latitude":41.881832,"longitude":-87.62318,"reserved":0,"last_update":"0001-01-01T00:00:00Z","name_a2s":"Uncletopia | Chicago | 7 | Stopwatch","protocol":17,"map":"workshop/koth_ramjam_rc1.ugc459778887","folder":"tf","game":"Team Fortress","app_id":440,"player_count":0,"max_players":24,"Bots":0,"server_type":"Dedicated","server_os":"Linux","password":true,"vac":true,"version":"7961495","steam_id":85568392924866364,"keywords":["cp","nocrits","nodmgspread","uncletopia"],"game_id":440,"stv_port":27036,"stv_name":"Uncletopia | Chicago | 7 | Stopwatch | STV","players":null},{"server_id":39,"name":"Uncletopia | Chicago | 8 | Community","name_short":"chi-8","host":"chi-2.us.uncletopia.com","port":27045,"enabled":true,"region":"us-central","cc":"us","latitude":41.881832,"longitude":-87.62318,"reserved":0,"last_update":"0001-01-01T00:00:00Z","name_a2s":"Uncletopia | Chicago | 8 | Community","protocol":17,"map":"workshop/koth_slaughter_rc1.ugc1712845210","folder":"tf","game":"Team Fortress","app_id":440,"player_count":0,"max_players":24,"Bots":0,"server_type":"Dedicated","server_os":"Linux","password":true,"vac":true,"version":"7961495","steam_id":85568392924866365,"keywords":["cp","nocrits","nodmgspread","uncletopia"],"game_id":440,"stv_port":27046,"stv_name":"Uncletopia | Chicago | 8 | Community | STV","players":null},{"server_id":8,"name":"Uncletopia | Dallas | 1 | All Maps","name_short":"dal-1","host":"dal-1.us.uncletopia.com","port":27015,"enabled":true,"region":"us-central","cc":"us","latitude":32.779167,"longitude":-96.80889,"reserved":0,"last_update":"0001-01-01T00:00:00Z","name_a2s":"Uncletopia | Dallas | 1 | All Maps","protocol":17,"map":"pl_snowycoast","folder":"tf","game":"Team Fortress","app_id":440,"player_count":23,"max_players":24,"Bots":0,"server_type":"Dedicated","server_os":"Linux","password":true,"vac":true,"version":"7961495","steam_id":85568392924469986,"keywords":["nocrits","nodmgspread","payload","uncletopia"],"game_id":440,"stv_port":27016,"stv_name":"Uncletopia | Dallas | 1 | All Maps | STV","players":[{"user_id":152,"name":"Cresant Ape","steam_id":76561198127425559,"connected_time":1468000000000,"state":"active","ping":46},{"user_id":161,"name":"Legit_Jaxer","steam_id":76561198172234053,"connected_time":777000000000,"state":"active","ping":109},{"user_id":157,"name":"imng","steam_id":76561198014988031,"connected_time":1259000000000,"state":"active","ping":75},{"user_id":171,"name":"MidSobbes08","steam_id":76561199013101925,"connected_time":76000000000,"state":"active","ping":126},{"user_id":143,"name":"Charlie","steam_id":76561198798127908,"connected_time":1715000000000,"state":"active","ping":88},{"user_id":137,"name":"Ferguson","steam_id":76561198121349387,"connected_time":2849000000000,"state":"active","ping":57},{"user_id":144,"name":"Fizzle","steam_id":76561199466859396,"connected_time":1707000000000,"state":"active","ping":47},{"user_id":165,"name":"Frank","steam_id":76561198428759980,"connected_time":307000000000,"state":"active","ping":90},{"user_id":166,"name":"Danny DeVito with a Gun","steam_id":76561198043358828,"connected_time":304000000000,"state":"active","ping":86},{"user_id":167,"name":"ez$ airballer","steam_id":76561198165899125,"connected_time":233000000000,"state":"active","ping":84},{"user_id":130,"name":"Tommy Provolone","steam_id":76561198170062377,"connected_time":3161000000000,"state":"active","ping":62},{"user_id":162,"name":"INFINITE","steam_id":76561197971285557,"connected_time":756000000000,"state":"active","ping":90},{"user_id":105,"name":"lalalemons","steam_id":76561198243965308,"connected_time":4577000000000,"state":"active","ping":96},{"user_id":158,"name":"Soapbar","steam_id":76561198081714169,"connected_time":1221000000000,"state":"active","ping":85},{"user_id":170,"name":"porz","steam_id":76561198195711453,"connected_time":115000000000,"state":"active","ping":46},{"user_id":159,"name":"A Gamer [F2P]","steam_id":76561198138712892,"connected_time":921000000000,"state":"active","ping":45},{"user_id":168,"name":"chrisd149","steam_id":76561198018710480,"connected_time":218000000000,"state":"active","ping":89},{"user_id":169,"name":"Palpy","steam_id":76561198165608201,"connected_time":211000000000,"state":"active","ping":49},{"user_id":107,"name":"Sharp","steam_id":76561198044565001,"connected_time":4554000000000,"state":"active","ping":73},{"user_id":78,"name":"Ata","steam_id":76561198349085545,"connected_time":5883000000000,"state":"active","ping":85},{"user_id":148,"name":"Voodo133","steam_id":76561198042670351,"connected_time":1636000000000,"state":"active","ping":109},{"user_id":139,"name":"SpockASD","steam_id":76561198830243167,"connected_time":2415000000000,"state":"active","ping":93},{"user_id":151,"name":"Pim","steam_id":76561198046050375,"connected_time":1596000000000,"state":"active","ping":115}]},{"server_id":108,"name":"Uncletopia | Dallas | 2 | All Maps","name_short":"dal-2","host":"dal-1.us.uncletopia.com","port":27025,"enabled":true,"region":"us-central","cc":"us","latitude":32.779167,"longitude":-96.80889,"reserved":0,"last_update":"0001-01-01T00:00:00Z","name_a2s":"Uncletopia | Dallas | 2 | All Maps","protocol":17,"map":"pl_pier","folder":"tf","game":"Team Fortress","app_id":440,"player_count":24,"max_players":24,"Bots":0,"server_type":"Dedicated","server_os":"Linux","password":true,"vac":true,"version":"7961495","steam_id":85568392924469988,"keywords":["nocrits","nodmgspread","payload","uncletopia"],"game_id":440,"stv_port":27026,"stv_name":"Uncletopia | Dallas | 2 | All Maps | STV","players":[{"user_id":209,"name":"Crescent","steam_id":76561198095124633,"connected_time":2303000000000,"state":"active","ping":70},{"user_id":174,"name":"NFL.com","steam_id":76561198113405376,"connected_time":6021000000000,"state":"active","ping":76},{"user_id":207,"name":"Brandino!","steam_id":76561198000446932,"connected_time":2333000000000,"state":"active","ping":102},{"user_id":231,"name":"Intrepid","steam_id":76561198125321034,"connected_time":357000000000,"state":"active","ping":87},{"user_id":210,"name":"Mana_Kaktus","steam_id":76561198110468307,"connected_time":2293000000000,"state":"active","ping":94},{"user_id":158,"name":"Neptune˖⁺｡˚⋆˙♥","steam_id":76561199054203198,"connected_time":7701000000000,"state":"active","ping":89},{"user_id":192,"name":"dicksnip","steam_id":76561198356515396,"connected_time":4171000000000,"state":"active","ping":77},{"user_id":211,"name":"guy","steam_id":76561198163306561,"connected_time":2283000000000,"state":"active","ping":73},{"user_id":159,"name":"Kc","steam_id":76561198210734407,"connected_time":7698000000000,"state":"active","ping":74},{"user_id":187,"name":"Verily","steam_id":76561198200558318,"connected_time":4657000000000,"state":"active","ping":89},{"user_id":225,"name":"TheBrocklobster","steam_id":76561198039682984,"connected_time":1126000000000,"state":"active","ping":89},{"user_id":226,"name":"ttv/thedittoguy (birthday today","steam_id":76561199013129784,"connected_time":1113000000000,"state":"active","ping":58},{"user_id":234,"name":"That One Guy","steam_id":76561198945646560,"connected_time":231000000000,"state":"active","ping":126},{"user_id":205,"name":"schmuck","steam_id":76561198143789773,"connected_time":2721000000000,"state":"active","ping":51},{"user_id":220,"name":"TechnoBear2099","steam_id":76561198238863596,"connected_time":1512000000000,"state":"active","ping":55},{"user_id":215,"name":"The Caretaker","steam_id":76561198125241411,"connected_time":2160000000000,"state":"active","ping":102},{"user_id":123,"name":"Greasy Guavas","steam_id":76561198089650428,"connected_time":12032000000000,"state":"active","ping":58},{"user_id":224,"name":"DrSkizerz","steam_id":76561199192964063,"connected_time":1152000000000,"state":"active","ping":64},{"user_id":235,"name":"lynks disease no sound","steam_id":76561198043465434,"connected_time":172000000000,"state":"active","ping":91},{"user_id":218,"name":"TrashPanda (she/her)","steam_id":76561198447864095,"connected_time":1617000000000,"state":"active","ping":67},{"user_id":216,"name":"Big Yoshi","steam_id":76561199160576376,"connected_time":2139000000000,"state":"active","ping":101},{"user_id":228,"name":"An Engineer","steam_id":76561198110381643,"connected_time":1034000000000,"state":"active","ping":47},{"user_id":230,"name":"Super™ Classic Edition","steam_id":76561198171655735,"connected_time":429000000000,"state":"active","ping":65},{"user_id":233,"name":"tf2player001","steam_id":76561199497314797,"connected_time":336000000000,"state":"active","ping":120}]},{"server_id":404,"name":"Uncletopia | Dallas | 3 | All Maps","name_short":"dal-3","host":"dal-1.us.uncletopia.com","port":27035,"enabled":true,"region":"us-central","cc":"us","latitude":32.779167,"longitude":-96.80889,"reserved":0,"last_update":"0001-01-01T00:00:00Z","name_a2s":"Uncletopia | Dallas | 3 | All Maps","protocol":17,"map":"koth_cascade","folder":"tf","game":"Team Fortress","app_id":440,"player_count":0,"max_players":24,"Bots":0,"server_type":"Dedicated","server_os":"Linux","password":true,"vac":true,"version":"7961495","steam_id":85568392924515219,"keywords":["cp","nocrits","nodmgspread","uncletopia"],"game_id":440,"stv_port":27036,"stv_name":"Uncletopia | Dallas | 3 | All Maps | STV","players":null},{"server_id":405,"name":"Uncletopia | Dallas | 4 | Community","name_short":"dal-4","host":"dal-1.us.uncletopia.com","port":27045,"enabled":true,"region":"us-central","cc":"us","latitude":32.779167,"longitude":-96.80889,"reserved":0,"last_update":"0001-01-01T00:00:00Z","name_a2s":"Uncletopia | Dallas | 4 | Community","protocol":17,"map":"workshop/cp_hazyfort_rc6.ugc1365963729","folder":"tf","game":"Team Fortress","app_id":440,"player_count":0,"max_players":24,"Bots":0,"server_type":"Dedicated","server_os":"Linux","password":true,"vac":true,"version":"7961495","steam_id":85568392924515220,"keywords":["cp","nocrits","nodmgspread","uncletopia"],"game_id":440,"stv_port":27046,"stv_name":"Uncletopia | Dallas | 4 | Community | STV","players":null},{"server_id":5,"name":"Uncletopia | Frankfurt | 1 | All Maps","name_short":"frk-1","host":"frk-1.de.uncletopia.com","port":27015,"enabled":true,"region":"eu","cc":"de","latitude":50.110924,"longitude":8.682127,"reserved":0,"last_update":"0001-01-01T00:00:00Z","name_a2s":"Uncletopia | Frankfurt | 1 | All Maps","protocol":17,"map":"pl_barnblitz","folder":"tf","game":"Team Fortress","app_id":440,"player_count":24,"max_players":24,"Bots":0,"server_type":"Dedicated","server_os":"Linux","password":true,"vac":true,"version":"7961495","steam_id":85568392924469989,"keywords":["nocrits","nodmgspread","payload","uncletopia"],"game_id":440,"stv_port":27016,"stv_name":"Uncletopia | Frankfurt | 1 | All Maps | STV","players":[{"user_id":557,"name":"Conan the Librarian","steam_id":76561198007224654,"connected_time":2418000000000,"state":"active","ping":88},{"user_id":585,"name":"Haha?","steam_id":76561198056882245,"connected_time":616000000000,"state":"active","ping":46},{"user_id":598,"name":"The Rizzler","steam_id":76561198195159941,"connected_time":11000000000,"state":"spawning","ping":58},{"user_id":591,"name":"rocze","steam_id":76561198088280730,"connected_time":341000000000,"state":"active","ping":70},{"user_id":564,"name":"chachiply","steam_id":76561198316355509,"connected_time":2112000000000,"state":"active","ping":73},{"user_id":570,"name":"M","steam_id":76561198317592319,"connected_time":1474000000000,"state":"active","ping":85},{"user_id":586,"name":"Swagmaster","steam_id":76561198045828392,"connected_time":586000000000,"state":"active","ping":68},{"user_id":574,"name":"NoobfromHell","steam_id":76561198394221491,"connected_time":1233000000000,"state":"active","ping":58},{"user_id":575,"name":"The Chosen One","steam_id":76561199046984627,"connected_time":1217000000000,"state":"active","ping":169},{"user_id":594,"name":"chillrend_morphs_high_lod6","steam_id":76561198452963141,"connected_time":139000000000,"state":"active","ping":78},{"user_id":552,"name":"Cataleptic","steam_id":76561197997966949,"connected_time":2541000000000,"state":"active","ping":73},{"user_id":536,"name":"Qwertuss","steam_id":76561198026305366,"connected_time":4083000000000,"state":"active","ping":57},{"user_id":597,"name":"ducks","steam_id":76561198166148685,"connected_time":99000000000,"state":"active","ping":44},{"user_id":537,"name":"steck","steam_id":76561197973948113,"connected_time":3846000000000,"state":"active","ping":46},{"user_id":590,"name":"jeremy","steam_id":76561199062586342,"connected_time":372000000000,"state":"active","ping":82},{"user_id":593,"name":"distinguished gentleman","steam_id":76561199437827758,"connected_time":176000000000,"state":"active","ping":58},{"user_id":579,"name":"Vince","steam_id":76561199103000131,"connected_time":933000000000,"state":"active","ping":59},{"user_id":599,"name":"Prism","steam_id":76561198043129088,"connected_time":1000000000,"state":"spawning","ping":35},{"user_id":588,"name":"Cosmetic brain","steam_id":76561198055936410,"connected_time":443000000000,"state":"active","ping":86},{"user_id":596,"name":"Nomakh","steam_id":76561198096414653,"connected_time":126000000000,"state":"active","ping":78},{"user_id":561,"name":"Don Fatman","steam_id":76561198448963229,"connected_time":2379000000000,"state":"active","ping":57},{"user_id":569,"name":"cherrypowder","steam_id":76561199006915718,"connected_time":1542000000000,"state":"active","ping":71},{"user_id":562,"name":"BaronVonKoblih","steam_id":76561198128206729,"connected_time":2378000000000,"state":"active","ping":55},{"user_id":568,"name":"sixhundredseventy","steam_id":76561199441772083,"connected_time":1734000000000,"state":"active","ping":72}]},{"server_id":110,"name":"Uncletopia | Frankfurt | 2 | All Maps","name_short":"frk-2","host":"frk-1.de.uncletopia.com","port":27025,"enabled":true,"region":"eu","cc":"de","latitude":50.110924,"longitude":8.682127,"reserved":0,"last_update":"0001-01-01T00:00:00Z","name_a2s":"Uncletopia | Frankfurt | 2 | All Maps","protocol":17,"map":"pl_pier","folder":"tf","game":"Team Fortress","app_id":440,"player_count":23,"max_players":24,"Bots":0,"server_type":"Dedicated","server_os":"Linux","password":true,"vac":true,"version":"7961495","steam_id":85568392924469990,"keywords":["nocrits","nodmgspread","payload","uncletopia"],"game_id":440,"stv_port":27026,"stv_name":"Uncletopia | Frankfurt | 2 | All Maps | STV","players":[{"user_id":585,"name":"Boi","steam_id":76561198387049078,"connected_time":1136000000000,"state":"active","ping":80},{"user_id":560,"name":"Angst","steam_id":76561197970562002,"connected_time":2163000000000,"state":"active","ping":47},{"user_id":518,"name":"wasps","steam_id":76561198049485054,"connected_time":5641000000000,"state":"active","ping":74},{"user_id":601,"name":"Glonkdod","steam_id":76561198035119964,"connected_time":120000000000,"state":"active","ping":50},{"user_id":573,"name":"Duncle322","steam_id":76561198258257247,"connected_time":1896000000000,"state":"active","ping":72},{"user_id":586,"name":"sevius","steam_id":76561199275250303,"connected_time":1102000000000,"state":"active","ping":72},{"user_id":582,"name":"Sesse","steam_id":76561198254375590,"connected_time":1266000000000,"state":"active","ping":69},{"user_id":578,"name":"identity","steam_id":76561198120668070,"connected_time":1560000000000,"state":"active","ping":56},{"user_id":577,"name":"dthz","steam_id":76561198174210334,"connected_time":1603000000000,"state":"active","ping":45},{"user_id":602,"name":"bryophyta","steam_id":76561197968945306,"connected_time":105000000000,"state":"active","ping":74},{"user_id":579,"name":"slic","steam_id":76561198219197248,"connected_time":1558000000000,"state":"active","ping":46},{"user_id":595,"name":"BuzzBees ❤","steam_id":76561198101502273,"connected_time":473000000000,"state":"active","ping":60},{"user_id":596,"name":"FJADL","steam_id":76561198237008214,"connected_time":438000000000,"state":"active","ping":60},{"user_id":588,"name":"MONEY","steam_id":76561198010924611,"connected_time":1029000000000,"state":"active","ping":130},{"user_id":597,"name":"KittyKate ❤","steam_id":76561198116340817,"connected_time":416000000000,"state":"active","ping":58},{"user_id":589,"name":"vic","steam_id":76561197961292479,"connected_time":1019000000000,"state":"active","ping":118},{"user_id":590,"name":"Mr.Shpee","steam_id":76561198158701474,"connected_time":1003000000000,"state":"active","ping":88},{"user_id":598,"name":"Zamorocian","steam_id":76561198076604017,"connected_time":389000000000,"state":"active","ping":53},{"user_id":593,"name":"Chucky.","steam_id":76561197969361063,"connected_time":729000000000,"state":"active","ping":89},{"user_id":549,"name":"tr4ce","steam_id":76561198085296732,"connected_time":3537000000000,"state":"active","ping":44},{"user_id":600,"name":"travis","steam_id":76561198138119811,"connected_time":323000000000,"state":"active","ping":59},{"user_id":407,"name":"Ozzie","steam_id":76561197992915315,"connected_time":13292000000000,"state":"active","ping":75},{"user_id":559,"name":"else1","steam_id":76561197996558319,"connected_time":2288000000000,"state":"active","ping":75}]},{"server_id":308,"name":"Uncletopia | Frankfurt | 3 | All Maps","name_short":"frk-3","host":"frk-1.de.uncletopia.com","port":27035,"enabled":true,"region":"eu","cc":"de","latitude":50.110924,"longitude":8.682127,"reserved":0,"last_update":"0001-01-01T00:00:00Z","name_a2s":"Uncletopia | Frankfurt | 3 | All Maps","protocol":17,"map":"koth_lakeside_final","folder":"tf","game":"Team Fortress","app_id":440,"player_count":0,"max_players":24,"Bots":0,"server_type":"Dedicated","server_os":"Linux","password":true,"vac":true,"version":"7961495","steam_id":85568392924504274,"keywords":["cp","nocrits","nodmgspread","uncletopia"],"game_id":440,"stv_port":27036,"stv_name":"Uncletopia | Frankfurt | 3 | All Maps | STV","players":null},{"server_id":309,"name":"Uncletopia | Frankfurt | 4 | All Maps","name_short":"frk-4","host":"frk-1.de.uncletopia.com","port":27045,"enabled":true,"region":"eu","cc":"de","latitude":50.110924,"longitude":8.682127,"reserved":0,"last_update":"0001-01-01T00:00:00Z","name_a2s":"Uncletopia | Frankfurt | 4 | All Maps","protocol":17,"map":"pl_frontier_final","folder":"tf","game":"Team Fortress","app_id":440,"player_count":5,"max_players":24,"Bots":0,"server_type":"Dedicated","server_os":"Linux","password":true,"vac":true,"version":"7961495","steam_id":85568392924504275,"keywords":["nocrits","nodmgspread","payload","uncletopia"],"game_id":440,"stv_port":27046,"stv_name":"Uncletopia | Frankfurt | 4 | All Maps | STV","players":[{"user_id":334,"name":"Cursed","steam_id":76561198381491880,"connected_time":164000000000,"state":"active","ping":83},{"user_id":329,"name":"donatofina","steam_id":76561198353497885,"connected_time":695000000000,"state":"active","ping":85},{"user_id":314,"name":"agent youppii","steam_id":76561198055264447,"connected_time":2809000000000,"state":"active","ping":73},{"user_id":327,"name":"Stan Marsh","steam_id":76561199152484286,"connected_time":1564000000000,"state":"active","ping":46},{"user_id":278,"name":"Woad Raider","steam_id":76561198215485788,"connected_time":6630000000000,"state":"active","ping":74}]},{"server_id":310,"name":"Uncletopia | Frankfurt | 5 | All Maps","name_short":"frk-5","host":"frk-1.de.uncletopia.com","port":27055,"enabled":true,"region":"eu","cc":"de","latitude":50.110924,"longitude":8.682127,"reserved":0,"last_update":"0001-01-01T00:00:00Z","name_a2s":"Uncletopia | Frankfurt | 5 | All Maps","protocol":17,"map":"pl_goldrush","folder":"tf","game":"Team Fortress","app_id":440,"player_count":0,"max_players":24,"Bots":0,"server_type":"Dedicated","server_os":"Linux","password":true,"vac":true,"version":"7961495","steam_id":85568392924504277,"keywords":["nocrits","nodmgspread","payload","uncletopia"],"game_id":440,"stv_port":27056,"stv_name":"Uncletopia | Frankfurt | 5 | All Maps | STV","players":null},{"server_id":311,"name":"Uncletopia | Frankfurt | 6 | All Maps","name_short":"frk-6","host":"frk-1.de.uncletopia.com","port":27065,"enabled":true,"region":"eu","cc":"de","latitude":50.110924,"longitude":8.682127,"reserved":0,"last_update":"0001-01-01T00:00:00Z","name_a2s":"Uncletopia | Frankfurt | 6 | All Maps","protocol":17,"map":"pl_upward","folder":"tf","game":"Team Fortress","app_id":440,"player_count":24,"max_players":24,"Bots":0,"server_type":"Dedicated","server_os":"Linux","password":true,"vac":true,"version":"7961495","steam_id":85568392924504278,"keywords":["nocrits","nodmgspread","payload","uncletopia"],"game_id":440,"stv_port":27066,"stv_name":"Uncletopia | Frankfurt | 6 | All Maps | STV","players":[{"user_id":194,"name":"Pats (Gifted items Collector)","steam_id":76561198418538887,"connected_time":518000000000,"state":"active","ping":86},{"user_id":134,"name":"KayPay","steam_id":76561198112127032,"connected_time":3469000000000,"state":"active","ping":91},{"user_id":179,"name":"TidB","steam_id":76561198055342304,"connected_time":2156000000000,"state":"active","ping":45},{"user_id":184,"name":"lysik","steam_id":76561198039498027,"connected_time":2062000000000,"state":"active","ping":63},{"user_id":201,"name":"Flank","steam_id":76561198098731156,"connected_time":350000000000,"state":"active","ping":92},{"user_id":176,"name":"Scr0b ʕᵔᴥᵔʔ","steam_id":76561198100855323,"connected_time":2265000000000,"state":"active","ping":56},{"user_id":168,"name":"DJpocalypse","steam_id":76561199230125964,"connected_time":2540000000000,"state":"active","ping":175},{"user_id":203,"name":"Jnet","steam_id":76561198001282720,"connected_time":189000000000,"state":"active","ping":102},{"user_id":207,"name":"tired","steam_id":76561198046838168,"connected_time":23000000000,"state":"active","ping":47},{"user_id":196,"name":"Vytuzas","steam_id":76561198012868436,"connected_time":472000000000,"state":"active","ping":73},{"user_id":205,"name":"randem_","steam_id":76561198338793755,"connected_time":180000000000,"state":"active","ping":54},{"user_id":202,"name":"Endi","steam_id":76561198914938199,"connected_time":243000000000,"state":"active","ping":88},{"user_id":190,"name":"Snowmotion","steam_id":76561198075022454,"connected_time":1195000000000,"state":"active","ping":56},{"user_id":173,"name":"Dakeyras","steam_id":76561198057069564,"connected_time":2496000000000,"state":"active","ping":102},{"user_id":182,"name":"minimurx","steam_id":76561198858102095,"connected_time":2095000000000,"state":"active","ping":48},{"user_id":189,"name":"NonProphet","steam_id":76561198280149820,"connected_time":1423000000000,"state":"active","ping":74},{"user_id":198,"name":"finbar","steam_id":76561198056812396,"connected_time":446000000000,"state":"active","ping":76},{"user_id":183,"name":"Echo","steam_id":76561199165491231,"connected_time":2082000000000,"state":"active","ping":151},{"user_id":125,"name":"George W Bush","steam_id":76561198846784757,"connected_time":4174000000000,"state":"active","ping":70},{"user_id":155,"name":"ZePequenio","steam_id":76561197968506094,"connected_time":3038000000000,"state":"active","ping":66},{"user_id":199,"name":"executive producer larry david","steam_id":76561198057868438,"connected_time":444000000000,"state":"active","ping":62},{"user_id":163,"name":"akciq ⁧⁧respect","steam_id":76561198390963456,"connected_time":2890000000000,"state":"active","ping":76},{"user_id":187,"name":"карасик","steam_id":76561197971140507,"connected_time":1553000000000,"state":"active","ping":75},{"user_id":200,"name":"mq","steam_id":76561198091888948,"connected_time":395000000000,"state":"active","ping":57}]},{"server_id":23,"name":"Uncletopia | Frankfurt | 7 | Stopwatch","name_short":"frk-7","host":"frk-1.de.uncletopia.com","port":27075,"enabled":true,"region":"eu","cc":"de","latitude":50.110924,"longitude":8.682127,"reserved":0,"last_update":"0001-01-01T00:00:00Z","name_a2s":"Uncletopia | Frankfurt | 7 | Stopwatch","protocol":17,"map":"pl_frontier_final","folder":"tf","game":"Team Fortress","app_id":440,"player_count":0,"max_players":24,"Bots":0,"server_type":"Dedicated","server_os":"Linux","password":true,"vac":true,"version":"7961495","steam_id":85568392924742827,"keywords":["nocrits","nodmgspread","payload","uncletopia"],"game_id":440,"stv_port":27076,"stv_name":"Uncletopia | Frankfurt | 7 | Stopwatch | STV","players":null},{"server_id":24,"name":"Uncletopia | Frankfurt | 8 | Community","name_short":"frk-8","host":"frk-1.de.uncletopia.com","port":27085,"enabled":true,"region":"eu","cc":"de","latitude":50.110924,"longitude":8.682127,"reserved":0,"last_update":"0001-01-01T00:00:00Z","name_a2s":"Uncletopia | Frankfurt | 8 | Community","protocol":17,"map":"workshop/koth_ashville_final.ugc2130459942","folder":"tf","game":"Team Fortress","app_id":440,"player_count":1,"max_players":24,"Bots":0,"server_type":"Dedicated","server_os":"Linux","password":true,"vac":true,"version":"7961495","steam_id":85568392924742828,"keywords":["cp","nocrits","nodmgspread","uncletopia"],"game_id":440,"stv_port":27086,"stv_name":"Uncletopia | Frankfurt | 8 | Community | STV","players":[{"user_id":30,"name":"4:38","steam_id":76561198072892783,"connected_time":20000000000,"state":"active","ping":48}]},{"server_id":202,"name":"Uncletopia | Hong Kong | 1 | All Maps","name_short":"hgk-1","host":"hgk-1.hk.uncletopia.com","port":27015,"enabled":true,"region":"asia","cc":"hk","latitude":22.302711,"longitude":114.177216,"reserved":0,"last_update":"0001-01-01T00:00:00Z","name_a2s":"Uncletopia | Hong Kong | 1 | All Maps","protocol":17,"map":"pl_frontier_final","folder":"tf","game":"Team Fortress","app_id":440,"player_count":0,"max_players":24,"Bots":0,"server_type":"Dedicated","server_os":"Linux","password":true,"vac":true,"version":"7961495","steam_id":85568392924494504,"keywords":["nocrits","nodmgspread","payload","uncletopia"],"game_id":440,"stv_port":27016,"stv_name":"Uncletopia | Hong Kong | 1 | All Maps | STV","players":null},{"server_id":1,"name":"Uncletopia | Los Angeles | 1 | All Maps","name_short":"lax-1","host":"lax-1.us.uncletopia.com","port":27015,"enabled":true,"region":"us-west","cc":"us","latitude":33.94279,"longitude":-118.41004,"reserved":0,"last_update":"0001-01-01T00:00:00Z","name_a2s":"Uncletopia | Los Angeles | 1 | All Maps","protocol":17,"map":"plr_hightower","folder":"tf","game":"Team Fortress","app_id":440,"player_count":13,"max_players":24,"Bots":0,"server_type":"Dedicated","server_os":"Linux","password":true,"vac":true,"version":"7961495","steam_id":85568392924469991,"keywords":["nocrits","nodmgspread","payload","uncletopia"],"game_id":440,"stv_port":27016,"stv_name":"Uncletopia | Los Angeles | 1 | All Maps | STV","players":[{"user_id":84,"name":"THE CUMEST LORD","steam_id":76561198061412592,"connected_time":656000000000,"state":"active","ping":126},{"user_id":90,"name":"asm_ghost","steam_id":76561199205363547,"connected_time":403000000000,"state":"active","ping":70},{"user_id":86,"name":"no vc no c","steam_id":76561197989503095,"connected_time":496000000000,"state":"active","ping":164},{"user_id":97,"name":"joecool","steam_id":76561198414164768,"connected_time":47000000000,"state":"spawning","ping":58},{"user_id":94,"name":"jack_airshots","steam_id":76561198252328518,"connected_time":210000000000,"state":"active","ping":48},{"user_id":91,"name":"TacoMan4Life","steam_id":76561198832562728,"connected_time":347000000000,"state":"active","ping":58},{"user_id":69,"name":"king dedede","steam_id":76561198965562679,"connected_time":1904000000000,"state":"active","ping":119},{"user_id":93,"name":"The Gremlin","steam_id":76561198419066993,"connected_time":323000000000,"state":"active","ping":80},{"user_id":51,"name":"Pie™","steam_id":76561198158312625,"connected_time":3711000000000,"state":"active","ping":148},{"user_id":96,"name":"dewey","steam_id":76561198132791511,"connected_time":72000000000,"state":"active","ping":53},{"user_id":98,"name":"TheGuy101","steam_id":76561199201772624,"connected_time":18000000000,"state":"active","ping":109},{"user_id":75,"name":"Kadence","steam_id":76561198160115484,"connected_time":1639000000000,"state":"active","ping":86},{"user_id":67,"name":"Dogma","steam_id":76561198117075139,"connected_time":2010000000000,"state":"active","ping":42}]},{"server_id":112,"name":"Uncletopia | Los Angeles | 2 | All Maps","name_short":"lax-2","host":"lax-1.us.uncletopia.com","port":27025,"enabled":true,"region":"us-west","cc":"us","latitude":33.94279,"longitude":-118.41004,"reserved":0,"last_update":"0001-01-01T00:00:00Z","name_a2s":"Uncletopia | Los Angeles | 2 | All Maps","protocol":17,"map":"koth_lakeside_final","folder":"tf","game":"Team Fortress","app_id":440,"player_count":0,"max_players":24,"Bots":0,"server_type":"Dedicated","server_os":"Linux","password":true,"vac":true,"version":"7961495","steam_id":85568392924469992,"keywords":["cp","nocrits","nodmgspread","uncletopia"],"game_id":440,"stv_port":27026,"stv_name":"Uncletopia | Los Angeles | 2 | All Maps | STV","players":null},{"server_id":324,"name":"Uncletopia | Los Angeles | 3 | All Maps","name_short":"lax-3","host":"lax-1.us.uncletopia.com","port":27035,"enabled":true,"region":"us-west","cc":"us","latitude":33.94279,"longitude":-118.41004,"reserved":0,"last_update":"0001-01-01T00:00:00Z","name_a2s":"Uncletopia | Los Angeles | 3 | All Maps","protocol":17,"map":"pl_frontier_final","folder":"tf","game":"Team Fortress","app_id":440,"player_count":0,"max_players":24,"Bots":0,"server_type":"Dedicated","server_os":"Linux","password":true,"vac":true,"version":"7961495","steam_id":85568392924510198,"keywords":["nocrits","nodmgspread","payload","uncletopia"],"game_id":440,"stv_port":27036,"stv_name":"Uncletopia | Los Angeles | 3 | All Maps | STV","players":null},{"server_id":25,"name":"Uncletopia | Los Angeles | 4 | Stopwatch","name_short":"lax-4","host":"lax-1.us.uncletopia.com","port":27045,"enabled":true,"region":"us-west","cc":"us","latitude":33.94279,"longitude":-118.41004,"reserved":0,"last_update":"0001-01-01T00:00:00Z","name_a2s":"Uncletopia | Los Angeles | 4 | Stopwatch","protocol":17,"map":"pl_barnblitz","folder":"tf","game":"Team Fortress","app_id":440,"player_count":0,"max_players":24,"Bots":0,"server_type":"Dedicated","server_os":"Linux","password":true,"vac":true,"version":"7961495","steam_id":85568392924510199,"keywords":["nocrits","nodmgspread","payload","uncletopia"],"game_id":440,"stv_port":27046,"stv_name":"Uncletopia | Los Angeles | 4 | Stopwatch | STV","players":null},{"server_id":11,"name":"Uncletopia | London | 1 | All Maps","name_short":"lon-1","host":"lon-1.uk.uncletopia.com","port":27015,"enabled":true,"region":"eu","cc":"gb","latitude":51.509865,"longitude":-0.118092,"reserved":0,"last_update":"0001-01-01T00:00:00Z","name_a2s":"Uncletopia | London | 1 | All Maps","protocol":17,"map":"pl_upward","folder":"tf","game":"Team Fortress","app_id":440,"player_count":24,"max_players":24,"Bots":0,"server_type":"Dedicated","server_os":"Linux","password":true,"vac":true,"version":"7961495","steam_id":85568392924367362,"keywords":["nocrits","nodmgspread","payload","uncletopia"],"game_id":440,"stv_port":27016,"stv_name":"Uncletopia | London | 1 | All Maps | STV","players":[{"user_id":848,"name":"BreadBubbles","steam_id":76561198174332826,"connected_time":3623000000000,"state":"active","ping":54},{"user_id":870,"name":"goff","steam_id":76561198118989010,"connected_time":738000000000,"state":"active","ping":54},{"user_id":856,"name":"Dale ❤","steam_id":76561197995189004,"connected_time":2400000000000,"state":"active","ping":64},{"user_id":785,"name":"shooer!","steam_id":76561198110531281,"connected_time":9758000000000,"state":"active","ping":71},{"user_id":749,"name":"Kahvi","steam_id":76561198723244199,"connected_time":12884000000000,"state":"active","ping":75},{"user_id":820,"name":"Kphi(i)","steam_id":76561198970587061,"connected_time":5949000000000,"state":"active","ping":48},{"user_id":867,"name":"silversteellady","steam_id":76561198166953966,"connected_time":929000000000,"state":"active","ping":69},{"user_id":831,"name":"ber","steam_id":76561197993892057,"connected_time":4682000000000,"state":"active","ping":90},{"user_id":857,"name":"Trapezoid","steam_id":76561198059369295,"connected_time":2226000000000,"state":"active","ping":81},{"user_id":727,"name":"whimsy.","steam_id":76561198878171763,"connected_time":14777000000000,"state":"active","ping":50},{"user_id":841,"name":"_420_StopItDudeCmon","steam_id":76561197997146481,"connected_time":3986000000000,"state":"active","ping":50},{"user_id":864,"name":"Explosion","steam_id":76561198033465837,"connected_time":1484000000000,"state":"active","ping":59},{"user_id":871,"name":"randompixel","steam_id":76561198003941207,"connected_time":721000000000,"state":"active","ping":57},{"user_id":824,"name":"puck","steam_id":76561198121260981,"connected_time":5844000000000,"state":"active","ping":41},{"user_id":878,"name":"sora (live :3)","steam_id":76561198096547662,"connected_time":515000000000,"state":"active","ping":50},{"user_id":866,"name":"swatton","steam_id":76561198875537106,"connected_time":1078000000000,"state":"active","ping":61},{"user_id":876,"name":"D-Girl Fights God","steam_id":76561198062937822,"connected_time":618000000000,"state":"active","ping":114},{"user_id":781,"name":"charlotte","steam_id":76561198075129898,"connected_time":10366000000000,"state":"active","ping":33},{"user_id":861,"name":"Dr Bondus Bolongus Dongus","steam_id":76561198378657692,"connected_time":1822000000000,"state":"active","ping":47},{"user_id":862,"name":"reika","steam_id":76561198043601838,"connected_time":1668000000000,"state":"active","ping":60},{"user_id":846,"name":"Joe","steam_id":76561198145639903,"connected_time":3743000000000,"state":"active","ping":88},{"user_id":855,"name":"getpost","steam_id":76561198260064876,"connected_time":2429000000000,"state":"active","ping":96},{"user_id":877,"name":"Tre3","steam_id":76561198054795379,"connected_time":609000000000,"state":"active","ping":64},{"user_id":875,"name":"Huskai","steam_id":76561198141512362,"connected_time":708000000000,"state":"active","ping":44}]},{"server_id":114,"name":"Uncletopia | London | 2 | All Maps","name_short":"lon-2","host":"lon-1.uk.uncletopia.com","port":27025,"enabled":true,"region":"eu","cc":"gb","latitude":51.509865,"longitude":-0.118092,"reserved":0,"last_update":"0001-01-01T00:00:00Z","name_a2s":"Uncletopia | London | 2 | All Maps","protocol":17,"map":"pl_swiftwater_final1","folder":"tf","game":"Team Fortress","app_id":440,"player_count":23,"max_players":24,"Bots":0,"server_type":"Dedicated","server_os":"Linux","password":true,"vac":true,"version":"7961495","steam_id":85568392924470941,"keywords":["nocrits","nodmgspread","payload","uncletopia"],"game_id":440,"stv_port":27026,"stv_name":"Uncletopia | London | 2 | All Maps | STV","players":[{"user_id":442,"name":"lillunya ♡","steam_id":76561198330418866,"connected_time":2816000000000,"state":"active","ping":72},{"user_id":457,"name":"Springfield Crack","steam_id":76561198044818161,"connected_time":552000000000,"state":"active","ping":96},{"user_id":450,"name":"zdr","steam_id":76561198191074514,"connected_time":1131000000000,"state":"active","ping":75},{"user_id":449,"name":"♦Silvia♦","steam_id":76561198373039444,"connected_time":1142000000000,"state":"active","ping":106},{"user_id":443,"name":"A Table","steam_id":76561198056456470,"connected_time":2429000000000,"state":"active","ping":67},{"user_id":418,"name":"yuno appreciator","steam_id":76561198083286511,"connected_time":4302000000000,"state":"active","ping":42},{"user_id":461,"name":"Janner","steam_id":76561198127045282,"connected_time":205000000000,"state":"active","ping":46},{"user_id":460,"name":"sokige","steam_id":76561198167112371,"connected_time":259000000000,"state":"active","ping":102},{"user_id":433,"name":"tone","steam_id":76561197975301462,"connected_time":3423000000000,"state":"active","ping":101},{"user_id":458,"name":"that fat croc from donkey kong","steam_id":76561198159172495,"connected_time":507000000000,"state":"active","ping":83},{"user_id":447,"name":"GogsCrunchyNuts","steam_id":76561198150599213,"connected_time":1572000000000,"state":"active","ping":87},{"user_id":402,"name":"Krocon","steam_id":76561198084906316,"connected_time":5785000000000,"state":"active","ping":92},{"user_id":436,"name":"please do not the cat","steam_id":76561198089003514,"connected_time":3393000000000,"state":"active","ping":59},{"user_id":437,"name":"Wenix","steam_id":76561198081409623,"connected_time":3389000000000,"state":"active","ping":76},{"user_id":446,"name":"CrangSign","steam_id":76561198370580355,"connected_time":1584000000000,"state":"active","ping":83},{"user_id":428,"name":"nobodyy","steam_id":76561198027735766,"connected_time":3689000000000,"state":"active","ping":67},{"user_id":448,"name":"ILoveKey2","steam_id":76561198814559564,"connected_time":1164000000000,"state":"active","ping":77},{"user_id":445,"name":"Lubrsi","steam_id":76561198040208195,"connected_time":1866000000000,"state":"active","ping":53},{"user_id":414,"name":"tomydjoh","steam_id":76561198077421906,"connected_time":4556000000000,"state":"active","ping":45},{"user_id":453,"name":"cora","steam_id":76561199474154775,"connected_time":1029000000000,"state":"active","ping":56},{"user_id":432,"name":"big bug buttz","steam_id":76561198115106008,"connected_time":3494000000000,"state":"active","ping":58},{"user_id":462,"name":"Burpman","steam_id":76561198022897937,"connected_time":39000000000,"state":"active","ping":50},{"user_id":459,"name":"Visphiric - Ping Comms Only","steam_id":76561198071938027,"connected_time":333000000000,"state":"active","ping":41}]},{"server_id":320,"name":"Uncletopia | London | 3 | All Maps","name_short":"lon-3","host":"lon-1.uk.uncletopia.com","port":27035,"enabled":true,"region":"eu","cc":"gb","latitude":51.509865,"longitude":-0.118092,"reserved":0,"last_update":"0001-01-01T00:00:00Z","name_a2s":"Uncletopia | London | 3 | All Maps","protocol":17,"map":"cp_mountainlab","folder":"tf","game":"Team Fortress","app_id":440,"player_count":24,"max_players":24,"Bots":0,"server_type":"Dedicated","server_os":"Linux","password":true,"vac":true,"version":"7961495","steam_id":85568392924510192,"keywords":["cp","nocrits","nodmgspread","uncletopia"],"game_id":440,"stv_port":27036,"stv_name":"Uncletopia | London | 3 | All Maps | STV","players":[{"user_id":270,"name":"LowRender3","steam_id":76561199491761622,"connected_time":399000000000,"state":"active","ping":99},{"user_id":250,"name":"random gaming","steam_id":76561198087970118,"connected_time":1547000000000,"state":"active","ping":76},{"user_id":265,"name":"M-Makarov","steam_id":76561199069561149,"connected_time":582000000000,"state":"active","ping":103},{"user_id":208,"name":"hubert","steam_id":76561198057722639,"connected_time":4071000000000,"state":"active","ping":74},{"user_id":276,"name":"Cosmic Gamer","steam_id":76561198027357981,"connected_time":164000000000,"state":"active","ping":102},{"user_id":237,"name":"Teo","steam_id":76561198030853412,"connected_time":2971000000000,"state":"active","ping":68},{"user_id":242,"name":"Lemon","steam_id":76561198188535947,"connected_time":1843000000000,"state":"active","ping":80},{"user_id":252,"name":"TGmetal","steam_id":76561198263726754,"connected_time":1486000000000,"state":"active","ping":85},{"user_id":256,"name":"Orange Juice Jimmy","steam_id":76561198078638602,"connected_time":972000000000,"state":"active","ping":58},{"user_id":272,"name":"martin","steam_id":76561198107039012,"connected_time":316000000000,"state":"active","ping":40},{"user_id":232,"name":"wG toemas_","steam_id":76561198156188209,"connected_time":3571000000000,"state":"active","ping":37},{"user_id":263,"name":"Kryastorm","steam_id":76561198045127892,"connected_time":702000000000,"state":"active","ping":56},{"user_id":258,"name":"Mr.Cupcake","steam_id":76561198152711174,"connected_time":935000000000,"state":"active","ping":80},{"user_id":273,"name":"ScapeGoat","steam_id":76561198137868829,"connected_time":307000000000,"state":"active","ping":57},{"user_id":262,"name":"[SpA]Scatterbrain","steam_id":76561197998639769,"connected_time":883000000000,"state":"active","ping":51},{"user_id":251,"name":"FoOzTV","steam_id":76561197998636728,"connected_time":1528000000000,"state":"active","ping":57},{"user_id":223,"name":"mak","steam_id":76561198049312442,"connected_time":3881000000000,"state":"active","ping":46},{"user_id":249,"name":"lonely fortnite gamer girl","steam_id":76561198272948471,"connected_time":1643000000000,"state":"active","ping":135},{"user_id":240,"name":"emo hubert","steam_id":76561198012526576,"connected_time":1959000000000,"state":"active","ping":47},{"user_id":241,"name":"square. possibly cube","steam_id":76561198104896547,"connected_time":1954000000000,"state":"active","ping":75},{"user_id":274,"name":"gaming (official)","steam_id":76561198106012909,"connected_time":259000000000,"state":"active","ping":76},{"user_id":268,"name":"ThatSiegeKid","steam_id":76561198368037656,"connected_time":517000000000,"state":"active","ping":44},{"user_id":275,"name":"BLÅHAJ","steam_id":76561199353672293,"connected_time":252000000000,"state":"active","ping":57},{"user_id":236,"name":"danny","steam_id":76561198056930504,"connected_time":3016000000000,"state":"active","ping":48}]},{"server_id":321,"name":"Uncletopia | London | 4 | All Maps","name_short":"lon-4","host":"lon-1.uk.uncletopia.com","port":27045,"enabled":true,"region":"eu","cc":"gb","latitude":51.509865,"longitude":-0.118092,"reserved":0,"last_update":"0001-01-01T00:00:00Z","name_a2s":"Uncletopia | London | 4 | All Maps","protocol":17,"map":"pl_snowycoast","folder":"tf","game":"Team Fortress","app_id":440,"player_count":4,"max_players":24,"Bots":0,"server_type":"Dedicated","server_os":"Linux","password":true,"vac":true,"version":"7961495","steam_id":85568392924510193,"keywords":["nocrits","nodmgspread","payload","uncletopia"],"game_id":440,"stv_port":27046,"stv_name":"Uncletopia | London | 4 | All Maps | STV","players":[{"user_id":234,"name":"[P-roc] BadJacKS","steam_id":76561197972666377,"connected_time":674000000000,"state":"active","ping":62},{"user_id":235,"name":"sarcasticsatan69","steam_id":76561198407566842,"connected_time":140000000000,"state":"active","ping":57},{"user_id":232,"name":"SirDirtbag","steam_id":76561198091890855,"connected_time":1091000000000,"state":"active","ping":74},{"user_id":224,"name":"The Man with the Golden Gunk","steam_id":76561198212427715,"connected_time":1866000000000,"state":"active","ping":57}]},{"server_id":21,"name":"Uncletopia | London | 5 | All Maps","name_short":"lon-5","host":"lon-1.uk.uncletopia.com","port":27055,"enabled":true,"region":"eu","cc":"gb","latitude":51.509865,"longitude":-0.118092,"reserved":0,"last_update":"0001-01-01T00:00:00Z","name_a2s":"Uncletopia | London | 5 | All Maps","protocol":17,"map":"pl_pier","folder":"tf","game":"Team Fortress","app_id":440,"player_count":13,"max_players":24,"Bots":0,"server_type":"Dedicated","server_os":"Linux","password":true,"vac":true,"version":"7961495","steam_id":85568392924742829,"keywords":["nocrits","nodmgspread","payload","uncletopia"],"game_id":440,"stv_port":27056,"stv_name":"Uncletopia | London | 5 | All Maps | STV","players":[{"user_id":339,"name":"Garfield","steam_id":76561199251237007,"connected_time":183000000000,"state":"active","ping":149},{"user_id":330,"name":"Master Joe Roogway","steam_id":76561198153453640,"connected_time":2167000000000,"state":"active","ping":49},{"user_id":340,"name":"Immortal_Toad","steam_id":76561198048194748,"connected_time":171000000000,"state":"active","ping":70},{"user_id":343,"name":"Setiago","steam_id":76561198060770498,"connected_time":121000000000,"state":"active","ping":61},{"user_id":344,"name":"A Succulent Chinese Meal","steam_id":76561198069472440,"connected_time":120000000000,"state":"active","ping":71},{"user_id":345,"name":"RoofRabbid","steam_id":76561198012821810,"connected_time":110000000000,"state":"active","ping":94},{"user_id":346,"name":"mrbeast109385079350229083479082","steam_id":76561198370687830,"connected_time":101000000000,"state":"active","ping":115},{"user_id":318,"name":"Floss","steam_id":76561198088453901,"connected_time":2859000000000,"state":"active","ping":58},{"user_id":335,"name":"mmDuck","steam_id":76561198102527306,"connected_time":791000000000,"state":"active","ping":53},{"user_id":336,"name":"Snooze","steam_id":76561197989013748,"connected_time":562000000000,"state":"active","ping":78},{"user_id":313,"name":"The Boss","steam_id":76561198426522902,"connected_time":3315000000000,"state":"active","ping":53},{"user_id":331,"name":"★TheBabyShpee★","steam_id":76561198142551315,"connected_time":2063000000000,"state":"active","ping":65},{"user_id":316,"name":"maniac-baker","steam_id":76561198076966730,"connected_time":2972000000000,"state":"active","ping":75}]},{"server_id":22,"name":"Uncletopia | London | 6 | All Maps","name_short":"lon-6","host":"lon-1.uk.uncletopia.com","port":27065,"enabled":true,"region":"eu","cc":"gb","latitude":51.509865,"longitude":-0.118092,"reserved":0,"last_update":"0001-01-01T00:00:00Z","name_a2s":"Uncletopia | London | 6 | All Maps","protocol":17,"map":"cp_process_final","folder":"tf","game":"Team Fortress","app_id":440,"player_count":0,"max_players":24,"Bots":0,"server_type":"Dedicated","server_os":"Linux","password":true,"vac":true,"version":"7961495","steam_id":85568392924742830,"keywords":["cp","nocrits","nodmgspread","uncletopia"],"game_id":440,"stv_port":27066,"stv_name":"Uncletopia | London | 6 | All Maps | STV","players":null},{"server_id":40,"name":"Uncletopia | London | 7 | Stopwatch","name_short":"lon-7","host":"lon-1.uk.uncletopia.com","port":27075,"enabled":true,"region":"eu","cc":"gb","latitude":51.509865,"longitude":-0.118092,"reserved":0,"last_update":"0001-01-01T00:00:00Z","name_a2s":"Uncletopia | London | 7 | Stopwatch","protocol":17,"map":"pl_borneo","folder":"tf","game":"Team Fortress","app_id":440,"player_count":0,"max_players":24,"Bots":0,"server_type":"Dedicated","server_os":"Linux","password":true,"vac":true,"version":"7961495","steam_id":85568392924964314,"keywords":["nocrits","nodmgspread","payload","uncletopia"],"game_id":440,"stv_port":27076,"stv_name":"Uncletopia | London | 7 | Stopwatch | STV","players":null},{"server_id":41,"name":"Uncletopia | London | 8 | Community","name_short":"lon-8","host":"lon-1.uk.uncletopia.com","port":27085,"enabled":true,"region":"eu","cc":"gb","latitude":51.509865,"longitude":-0.118092,"reserved":0,"last_update":"0001-01-01T00:00:00Z","name_a2s":"Uncletopia | London | 8 | Community","protocol":17,"map":"workshop/cp_logjam_rc12.ugc454812035","folder":"tf","game":"Team Fortress","app_id":440,"player_count":0,"max_players":24,"Bots":0,"server_type":"Dedicated","server_os":"Linux","password":true,"vac":true,"version":"7961495","steam_id":85568392924964315,"keywords":["cp","nocrits","nodmgspread","uncletopia"],"game_id":440,"stv_port":27086,"stv_name":"Uncletopia | London | 8 | Community | STV","players":null},{"server_id":300,"name":"Uncletopia | Montréal | 1 | One Thousand Uncles","name_short":"mtl-1","host":"mtl-1.ca.uncletopia.com","port":27015,"enabled":true,"region":"us-east","cc":"ca","latitude":45.50889,"longitude":-73.56167,"reserved":0,"last_update":"0001-01-01T00:00:00Z","name_a2s":"","protocol":0,"map":"","folder":"","game":"","app_id":0,"player_count":0,"max_players":0,"Bots":0,"server_type":"","server_os":"","password":false,"vac":false,"version":"","steam_id":0,"keywords":null,"game_id":0,"stv_port":0,"stv_name":"","players":null},{"server_id":301,"name":"Uncletopia | Montréal | 2 | One Thousand Uncles","name_short":"mtl-2","host":"mtl-1.ca.uncletopia.com","port":27025,"enabled":true,"region":"us-east","cc":"ca","latitude":45.50889,"longitude":-73.56167,"reserved":0,"last_update":"0001-01-01T00:00:00Z","name_a2s":"","protocol":0,"map":"","folder":"","game":"","app_id":0,"player_count":0,"max_players":0,"Bots":0,"server_type":"","server_os":"","password":false,"vac":false,"version":"","steam_id":0,"keywords":null,"game_id":0,"stv_port":0,"stv_name":"","players":null},{"server_id":302,"name":"Uncletopia | Montréal | 3 | One Thousand Uncles","name_short":"mtl-3","host":"mtl-1.ca.uncletopia.com","port":27035,"enabled":true,"region":"us-east","cc":"ca","latitude":45.50889,"longitude":-73.56167,"reserved":0,"last_update":"0001-01-01T00:00:00Z","name_a2s":"","protocol":0,"map":"","folder":"","game":"","app_id":0,"player_count":2,"max_players":0,"Bots":0,"server_type":"","server_os":"","password":false,"vac":false,"version":"","steam_id":0,"keywords":null,"game_id":0,"stv_port":0,"stv_name":"","players":[{"user_id":38,"name":"Lumokup","steam_id":76561199188237143,"connected_time":570000000000,"state":"active","ping":52},{"user_id":55,"name":"Why not Zoidberg?","steam_id":76561197982207556,"connected_time":467000000000,"state":"active","ping":81}]},{"server_id":13,"name":"Uncletopia | New York City | 1 | All Maps","name_short":"nyc-1","host":"nyc-1.us.uncletopia.com","port":27015,"enabled":true,"region":"us-east","cc":"us","latitude":40.73061,"longitude":-73.93524,"reserved":0,"last_update":"0001-01-01T00:00:00Z","name_a2s":"Uncletopia | New York City | 1 | All Maps","protocol":17,"map":"cp_well","folder":"tf","game":"Team Fortress","app_id":440,"player_count":24,"max_players":24,"Bots":0,"server_type":"Dedicated","server_os":"Linux","password":true,"vac":true,"version":"7961495","steam_id":85568392924469993,"keywords":["cp","nocrits","nodmgspread","uncletopia"],"game_id":440,"stv_port":27016,"stv_name":"Uncletopia | New York City | 1 | All Maps | STV","players":[{"user_id":188,"name":"oppenheimer style","steam_id":76561198026664629,"connected_time":2263000000000,"state":"spawning","ping":293},{"user_id":181,"name":"sam","steam_id":76561198217362968,"connected_time":2765000000000,"state":"active","ping":124},{"user_id":220,"name":"Heathcliff","steam_id":76561198044288534,"connected_time":4000000000,"state":"spawning","ping":116},{"user_id":197,"name":"Chaspen","steam_id":76561198098269939,"connected_time":1003000000000,"state":"spawning","ping":80},{"user_id":196,"name":"The Undead Knight","steam_id":76561198010654500,"connected_time":1006000000000,"state":"active","ping":278},{"user_id":218,"name":"PointyCactus","steam_id":76561199377064707,"connected_time":247000000000,"state":"active","ping":181},{"user_id":199,"name":"breathingtrees","steam_id":76561198118931690,"connected_time":980000000000,"state":"spawning","ping":50},{"user_id":189,"name":"Frost ♥","steam_id":76561198168870617,"connected_time":2137000000000,"state":"spawning","ping":45},{"user_id":193,"name":"Strange Diplomat","steam_id":76561198428191920,"connected_time":1161000000000,"state":"spawning","ping":51},{"user_id":210,"name":"Mint Jelly","steam_id":76561197991286751,"connected_time":789000000000,"state":"spawning","ping":49},{"user_id":215,"name":"Nyle","steam_id":76561198045652639,"connected_time":448000000000,"state":"spawning","ping":139},{"user_id":152,"name":"PinkLemonade","steam_id":76561198799286228,"connected_time":4730000000000,"state":"spawning","ping":64},{"user_id":153,"name":"e0e0","steam_id":76561198293839750,"connected_time":4573000000000,"state":"spawning","ping":52},{"user_id":219,"name":"lil hog","steam_id":76561199230929836,"connected_time":152000000000,"state":"spawning","ping":365},{"user_id":212,"name":"Cioly","steam_id":76561198257791981,"connected_time":763000000000,"state":"spawning","ping":209},{"user_id":167,"name":"Admiral Desto","steam_id":76561198301585815,"connected_time":3800000000000,"state":"spawning","ping":47},{"user_id":204,"name":"DeepDive","steam_id":76561198140542184,"connected_time":919000000000,"state":"active","ping":79},{"user_id":205,"name":"Mipsiek","steam_id":76561198164013471,"connected_time":915000000000,"state":"spawning","ping":21},{"user_id":211,"name":"Eto.g33g","steam_id":76561199094821242,"connected_time":776000000000,"state":"active","ping":380},{"user_id":170,"name":"jackass","steam_id":76561198209380493,"connected_time":3751000000000,"state":"spawning","ping":33},{"user_id":206,"name":"✪Type_Alpha","steam_id":76561198122780598,"connected_time":914000000000,"state":"spawning","ping":208},{"user_id":158,"name":"Ashton","steam_id":76561198300590302,"connected_time":4413000000000,"state":"spawning","ping":74},{"user_id":207,"name":"CocoNelly the Cat","steam_id":76561198073176682,"connected_time":913000000000,"state":"spawning","ping":61},{"user_id":208,"name":"pinkissocool {f2p}","steam_id":76561198989599828,"connected_time":880000000000,"state":"spawning","ping":42}]},{"server_id":14,"name":"Uncletopia | New York City | 2 | All Maps","name_short":"nyc-2","host":"nyc-1.us.uncletopia.com","port":27025,"enabled":true,"region":"us-east","cc":"us","latitude":40.73061,"longitude":-73.93524,"reserved":0,"last_update":"0001-01-01T00:00:00Z","name_a2s":"Uncletopia | New York City | 2 | All Maps","protocol":17,"map":"cp_badlands","folder":"tf","game":"Team Fortress","app_id":440,"player_count":24,"max_players":24,"Bots":0,"server_type":"Dedicated","server_os":"Linux","password":true,"vac":true,"version":"7961495","steam_id":85568392924469994,"keywords":["cp","nocrits","nodmgspread","uncletopia"],"game_id":440,"stv_port":27026,"stv_name":"Uncletopia | New York City | 2 | All Maps | STV","players":[{"user_id":277,"name":"bnob?","steam_id":76561198965284387,"connected_time":3375000000000,"state":"active","ping":54},{"user_id":309,"name":"IdkProlly","steam_id":76561198269212968,"connected_time":778000000000,"state":"active","ping":39},{"user_id":331,"name":"what the fuck is a gec","steam_id":76561198143132686,"connected_time":321000000000,"state":"active","ping":104},{"user_id":280,"name":"the foreskin collector","steam_id":76561198034377946,"connected_time":3067000000000,"state":"active","ping":83},{"user_id":299,"name":"Conan","steam_id":76561198158321202,"connected_time":1044000000000,"state":"active","ping":130},{"user_id":291,"name":"jailbreak","steam_id":76561198802085218,"connected_time":1406000000000,"state":"active","ping":99},{"user_id":232,"name":"tan flan the engineer man","steam_id":76561198040558474,"connected_time":5288000000000,"state":"active","ping":68},{"user_id":341,"name":"Dr. Han","steam_id":76561198811130843,"connected_time":20000000000,"state":"spawning","ping":74},{"user_id":324,"name":"ZombieSlayer77","steam_id":76561199023974356,"connected_time":463000000000,"state":"active","ping":86},{"user_id":310,"name":"angry!!!!!","steam_id":76561198435286999,"connected_time":751000000000,"state":"active","ping":50},{"user_id":237,"name":"LordYoshi117","steam_id":76561198150716141,"connected_time":5203000000000,"state":"active","ping":81},{"user_id":238,"name":"Knight","steam_id":76561198048041133,"connected_time":5202000000000,"state":"active","ping":69},{"user_id":243,"name":"ZeghyDios","steam_id":76561198051893215,"connected_time":5051000000000,"state":"active","ping":85},{"user_id":281,"name":"Squiliam","steam_id":76561198025278006,"connected_time":2773000000000,"state":"active","ping":81},{"user_id":293,"name":"viva la vida","steam_id":76561198072179483,"connected_time":1230000000000,"state":"active","ping":75},{"user_id":322,"name":"Kili","steam_id":76561198138456346,"connected_time":504000000000,"state":"active","ping":142},{"user_id":260,"name":"Oni","steam_id":76561198112066584,"connected_time":4483000000000,"state":"active","ping":72},{"user_id":261,"name":"LANDOFTAWN","steam_id":76561199180861116,"connected_time":4470000000000,"state":"active","ping":89},{"user_id":285,"name":"astrobob911","steam_id":76561199099110654,"connected_time":2642000000000,"state":"active","ping":80},{"user_id":312,"name":"Mazon","steam_id":76561198241147056,"connected_time":744000000000,"state":"active","ping":88},{"user_id":290,"name":"Niλiwiλi, ▼iscount of ▼io","steam_id":76561198009193777,"connected_time":1459000000000,"state":"active","ping":61},{"user_id":317,"name":"glitch","steam_id":76561197979495589,"connected_time":617000000000,"state":"active","ping":48},{"user_id":326,"name":"Totouri","steam_id":76561198004229789,"connected_time":437000000000,"state":"active","ping":73},{"user_id":308,"name":"Nic0","steam_id":76561198305690218,"connected_time":817000000000,"state":"active","ping":55}]},{"server_id":15,"name":"Uncletopia | New York City | 3 | Stopwatch","name_short":"nyc-3","host":"nyc-1.us.uncletopia.com","port":27035,"enabled":true,"region":"us-east","cc":"us","latitude":40.73061,"longitude":-73.93524,"reserved":0,"last_update":"0001-01-01T00:00:00Z","name_a2s":"Uncletopia | New York City | 3 | Stopwatch","protocol":17,"map":"workshop/koth_ashville_final.ugc2130459942","folder":"tf","game":"Team Fortress","app_id":440,"player_count":0,"max_players":24,"Bots":0,"server_type":"Dedicated","server_os":"Linux","password":true,"vac":true,"version":"7961495","steam_id":85568392924742820,"keywords":["cp","nocrits","nodmgspread","uncletopia"],"game_id":440,"stv_port":27036,"stv_name":"Uncletopia | New York City | 3 | Stopwatch | STV","players":null},{"server_id":16,"name":"Uncletopia | New York City | 4 | Community","name_short":"nyc-4","host":"nyc-1.us.uncletopia.com","port":27045,"enabled":true,"region":"us-east","cc":"us","latitude":40.73061,"longitude":-73.93524,"reserved":0,"last_update":"0001-01-01T00:00:00Z","name_a2s":"Uncletopia | New York City | 4 | Community","protocol":17,"map":"workshop/pl_vigil_rc10.ugc1266210012","folder":"tf","game":"Team Fortress","app_id":440,"player_count":0,"max_players":24,"Bots":0,"server_type":"Dedicated","server_os":"Linux","password":true,"vac":true,"version":"7961495","steam_id":85568392924742821,"keywords":["nocrits","nodmgspread","payload","uncletopia"],"game_id":440,"stv_port":27046,"stv_name":"Uncletopia | New York City | 4 | Community | STV","players":null},{"server_id":142,"name":"Uncletopia | São Paulo | 1 | All Maps","name_short":"sao-1","host":"sao-1.br.uncletopia.com","port":27015,"enabled":true,"region":"sa","cc":"br","latitude":-23.533773,"longitude":-46.62529,"reserved":0,"last_update":"0001-01-01T00:00:00Z","name_a2s":"Uncletopia | São Paulo | 1 | All Maps","protocol":17,"map":"koth_lakeside_final","folder":"tf","game":"Team Fortress","app_id":440,"player_count":0,"max_players":24,"Bots":0,"server_type":"Dedicated","server_os":"Linux","password":true,"vac":true,"version":"7961495","steam_id":85568392924469996,"keywords":["cp","nocrits","nodmgspread","uncletopia"],"game_id":440,"stv_port":27016,"stv_name":"Uncletopia | São Paulo | 1 | All Maps | STV","players":null},{"server_id":143,"name":"Uncletopia | São Paulo | 2 | Community","name_short":"sao-2","host":"sao-2.br.uncletopia.com","port":27015,"enabled":true,"region":"sa","cc":"br","latitude":-23.533773,"longitude":-46.62529,"reserved":0,"last_update":"0001-01-01T00:00:00Z","name_a2s":"Uncletopia | São Paulo | 2 | Community","protocol":17,"map":"workshop/koth_ramjam_rc1.ugc459778887","folder":"tf","game":"Team Fortress","app_id":440,"player_count":0,"max_players":24,"Bots":0,"server_type":"Dedicated","server_os":"Linux","password":true,"vac":true,"version":"7961495","steam_id":85568392924485349,"keywords":["cp","nocrits","nodmgspread","uncletopia"],"game_id":440,"stv_port":27016,"stv_name":"Uncletopia | São Paulo | 2 | Community | STV","players":null},{"server_id":7,"name":"Uncletopia | Seattle | 1 | All Maps","name_short":"sea-1","host":"sea-1.us.uncletopia.com","port":27015,"enabled":true,"region":"us-west","cc":"us","latitude":47.608013,"longitude":-122.33517,"reserved":0,"last_update":"0001-01-01T00:00:00Z","name_a2s":"Uncletopia | Seattle | 1 | All Maps","protocol":17,"map":"cp_mountainlab","folder":"tf","game":"Team Fortress","app_id":440,"player_count":24,"max_players":24,"Bots":0,"server_type":"Dedicated","server_os":"Linux","password":true,"vac":true,"version":"7961495","steam_id":85568392924469997,"keywords":["cp","nocrits","nodmgspread","uncletopia"],"game_id":440,"stv_port":27016,"stv_name":"Uncletopia | Seattle | 1 | All Maps | STV","players":[{"user_id":130,"name":"BooGotShot","steam_id":76561198039062270,"connected_time":20728000000000,"state":"active","ping":103},{"user_id":381,"name":"mrappledumb","steam_id":76561199133590774,"connected_time":2436000000000,"state":"active","ping":113},{"user_id":382,"name":"Elfy","steam_id":76561199166448617,"connected_time":2429000000000,"state":"active","ping":45},{"user_id":331,"name":"J O S H³²","steam_id":76561198122603779,"connected_time":6592000000000,"state":"active","ping":92},{"user_id":359,"name":"Daz","steam_id":76561198041431938,"connected_time":4215000000000,"state":"active","ping":50},{"user_id":369,"name":"Vincent Van Bro","steam_id":76561197966919802,"connected_time":3428000000000,"state":"active","ping":44},{"user_id":361,"name":"Doctor™","steam_id":76561198134309750,"connected_time":4200000000000,"state":"active","ping":103},{"user_id":357,"name":"RainboomCrash","steam_id":76561198065612273,"connected_time":4241000000000,"state":"active","ping":47},{"user_id":383,"name":"OG Pemguin","steam_id":76561199240575933,"connected_time":2413000000000,"state":"active","ping":74},{"user_id":395,"name":"Meloncholy","steam_id":76561198077424488,"connected_time":244000000000,"state":"active","ping":73},{"user_id":363,"name":"theManMan","steam_id":76561199488457138,"connected_time":4090000000000,"state":"active","ping":53},{"user_id":378,"name":"Cave Mushroom","steam_id":76561198090419068,"connected_time":2771000000000,"state":"active","ping":62},{"user_id":393,"name":"Greskrendtregk","steam_id":76561197969553142,"connected_time":733000000000,"state":"active","ping":52},{"user_id":392,"name":"NOT FRIENDLY","steam_id":76561198041327231,"connected_time":756000000000,"state":"active","ping":46},{"user_id":394,"name":"a mouse with a gun","steam_id":76561198066154333,"connected_time":710000000000,"state":"active","ping":110},{"user_id":396,"name":"2 Point Tom","steam_id":76561198087617008,"connected_time":131000000000,"state":"active","ping":48},{"user_id":310,"name":"jorts","steam_id":76561199041179985,"connected_time":9142000000000,"state":"active","ping":58},{"user_id":375,"name":"[Name Pending]","steam_id":76561198094685223,"connected_time":3156000000000,"state":"active","ping":101},{"user_id":385,"name":"jayeskae","steam_id":76561198144220801,"connected_time":2283000000000,"state":"active","ping":52},{"user_id":368,"name":"Keamy","steam_id":76561199471434875,"connected_time":3746000000000,"state":"active","ping":37},{"user_id":326,"name":"Ridley","steam_id":76561198014857463,"connected_time":7443000000000,"state":"active","ping":130},{"user_id":358,"name":"goofy goober","steam_id":76561199024079388,"connected_time":4231000000000,"state":"active","ping":47},{"user_id":366,"name":"fish (2:3)","steam_id":76561198134331073,"connected_time":4035000000000,"state":"active","ping":50},{"user_id":390,"name":"Grill Skills","steam_id":76561198053575147,"connected_time":785000000000,"state":"active","ping":56}]},{"server_id":119,"name":"Uncletopia | Seattle | 2 | All Maps","name_short":"sea-2","host":"sea-1.us.uncletopia.com","port":27025,"enabled":true,"region":"us-west","cc":"us","latitude":47.608013,"longitude":-122.33517,"reserved":0,"last_update":"0001-01-01T00:00:00Z","name_a2s":"Uncletopia | Seattle | 2 | All Maps","protocol":17,"map":"pl_barnblitz","folder":"tf","game":"Team Fortress","app_id":440,"player_count":0,"max_players":24,"Bots":0,"server_type":"Dedicated","server_os":"Linux","password":true,"vac":true,"version":"7961495","steam_id":85568392924469998,"keywords":["nocrits","nodmgspread","payload","uncletopia"],"game_id":440,"stv_port":27026,"stv_name":"Uncletopia | Seattle | 2 | All Maps | STV","players":null},{"server_id":406,"name":"Uncletopia | Seattle | 3 | Stopwatch","name_short":"sea-3","host":"sea-1.us.uncletopia.com","port":27035,"enabled":true,"region":"us-west","cc":"us","latitude":47.608013,"longitude":-122.33517,"reserved":0,"last_update":"0001-01-01T00:00:00Z","name_a2s":"Uncletopia | Seattle | 3 | Stopwatch","protocol":17,"map":"pl_pier","folder":"tf","game":"Team Fortress","app_id":440,"player_count":0,"max_players":24,"Bots":0,"server_type":"Dedicated","server_os":"Linux","password":true,"vac":true,"version":"7961495","steam_id":85568392924515217,"keywords":["nocrits","nodmgspread","payload","uncletopia"],"game_id":440,"stv_port":27036,"stv_name":"Uncletopia | Seattle | 3 | Stopwatch | STV","players":null},{"server_id":17,"name":"Uncletopia | San Francisco | 1 | All Maps","name_short":"sfo-1","host":"sfo-1.us.uncletopia.com","port":27015,"enabled":true,"region":"us-west","cc":"us","latitude":37.77397,"longitude":-122.4313,"reserved":0,"last_update":"0001-01-01T00:00:00Z","name_a2s":"Uncletopia | San Francisco | 1 | All Maps","protocol":17,"map":"koth_cascade","folder":"tf","game":"Team Fortress","app_id":440,"player_count":1,"max_players":24,"Bots":0,"server_type":"Dedicated","server_os":"Linux","password":true,"vac":true,"version":"7961495","steam_id":85568392924469999,"keywords":["cp","nocrits","nodmgspread","uncletopia"],"game_id":440,"stv_port":27016,"stv_name":"Uncletopia | San Francisco | 1 | All Maps | STV","players":[{"user_id":5,"name":"amaricantanker#574","steam_id":76561198343584037,"connected_time":157000000000,"state":"active","ping":59}]},{"server_id":18,"name":"Uncletopia | San Francisco | 2 | All Maps","name_short":"sfo-2","host":"sfo-1.us.uncletopia.com","port":27025,"enabled":true,"region":"us-west","cc":"us","latitude":37.77397,"longitude":-122.4313,"reserved":0,"last_update":"0001-01-01T00:00:00Z","name_a2s":"Uncletopia | San Francisco | 2 | All Maps","protocol":17,"map":"ctf_well","folder":"tf","game":"Team Fortress","app_id":440,"player_count":24,"max_players":24,"Bots":0,"server_type":"Dedicated","server_os":"Linux","password":true,"vac":true,"version":"7961495","steam_id":85568392924470000,"keywords":["ctf","nocrits","nodmgspread","uncletopia"],"game_id":440,"stv_port":27026,"stv_name":"Uncletopia | San Francisco | 2 | All Maps | STV","players":[{"user_id":352,"name":"ĐïɐȐɹɦɆa","steam_id":76561198981411945,"connected_time":464000000000,"state":"active","ping":93},{"user_id":354,"name":"LIAM","steam_id":76561198324691143,"connected_time":268000000000,"state":"active","ping":71},{"user_id":303,"name":"Dongus","steam_id":76561197979056451,"connected_time":3178000000000,"state":"active","ping":66},{"user_id":346,"name":"Defeat","steam_id":76561198065203818,"connected_time":778000000000,"state":"active","ping":60},{"user_id":168,"name":"usedhalfcart","steam_id":76561198072621852,"connected_time":9597000000000,"state":"active","ping":121},{"user_id":350,"name":"HumbDoe","steam_id":76561198065556553,"connected_time":488000000000,"state":"active","ping":67},{"user_id":360,"name":"rynz500","steam_id":76561198043872361,"connected_time":25000000000,"state":"active","ping":114},{"user_id":344,"name":"Combo","steam_id":76561198067224160,"connected_time":821000000000,"state":"active","ping":101},{"user_id":302,"name":"chrisblue2005","steam_id":76561199385222289,"connected_time":3245000000000,"state":"active","ping":94},{"user_id":359,"name":"TobyM88","steam_id":76561198073691812,"connected_time":100000000000,"state":"active","ping":110},{"user_id":313,"name":"The_Blaze_king","steam_id":76561198324842122,"connected_time":2637000000000,"state":"active","ping":119},{"user_id":355,"name":"fly","steam_id":76561199003715735,"connected_time":268000000000,"state":"active","ping":120},{"user_id":324,"name":"IBYoung","steam_id":76561198170813457,"connected_time":2197000000000,"state":"active","ping":64},{"user_id":342,"name":"RoseHeart","steam_id":76561198041024002,"connected_time":890000000000,"state":"active","ping":61},{"user_id":326,"name":"swnerd666","steam_id":76561199077132276,"connected_time":2076000000000,"state":"active","ping":107},{"user_id":340,"name":"Windows Vista Home Premium","steam_id":76561198043764863,"connected_time":1026000000000,"state":"active","ping":65},{"user_id":347,"name":"Eden","steam_id":76561198081284664,"connected_time":654000000000,"state":"active","ping":58},{"user_id":351,"name":"Flavortown Thanos","steam_id":76561198004853966,"connected_time":469000000000,"state":"active","ping":69},{"user_id":345,"name":"Granny from Hoodwinked","steam_id":76561198116389072,"connected_time":790000000000,"state":"active","ping":79},{"user_id":262,"name":"bansheerubber","steam_id":76561198042009362,"connected_time":5673000000000,"state":"active","ping":73},{"user_id":353,"name":"Maverick","steam_id":76561198049193435,"connected_time":386000000000,"state":"active","ping":121},{"user_id":334,"name":"infant daughter","steam_id":76561198168492250,"connected_time":1772000000000,"state":"active","ping":73},{"user_id":330,"name":"Lancerland","steam_id":76561198130497320,"connected_time":1932000000000,"state":"active","ping":59},{"user_id":357,"name":"Jimmy Fallon","steam_id":76561198069131730,"connected_time":143000000000,"state":"active","ping":94}]},{"server_id":19,"name":"Uncletopia | San Francisco | 3 | Stopwatch","name_short":"sfo-3","host":"sfo-1.us.uncletopia.com","port":27035,"enabled":true,"region":"us-west","cc":"us","latitude":37.77397,"longitude":-122.4313,"reserved":0,"last_update":"0001-01-01T00:00:00Z","name_a2s":"Uncletopia | San Francisco | 3 | Stopwatch","protocol":17,"map":"workshop/koth_product_final.ugc454272353","folder":"tf","game":"Team Fortress","app_id":440,"player_count":0,"max_players":24,"Bots":0,"server_type":"Dedicated","server_os":"Linux","password":true,"vac":true,"version":"7961495","steam_id":85568392924742824,"keywords":["cp","nocrits","nodmgspread","uncletopia"],"game_id":440,"stv_port":27036,"stv_name":"Uncletopia | San Francisco | 3 | Stopwatch | STV","players":null},{"server_id":20,"name":"Uncletopia | San Francisco | 4 | Community","name_short":"sfo-4","host":"sfo-1.us.uncletopia.com","port":27045,"enabled":true,"region":"us-west","cc":"us","latitude":37.77397,"longitude":-122.4313,"reserved":0,"last_update":"0001-01-01T00:00:00Z","name_a2s":"Uncletopia | San Francisco | 4 | Community","protocol":17,"map":"pl_pier","folder":"tf","game":"Team Fortress","app_id":440,"player_count":0,"max_players":24,"Bots":0,"server_type":"Dedicated","server_os":"Linux","password":true,"vac":true,"version":"7961495","steam_id":85568392924742826,"keywords":["nocrits","nodmgspread","payload","uncletopia"],"game_id":440,"stv_port":27046,"stv_name":"Uncletopia | San Francisco | 4 | Community | STV","players":null},{"server_id":141,"name":"Uncletopia | Sydney | 1 | All Maps","name_short":"syd-1","host":"syd-1.au.uncletopia.com","port":27015,"enabled":true,"region":"au","cc":"au","latitude":-33.865143,"longitude":151.2099,"reserved":0,"last_update":"0001-01-01T00:00:00Z","name_a2s":"Uncletopia | Sydney | 1 | All Maps","protocol":17,"map":"koth_viaduct","folder":"tf","game":"Team Fortress","app_id":440,"player_count":0,"max_players":24,"Bots":0,"server_type":"Dedicated","server_os":"Linux","password":true,"vac":true,"version":"7961495","steam_id":85568392924470001,"keywords":["cp","nocrits","nodmgspread","uncletopia"],"game_id":440,"stv_port":27016,"stv_name":"Uncletopia | Sydney | 1 | All Maps | STV","players":null},{"server_id":123,"name":"Uncletopia | Sydney | 2 | All Maps","name_short":"syd-2","host":"syd-1.au.uncletopia.com","port":27025,"enabled":true,"region":"au","cc":"au","latitude":-33.865143,"longitude":151.2099,"reserved":0,"last_update":"0001-01-01T00:00:00Z","name_a2s":"Uncletopia | Sydney | 2 | All Maps","protocol":17,"map":"koth_viaduct","folder":"tf","game":"Team Fortress","app_id":440,"player_count":0,"max_players":24,"Bots":0,"server_type":"Dedicated","server_os":"Linux","password":true,"vac":true,"version":"7961495","steam_id":85568392924470002,"keywords":["cp","nocrits","nodmgspread","uncletopia"],"game_id":440,"stv_port":27026,"stv_name":"Uncletopia | Sydney | 2 | All Maps | STV","players":null},{"server_id":395,"name":"Uncletopia | Sydney | 3 | All Maps","name_short":"syd-3","host":"syd-1.au.uncletopia.com","port":27035,"enabled":true,"region":"au","cc":"au","latitude":-33.865143,"longitude":151.2099,"reserved":0,"last_update":"0001-01-01T00:00:00Z","name_a2s":"Uncletopia | Sydney | 3 | All Maps","protocol":17,"map":"pl_frontier_final","folder":"tf","game":"Team Fortress","app_id":440,"player_count":0,"max_players":24,"Bots":0,"server_type":"Dedicated","server_os":"Linux","password":true,"vac":true,"version":"7961495","steam_id":85568392925194467,"keywords":["nocrits","nodmgspread","payload","uncletopia"],"game_id":440,"stv_port":27036,"stv_name":"Uncletopia | Sydney | 3 | All Maps | STV","players":null},{"server_id":396,"name":"Uncletopia | Sydney | 4 | All Maps","name_short":"syd-4","host":"syd-1.au.uncletopia.com","port":27045,"enabled":true,"region":"au","cc":"au","latitude":-33.865143,"longitude":151.2099,"reserved":0,"last_update":"0001-01-01T00:00:00Z","name_a2s":"Uncletopia | Sydney | 4 | All Maps","protocol":17,"map":"cp_process_final","folder":"tf","game":"Team Fortress","app_id":440,"player_count":0,"max_players":24,"Bots":0,"server_type":"Dedicated","server_os":"Linux","password":true,"vac":true,"version":"7961495","steam_id":85568392925397958,"keywords":["cp","nocrits","nodmgspread","uncletopia"],"game_id":440,"stv_port":27046,"stv_name":"Uncletopia | Sydney | 4 | All Maps | STV","players":null},{"server_id":58,"name":"Uncletopia | Sydney | 5 | Stopwatch","name_short":"syd-5","host":"syd-1.au.uncletopia.com","port":27055,"enabled":true,"region":"au","cc":"au","latitude":-33.865143,"longitude":151.2099,"reserved":0,"last_update":"0001-01-01T00:00:00Z","name_a2s":"Uncletopia | Sydney | 5 | Stopwatch","protocol":17,"map":"pl_frontier_final","folder":"tf","game":"Team Fortress","app_id":440,"player_count":0,"max_players":24,"Bots":0,"server_type":"Dedicated","server_os":"Linux","password":true,"vac":true,"version":"7961495","steam_id":85568392925397959,"keywords":["nocrits","nodmgspread","payload","uncletopia"],"game_id":440,"stv_port":27056,"stv_name":"Uncletopia | Sydney | 5 | Stopwatch | STV","players":null},{"server_id":59,"name":"Uncletopia | Sydney | 6 | Community","name_short":"syd-6","host":"syd-1.au.uncletopia.com","port":27065,"enabled":true,"region":"au","cc":"au","latitude":-33.865143,"longitude":151.2099,"reserved":0,"last_update":"0001-01-01T00:00:00Z","name_a2s":"Uncletopia | Sydney | 6 | Community","protocol":17,"map":"cp_sunshine","folder":"tf","game":"Team Fortress","app_id":440,"player_count":0,"max_players":24,"Bots":0,"server_type":"Dedicated","server_os":"Linux","password":true,"vac":true,"version":"7961495","steam_id":85568392925397960,"keywords":["cp","nocrits","nodmgspread","uncletopia"],"game_id":440,"stv_port":27066,"stv_name":"Uncletopia | Sydney | 6 | Community | STV","players":null},{"server_id":49,"name":"Uncletopia | Warsaw | 1 | One Thousand Uncles","name_short":"waw-1","host":"waw-1.pl.uncletopia.com","port":27015,"enabled":true,"region":"eu","cc":"pl","latitude":52.2297,"longitude":21.017532,"reserved":0,"last_update":"0001-01-01T00:00:00Z","name_a2s":"Uncletopia | Warsaw | 1 | One Thousand Uncles","protocol":17,"map":"cp_dustbowl","folder":"tf","game":"Team Fortress","app_id":440,"player_count":30,"max_players":32,"Bots":16,"server_type":"Dedicated","server_os":"Linux","password":true,"vac":true,"version":"7961495","steam_id":85568392925397850,"keywords":["alltalk","bots","cp","danepve","increased_maxplayers","nocrits","norespawntime","uncletopia"],"game_id":440,"stv_port":0,"stv_name":"","players":[{"user_id":136,"name":"OutOfDucks","steam_id":76561198166376227,"connected_time":3217000000000,"state":"active","ping":73},{"user_id":173,"name":"Brick Of Beans","steam_id":76561198828750755,"connected_time":246000000000,"state":"active","ping":79},{"user_id":20,"name":"0scr_","steam_id":76561198042631352,"connected_time":15167000000000,"state":"active","ping":84},{"user_id":144,"name":"Invicator","steam_id":76561198082895461,"connected_time":2027000000000,"state":"active","ping":65},{"user_id":127,"name":"Voks_","steam_id":76561198159687785,"connected_time":5204000000000,"state":"active","ping":64},{"user_id":172,"name":"SCooler27","steam_id":76561199200454579,"connected_time":377000000000,"state":"active","ping":86},{"user_id":177,"name":"PuPuruPuruPumPu","steam_id":76561198391950490,"connected_time":41000000000,"state":"spawning","ping":104},{"user_id":130,"name":"aaaaaa","steam_id":76561198086304421,"connected_time":4717000000000,"state":"active","ping":82},{"user_id":165,"name":"Scout","steam_id":76561198992898803,"connected_time":1247000000000,"state":"active","ping":76},{"user_id":166,"name":"Benzo Fury","steam_id":76561198025259336,"connected_time":1231000000000,"state":"active","ping":74},{"user_id":167,"name":"Hydro`","steam_id":76561198000849705,"connected_time":1217000000000,"state":"active","ping":113},{"user_id":168,"name":"Rayco","steam_id":76561198048013129,"connected_time":1211000000000,"state":"active","ping":60},{"user_id":135,"name":"Hans","steam_id":76561198136895244,"connected_time":3934000000000,"state":"active","ping":52},{"user_id":169,"name":"BreadBread06","steam_id":76561198196914050,"connected_time":1080000000000,"state":"active","ping":205}]},{"server_id":50,"name":"Uncletopia | Warsaw | 2 | One Thousand Uncles","name_short":"waw-2","host":"waw-1.pl.uncletopia.com","port":27025,"enabled":true,"region":"eu","cc":"pl","latitude":52.2297,"longitude":21.017532,"reserved":0,"last_update":"0001-01-01T00:00:00Z","name_a2s":"Uncletopia | Warsaw | 2 | One Thousand Uncles","protocol":17,"map":"cp_mercenarypark","folder":"tf","game":"Team Fortress","app_id":440,"player_count":0,"max_players":32,"Bots":0,"server_type":"Dedicated","server_os":"Linux","password":true,"vac":true,"version":"7961495","steam_id":85568392925397851,"keywords":["alltalk","cp","danepve","increased_maxplayers","nocrits","norespawntime","uncletopia"],"game_id":440,"stv_port":0,"stv_name":"","players":null},{"server_id":51,"name":"Uncletopia | Warsaw | 3 | All Maps","name_short":"waw-3","host":"waw-1.pl.uncletopia.com","port":27035,"enabled":true,"region":"eu","cc":"pl","latitude":52.2297,"longitude":21.017532,"reserved":0,"last_update":"0001-01-01T00:00:00Z","name_a2s":"Uncletopia | Warsaw | 3 | All Maps","protocol":17,"map":"plr_pipeline","folder":"tf","game":"Team Fortress","app_id":440,"player_count":0,"max_players":24,"Bots":0,"server_type":"Dedicated","server_os":"Linux","password":true,"vac":true,"version":"7961495","steam_id":85568392925397852,"keywords":["nocrits","nodmgspread","payload","uncletopia"],"game_id":440,"stv_port":27036,"stv_name":"Uncletopia | Warsaw | 3 | All Maps | STV","players":null},{"server_id":52,"name":"Uncletopia | Warsaw | 4 | All Maps","name_short":"waw-4","host":"waw-1.pl.uncletopia.com","port":27045,"enabled":true,"region":"eu","cc":"pl","latitude":52.2297,"longitude":21.017532,"reserved":0,"last_update":"0001-01-01T00:00:00Z","name_a2s":"Uncletopia | Warsaw | 4 | All Maps","protocol":17,"map":"cp_snakewater_final1","folder":"tf","game":"Team Fortress","app_id":440,"player_count":0,"max_players":24,"Bots":0,"server_type":"Dedicated","server_os":"Linux","password":true,"vac":true,"version":"7961495","steam_id":85568392925397853,"keywords":["cp","nocrits","nodmgspread","uncletopia"],"game_id":440,"stv_port":27046,"stv_name":"Uncletopia | Warsaw | 4 | All Maps | STV","players":null},{"server_id":53,"name":"Uncletopia | Warsaw | 5 | Stopwatch","name_short":"waw-5","host":"waw-1.pl.uncletopia.com","port":27055,"enabled":true,"region":"eu","cc":"pl","latitude":52.2297,"longitude":21.017532,"reserved":0,"last_update":"0001-01-01T00:00:00Z","name_a2s":"Uncletopia | Warsaw | 5 | Stopwatch","protocol":17,"map":"koth_highpass","folder":"tf","game":"Team Fortress","app_id":440,"player_count":0,"max_players":24,"Bots":0,"server_type":"Dedicated","server_os":"Linux","password":true,"vac":true,"version":"7961495","steam_id":85568392925397854,"keywords":["cp","nocrits","nodmgspread","uncletopia"],"game_id":440,"stv_port":27056,"stv_name":"Uncletopia | Warsaw | 5 | Stopwatch | STV","players":null},{"server_id":54,"name":"Uncletopia | Warsaw | 6 | Community","name_short":"waw-6","host":"waw-1.pl.uncletopia.com","port":27065,"enabled":true,"region":"eu","cc":"pl","latitude":52.2297,"longitude":21.017532,"reserved":0,"last_update":"0001-01-01T00:00:00Z","name_a2s":"Uncletopia | Warsaw | 6 | Community","protocol":17,"map":"workshop/cp_villa_b19.ugc2113052569","folder":"tf","game":"Team Fortress","app_id":440,"player_count":0,"max_players":24,"Bots":0,"server_type":"Dedicated","server_os":"Linux","password":true,"vac":true,"version":"7961495","steam_id":85568392925397856,"keywords":["cp","nocrits","nodmgspread","uncletopia"],"game_id":440,"stv_port":27066,"stv_name":"Uncletopia | Warsaw | 6 | Community | STV","players":null}]}