{"status":true,"message":"","result":[{"server_id":9,"name":"Uncletopia | Atlanta | 1 | All Maps","name_short":"atl-1","host":"atl-1.us.uncletopia.com","port":27015,"enabled":true,"region":"us-east","cc":"us","latitude":33.753746,"longitude":-84.38633,"reserved":0,"last_update":"0001-01-01T00:00:00Z","name_a2s":"Uncletopia | Atlanta | 1 | All Maps","protocol":17,"map":"cp_dustbowl","folder":"tf","game":"Team Fortress","app_id":440,"player_count":24,"max_players":24,"Bots":0,"server_type":"Dedicated","server_os":"Linux","password":true,"vac":true,"version":"7695204","steam_id":85568392924469982,"keywords":["cp","nocrits","nodmgspread","uncletopia"],"game_id":440,"stv_port":27016,"stv_name":"Uncletopia | Atlanta | 1 | All Maps | STV","players":[{"user_id":470,"name":"merry mommy","steam_id":76561199230929836,"connected_time":9708000000000,"state":"active","ping":94},{"user_id":502,"name":"merryy","steam_id":76561198968001329,"connected_time":6918000000000,"state":"active","ping":45},{"user_id":531,"name":"ATL1 | Dec the halls","steam_id":76561199045608372,"connected_time":2274000000000,"state":"active","ping":74},{"user_id":477,"name":"p4ka (in a pear tree)","steam_id":76561198315291317,"connected_time":8783000000000,"state":"active","ping":67},{"user_id":536,"name":"chexo4","steam_id":76561198150532531,"connected_time":1296000000000,"state":"active","ping":48},{"user_id":548,"name":"‚ô°Alyx‚ô°","steam_id":76561198024303978,"connected_time":268000000000,"state":"active","ping":57},{"user_id":242,"name":"ATL1 | eish","steam_id":76561198089463603,"connected_time":30656000000000,"state":"active","ping":104},{"user_id":549,"name":"ATL6 Le4n Nog!!!","steam_id":76561198045522596,"connected_time":252000000000,"state":"active","ping":62},{"user_id":489,"name":"ATL1 | Phestive Pango","steam_id":76561198069811545,"connected_time":8209000000000,"state":"active","ping":43},{"user_id":550,"name":"ATL1 | Crystron","steam_id":76561198880437428,"connected_time":164000000000,"state":"active","ping":83},{"user_id":537,"name":"ATL6 DeezNoodlez","steam_id":76561198246700372,"connected_time":770000000000,"state":"active","ping":59},{"user_id":259,"name":"joe lft","steam_id":76561198045781320,"connected_time":29336000000000,"state":"active","ping":68},{"user_id":542,"name":"J The Jounin","steam_id":76561198034583622,"connected_time":289000000000,"state":"active","ping":50},{"user_id":547,"name":"coke zero","steam_id":76561198220641124,"connected_time":272000000000,"state":"active","ping":105},{"user_id":540,"name":"raime","steam_id":76561198024903775,"connected_time":310000000000,"state":"active","ping":178},{"user_id":544,"name":"Avo","steam_id":76561197993340494,"connected_time":285000000000,"state":"active","ping":62},{"user_id":485,"name":"Mickey","steam_id":76561197976868960,"connected_time":8292000000000,"state":"active","ping":160},{"user_id":539,"name":"FairHeadcrab","steam_id":76561197999148535,"connected_time":515000000000,"state":"active","ping":61},{"user_id":475,"name":"Bottom Trans Cowgirl","steam_id":76561198304239680,"connected_time":8967000000000,"state":"active","ping":70},{"user_id":545,"name":"ATL1 | Psionic Present","steam_id":76561198151019322,"connected_time":284000000000,"state":"active","ping":70},{"user_id":533,"name":"Kerosene","steam_id":76561198978778718,"connected_time":1897000000000,"state":"active","ping":132},{"user_id":525,"name":"snoops","steam_id":76561197986760351,"connected_time":3697000000000,"state":"active","ping":75},{"user_id":523,"name":"Krissy Krampus","steam_id":76561197960848174,"connected_time":4592000000000,"state":"active","ping":69},{"user_id":534,"name":"corridos belicos y modelo negra","steam_id":76561198025668771,"connected_time":1897000000000,"state":"active","ping":116}]},{"server_id":400,"name":"Uncletopia | Atlanta | 3 | All Maps","name_short":"atl-3","host":"atl-1.us.uncletopia.com","port":27035,"enabled":true,"region":"us-east","cc":"us","latitude":33.753746,"longitude":-84.38633,"reserved":0,"last_update":"0001-01-01T00:00:00Z","name_a2s":"Uncletopia | Atlanta | 3 | All Maps","protocol":17,"map":"pl_pier","folder":"tf","game":"Team Fortress","app_id":440,"player_count":24,"max_players":24,"Bots":0,"server_type":"Dedicated","server_os":"Linux","password":true,"vac":true,"version":"7695204","steam_id":85568392924515187,"keywords":["nocrits","nodmgspread","payload","uncletopia"],"game_id":440,"stv_port":27036,"stv_name":"Uncletopia | Atlanta | 3 | All Maps | STV","players":[{"user_id":341,"name":"Zhong Xina ÈíüÊñ∞Â®ú","steam_id":76561198044022060,"connected_time":2316000000000,"state":"active","ping":60},{"user_id":382,"name":"pack of newports","steam_id":76561198191347183,"connected_time":370000000000,"state":"active","ping":60},{"user_id":340,"name":"sB","steam_id":76561198041610406,"connected_time":2629000000000,"state":"active","ping":68},{"user_id":376,"name":"mr beast","steam_id":76561198162532286,"connected_time":512000000000,"state":"active","ping":79},{"user_id":345,"name":"DillPickle","steam_id":76561198321577968,"connected_time":2188000000000,"state":"active","ping":106},{"user_id":365,"name":"adankmix","steam_id":76561198106945614,"connected_time":1209000000000,"state":"active","ping":47},{"user_id":366,"name":"G_Bob","steam_id":76561198098133233,"connected_time":1070000000000,"state":"active","ping":80},{"user_id":377,"name":"OrangeShoes","steam_id":76561197971249940,"connected_time":507000000000,"state":"active","ping":75},{"user_id":347,"name":"Styx","steam_id":76561198104657428,"connected_time":2167000000000,"state":"active","ping":61},{"user_id":350,"name":"StupidWizardYT","steam_id":76561198285264050,"connected_time":2087000000000,"state":"active","ping":75},{"user_id":333,"name":"Mr Breast","steam_id":76561198813450901,"connected_time":4408000000000,"state":"active","ping":68},{"user_id":373,"name":"Pumper","steam_id":76561198800459538,"connected_time":799000000000,"state":"active","ping":59},{"user_id":371,"name":"Xmoonsheep","steam_id":76561198158384685,"connected_time":985000000000,"state":"active","ping":46},{"user_id":330,"name":"spunk pap","steam_id":76561198202278895,"connected_time":4716000000000,"state":"active","ping":72},{"user_id":352,"name":"LordCasuel6173","steam_id":76561199389029201,"connected_time":1982000000000,"state":"active","ping":64},{"user_id":353,"name":"non_ai","steam_id":76561198270951938,"connected_time":1942000000000,"state":"active","ping":61},{"user_id":374,"name":"draechlein","steam_id":76561198330188918,"connected_time":753000000000,"state":"active","ping":60},{"user_id":364,"name":"Snazzi","steam_id":76561198085208276,"connected_time":1293000000000,"state":"active","ping":75},{"user_id":334,"name":"spinglebarp","steam_id":76561198091472345,"connected_time":4022000000000,"state":"active","ping":90},{"user_id":380,"name":"Sir Tea","steam_id":76561198353912752,"connected_time":483000000000,"state":"active","ping":77},{"user_id":381,"name":"whats fizzin","steam_id":76561198230670996,"connected_time":466000000000,"state":"active","ping":55},{"user_id":332,"name":"Schlooper","steam_id":76561198879313485,"connected_time":4538000000000,"state":"active","ping":67},{"user_id":372,"name":"toodleflower22","steam_id":76561198023888890,"connected_time":980000000000,"state":"active","ping":75},{"user_id":383,"name":"ehs","steam_id":76561198431048339,"connected_time":148000000000,"state":"active","ping":109}]},{"server_id":401,"name":"Uncletopia | Atlanta | 4 | No Payload","name_short":"atl-4","host":"atl-1.us.uncletopia.com","port":27045,"enabled":true,"region":"us-east","cc":"us","latitude":33.753746,"longitude":-84.38633,"reserved":0,"last_update":"0001-01-01T00:00:00Z","name_a2s":"Uncletopia | Atlanta | 4 | No Payload","protocol":17,"map":"cp_snakewater_final1","folder":"tf","game":"Team Fortress","app_id":440,"player_count":0,"max_players":24,"Bots":0,"server_type":"Dedicated","server_os":"Linux","password":true,"vac":true,"version":"7695204","steam_id":85568392924515188,"keywords":["cp","nocrits","nodmgspread","uncletopia"],"game_id":440,"stv_port":27046,"stv_name":"Uncletopia | Atlanta | 4 | No Payload | STV","players":null},{"server_id":2,"name":"Uncletopia | Chicago | 1 | All Maps","name_short":"chi-1","host":"chi-1.us.uncletopia.com","port":27015,"enabled":true,"region":"us-central","cc":"us","latitude":41.881832,"longitude":-87.62318,"reserved":0,"last_update":"0001-01-01T00:00:00Z","name_a2s":"Uncletopia | Chicago | 1 | All Maps","protocol":17,"map":"cp_sunshine","folder":"tf","game":"Team Fortress","app_id":440,"player_count":24,"max_players":24,"Bots":0,"server_type":"Dedicated","server_os":"Linux","password":true,"vac":true,"version":"7695204","steam_id":85568392924469984,"keywords":["cp","nocrits","nodmgspread","uncletopia"],"game_id":440,"stv_port":27016,"stv_name":"Uncletopia | Chicago | 1 | All Maps | STV","players":[{"user_id":749,"name":"Bee","steam_id":76561198074681324,"connected_time":1092000000000,"state":"active","ping":66},{"user_id":753,"name":"Kuyumiester","steam_id":76561198126835302,"connected_time":819000000000,"state":"active","ping":61},{"user_id":754,"name":"gps","steam_id":76561198067492304,"connected_time":646000000000,"state":"active","ping":80},{"user_id":759,"name":"Legion","steam_id":76561199036242643,"connected_time":131000000000,"state":"active","ping":66},{"user_id":721,"name":"bobbyreinman2009","steam_id":76561198804763186,"connected_time":1946000000000,"state":"active","ping":62},{"user_id":762,"name":"cheetaz","steam_id":76561198224614084,"connected_time":22000000000,"state":"active","ping":68},{"user_id":685,"name":"dbelow_","steam_id":76561198056148853,"connected_time":4242000000000,"state":"active","ping":61},{"user_id":730,"name":"Be My Bad Boy AMV (Tony Soprano","steam_id":76561198028381486,"connected_time":1661000000000,"state":"active","ping":132},{"user_id":748,"name":"AAAAAAAAAAAAAAAAAAAAAAAAAAAAAAA","steam_id":76561198043513442,"connected_time":1212000000000,"state":"active","ping":78},{"user_id":755,"name":"Ferg","steam_id":76561198119013119,"connected_time":644000000000,"state":"active","ping":78},{"user_id":756,"name":"GiraffeMan","steam_id":76561198042104084,"connected_time":634000000000,"state":"active","ping":81},{"user_id":761,"name":"Cyclops_672","steam_id":76561198080169497,"connected_time":74000000000,"state":"active","ping":60},{"user_id":760,"name":"Cleric","steam_id":76561198045887994,"connected_time":130000000000,"state":"active","ping":45},{"user_id":714,"name":"Sanuary","steam_id":76561198075597588,"connected_time":2372000000000,"state":"active","ping":58},{"user_id":737,"name":"john yakuza","steam_id":76561199002452936,"connected_time":1422000000000,"state":"active","ping":53},{"user_id":752,"name":"Sleepy Brady","steam_id":76561198867378129,"connected_time":840000000000,"state":"active","ping":66},{"user_id":757,"name":"Etham","steam_id":76561199046618624,"connected_time":615000000000,"state":"active","ping":79},{"user_id":751,"name":"SsaucySam","steam_id":76561198362539268,"connected_time":876000000000,"state":"active","ping":88},{"user_id":741,"name":"stop","steam_id":76561198268686419,"connected_time":1377000000000,"state":"active","ping":57},{"user_id":665,"name":"Mengle","steam_id":76561198001953684,"connected_time":6218000000000,"state":"active","ping":64},{"user_id":742,"name":"Lord Scrubling","steam_id":76561198263744445,"connected_time":1363000000000,"state":"active","ping":74},{"user_id":758,"name":"Kapu1178","steam_id":76561198107212766,"connected_time":143000000000,"state":"active","ping":77},{"user_id":746,"name":"‚ù§birbohex‚ù§","steam_id":76561198392961483,"connected_time":1261000000000,"state":"active","ping":43},{"user_id":747,"name":":3","steam_id":76561198098099826,"connected_time":1258000000000,"state":"active","ping":89}]},{"server_id":106,"name":"Uncletopia | Chicago | 2 | All Maps","name_short":"chi-2","host":"chi-1.us.uncletopia.com","port":27025,"enabled":true,"region":"us-central","cc":"us","latitude":41.881832,"longitude":-87.62318,"reserved":0,"last_update":"0001-01-01T00:00:00Z","name_a2s":"Uncletopia | Chicago | 2 | All Maps","protocol":17,"map":"pl_badwater","folder":"tf","game":"Team Fortress","app_id":440,"player_count":24,"max_players":24,"Bots":0,"server_type":"Dedicated","server_os":"Linux","password":true,"vac":true,"version":"7695204","steam_id":85568392924469985,"keywords":["nocrits","nodmgspread","payload","uncletopia"],"game_id":440,"stv_port":27026,"stv_name":"Uncletopia | Chicago | 2 | All Maps | STV","players":[{"user_id":547,"name":"Wilhelmktx","steam_id":76561198158102295,"connected_time":656000000000,"state":"active","ping":50},{"user_id":549,"name":"lordsomething333","steam_id":76561198268401483,"connected_time":468000000000,"state":"active","ping":71},{"user_id":538,"name":"JYNACCI","steam_id":76561198100942212,"connected_time":1655000000000,"state":"active","ping":76},{"user_id":533,"name":"sinisterMayo","steam_id":76561198087244649,"connected_time":1758000000000,"state":"active","ping":74},{"user_id":539,"name":"LynBoByn","steam_id":76561198052911142,"connected_time":1653000000000,"state":"active","ping":71},{"user_id":525,"name":"Outlier","steam_id":76561199093787770,"connected_time":2108000000000,"state":"active","ping":77},{"user_id":544,"name":"pipepeepi","steam_id":76561198845905873,"connected_time":1479000000000,"state":"active","ping":49},{"user_id":535,"name":"ashelin praxis nude mod","steam_id":76561198167907089,"connected_time":1738000000000,"state":"active","ping":71},{"user_id":550,"name":"Catboy Potemkin","steam_id":76561198078474420,"connected_time":246000000000,"state":"active","ping":63},{"user_id":473,"name":"orangejuiq","steam_id":76561198799773207,"connected_time":7963000000000,"state":"active","ping":110},{"user_id":523,"name":"krypt","steam_id":76561198056186750,"connected_time":2168000000000,"state":"active","ping":59},{"user_id":548,"name":"Chestnut Walnut","steam_id":76561197985749277,"connected_time":638000000000,"state":"active","ping":105},{"user_id":526,"name":"Question Mark","steam_id":76561199433313023,"connected_time":2094000000000,"state":"active","ping":143},{"user_id":541,"name":"TastyWheat","steam_id":76561198855061918,"connected_time":1633000000000,"state":"active","ping":103},{"user_id":527,"name":"MFB","steam_id":76561198170923095,"connected_time":2017000000000,"state":"active","ping":68},{"user_id":542,"name":"Chilidestroy","steam_id":76561199101551797,"connected_time":1630000000000,"state":"active","ping":65},{"user_id":520,"name":"the12xu","steam_id":76561198197086561,"connected_time":2434000000000,"state":"active","ping":62},{"user_id":492,"name":"Ace Chromatica","steam_id":76561198042211131,"connected_time":6188000000000,"state":"active","ping":61},{"user_id":507,"name":"A Bic Lighter","steam_id":76561198070606068,"connected_time":4061000000000,"state":"active","ping":54},{"user_id":546,"name":"demoknight tf2","steam_id":76561198070393998,"connected_time":1310000000000,"state":"active","ping":60},{"user_id":543,"name":"Souper Scott","steam_id":76561198045518926,"connected_time":1611000000000,"state":"active","ping":58},{"user_id":524,"name":"CC","steam_id":76561198071226149,"connected_time":2159000000000,"state":"active","ping":68},{"user_id":424,"name":"cringeass nae-nae girl","steam_id":76561198108753857,"connected_time":11114000000000,"state":"active","ping":82},{"user_id":486,"name":"Knightshade","steam_id":76561198047225393,"connected_time":6838000000000,"state":"active","ping":80}]},{"server_id":402,"name":"Uncletopia | Chicago | 3 | All Maps","name_short":"chi-3","host":"chi-1.us.uncletopia.com","port":27035,"enabled":true,"region":"us-central","cc":"us","latitude":41.881832,"longitude":-87.62318,"reserved":0,"last_update":"0001-01-01T00:00:00Z","name_a2s":"Uncletopia | Chicago | 3 | All Maps","protocol":17,"map":"pl_upward","folder":"tf","game":"Team Fortress","app_id":440,"player_count":24,"max_players":24,"Bots":0,"server_type":"Dedicated","server_os":"Linux","password":true,"vac":true,"version":"7695204","steam_id":85568392924515191,"keywords":["nocrits","nodmgspread","payload","uncletopia"],"game_id":440,"stv_port":27036,"stv_name":"Uncletopia | Chicago | 3 | All Maps | STV","players":[{"user_id":543,"name":"Jousty","steam_id":76561199162677853,"connected_time":1277000000000,"state":"active","ping":80},{"user_id":539,"name":"Anime Racist","steam_id":76561198100775015,"connected_time":1654000000000,"state":"active","ping":143},{"user_id":489,"name":"Elegant Ejaculation","steam_id":76561198014190878,"connected_time":6037000000000,"state":"active","ping":97},{"user_id":541,"name":"EmilyChains\u003c3","steam_id":76561198132008027,"connected_time":1504000000000,"state":"active","ping":90},{"user_id":558,"name":"Kommon","steam_id":76561198356258586,"connected_time":367000000000,"state":"active","ping":70},{"user_id":559,"name":"Vin Tage","steam_id":76561197972427624,"connected_time":352000000000,"state":"active","ping":45},{"user_id":545,"name":"Gerald Jay Sussman","steam_id":76561198114515026,"connected_time":1161000000000,"state":"active","ping":55},{"user_id":524,"name":"rainingmudkips","steam_id":76561198018010854,"connected_time":2615000000000,"state":"active","ping":63},{"user_id":562,"name":"Ion{M}","steam_id":76561197993457435,"connected_time":47000000000,"state":"active","ping":67},{"user_id":546,"name":"chiarraz","steam_id":76561198277439571,"connected_time":1157000000000,"state":"active","ping":63},{"user_id":548,"name":"‚ô•RizaTiz‚ô•","steam_id":76561198165274309,"connected_time":1120000000000,"state":"active","ping":119},{"user_id":549,"name":"Soap","steam_id":76561198074619142,"connected_time":1112000000000,"state":"active","ping":62},{"user_id":556,"name":"WaffleSailor","steam_id":76561198105315951,"connected_time":532000000000,"state":"active","ping":65},{"user_id":560,"name":"slep.py","steam_id":76561197988287144,"connected_time":349000000000,"state":"active","ping":55},{"user_id":553,"name":"Parth Makeo","steam_id":76561198002516581,"connected_time":1018000000000,"state":"active","ping":64},{"user_id":554,"name":"gilgy","steam_id":76561198855810297,"connected_time":1018000000000,"state":"active","ping":76},{"user_id":528,"name":"Rub the bear","steam_id":76561198170157145,"connected_time":2563000000000,"state":"active","ping":56},{"user_id":529,"name":"HyperOrange|#SaveTF2","steam_id":76561198068071327,"connected_time":2554000000000,"state":"active","ping":66},{"user_id":532,"name":"‚Ñã‚Ñá·ºÇ·πº‡¥¥","steam_id":76561199062259389,"connected_time":2507000000000,"state":"active","ping":96},{"user_id":530,"name":"treeCheezquest","steam_id":76561199066499328,"connected_time":2545000000000,"state":"active","ping":65},{"user_id":557,"name":"Hol Horse","steam_id":76561198078207743,"connected_time":380000000000,"state":"active","ping":72},{"user_id":533,"name":"SortOfABigDeal","steam_id":76561198323397375,"connected_time":2378000000000,"state":"active","ping":136},{"user_id":561,"name":"poey","steam_id":76561198865346767,"connected_time":60000000000,"state":"active","ping":91},{"user_id":536,"name":"Meatwad","steam_id":76561198803721236,"connected_time":2277000000000,"state":"active","ping":61}]},{"server_id":403,"name":"Uncletopia | Chicago | 4 | All Maps","name_short":"chi-4","host":"chi-1.us.uncletopia.com","port":27045,"enabled":true,"region":"us-central","cc":"us","latitude":41.881832,"longitude":-87.62318,"reserved":0,"last_update":"0001-01-01T00:00:00Z","name_a2s":"Uncletopia | Chicago | 4 | All Maps","protocol":17,"map":"koth_highpass","folder":"tf","game":"Team Fortress","app_id":440,"player_count":24,"max_players":24,"Bots":0,"server_type":"Dedicated","server_os":"Linux","password":true,"vac":true,"version":"7695204","steam_id":85568392924515193,"keywords":["cp","nocrits","nodmgspread","uncletopia"],"game_id":440,"stv_port":27046,"stv_name":"Uncletopia | Chicago | 4 | All Maps | STV","players":[{"user_id":550,"name":"Octanoip","steam_id":76561199057752358,"connected_time":5729000000000,"state":"active","ping":60},{"user_id":610,"name":"FrostyFrontier","steam_id":76561198370530394,"connected_time":273000000000,"state":"active","ping":61},{"user_id":607,"name":"Nephs","steam_id":76561198136763403,"connected_time":344000000000,"state":"active","ping":67},{"user_id":608,"name":"Depresso Amber","steam_id":76561198074209737,"connected_time":323000000000,"state":"active","ping":62},{"user_id":614,"name":"Pentium4Guy","steam_id":76561198303077613,"connected_time":125000000000,"state":"active","ping":52},{"user_id":568,"name":"Wug","steam_id":76561198084112264,"connected_time":3953000000000,"state":"active","ping":78},{"user_id":564,"name":"Zodyxajon","steam_id":76561198165561581,"connected_time":4247000000000,"state":"active","ping":72},{"user_id":601,"name":"Cog","steam_id":76561198119812649,"connected_time":1021000000000,"state":"active","ping":48},{"user_id":582,"name":"majorbobfunction","steam_id":76561198042464632,"connected_time":2327000000000,"state":"active","ping":46},{"user_id":603,"name":"_Lusty_","steam_id":76561198876948142,"connected_time":781000000000,"state":"active","ping":60},{"user_id":446,"name":"Fudgely","steam_id":76561198039425862,"connected_time":16154000000000,"state":"active","ping":71},{"user_id":584,"name":"Plugget101","steam_id":76561197992005168,"connected_time":2295000000000,"state":"active","ping":46},{"user_id":595,"name":"Gribbith","steam_id":76561198067836309,"connected_time":1619000000000,"state":"active","ping":82},{"user_id":609,"name":"paypur -rng","steam_id":76561198214370515,"connected_time":297000000000,"state":"active","ping":71},{"user_id":599,"name":"Captain Innocuous","steam_id":76561197968982943,"connected_time":1383000000000,"state":"active","ping":89},{"user_id":571,"name":"MibWib","steam_id":76561199149786430,"connected_time":3933000000000,"state":"active","ping":53},{"user_id":572,"name":"coal","steam_id":76561198027252280,"connected_time":3914000000000,"state":"active","ping":56},{"user_id":611,"name":"Drippin Jimmy","steam_id":76561198161241865,"connected_time":251000000000,"state":"active","ping":76},{"user_id":430,"name":"Chode Mode","steam_id":76561198353840477,"connected_time":17147000000000,"state":"active","ping":53},{"user_id":602,"name":"Sir William Gaming","steam_id":76561198037676472,"connected_time":1019000000000,"state":"active","ping":169},{"user_id":613,"name":"mudturtle","steam_id":76561198292734035,"connected_time":176000000000,"state":"active","ping":59},{"user_id":615,"name":"Dredgen Nikki","steam_id":76561198001883961,"connected_time":101000000000,"state":"active","ping":84},{"user_id":616,"name":"serynsa","steam_id":76561198066987189,"connected_time":21000000000,"state":"active","ping":234},{"user_id":618,"name":"Shmeg","steam_id":76561199019546787,"connected_time":10000000000,"state":"active","ping":87}]},{"server_id":36,"name":"Uncletopia | Chicago | 5 | All Maps","name_short":"chi-5","host":"chi-2.us.uncletopia.com","port":27015,"enabled":true,"region":"us-central","cc":"us","latitude":41.881832,"longitude":-87.62318,"reserved":0,"last_update":"0001-01-01T00:00:00Z","name_a2s":"Uncletopia | Chicago | 5 | All Maps","protocol":17,"map":"pl_snowycoast","folder":"tf","game":"Team Fortress","app_id":440,"player_count":22,"max_players":24,"Bots":0,"server_type":"Dedicated","server_os":"Linux","password":true,"vac":true,"version":"7695204","steam_id":85568392924866362,"keywords":["nocrits","nodmgspread","payload","uncletopia"],"game_id":440,"stv_port":27016,"stv_name":"Uncletopia | Chicago | 5 | All Maps | STV","players":[{"user_id":352,"name":"floom","steam_id":76561198387571809,"connected_time":5449000000000,"state":"active","ping":65},{"user_id":397,"name":"KingTinkerer","steam_id":76561198226856548,"connected_time":2039000000000,"state":"active","ping":68},{"user_id":398,"name":"wile","steam_id":76561198125261443,"connected_time":1980000000000,"state":"active","ping":104},{"user_id":399,"name":"Candy Sparkles","steam_id":76561198126871264,"connected_time":1908000000000,"state":"active","ping":82},{"user_id":419,"name":"OrbyyOrbinaut","steam_id":76561198439425288,"connected_time":34000000000,"state":"active","ping":59},{"user_id":407,"name":"Wormy Getting Coal","steam_id":76561198054539200,"connected_time":1710000000000,"state":"active","ping":88},{"user_id":420,"name":"mild","steam_id":76561198082470182,"connected_time":8000000000,"state":"spawning","ping":90},{"user_id":386,"name":"Mitchacho74","steam_id":76561198087986935,"connected_time":2928000000000,"state":"active","ping":56},{"user_id":404,"name":"Discourse","steam_id":76561198984286678,"connected_time":1796000000000,"state":"active","ping":46},{"user_id":417,"name":"‚ó£_‚ó¢","steam_id":76561198407516830,"connected_time":66000000000,"state":"active","ping":62},{"user_id":416,"name":"A Rope, for big pits","steam_id":76561198068044782,"connected_time":201000000000,"state":"active","ping":72},{"user_id":418,"name":"Cap'n Clutch 'n Such","steam_id":76561197963962401,"connected_time":63000000000,"state":"active","ping":66},{"user_id":328,"name":"ttv.scarybroccoli","steam_id":76561198296440084,"connected_time":7736000000000,"state":"active","ping":70},{"user_id":408,"name":"viscodolante","steam_id":76561198013650292,"connected_time":1698000000000,"state":"active","ping":113},{"user_id":415,"name":"evil","steam_id":76561197971258788,"connected_time":767000000000,"state":"active","ping":91},{"user_id":322,"name":"watterson :3","steam_id":76561198035536955,"connected_time":7981000000000,"state":"active","ping":73},{"user_id":401,"name":"Squirt City DJs","steam_id":76561198085755375,"connected_time":1893000000000,"state":"active","ping":97},{"user_id":402,"name":"Streetwise","steam_id":76561197971684268,"connected_time":1870000000000,"state":"active","ping":95},{"user_id":403,"name":"footoftheday","steam_id":76561198052712449,"connected_time":1856000000000,"state":"active","ping":61},{"user_id":414,"name":"Anth","steam_id":76561198091363063,"connected_time":780000000000,"state":"active","ping":53},{"user_id":412,"name":"intermediate bowsman","steam_id":76561198190100027,"connected_time":1477000000000,"state":"active","ping":59},{"user_id":392,"name":"Fresh","steam_id":76561198068565728,"connected_time":2463000000000,"state":"active","ping":77}]},{"server_id":37,"name":"Uncletopia | Chicago | 6 | All Maps","name_short":"chi-6","host":"chi-2.us.uncletopia.com","port":27025,"enabled":true,"region":"us-central","cc":"us","latitude":41.881832,"longitude":-87.62318,"reserved":0,"last_update":"0001-01-01T00:00:00Z","name_a2s":"Uncletopia | Chicago | 6 | All Maps","protocol":17,"map":"pl_upward","folder":"tf","game":"Team Fortress","app_id":440,"player_count":24,"max_players":24,"Bots":0,"server_type":"Dedicated","server_os":"Linux","password":true,"vac":true,"version":"7695204","steam_id":85568392924866363,"keywords":["nocrits","nodmgspread","payload","uncletopia"],"game_id":440,"stv_port":27026,"stv_name":"Uncletopia | Chicago | 6 | All Maps | STV","players":[{"user_id":229,"name":"Beezos","steam_id":76561198370692549,"connected_time":4261000000000,"state":"active","ping":74},{"user_id":236,"name":"Soatte","steam_id":76561198337996874,"connected_time":4171000000000,"state":"active","ping":61},{"user_id":281,"name":"Devoid","steam_id":76561198254039012,"connected_time":17000000000,"state":"spawning","ping":61},{"user_id":280,"name":"whiteferrari","steam_id":76561198097086916,"connected_time":76000000000,"state":"active","ping":60},{"user_id":242,"name":"Nolan (Femboy)","steam_id":76561198082534795,"connected_time":3359000000000,"state":"active","ping":55},{"user_id":243,"name":"Will (becoming Enlightened)","steam_id":76561198397037834,"connected_time":3091000000000,"state":"active","ping":67},{"user_id":275,"name":"Justis","steam_id":76561197963835016,"connected_time":422000000000,"state":"active","ping":64},{"user_id":279,"name":"YungKeet","steam_id":76561198293854963,"connected_time":275000000000,"state":"active","ping":82},{"user_id":246,"name":"OldRavensFan","steam_id":76561198043919562,"connected_time":2583000000000,"state":"active","ping":66},{"user_id":262,"name":"NekoD","steam_id":76561198264263404,"connected_time":608000000000,"state":"active","ping":79},{"user_id":263,"name":"matthew","steam_id":76561198970826680,"connected_time":596000000000,"state":"active","ping":81},{"user_id":249,"name":"Dick \"Magic Ears\" Knubbler","steam_id":76561197999169635,"connected_time":1581000000000,"state":"active","ping":55},{"user_id":269,"name":"Joe Mama","steam_id":76561199228314344,"connected_time":509000000000,"state":"active","ping":65},{"user_id":251,"name":"LooseJuice","steam_id":76561198042181014,"connected_time":1145000000000,"state":"active","ping":78},{"user_id":273,"name":"gangstalker","steam_id":76561198363267009,"connected_time":444000000000,"state":"active","ping":71},{"user_id":264,"name":"Eway","steam_id":76561198141614746,"connected_time":587000000000,"state":"active","ping":76},{"user_id":265,"name":"Hap Potat","steam_id":76561198141637633,"connected_time":586000000000,"state":"active","ping":87},{"user_id":255,"name":"trans gaming troll (she/her)","steam_id":76561198085410622,"connected_time":964000000000,"state":"active","ping":100},{"user_id":256,"name":"TasteMaple","steam_id":76561199103760177,"connected_time":954000000000,"state":"active","ping":67},{"user_id":257,"name":"Medic","steam_id":76561198023443251,"connected_time":952000000000,"state":"active","ping":83},{"user_id":266,"name":"THE BIG STINK","steam_id":76561198278197937,"connected_time":577000000000,"state":"active","ping":84},{"user_id":270,"name":"TF2 dickhead","steam_id":76561198443821196,"connected_time":506000000000,"state":"active","ping":83},{"user_id":274,"name":"Butter","steam_id":76561199071860279,"connected_time":440000000000,"state":"active","ping":66},{"user_id":271,"name":"summertime sadness","steam_id":76561198063313115,"connected_time":506000000000,"state":"active","ping":60}]},{"server_id":38,"name":"Uncletopia | Chicago | 7 | No Payload","name_short":"chi-7","host":"chi-2.us.uncletopia.com","port":27035,"enabled":true,"region":"us-central","cc":"us","latitude":41.881832,"longitude":-87.62318,"reserved":0,"last_update":"0001-01-01T00:00:00Z","name_a2s":"Uncletopia | Chicago | 7 | No Payload","protocol":17,"map":"koth_harvest_final","folder":"tf","game":"Team Fortress","app_id":440,"player_count":0,"max_players":24,"Bots":0,"server_type":"Dedicated","server_os":"Linux","password":true,"vac":true,"version":"7695204","steam_id":85568392924866364,"keywords":["cp","nocrits","nodmgspread","uncletopia"],"game_id":440,"stv_port":27036,"stv_name":"Uncletopia | Chicago | 7 | No Payload | STV","players":null},{"server_id":39,"name":"Uncletopia | Chicago | 8 | Community","name_short":"chi-8","host":"chi-2.us.uncletopia.com","port":27045,"enabled":true,"region":"us-central","cc":"us","latitude":41.881832,"longitude":-87.62318,"reserved":0,"last_update":"0001-01-01T00:00:00Z","name_a2s":"Uncletopia | Chicago | 8 | Community","protocol":17,"map":"workshop/pl_cactuscanyon_redux_rc4b.ugc2579644293","folder":"tf","game":"Team Fortress","app_id":440,"player_count":0,"max_players":24,"Bots":0,"server_type":"Dedicated","server_os":"Linux","password":true,"vac":true,"version":"7695204","steam_id":85568392924866365,"keywords":["nocrits","nodmgspread","payload","uncletopia"],"game_id":440,"stv_port":27046,"stv_name":"Uncletopia | Chicago | 8 | Community | STV","players":null},{"server_id":8,"name":"Uncletopia | Dallas | 1 | All Maps","name_short":"dal-1","host":"dal-1.us.uncletopia.com","port":27015,"enabled":true,"region":"us-central","cc":"us","latitude":32.779167,"longitude":-96.80889,"reserved":0,"last_update":"0001-01-01T00:00:00Z","name_a2s":"Uncletopia | Dallas | 1 | All Maps","protocol":17,"map":"cp_snakewater_final1","folder":"tf","game":"Team Fortress","app_id":440,"player_count":24,"max_players":24,"Bots":0,"server_type":"Dedicated","server_os":"Linux","password":true,"vac":true,"version":"7695204","steam_id":85568392924469986,"keywords":["cp","nocrits","nodmgspread","uncletopia"],"game_id":440,"stv_port":27016,"stv_name":"Uncletopia | Dallas | 1 | All Maps | STV","players":[{"user_id":772,"name":"player who wants to use e","steam_id":76561198357042018,"connected_time":6457000000000,"state":"active","ping":74},{"user_id":786,"name":"Agent Bowtie","steam_id":76561198175839279,"connected_time":4976000000000,"state":"active","ping":48},{"user_id":768,"name":"Brahan","steam_id":76561198024629210,"connected_time":6494000000000,"state":"active","ping":92},{"user_id":812,"name":"raft enjoyer","steam_id":76561198046057008,"connected_time":2394000000000,"state":"active","ping":79},{"user_id":823,"name":"CFGU || RAWRWAFL","steam_id":76561198032118386,"connected_time":1721000000000,"state":"active","ping":68},{"user_id":806,"name":"Aegis","steam_id":76561198272052750,"connected_time":2684000000000,"state":"active","ping":84},{"user_id":777,"name":"üê∫-Iwky-ü¶ä","steam_id":76561198185616311,"connected_time":6088000000000,"state":"active","ping":77},{"user_id":836,"name":"the shaqtus","steam_id":76561198056950607,"connected_time":1090000000000,"state":"active","ping":88},{"user_id":828,"name":"Stillkill","steam_id":76561198065069057,"connected_time":1268000000000,"state":"active","ping":46},{"user_id":838,"name":"gallowsCalibrator","steam_id":76561198404707578,"connected_time":957000000000,"state":"active","ping":71},{"user_id":790,"name":"Gazel #2","steam_id":76561198093667100,"connected_time":4929000000000,"state":"active","ping":83},{"user_id":837,"name":"Nature's Cruelest Mistake","steam_id":76561198055163570,"connected_time":1073000000000,"state":"active","ping":61},{"user_id":824,"name":"Gelliterate","steam_id":76561198107233070,"connected_time":1301000000000,"state":"active","ping":54},{"user_id":832,"name":"PootisPowHAHA","steam_id":76561199023536209,"connected_time":1210000000000,"state":"active","ping":82},{"user_id":840,"name":"yvngbvshvvookie","steam_id":76561198054354674,"connected_time":521000000000,"state":"active","ping":45},{"user_id":816,"name":"goblin botanist","steam_id":76561198013452541,"connected_time":2339000000000,"state":"active","ping":65},{"user_id":813,"name":"Derply","steam_id":76561198871211642,"connected_time":2393000000000,"state":"active","ping":74},{"user_id":819,"name":"Quansen","steam_id":76561198151594550,"connected_time":2156000000000,"state":"active","ping":77},{"user_id":814,"name":"pillow","steam_id":76561198073898836,"connected_time":2388000000000,"state":"active","ping":69},{"user_id":797,"name":"GoLUIGIT","steam_id":76561199251157275,"connected_time":4763000000000,"state":"active","ping":88},{"user_id":712,"name":"Drakon","steam_id":76561198078210822,"connected_time":10454000000000,"state":"active","ping":85},{"user_id":771,"name":"Sugercrash","steam_id":76561199187685119,"connected_time":6483000000000,"state":"active","ping":89},{"user_id":822,"name":"Francis Gaming","steam_id":76561198295173122,"connected_time":1806000000000,"state":"active","ping":107}]},{"server_id":108,"name":"Uncletopia | Dallas | 2 | All Maps","name_short":"dal-2","host":"dal-1.us.uncletopia.com","port":27025,"enabled":true,"region":"us-central","cc":"us","latitude":32.779167,"longitude":-96.80889,"reserved":0,"last_update":"0001-01-01T00:00:00Z","name_a2s":"Uncletopia | Dallas | 2 | All Maps","protocol":17,"map":"koth_harvest_final","folder":"tf","game":"Team Fortress","app_id":440,"player_count":24,"max_players":24,"Bots":0,"server_type":"Dedicated","server_os":"Linux","password":true,"vac":true,"version":"7695204","steam_id":85568392924469988,"keywords":["cp","nocrits","nodmgspread","uncletopia"],"game_id":440,"stv_port":27026,"stv_name":"Uncletopia | Dallas | 2 | All Maps | STV","players":[{"user_id":526,"name":"Krow","steam_id":76561198010392099,"connected_time":4419000000000,"state":"active","ping":56},{"user_id":506,"name":"El Benjador","steam_id":76561198345883103,"connected_time":6311000000000,"state":"active","ping":62},{"user_id":564,"name":"BUSTO","steam_id":76561198066420805,"connected_time":1712000000000,"state":"active","ping":66},{"user_id":566,"name":"+","steam_id":76561198262422184,"connected_time":1682000000000,"state":"active","ping":46},{"user_id":467,"name":"look up","steam_id":76561198057487880,"connected_time":9794000000000,"state":"active","ping":56},{"user_id":573,"name":"Onyx","steam_id":76561198275349640,"connected_time":15000000000,"state":"spawning","ping":97},{"user_id":551,"name":"Farseer Ulwithy","steam_id":76561197965179245,"connected_time":2772000000000,"state":"active","ping":107},{"user_id":568,"name":"Luna","steam_id":76561198075944196,"connected_time":644000000000,"state":"active","ping":80},{"user_id":562,"name":"CodeRedDev","steam_id":76561198179982494,"connected_time":2117000000000,"state":"active","ping":37},{"user_id":571,"name":"Violet","steam_id":76561198055860134,"connected_time":432000000000,"state":"active","ping":75},{"user_id":459,"name":"LobsterPot","steam_id":76561198072225973,"connected_time":9972000000000,"state":"active","ping":72},{"user_id":557,"name":"Pharma","steam_id":76561198258475476,"connected_time":2447000000000,"state":"active","ping":72},{"user_id":544,"name":"the stallion","steam_id":76561198212242403,"connected_time":4111000000000,"state":"active","ping":60},{"user_id":547,"name":"lil boogie","steam_id":76561198064059721,"connected_time":3167000000000,"state":"active","ping":94},{"user_id":553,"name":"B33N_P0IS0N","steam_id":76561199092433962,"connected_time":2747000000000,"state":"active","ping":61},{"user_id":554,"name":"FRANKY!!!","steam_id":76561199211305343,"connected_time":2699000000000,"state":"active","ping":92},{"user_id":538,"name":"Frank","steam_id":76561198126681511,"connected_time":4264000000000,"state":"active","ping":94},{"user_id":546,"name":"Rin \"Hindwing\" Redtail","steam_id":76561199074865638,"connected_time":4042000000000,"state":"active","ping":45},{"user_id":555,"name":"CheeseCake488","steam_id":76561199407617942,"connected_time":2637000000000,"state":"active","ping":104},{"user_id":563,"name":"awfulArbiter","steam_id":76561198068189558,"connected_time":2033000000000,"state":"active","ping":107},{"user_id":567,"name":"üëÅ sumixodic","steam_id":76561198090770710,"connected_time":1265000000000,"state":"active","ping":116},{"user_id":561,"name":"Blippy","steam_id":76561198225904600,"connected_time":2147000000000,"state":"active","ping":57},{"user_id":572,"name":"SN0W","steam_id":76561198153665468,"connected_time":180000000000,"state":"active","ping":52},{"user_id":543,"name":"whatzhisface","steam_id":76561198127891646,"connected_time":4157000000000,"state":"active","ping":75}]},{"server_id":5,"name":"Uncletopia | Frankfurt | 1 | All Maps","name_short":"frk-1","host":"frk-1.de.uncletopia.com","port":27015,"enabled":true,"region":"eu","cc":"de","latitude":50.110924,"longitude":8.682127,"reserved":0,"last_update":"0001-01-01T00:00:00Z","name_a2s":"Uncletopia | Frankfurt | 1 | All Maps","protocol":17,"map":"koth_viaduct","folder":"tf","game":"Team Fortress","app_id":440,"player_count":0,"max_players":24,"Bots":0,"server_type":"Dedicated","server_os":"Linux","password":true,"vac":true,"version":"7695204","steam_id":85568392924469989,"keywords":["cp","nocrits","nodmgspread","uncletopia"],"game_id":440,"stv_port":0,"stv_name":"","players":null},{"server_id":110,"name":"Uncletopia | Frankfurt | 2 | All Maps","name_short":"frk-2","host":"frk-1.de.uncletopia.com","port":27025,"enabled":true,"region":"eu","cc":"de","latitude":50.110924,"longitude":8.682127,"reserved":0,"last_update":"0001-01-01T00:00:00Z","name_a2s":"Uncletopia | Frankfurt | 2 | All Maps","protocol":17,"map":"cp_altitude","folder":"tf","game":"Team Fortress","app_id":440,"player_count":0,"max_players":24,"Bots":0,"server_type":"Dedicated","server_os":"Linux","password":true,"vac":true,"version":"7695204","steam_id":85568392924469990,"keywords":["cp","nocrits","nodmgspread","uncletopia"],"game_id":440,"stv_port":0,"stv_name":"","players":null},{"server_id":308,"name":"Uncletopia | Frankfurt | 3 | All Maps","name_short":"frk-3","host":"frk-1.de.uncletopia.com","port":27035,"enabled":true,"region":"eu","cc":"de","latitude":50.110924,"longitude":8.682127,"reserved":0,"last_update":"0001-01-01T00:00:00Z","name_a2s":"Uncletopia | Frankfurt | 3 | All Maps","protocol":17,"map":"pl_badwater","folder":"tf","game":"Team Fortress","app_id":440,"player_count":0,"max_players":24,"Bots":0,"server_type":"Dedicated","server_os":"Linux","password":true,"vac":true,"version":"7695204","steam_id":85568392924504274,"keywords":["nocrits","nodmgspread","payload","uncletopia"],"game_id":440,"stv_port":0,"stv_name":"","players":null},{"server_id":309,"name":"Uncletopia | Frankfurt | 4 | All Maps","name_short":"frk-4","host":"frk-1.de.uncletopia.com","port":27045,"enabled":true,"region":"eu","cc":"de","latitude":50.110924,"longitude":8.682127,"reserved":0,"last_update":"0001-01-01T00:00:00Z","name_a2s":"Uncletopia | Frankfurt | 4 | All Maps","protocol":17,"map":"koth_highpass","folder":"tf","game":"Team Fortress","app_id":440,"player_count":0,"max_players":24,"Bots":0,"server_type":"Dedicated","server_os":"Linux","password":true,"vac":true,"version":"7695204","steam_id":85568392924504275,"keywords":["cp","nocrits","nodmgspread","uncletopia"],"game_id":440,"stv_port":0,"stv_name":"","players":null},{"server_id":310,"name":"Uncletopia | Frankfurt | 5 | All Maps","name_short":"frk-5","host":"frk-1.de.uncletopia.com","port":27055,"enabled":true,"region":"eu","cc":"de","latitude":50.110924,"longitude":8.682127,"reserved":0,"last_update":"0001-01-01T00:00:00Z","name_a2s":"Uncletopia | Frankfurt | 5 | All Maps","protocol":17,"map":"pl_pier","folder":"tf","game":"Team Fortress","app_id":440,"player_count":0,"max_players":24,"Bots":0,"server_type":"Dedicated","server_os":"Linux","password":true,"vac":true,"version":"7695204","steam_id":85568392924504277,"keywords":["nocrits","nodmgspread","payload","uncletopia"],"game_id":440,"stv_port":0,"stv_name":"","players":null},{"server_id":311,"name":"Uncletopia | Frankfurt | 6 | All Maps","name_short":"frk-6","host":"frk-1.de.uncletopia.com","port":27065,"enabled":true,"region":"eu","cc":"de","latitude":50.110924,"longitude":8.682127,"reserved":0,"last_update":"0001-01-01T00:00:00Z","name_a2s":"Uncletopia | Frankfurt | 6 | All Maps","protocol":17,"map":"pl_barnblitz","folder":"tf","game":"Team Fortress","app_id":440,"player_count":0,"max_players":24,"Bots":0,"server_type":"Dedicated","server_os":"Linux","password":true,"vac":true,"version":"7695204","steam_id":85568392924504278,"keywords":["nocrits","nodmgspread","payload","uncletopia"],"game_id":440,"stv_port":0,"stv_name":"","players":null},{"server_id":23,"name":"Uncletopia | Frankfurt | 7 | No Payload","name_short":"frk-7","host":"frk-1.de.uncletopia.com","port":27075,"enabled":true,"region":"eu","cc":"de","latitude":50.110924,"longitude":8.682127,"reserved":0,"last_update":"0001-01-01T00:00:00Z","name_a2s":"Uncletopia | Frankfurt | 7 | No Payload","protocol":17,"map":"pl_snowycoast","folder":"tf","game":"Team Fortress","app_id":440,"player_count":0,"max_players":24,"Bots":0,"server_type":"Dedicated","server_os":"Linux","password":true,"vac":true,"version":"7695204","steam_id":85568392924742827,"keywords":["nocrits","nodmgspread","payload","uncletopia"],"game_id":440,"stv_port":0,"stv_name":"","players":null},{"server_id":24,"name":"Uncletopia | Frankfurt | 8 | Community","name_short":"frk-8","host":"frk-1.de.uncletopia.com","port":27085,"enabled":true,"region":"eu","cc":"de","latitude":50.110924,"longitude":8.682127,"reserved":0,"last_update":"0001-01-01T00:00:00Z","name_a2s":"Uncletopia | Frankfurt | 8 | Community","protocol":17,"map":"koth_lakeside_final","folder":"tf","game":"Team Fortress","app_id":440,"player_count":0,"max_players":24,"Bots":0,"server_type":"Dedicated","server_os":"Linux","password":true,"vac":true,"version":"7695204","steam_id":85568392924742828,"keywords":["cp","nocrits","nodmgspread","uncletopia"],"game_id":440,"stv_port":0,"stv_name":"","players":null},{"server_id":202,"name":"Uncletopia | Hong Kong | 1 | All Maps","name_short":"hgk-1","host":"hgk-1.hk.uncletopia.com","port":27015,"enabled":true,"region":"asia","cc":"hk","latitude":22.302711,"longitude":114.177216,"reserved":0,"last_update":"0001-01-01T00:00:00Z","name_a2s":"Uncletopia | Hong Kong | 1 | All Maps","protocol":17,"map":"pl_barnblitz","folder":"tf","game":"Team Fortress","app_id":440,"player_count":22,"max_players":24,"Bots":0,"server_type":"Dedicated","server_os":"Linux","password":true,"vac":true,"version":"7695204","steam_id":85568392924494504,"keywords":["nocrits","nodmgspread","payload","uncletopia"],"game_id":440,"stv_port":27016,"stv_name":"Uncletopia | Hong Kong | 1 | All Maps | STV","players":[{"user_id":140,"name":"momosneakeradventure","steam_id":76561199046440440,"connected_time":2742000000000,"state":"active","ping":36},{"user_id":141,"name":":)","steam_id":76561198437941450,"connected_time":2629000000000,"state":"active","ping":79},{"user_id":169,"name":"Wx","steam_id":76561199217780897,"connected_time":1431000000000,"state":"active","ping":83},{"user_id":151,"name":"godhood","steam_id":76561198412329672,"connected_time":2045000000000,"state":"active","ping":90},{"user_id":112,"name":"terrybl","steam_id":76561198055553140,"connected_time":4953000000000,"state":"active","ping":81},{"user_id":187,"name":"wumao hunter","steam_id":76561197994194946,"connected_time":466000000000,"state":"active","ping":97},{"user_id":149,"name":"Xyans","steam_id":76561198373331511,"connected_time":2050000000000,"state":"active","ping":121},{"user_id":176,"name":"DerpApple","steam_id":76561199190641852,"connected_time":1305000000000,"state":"active","ping":55},{"user_id":184,"name":"‡∏∏","steam_id":76561198130085148,"connected_time":1058000000000,"state":"active","ping":82},{"user_id":177,"name":"oppai „Åä„Å£„Å±„ÅÑ","steam_id":76561198008307645,"connected_time":1253000000000,"state":"active","ping":83},{"user_id":147,"name":"mubkeEp","steam_id":76561197999099632,"connected_time":2167000000000,"state":"active","ping":76},{"user_id":130,"name":"big poo (training arc)","steam_id":76561199104552936,"connected_time":3689000000000,"state":"active","ping":96},{"user_id":185,"name":"alan poe","steam_id":76561198230213828,"connected_time":1018000000000,"state":"active","ping":85},{"user_id":186,"name":"\"SKS\"","steam_id":76561198187995386,"connected_time":899000000000,"state":"active","ping":81},{"user_id":190,"name":"Raz","steam_id":76561199219625644,"connected_time":173000000000,"state":"active","ping":92},{"user_id":189,"name":"MS PowerPoint","steam_id":76561198369523192,"connected_time":360000000000,"state":"active","ping":63},{"user_id":191,"name":". ·¥ó.","steam_id":76561198208632261,"connected_time":61000000000,"state":"active","ping":45},{"user_id":97,"name":"…îu·ó°‡∂û …ü∆®u·íê","steam_id":76561199031283970,"connected_time":7239000000000,"state":"active","ping":74},{"user_id":93,"name":"coward main","steam_id":76561198318184389,"connected_time":7670000000000,"state":"active","ping":85},{"user_id":96,"name":"n0961N k0nQu3r","steam_id":76561198017960428,"connected_time":7420000000000,"state":"active","ping":82},{"user_id":155,"name":"Puddin","steam_id":76561198140052918,"connected_time":2027000000000,"state":"active","ping":94},{"user_id":133,"name":"TonXD","steam_id":76561199024372559,"connected_time":3237000000000,"state":"active","ping":105}]},{"server_id":1,"name":"Uncletopia | Los Angeles | 1 | All Maps","name_short":"lax-1","host":"lax-1.us.uncletopia.com","port":27015,"enabled":true,"region":"us-west","cc":"us","latitude":33.94279,"longitude":-118.41004,"reserved":0,"last_update":"0001-01-01T00:00:00Z","name_a2s":"Uncletopia | Los Angeles | 1 | All Maps","protocol":17,"map":"pl_frontier_final","folder":"tf","game":"Team Fortress","app_id":440,"player_count":24,"max_players":24,"Bots":0,"server_type":"Dedicated","server_os":"Linux","password":true,"vac":true,"version":"7695204","steam_id":85568392924469991,"keywords":["nocrits","nodmgspread","payload","uncletopia"],"game_id":440,"stv_port":27016,"stv_name":"Uncletopia | Los Angeles | 1 | All Maps | STV","players":[{"user_id":239,"name":"EpikThePenguin","steam_id":76561198080523036,"connected_time":1629000000000,"state":"active","ping":54},{"user_id":200,"name":"plz talk about dogs","steam_id":76561198062924973,"connected_time":5372000000000,"state":"active","ping":55},{"user_id":214,"name":"Lambchop","steam_id":76561198043900363,"connected_time":4011000000000,"state":"active","ping":71},{"user_id":241,"name":"mao zedong","steam_id":76561199060687332,"connected_time":1580000000000,"state":"active","ping":49},{"user_id":235,"name":"Gregory Davidson","steam_id":76561198085260603,"connected_time":1933000000000,"state":"active","ping":58},{"user_id":248,"name":"Phillip Jeffries","steam_id":76561198064052174,"connected_time":1353000000000,"state":"active","ping":118},{"user_id":243,"name":"bread","steam_id":76561197983038466,"connected_time":1548000000000,"state":"active","ping":104},{"user_id":231,"name":"Sasha Vandal (YT)","steam_id":76561198063448831,"connected_time":2460000000000,"state":"active","ping":137},{"user_id":253,"name":"JustaTroll","steam_id":76561198351004116,"connected_time":650000000000,"state":"active","ping":61},{"user_id":256,"name":"Mignyanne :3","steam_id":76561198048754056,"connected_time":321000000000,"state":"active","ping":64},{"user_id":257,"name":"Snakeye3490","steam_id":76561198197060503,"connected_time":319000000000,"state":"active","ping":70},{"user_id":240,"name":"Ludicolo","steam_id":76561198432166686,"connected_time":1603000000000,"state":"active","ping":61},{"user_id":260,"name":"Ahzain","steam_id":76561198035894333,"connected_time":166000000000,"state":"active","ping":110},{"user_id":232,"name":"lol","steam_id":76561198026491738,"connected_time":2433000000000,"state":"active","ping":63},{"user_id":228,"name":"fulices","steam_id":76561198420163702,"connected_time":3141000000000,"state":"active","ping":45},{"user_id":261,"name":"MyMonkeyBaby","steam_id":76561198046896670,"connected_time":155000000000,"state":"active","ping":87},{"user_id":218,"name":"S√°bado Gigante","steam_id":76561197994685971,"connected_time":3953000000000,"state":"active","ping":51},{"user_id":233,"name":"Amogous Supreme","steam_id":76561198066091050,"connected_time":2426000000000,"state":"active","ping":77},{"user_id":254,"name":"Linguinni Lucas","steam_id":76561198331258227,"connected_time":618000000000,"state":"active","ping":94},{"user_id":246,"name":"Bevan(The Manager)","steam_id":76561198073890273,"connected_time":1500000000000,"state":"active","ping":91},{"user_id":234,"name":"plutonium isotope","steam_id":76561198319442494,"connected_time":2234000000000,"state":"active","ping":54},{"user_id":259,"name":"Moyshen24","steam_id":76561199210510557,"connected_time":276000000000,"state":"active","ping":69},{"user_id":212,"name":"The Caretaker","steam_id":76561198125241411,"connected_time":4069000000000,"state":"active","ping":63},{"user_id":237,"name":"synca","steam_id":76561198124752453,"connected_time":1898000000000,"state":"active","ping":75}]},{"server_id":112,"name":"Uncletopia | Los Angeles | 2 | All Maps","name_short":"lax-2","host":"lax-1.us.uncletopia.com","port":27025,"enabled":true,"region":"us-west","cc":"us","latitude":33.94279,"longitude":-118.41004,"reserved":0,"last_update":"0001-01-01T00:00:00Z","name_a2s":"Uncletopia | Los Angeles | 2 | All Maps","protocol":17,"map":"koth_highpass","folder":"tf","game":"Team Fortress","app_id":440,"player_count":0,"max_players":24,"Bots":0,"server_type":"Dedicated","server_os":"Linux","password":true,"vac":true,"version":"7695204","steam_id":85568392924469992,"keywords":["cp","nocrits","nodmgspread","uncletopia"],"game_id":440,"stv_port":27026,"stv_name":"Uncletopia | Los Angeles | 2 | All Maps | STV","players":null},{"server_id":324,"name":"Uncletopia | Los Angeles | 3 | All Maps","name_short":"lax-3","host":"lax-1.us.uncletopia.com","port":27035,"enabled":true,"region":"us-west","cc":"us","latitude":33.94279,"longitude":-118.41004,"reserved":0,"last_update":"0001-01-01T00:00:00Z","name_a2s":"Uncletopia | Los Angeles | 3 | All Maps","protocol":17,"map":"plr_pipeline","folder":"tf","game":"Team Fortress","app_id":440,"player_count":24,"max_players":24,"Bots":0,"server_type":"Dedicated","server_os":"Linux","password":true,"vac":true,"version":"7695204","steam_id":85568392924510198,"keywords":["nocrits","nodmgspread","payload","uncletopia"],"game_id":440,"stv_port":27036,"stv_name":"Uncletopia | Los Angeles | 3 | All Maps | STV","players":[{"user_id":200,"name":"Dwarf from DRG","steam_id":76561198208996573,"connected_time":3282000000000,"state":"active","ping":58},{"user_id":245,"name":"twitch.tv/skrpy","steam_id":76561198040969503,"connected_time":171000000000,"state":"active","ping":61},{"user_id":228,"name":"hypotenuse","steam_id":76561198062479158,"connected_time":1254000000000,"state":"active","ping":87},{"user_id":237,"name":"Avem","steam_id":76561198058763710,"connected_time":743000000000,"state":"active","ping":45},{"user_id":238,"name":"Coffeemelon","steam_id":76561198285891257,"connected_time":716000000000,"state":"active","ping":66},{"user_id":193,"name":"neb","steam_id":76561198030565900,"connected_time":4886000000000,"state":"active","ping":72},{"user_id":170,"name":"melon soda","steam_id":76561198066748230,"connected_time":6458000000000,"state":"active","ping":112},{"user_id":226,"name":"Amogous Supreme","steam_id":76561198025476774,"connected_time":1270000000000,"state":"active","ping":64},{"user_id":219,"name":"haha funy pp man","steam_id":76561198116862395,"connected_time":2359000000000,"state":"active","ping":82},{"user_id":220,"name":"Crazy Hungarian","steam_id":76561198025498172,"connected_time":2358000000000,"state":"active","ping":75},{"user_id":243,"name":"Morse","steam_id":76561198039944542,"connected_time":253000000000,"state":"active","ping":77},{"user_id":239,"name":"deadpixel","steam_id":76561198150249843,"connected_time":658000000000,"state":"active","ping":105},{"user_id":199,"name":"joekster","steam_id":76561198060908516,"connected_time":3449000000000,"state":"active","ping":52},{"user_id":235,"name":"oil","steam_id":76561198099980149,"connected_time":964000000000,"state":"active","ping":46},{"user_id":247,"name":"NFT(non functioning testicle)","steam_id":76561198092435966,"connected_time":103000000000,"state":"active","ping":121},{"user_id":241,"name":"U of SC Office of Financial Aid","steam_id":76561198182294378,"connected_time":258000000000,"state":"active","ping":50},{"user_id":223,"name":"cielael","steam_id":76561198043971956,"connected_time":1811000000000,"state":"active","ping":48},{"user_id":48,"name":"Phil Collins","steam_id":76561198068868644,"connected_time":15639000000000,"state":"active","ping":58},{"user_id":49,"name":"alpharuby","steam_id":76561198051638462,"connected_time":15628000000000,"state":"active","ping":52},{"user_id":224,"name":"vvichael","steam_id":76561198238148528,"connected_time":1688000000000,"state":"active","ping":117},{"user_id":214,"name":"American freedom bird","steam_id":76561198366142388,"connected_time":2711000000000,"state":"active","ping":55},{"user_id":232,"name":"Spearit5464","steam_id":76561199241807676,"connected_time":1164000000000,"state":"active","ping":80},{"user_id":233,"name":"Core19","steam_id":76561198318126190,"connected_time":1137000000000,"state":"active","ping":163},{"user_id":244,"name":"Western_dragon","steam_id":76561198130456105,"connected_time":252000000000,"state":"active","ping":57}]},{"server_id":25,"name":"Uncletopia | Los Angeles | 4 | No Payload","name_short":"lax-4","host":"lax-1.us.uncletopia.com","port":27045,"enabled":true,"region":"us-west","cc":"us","latitude":33.94279,"longitude":-118.41004,"reserved":0,"last_update":"0001-01-01T00:00:00Z","name_a2s":"Uncletopia | Los Angeles | 4 | No Payload","protocol":17,"map":"ctf_turbine","folder":"tf","game":"Team Fortress","app_id":440,"player_count":3,"max_players":24,"Bots":0,"server_type":"Dedicated","server_os":"Linux","password":true,"vac":true,"version":"7695204","steam_id":85568392924510199,"keywords":["ctf","nocrits","nodmgspread","uncletopia"],"game_id":440,"stv_port":27046,"stv_name":"Uncletopia | Los Angeles | 4 | No Payload | STV","players":[{"user_id":26,"name":"Syrix","steam_id":76561198017328672,"connected_time":458000000000,"state":"active","ping":71},{"user_id":27,"name":"Luna Swan","steam_id":76561198968119044,"connected_time":432000000000,"state":"active","ping":101},{"user_id":28,"name":"mrepicdog","steam_id":76561198427634350,"connected_time":376000000000,"state":"active","ping":163}]},{"server_id":11,"name":"Uncletopia | London | 1 | All Maps","name_short":"lon-1","host":"lon-1.uk.uncletopia.com","port":27015,"enabled":true,"region":"eu","cc":"gb","latitude":51.509865,"longitude":-0.118092,"reserved":0,"last_update":"0001-01-01T00:00:00Z","name_a2s":"Uncletopia | London | 1 | All Maps","protocol":17,"map":"cp_altitude","folder":"tf","game":"Team Fortress","app_id":440,"player_count":0,"max_players":24,"Bots":0,"server_type":"Dedicated","server_os":"Linux","password":true,"vac":true,"version":"7695204","steam_id":85568392924367362,"keywords":["cp","nocrits","nodmgspread","uncletopia"],"game_id":440,"stv_port":27016,"stv_name":"Uncletopia | London | 1 | All Maps | STV","players":null},{"server_id":114,"name":"Uncletopia | London | 2 | All Maps","name_short":"lon-2","host":"lon-1.uk.uncletopia.com","port":27025,"enabled":true,"region":"eu","cc":"gb","latitude":51.509865,"longitude":-0.118092,"reserved":0,"last_update":"0001-01-01T00:00:00Z","name_a2s":"Uncletopia | London | 2 | All Maps","protocol":17,"map":"koth_cascade","folder":"tf","game":"Team Fortress","app_id":440,"player_count":0,"max_players":24,"Bots":0,"server_type":"Dedicated","server_os":"Linux","password":true,"vac":true,"version":"7695204","steam_id":85568392924470941,"keywords":["cp","nocrits","nodmgspread","uncletopia"],"game_id":440,"stv_port":27026,"stv_name":"Uncletopia | London | 2 | All Maps | STV","players":null},{"server_id":320,"name":"Uncletopia | London | 3 | All Maps","name_short":"lon-3","host":"lon-1.uk.uncletopia.com","port":27035,"enabled":true,"region":"eu","cc":"gb","latitude":51.509865,"longitude":-0.118092,"reserved":0,"last_update":"0001-01-01T00:00:00Z","name_a2s":"Uncletopia | London | 3 | All Maps","protocol":17,"map":"pl_upward","folder":"tf","game":"Team Fortress","app_id":440,"player_count":23,"max_players":24,"Bots":0,"server_type":"Dedicated","server_os":"Linux","password":true,"vac":true,"version":"7695204","steam_id":85568392924510192,"keywords":["nocrits","nodmgspread","payload","uncletopia"],"game_id":440,"stv_port":27036,"stv_name":"Uncletopia | London | 3 | All Maps | STV","players":[{"user_id":694,"name":"NUTHUT","steam_id":76561198138834947,"connected_time":3965000000000,"state":"active","ping":52},{"user_id":720,"name":"continually torn apart","steam_id":76561198051852765,"connected_time":1240000000000,"state":"active","ping":75},{"user_id":646,"name":"scared and confused","steam_id":76561198002162167,"connected_time":8032000000000,"state":"active","ping":54},{"user_id":721,"name":"Shynii","steam_id":76561198194682105,"connected_time":1187000000000,"state":"active","ping":59},{"user_id":719,"name":"born to shit forced to wipe","steam_id":76561198053116096,"connected_time":1395000000000,"state":"active","ping":88},{"user_id":691,"name":"mr beast fortnite (REAL?!)","steam_id":76561198846784757,"connected_time":5099000000000,"state":"active","ping":53},{"user_id":722,"name":"mainizel","steam_id":76561198055130325,"connected_time":1150000000000,"state":"active","ping":66},{"user_id":696,"name":"Hydron","steam_id":76561198341520996,"connected_time":3598000000000,"state":"active","ping":163},{"user_id":732,"name":"Nazuna","steam_id":76561198413225595,"connected_time":126000000000,"state":"active","ping":102},{"user_id":698,"name":"GunGuy","steam_id":76561198124510978,"connected_time":3433000000000,"state":"active","ping":43},{"user_id":709,"name":"BarrackOmaha","steam_id":76561198027922724,"connected_time":1938000000000,"state":"active","ping":72},{"user_id":706,"name":"Sarip","steam_id":76561198113330438,"connected_time":2183000000000,"state":"active","ping":48},{"user_id":712,"name":"Tymbark","steam_id":76561198531978435,"connected_time":1756000000000,"state":"active","ping":55},{"user_id":708,"name":"social experiment","steam_id":76561198168119744,"connected_time":2173000000000,"state":"active","ping":52},{"user_id":703,"name":"salim shahidy","steam_id":76561198416945706,"connected_time":2442000000000,"state":"active","ping":152},{"user_id":723,"name":"psyko lunatic","steam_id":76561198213759580,"connected_time":1102000000000,"state":"active","ping":45},{"user_id":725,"name":"Virgil","steam_id":76561198248786778,"connected_time":949000000000,"state":"active","ping":117},{"user_id":711,"name":"schizo gamer moment","steam_id":76561199414716848,"connected_time":1846000000000,"state":"active","ping":91},{"user_id":656,"name":"outsmarted by an Idiot","steam_id":76561198253868228,"connected_time":7569000000000,"state":"active","ping":36},{"user_id":715,"name":"Roboolet","steam_id":76561198107353953,"connected_time":1663000000000,"state":"active","ping":47},{"user_id":714,"name":"Peat","steam_id":76561197992168067,"connected_time":1709000000000,"state":"active","ping":68},{"user_id":727,"name":"Per√§miehen√§","steam_id":76561197968945306,"connected_time":854000000000,"state":"active","ping":73},{"user_id":728,"name":"chad,liG","steam_id":76561198012304706,"connected_time":836000000000,"state":"active","ping":105}]},{"server_id":321,"name":"Uncletopia | London | 4 | All Maps","name_short":"lon-4","host":"lon-1.uk.uncletopia.com","port":27045,"enabled":true,"region":"eu","cc":"gb","latitude":51.509865,"longitude":-0.118092,"reserved":0,"last_update":"0001-01-01T00:00:00Z","name_a2s":"Uncletopia | London | 4 | All Maps","protocol":17,"map":"koth_lakeside_final","folder":"tf","game":"Team Fortress","app_id":440,"player_count":0,"max_players":24,"Bots":0,"server_type":"Dedicated","server_os":"Linux","password":true,"vac":true,"version":"7695204","steam_id":85568392924510193,"keywords":["cp","nocrits","nodmgspread","uncletopia"],"game_id":440,"stv_port":27046,"stv_name":"Uncletopia | London | 4 | All Maps | STV","players":null},{"server_id":21,"name":"Uncletopia | London | 5 | All Maps","name_short":"lon-5","host":"lon-1.uk.uncletopia.com","port":27055,"enabled":true,"region":"eu","cc":"gb","latitude":51.509865,"longitude":-0.118092,"reserved":0,"last_update":"0001-01-01T00:00:00Z","name_a2s":"Uncletopia | London | 5 | All Maps","protocol":17,"map":"cp_snakewater_final1","folder":"tf","game":"Team Fortress","app_id":440,"player_count":0,"max_players":24,"Bots":0,"server_type":"Dedicated","server_os":"Linux","password":true,"vac":true,"version":"7695204","steam_id":85568392924742829,"keywords":["cp","nocrits","nodmgspread","uncletopia"],"game_id":440,"stv_port":27056,"stv_name":"Uncletopia | London | 5 | All Maps | STV","players":null},{"server_id":22,"name":"Uncletopia | London | 6 | All Maps","name_short":"lon-6","host":"lon-1.uk.uncletopia.com","port":27065,"enabled":true,"region":"eu","cc":"gb","latitude":51.509865,"longitude":-0.118092,"reserved":0,"last_update":"0001-01-01T00:00:00Z","name_a2s":"Uncletopia | London | 6 | All Maps","protocol":17,"map":"pl_badwater","folder":"tf","game":"Team Fortress","app_id":440,"player_count":0,"max_players":24,"Bots":0,"server_type":"Dedicated","server_os":"Linux","password":true,"vac":true,"version":"7695204","steam_id":85568392924742830,"keywords":["nocrits","nodmgspread","payload","uncletopia"],"game_id":440,"stv_port":27066,"stv_name":"Uncletopia | London | 6 | All Maps | STV","players":null},{"server_id":40,"name":"Uncletopia | London | 7 | No Payload","name_short":"lon-7","host":"lon-1.uk.uncletopia.com","port":27075,"enabled":true,"region":"eu","cc":"gb","latitude":51.509865,"longitude":-0.118092,"reserved":0,"last_update":"0001-01-01T00:00:00Z","name_a2s":"Uncletopia | London | 7 | No Payload","protocol":17,"map":"koth_king","folder":"tf","game":"Team Fortress","app_id":440,"player_count":0,"max_players":24,"Bots":0,"server_type":"Dedicated","server_os":"Linux","password":true,"vac":true,"version":"7695204","steam_id":85568392924964314,"keywords":["cp","nocrits","nodmgspread","uncletopia"],"game_id":440,"stv_port":27076,"stv_name":"Uncletopia | London | 7 | No Payload | STV","players":null},{"server_id":41,"name":"Uncletopia | London | 8 | Community","name_short":"lon-8","host":"lon-1.uk.uncletopia.com","port":27085,"enabled":true,"region":"eu","cc":"gb","latitude":51.509865,"longitude":-0.118092,"reserved":0,"last_update":"0001-01-01T00:00:00Z","name_a2s":"Uncletopia | London | 8 | Community","protocol":17,"map":"workshop/cp_overgrown_rc7b.ugc503939302","folder":"tf","game":"Team Fortress","app_id":440,"player_count":0,"max_players":24,"Bots":0,"server_type":"Dedicated","server_os":"Linux","password":true,"vac":true,"version":"7695204","steam_id":85568392924964315,"keywords":["cp","nocrits","nodmgspread","uncletopia"],"game_id":440,"stv_port":27086,"stv_name":"Uncletopia | London | 8 | Community | STV","players":null},{"server_id":300,"name":"Uncletopia | Montr√©al | 1 | All Maps","name_short":"mtl-1","host":"mtl-1.ca.uncletopia.com","port":27015,"enabled":true,"region":"us-east","cc":"ca","latitude":45.50889,"longitude":-73.56167,"reserved":0,"last_update":"0001-01-01T00:00:00Z","name_a2s":"Uncletopia | Montr√©al | 1 | All Maps","protocol":17,"map":"koth_cascade","folder":"tf","game":"Team Fortress","app_id":440,"player_count":0,"max_players":24,"Bots":0,"server_type":"Dedicated","server_os":"Linux","password":true,"vac":true,"version":"7695204","steam_id":85568392924500087,"keywords":["cp","nocrits","nodmgspread","uncletopia"],"game_id":440,"stv_port":27016,"stv_name":"Uncletopia | Montr√©al | 1 | All Maps | STV","players":null},{"server_id":301,"name":"Uncletopia | Montr√©al | 2 | All Maps","name_short":"mtl-2","host":"mtl-1.ca.uncletopia.com","port":27025,"enabled":true,"region":"us-east","cc":"ca","latitude":45.50889,"longitude":-73.56167,"reserved":0,"last_update":"0001-01-01T00:00:00Z","name_a2s":"Uncletopia | Montr√©al | 2 | All Maps","protocol":17,"map":"pl_barnblitz","folder":"tf","game":"Team Fortress","app_id":440,"player_count":0,"max_players":24,"Bots":0,"server_type":"Dedicated","server_os":"Linux","password":true,"vac":true,"version":"7695204","steam_id":85568392924500088,"keywords":["nocrits","nodmgspread","payload","uncletopia"],"game_id":440,"stv_port":27026,"stv_name":"Uncletopia | Montr√©al | 2 | All Maps | STV","players":null},{"server_id":302,"name":"Uncletopia | Montr√©al | 3 | All Maps","name_short":"mtl-3","host":"mtl-1.ca.uncletopia.com","port":27035,"enabled":true,"region":"us-east","cc":"ca","latitude":45.50889,"longitude":-73.56167,"reserved":0,"last_update":"0001-01-01T00:00:00Z","name_a2s":"Uncletopia | Montr√©al | 3 | All Maps","protocol":17,"map":"koth_viaduct","folder":"tf","game":"Team Fortress","app_id":440,"player_count":0,"max_players":24,"Bots":0,"server_type":"Dedicated","server_os":"Linux","password":true,"vac":true,"version":"7695204","steam_id":85568392924500089,"keywords":["cp","nocrits","nodmgspread","uncletopia"],"game_id":440,"stv_port":0,"stv_name":"","players":null},{"server_id":303,"name":"Uncletopia | Montr√©al | 4 | No Payload","name_short":"mtl-4","host":"mtl-1.ca.uncletopia.com","port":27045,"enabled":true,"region":"us-east","cc":"ca","latitude":45.50889,"longitude":-73.56167,"reserved":0,"last_update":"0001-01-01T00:00:00Z","name_a2s":"Uncletopia | Montr√©al | 4 | No Payload","protocol":17,"map":"koth_king","folder":"tf","game":"Team Fortress","app_id":440,"player_count":0,"max_players":24,"Bots":0,"server_type":"Dedicated","server_os":"Linux","password":true,"vac":true,"version":"7695204","steam_id":85568392924500090,"keywords":["cp","nocrits","nodmgspread","uncletopia"],"game_id":440,"stv_port":27046,"stv_name":"Uncletopia | Montr√©al | 4 | No Payload | STV","players":null},{"server_id":13,"name":"Uncletopia | New York City | 1 | All Maps","name_short":"nyc-1","host":"nyc-1.us.uncletopia.com","port":27015,"enabled":true,"region":"us-east","cc":"us","latitude":40.73061,"longitude":-73.93524,"reserved":0,"last_update":"0001-01-01T00:00:00Z","name_a2s":"Uncletopia | New York City | 1 | All Maps","protocol":17,"map":"cp_sunshine","folder":"tf","game":"Team Fortress","app_id":440,"player_count":24,"max_players":24,"Bots":0,"server_type":"Dedicated","server_os":"Linux","password":true,"vac":true,"version":"7695204","steam_id":85568392924469993,"keywords":["cp","nocrits","nodmgspread","uncletopia"],"game_id":440,"stv_port":27016,"stv_name":"Uncletopia | New York City | 1 | All Maps | STV","players":[{"user_id":639,"name":"boot","steam_id":76561198806968845,"connected_time":1126000000000,"state":"active","ping":39},{"user_id":645,"name":"\"InsertWittyNameHere\"","steam_id":76561198273918841,"connected_time":975000000000,"state":"active","ping":52},{"user_id":648,"name":"Dr. Detroit","steam_id":76561198970783505,"connected_time":849000000000,"state":"active","ping":87},{"user_id":623,"name":"flygonboy127","steam_id":76561199105773990,"connected_time":1956000000000,"state":"active","ping":77},{"user_id":633,"name":"Teleporter Rat","steam_id":76561198017882021,"connected_time":1449000000000,"state":"active","ping":107},{"user_id":646,"name":"GUINNESS ANYONE?","steam_id":76561197985970131,"connected_time":954000000000,"state":"active","ping":53},{"user_id":635,"name":"[S]Mr. X [No Monitor]","steam_id":76561197963746035,"connected_time":1402000000000,"state":"active","ping":98},{"user_id":657,"name":"CPU","steam_id":76561198408076634,"connected_time":626000000000,"state":"active","ping":61},{"user_id":650,"name":"JHLO","steam_id":76561198074359967,"connected_time":825000000000,"state":"active","ping":56},{"user_id":659,"name":"Mr. Matute","steam_id":76561198279053871,"connected_time":611000000000,"state":"active","ping":114},{"user_id":611,"name":"Dr. Feelgood (Ph.D, MD)","steam_id":76561198040611061,"connected_time":3205000000000,"state":"active","ping":49},{"user_id":636,"name":"Amaretto Sour","steam_id":76561198063112844,"connected_time":1386000000000,"state":"active","ping":60},{"user_id":651,"name":"boognish","steam_id":76561197962886723,"connected_time":797000000000,"state":"active","ping":49},{"user_id":628,"name":"Abbreviated","steam_id":76561198088423054,"connected_time":1827000000000,"state":"active","ping":74},{"user_id":656,"name":"Autumn Clover","steam_id":76561198012295314,"connected_time":653000000000,"state":"active","ping":60},{"user_id":632,"name":"WILLD47","steam_id":76561198415105113,"connected_time":1489000000000,"state":"active","ping":64},{"user_id":658,"name":"Lankyboxstan","steam_id":76561199139182003,"connected_time":619000000000,"state":"active","ping":48},{"user_id":661,"name":"Hedge","steam_id":76561199124864878,"connected_time":151000000000,"state":"active","ping":77},{"user_id":638,"name":"Marcel","steam_id":76561199079200901,"connected_time":1281000000000,"state":"active","ping":89},{"user_id":617,"name":"4d4","steam_id":76561198402360789,"connected_time":2850000000000,"state":"active","ping":68},{"user_id":660,"name":"Steiner","steam_id":76561198030457066,"connected_time":601000000000,"state":"active","ping":108},{"user_id":653,"name":"GenericMaleGamer","steam_id":76561198257271858,"connected_time":754000000000,"state":"active","ping":129},{"user_id":629,"name":"Mr. Squidward","steam_id":76561198103821671,"connected_time":1818000000000,"state":"active","ping":56},{"user_id":654,"name":"el goblino","steam_id":76561198271710504,"connected_time":742000000000,"state":"active","ping":74}]},{"server_id":14,"name":"Uncletopia | New York City | 2 | All Maps","name_short":"nyc-2","host":"nyc-1.us.uncletopia.com","port":27025,"enabled":true,"region":"us-east","cc":"us","latitude":40.73061,"longitude":-73.93524,"reserved":0,"last_update":"0001-01-01T00:00:00Z","name_a2s":"Uncletopia | New York City | 2 | All Maps","protocol":17,"map":"pl_thundermountain","folder":"tf","game":"Team Fortress","app_id":440,"player_count":24,"max_players":24,"Bots":0,"server_type":"Dedicated","server_os":"Linux","password":true,"vac":true,"version":"7695204","steam_id":85568392924469994,"keywords":["nocrits","nodmgspread","payload","uncletopia"],"game_id":440,"stv_port":27026,"stv_name":"Uncletopia | New York City | 2 | All Maps | STV","players":[{"user_id":423,"name":"Rose Of Scarlett","steam_id":76561198348941784,"connected_time":1586000000000,"state":"active","ping":83},{"user_id":399,"name":"„Çπ„Éë„Ç§„ÇØ","steam_id":76561199417277716,"connected_time":3634000000000,"state":"active","ping":47},{"user_id":424,"name":"Questking1","steam_id":76561198328107634,"connected_time":1579000000000,"state":"active","ping":67},{"user_id":437,"name":"a zephyr","steam_id":76561198182506001,"connected_time":978000000000,"state":"active","ping":49},{"user_id":375,"name":"Christoph Waltz eating a burger","steam_id":76561199215811448,"connected_time":5914000000000,"state":"active","ping":55},{"user_id":410,"name":"Big Domino","steam_id":76561198055743516,"connected_time":2852000000000,"state":"active","ping":55},{"user_id":440,"name":"CactusFarms","steam_id":76561199009131802,"connected_time":523000000000,"state":"active","ping":131},{"user_id":433,"name":"ThePoohGang","steam_id":76561198309721859,"connected_time":1290000000000,"state":"active","ping":57},{"user_id":289,"name":"BMongrel","steam_id":76561198072166677,"connected_time":11622000000000,"state":"active","ping":74},{"user_id":380,"name":"Kuroka Mishima","steam_id":76561198124311404,"connected_time":5602000000000,"state":"active","ping":72},{"user_id":427,"name":"45 Cent","steam_id":76561198048690188,"connected_time":1523000000000,"state":"active","ping":56},{"user_id":418,"name":"Miner2495","steam_id":76561198445904523,"connected_time":2065000000000,"state":"active","ping":69},{"user_id":431,"name":"hboflexin","steam_id":76561198323411839,"connected_time":1395000000000,"state":"active","ping":94},{"user_id":324,"name":"davidflyswag","steam_id":76561198979060652,"connected_time":9283000000000,"state":"active","ping":60},{"user_id":353,"name":"CRAZY engineer","steam_id":76561198887937902,"connected_time":7197000000000,"state":"active","ping":52},{"user_id":397,"name":"You Don't Nomi.","steam_id":76561197969137836,"connected_time":3655000000000,"state":"active","ping":51},{"user_id":413,"name":"ExtraSoap","steam_id":76561198008712409,"connected_time":2583000000000,"state":"active","ping":56},{"user_id":428,"name":"Temper","steam_id":76561198044123690,"connected_time":1495000000000,"state":"active","ping":68},{"user_id":425,"name":"Lil_Roomba","steam_id":76561199215047783,"connected_time":1576000000000,"state":"active","ping":82},{"user_id":439,"name":"Sicko Mode (Chris Pratt Cover)","steam_id":76561198315786174,"connected_time":938000000000,"state":"active","ping":52},{"user_id":429,"name":"Wally The Fukn Walrus","steam_id":76561198019034045,"connected_time":1463000000000,"state":"active","ping":69},{"user_id":432,"name":"CANDICE","steam_id":76561198208496036,"connected_time":1337000000000,"state":"active","ping":64},{"user_id":422,"name":"hugs for noob","steam_id":76561198063116291,"connected_time":1658000000000,"state":"active","ping":72}]},{"server_id":15,"name":"Uncletopia | New York City | 3 | All Maps","name_short":"nyc-3","host":"nyc-1.us.uncletopia.com","port":27035,"enabled":true,"region":"us-east","cc":"us","latitude":40.73061,"longitude":-73.93524,"reserved":0,"last_update":"0001-01-01T00:00:00Z","name_a2s":"Uncletopia | New York City | 3 | All Maps","protocol":17,"map":"pl_badwater","folder":"tf","game":"Team Fortress","app_id":440,"player_count":24,"max_players":24,"Bots":0,"server_type":"Dedicated","server_os":"Linux","password":true,"vac":true,"version":"7695204","steam_id":85568392924742820,"keywords":["nocrits","nodmgspread","payload","uncletopia"],"game_id":440,"stv_port":27036,"stv_name":"Uncletopia | New York City | 3 | All Maps | STV","players":[{"user_id":638,"name":"fennec_zak_","steam_id":76561198125406216,"connected_time":1668000000000,"state":"active","ping":95},{"user_id":622,"name":"DragonWing","steam_id":76561198353039415,"connected_time":2587000000000,"state":"active","ping":120},{"user_id":606,"name":"Madrox Who?","steam_id":76561197988859134,"connected_time":4077000000000,"state":"active","ping":66},{"user_id":587,"name":"the prowler","steam_id":76561199013645661,"connected_time":5009000000000,"state":"active","ping":83},{"user_id":602,"name":"Pomegranate88","steam_id":76561198056385456,"connected_time":4262000000000,"state":"active","ping":59},{"user_id":651,"name":"arcade","steam_id":76561198093925622,"connected_time":870000000000,"state":"active","ping":60},{"user_id":611,"name":"StuartBell511","steam_id":76561198060931721,"connected_time":3873000000000,"state":"active","ping":64},{"user_id":652,"name":"golia","steam_id":76561198000264266,"connected_time":860000000000,"state":"active","ping":115},{"user_id":624,"name":"Dajer","steam_id":76561198321675742,"connected_time":2534000000000,"state":"active","ping":67},{"user_id":654,"name":"kree","steam_id":76561197979960008,"connected_time":647000000000,"state":"active","ping":54},{"user_id":655,"name":"slowdance","steam_id":76561198097427947,"connected_time":618000000000,"state":"active","ping":159},{"user_id":645,"name":"JaFart","steam_id":76561198010603708,"connected_time":1026000000000,"state":"active","ping":99},{"user_id":646,"name":"s0ng","steam_id":76561198087456578,"connected_time":999000000000,"state":"active","ping":63},{"user_id":608,"name":"Dealyo","steam_id":76561198282395338,"connected_time":4030000000000,"state":"active","ping":42},{"user_id":632,"name":"MrBajaBlast","steam_id":76561199052471047,"connected_time":2070000000000,"state":"active","ping":74},{"user_id":647,"name":"Asanez3","steam_id":76561198037381436,"connected_time":949000000000,"state":"active","ping":53},{"user_id":640,"name":"dogleg444","steam_id":76561199207013781,"connected_time":1191000000000,"state":"active","ping":58},{"user_id":601,"name":"Fish Fisherman","steam_id":76561198018656022,"connected_time":4342000000000,"state":"active","ping":50},{"user_id":648,"name":"Scum Knight","steam_id":76561198282444763,"connected_time":948000000000,"state":"active","ping":58},{"user_id":620,"name":"Insanity_Book","steam_id":76561198282715309,"connected_time":2634000000000,"state":"active","ping":114},{"user_id":613,"name":"Don william","steam_id":76561199066025998,"connected_time":3712000000000,"state":"active","ping":120},{"user_id":653,"name":"Kezner","steam_id":76561198993951071,"connected_time":655000000000,"state":"active","ping":49},{"user_id":659,"name":"Boter","steam_id":76561198066994093,"connected_time":63000000000,"state":"active","ping":83},{"user_id":636,"name":"pathulhu","steam_id":76561198323941614,"connected_time":1937000000000,"state":"active","ping":84}]},{"server_id":16,"name":"Uncletopia | New York City | 4 | Community","name_short":"nyc-4","host":"nyc-1.us.uncletopia.com","port":27045,"enabled":true,"region":"us-east","cc":"us","latitude":40.73061,"longitude":-73.93524,"reserved":0,"last_update":"0001-01-01T00:00:00Z","name_a2s":"Uncletopia | New York City | 4 | Community","protocol":17,"map":"workshop/koth_product_final.ugc454272353","folder":"tf","game":"Team Fortress","app_id":440,"player_count":0,"max_players":24,"Bots":0,"server_type":"Dedicated","server_os":"Linux","password":true,"vac":true,"version":"7695204","steam_id":85568392924742821,"keywords":["cp","nocrits","nodmgspread","uncletopia"],"game_id":440,"stv_port":27046,"stv_name":"Uncletopia | New York City | 4 | Community | STV","players":null},{"server_id":142,"name":"Uncletopia | S√£o Paulo | 1 | All Maps","name_short":"sao-1","host":"sao-1.br.uncletopia.com","port":27015,"enabled":true,"region":"sa","cc":"br","latitude":-23.533773,"longitude":-46.62529,"reserved":0,"last_update":"0001-01-01T00:00:00Z","name_a2s":"Uncletopia | S√£o Paulo | 1 | All Maps","protocol":17,"map":"koth_highpass","folder":"tf","game":"Team Fortress","app_id":440,"player_count":0,"max_players":24,"Bots":0,"server_type":"Dedicated","server_os":"Linux","password":true,"vac":true,"version":"7695204","steam_id":85568392924469996,"keywords":["cp","nocrits","nodmgspread","uncletopia"],"game_id":440,"stv_port":27016,"stv_name":"Uncletopia | S√£o Paulo | 1 | All Maps | STV","players":null},{"server_id":143,"name":"Uncletopia | S√£o Paulo | 2 | All Maps","name_short":"sao-2","host":"sao-2.br.uncletopia.com","port":27015,"enabled":true,"region":"sa","cc":"br","latitude":-23.533773,"longitude":-46.62529,"reserved":0,"last_update":"0001-01-01T00:00:00Z","name_a2s":"Uncletopia | S√£o Paulo | 2 | All Maps","protocol":17,"map":"koth_cascade","folder":"tf","game":"Team Fortress","app_id":440,"player_count":0,"max_players":24,"Bots":0,"server_type":"Dedicated","server_os":"Linux","password":true,"vac":true,"version":"7695204","steam_id":85568392924485349,"keywords":["cp","nocrits","nodmgspread","uncletopia"],"game_id":440,"stv_port":27016,"stv_name":"Uncletopia | S√£o Paulo | 2 | All Maps | STV","players":null},{"server_id":7,"name":"Uncletopia | Seattle | 1 | All Maps","name_short":"sea-1","host":"sea-1.us.uncletopia.com","port":27015,"enabled":true,"region":"us-west","cc":"us","latitude":47.608013,"longitude":-122.33517,"reserved":0,"last_update":"0001-01-01T00:00:00Z","name_a2s":"Uncletopia | Seattle | 1 | All Maps","protocol":17,"map":"cp_process_final","folder":"tf","game":"Team Fortress","app_id":440,"player_count":24,"max_players":24,"Bots":0,"server_type":"Dedicated","server_os":"Linux","password":true,"vac":true,"version":"7695204","steam_id":85568392924469997,"keywords":["cp","nocrits","nodmgspread","uncletopia"],"game_id":440,"stv_port":27016,"stv_name":"Uncletopia | Seattle | 1 | All Maps | STV","players":[{"user_id":447,"name":"SnoDot","steam_id":76561198062209970,"connected_time":241000000000,"state":"active","ping":35},{"user_id":450,"name":"omg an opossum!!","steam_id":76561198010230351,"connected_time":183000000000,"state":"active","ping":48},{"user_id":454,"name":"moe","steam_id":76561198929586245,"connected_time":84000000000,"state":"active","ping":71},{"user_id":455,"name":"choi","steam_id":76561198053669887,"connected_time":60000000000,"state":"active","ping":90},{"user_id":449,"name":"bobtheninjaman","steam_id":76561198066424544,"connected_time":197000000000,"state":"active","ping":77},{"user_id":353,"name":"Sleuth","steam_id":76561198418288939,"connected_time":8119000000000,"state":"active","ping":64},{"user_id":444,"name":"court appointed hype man","steam_id":76561198069199626,"connected_time":500000000000,"state":"active","ping":56},{"user_id":431,"name":"tayzik","steam_id":76561199391478575,"connected_time":1330000000000,"state":"active","ping":76},{"user_id":325,"name":"Mom","steam_id":76561198207936000,"connected_time":10483000000000,"state":"active","ping":66},{"user_id":419,"name":"hotdog every meal","steam_id":76561198392514273,"connected_time":2431000000000,"state":"active","ping":54},{"user_id":432,"name":"Sniff","steam_id":76561198010270922,"connected_time":1162000000000,"state":"active","ping":45},{"user_id":421,"name":"Mr.Thirteen","steam_id":76561198047468836,"connected_time":2394000000000,"state":"active","ping":70},{"user_id":453,"name":"Bill Johnson","steam_id":76561198066355382,"connected_time":128000000000,"state":"active","ping":81},{"user_id":451,"name":"ImaginedFire","steam_id":76561198338187438,"connected_time":174000000000,"state":"active","ping":46},{"user_id":456,"name":"merkury731","steam_id":76561198110565430,"connected_time":54000000000,"state":"active","ping":110},{"user_id":452,"name":"Doctor Payne","steam_id":76561198025576587,"connected_time":162000000000,"state":"active","ping":45},{"user_id":457,"name":"Starpillow ‚ô°","steam_id":76561198095034817,"connected_time":33000000000,"state":"active","ping":49},{"user_id":400,"name":"snorlax_gamer","steam_id":76561199084972996,"connected_time":4217000000000,"state":"active","ping":54},{"user_id":426,"name":"kronk","steam_id":76561198054623686,"connected_time":1996000000000,"state":"active","ping":87},{"user_id":412,"name":"aporophobia","steam_id":76561198068672882,"connected_time":3584000000000,"state":"active","ping":63},{"user_id":379,"name":"Frongus","steam_id":76561197979056451,"connected_time":6382000000000,"state":"active","ping":51},{"user_id":446,"name":"MCman","steam_id":76561198412110305,"connected_time":401000000000,"state":"active","ping":83},{"user_id":399,"name":"self sufficient kitten","steam_id":76561197960592612,"connected_time":4241000000000,"state":"active","ping":45},{"user_id":415,"name":"Dogg wader","steam_id":76561199090314340,"connected_time":2701000000000,"state":"active","ping":64}]},{"server_id":119,"name":"Uncletopia | Seattle | 2 | All Maps","name_short":"sea-2","host":"sea-1.us.uncletopia.com","port":27025,"enabled":true,"region":"us-west","cc":"us","latitude":47.608013,"longitude":-122.33517,"reserved":0,"last_update":"0001-01-01T00:00:00Z","name_a2s":"Uncletopia | Seattle | 2 | All Maps","protocol":17,"map":"pl_pier","folder":"tf","game":"Team Fortress","app_id":440,"player_count":24,"max_players":24,"Bots":0,"server_type":"Dedicated","server_os":"Linux","password":true,"vac":true,"version":"7695204","steam_id":85568392924469998,"keywords":["nocrits","nodmgspread","payload","uncletopia"],"game_id":440,"stv_port":27026,"stv_name":"Uncletopia | Seattle | 2 | All Maps | STV","players":[{"user_id":648,"name":"PP_PhD","steam_id":76561198168851111,"connected_time":4500000000000,"state":"active","ping":57},{"user_id":696,"name":"Swayze","steam_id":76561198138015867,"connected_time":44000000000,"state":"active","ping":55},{"user_id":697,"name":" ï„Å£‚Ä¢·¥•‚Ä¢ î„Å£","steam_id":76561198010392559,"connected_time":41000000000,"state":"active","ping":70},{"user_id":698,"name":"BLOCKHEAD04","steam_id":76561198808224331,"connected_time":40000000000,"state":"spawning","ping":135},{"user_id":657,"name":"The Hamburglar","steam_id":76561199094048718,"connected_time":3870000000000,"state":"active","ping":68},{"user_id":662,"name":"Vquill","steam_id":76561199070911342,"connected_time":3459000000000,"state":"active","ping":82},{"user_id":597,"name":"Trogdor","steam_id":76561198121353181,"connected_time":7112000000000,"state":"active","ping":61},{"user_id":669,"name":"squid","steam_id":76561198070236972,"connected_time":3304000000000,"state":"active","ping":85},{"user_id":611,"name":"IgroSome","steam_id":76561198325586557,"connected_time":6724000000000,"state":"active","ping":65},{"user_id":687,"name":"Goob","steam_id":76561198256918638,"connected_time":1701000000000,"state":"active","ping":75},{"user_id":678,"name":"Sinn","steam_id":76561199013434543,"connected_time":2434000000000,"state":"active","ping":73},{"user_id":693,"name":"goldhed","steam_id":76561198051751133,"connected_time":79000000000,"state":"active","ping":65},{"user_id":674,"name":"Amateur Glaswegian","steam_id":76561198030851956,"connected_time":3136000000000,"state":"active","ping":50},{"user_id":691,"name":"LordMorphesus","steam_id":76561198026995104,"connected_time":715000000000,"state":"active","ping":38},{"user_id":690,"name":"gorlab","steam_id":76561198025089694,"connected_time":1067000000000,"state":"active","ping":60},{"user_id":666,"name":"Wafflemuscle","steam_id":76561198868628982,"connected_time":3382000000000,"state":"active","ping":46},{"user_id":677,"name":"Bada Bingus","steam_id":76561198046743307,"connected_time":2451000000000,"state":"active","ping":128},{"user_id":668,"name":"Veritox","steam_id":76561198075778026,"connected_time":3325000000000,"state":"active","ping":73},{"user_id":694,"name":"Steve","steam_id":76561198352805460,"connected_time":74000000000,"state":"active","ping":65},{"user_id":679,"name":"SvicidalBug","steam_id":76561198221390504,"connected_time":2404000000000,"state":"active","ping":69},{"user_id":699,"name":"Harley [Ramiel]","steam_id":76561198079510840,"connected_time":31000000000,"state":"active","ping":43},{"user_id":655,"name":"General Fisticuffs","steam_id":76561198255721392,"connected_time":4049000000000,"state":"active","ping":112},{"user_id":650,"name":"taishang","steam_id":76561198065328284,"connected_time":4497000000000,"state":"active","ping":77},{"user_id":684,"name":"chlo√©","steam_id":76561198858926895,"connected_time":1890000000000,"state":"active","ping":30}]},{"server_id":17,"name":"Uncletopia | San Francisco | 1 | All Maps","name_short":"sfo-1","host":"sfo-1.us.uncletopia.com","port":27015,"enabled":true,"region":"us-west","cc":"us","latitude":37.77397,"longitude":-122.4313,"reserved":0,"last_update":"0001-01-01T00:00:00Z","name_a2s":"Uncletopia | San Francisco | 1 | All Maps","protocol":17,"map":"pl_goldrush","folder":"tf","game":"Team Fortress","app_id":440,"player_count":24,"max_players":24,"Bots":0,"server_type":"Dedicated","server_os":"Linux","password":true,"vac":true,"version":"7695204","steam_id":85568392924469999,"keywords":["nocrits","nodmgspread","payload","uncletopia"],"game_id":440,"stv_port":27016,"stv_name":"Uncletopia | San Francisco | 1 | All Maps | STV","players":[{"user_id":160,"name":"‡πñ€£€úTavi","steam_id":76561198088228946,"connected_time":1431000000000,"state":"active","ping":77},{"user_id":177,"name":"FALRayne","steam_id":76561198113348816,"connected_time":495000000000,"state":"active","ping":81},{"user_id":118,"name":"Papi Nacho","steam_id":76561198170128009,"connected_time":4743000000000,"state":"active","ping":54},{"user_id":143,"name":"perc 10","steam_id":76561198116471653,"connected_time":2160000000000,"state":"active","ping":51},{"user_id":114,"name":"AOTFB | Eminem Fortnite","steam_id":76561198064631314,"connected_time":4871000000000,"state":"active","ping":96},{"user_id":173,"name":"top tree warlock","steam_id":76561198872339982,"connected_time":1035000000000,"state":"active","ping":56},{"user_id":145,"name":"b3nny","steam_id":76561198446837615,"connected_time":2124000000000,"state":"active","ping":48},{"user_id":176,"name":"Hydrus","steam_id":76561198190469854,"connected_time":682000000000,"state":"active","ping":47},{"user_id":171,"name":"ronald","steam_id":76561197960691622,"connected_time":1138000000000,"state":"active","ping":56},{"user_id":146,"name":"SHADOW","steam_id":76561198207768148,"connected_time":2111000000000,"state":"active","ping":48},{"user_id":140,"name":"Idontknow","steam_id":76561199207044048,"connected_time":2359000000000,"state":"active","ping":62},{"user_id":162,"name":"The Mincer","steam_id":76561198209881263,"connected_time":1370000000000,"state":"active","ping":48},{"user_id":138,"name":"SolarusD","steam_id":76561198029279861,"connected_time":3108000000000,"state":"active","ping":47},{"user_id":163,"name":"corbenis","steam_id":76561199012442511,"connected_time":1334000000000,"state":"active","ping":63},{"user_id":147,"name":"Sean","steam_id":76561199367470003,"connected_time":2108000000000,"state":"active","ping":65},{"user_id":141,"name":"devils nightmare","steam_id":76561198068136765,"connected_time":2190000000000,"state":"active","ping":53},{"user_id":130,"name":"DrD","steam_id":76561198067266383,"connected_time":4146000000000,"state":"active","ping":57},{"user_id":125,"name":"dylabgnar","steam_id":76561198829131595,"connected_time":4422000000000,"state":"active","ping":65},{"user_id":180,"name":"Skinny Pete","steam_id":76561198801608576,"connected_time":294000000000,"state":"active","ping":94},{"user_id":113,"name":"some guy Ness","steam_id":76561198854088903,"connected_time":5144000000000,"state":"active","ping":141},{"user_id":135,"name":"CB1 Cousin Junebug","steam_id":76561198090573639,"connected_time":3385000000000,"state":"active","ping":58},{"user_id":84,"name":"AOTFB | Vox Vulpera","steam_id":76561198796227041,"connected_time":7043000000000,"state":"active","ping":124},{"user_id":178,"name":"defcon","steam_id":76561198100656328,"connected_time":380000000000,"state":"active","ping":116},{"user_id":188,"name":"turn around","steam_id":76561198046526036,"connected_time":73000000000,"state":"active","ping":59}]},{"server_id":18,"name":"Uncletopia | San Francisco | 2 | All Maps","name_short":"sfo-2","host":"sfo-1.us.uncletopia.com","port":27025,"enabled":true,"region":"us-west","cc":"us","latitude":37.77397,"longitude":-122.4313,"reserved":0,"last_update":"0001-01-01T00:00:00Z","name_a2s":"Uncletopia | San Francisco | 2 | All Maps","protocol":17,"map":"koth_cascade","folder":"tf","game":"Team Fortress","app_id":440,"player_count":0,"max_players":24,"Bots":0,"server_type":"Dedicated","server_os":"Linux","password":true,"vac":true,"version":"7695204","steam_id":85568392924470000,"keywords":["cp","nocrits","nodmgspread","uncletopia"],"game_id":440,"stv_port":27026,"stv_name":"Uncletopia | San Francisco | 2 | All Maps | STV","players":null},{"server_id":19,"name":"Uncletopia | San Francisco | 3 | No Payload","name_short":"sfo-3","host":"sfo-1.us.uncletopia.com","port":27035,"enabled":true,"region":"us-west","cc":"us","latitude":37.77397,"longitude":-122.4313,"reserved":0,"last_update":"0001-01-01T00:00:00Z","name_a2s":"Uncletopia | San Francisco | 3 | No Payload","protocol":17,"map":"cp_junction_final","folder":"tf","game":"Team Fortress","app_id":440,"player_count":0,"max_players":24,"Bots":0,"server_type":"Dedicated","server_os":"Linux","password":true,"vac":true,"version":"7695204","steam_id":85568392924742824,"keywords":["cp","nocrits","nodmgspread","uncletopia"],"game_id":440,"stv_port":27036,"stv_name":"Uncletopia | San Francisco | 3 | No Payload | STV","players":null},{"server_id":20,"name":"Uncletopia | San Francisco | 4 | Community","name_short":"sfo-4","host":"sfo-1.us.uncletopia.com","port":27045,"enabled":true,"region":"us-west","cc":"us","latitude":37.77397,"longitude":-122.4313,"reserved":0,"last_update":"0001-01-01T00:00:00Z","name_a2s":"Uncletopia | San Francisco | 4 | Community","protocol":17,"map":"koth_highpass","folder":"tf","game":"Team Fortress","app_id":440,"player_count":0,"max_players":24,"Bots":0,"server_type":"Dedicated","server_os":"Linux","password":true,"vac":true,"version":"7695204","steam_id":85568392924742826,"keywords":["cp","nocrits","nodmgspread","uncletopia"],"game_id":440,"stv_port":0,"stv_name":"","players":null},{"server_id":141,"name":"Uncletopia | Sydney | 1 | All Maps","name_short":"syd-1","host":"syd-1.au.uncletopia.com","port":27015,"enabled":true,"region":"au","cc":"au","latitude":-33.865143,"longitude":151.2099,"reserved":0,"last_update":"0001-01-01T00:00:00Z","name_a2s":"Uncletopia | Sydney | 1 | All Maps","protocol":17,"map":"pl_borneo","folder":"tf","game":"Team Fortress","app_id":440,"player_count":24,"max_players":24,"Bots":0,"server_type":"Dedicated","server_os":"Linux","password":true,"vac":true,"version":"7695204","steam_id":85568392924470001,"keywords":["nocrits","nodmgspread","payload","uncletopia"],"game_id":440,"stv_port":27016,"stv_name":"Uncletopia | Sydney | 1 | All Maps | STV","players":[{"user_id":340,"name":"¬≤","steam_id":76561198071436574,"connected_time":54000000000,"state":"active","ping":32},{"user_id":341,"name":"Louis","steam_id":76561198013395847,"connected_time":47000000000,"state":"active","ping":47},{"user_id":316,"name":"huh","steam_id":76561198146659854,"connected_time":1328000000000,"state":"active","ping":49},{"user_id":336,"name":"saltykush","steam_id":76561198214211972,"connected_time":179000000000,"state":"active","ping":79},{"user_id":288,"name":"Big M","steam_id":76561199052493829,"connected_time":2594000000000,"state":"active","ping":172},{"user_id":329,"name":"Yegg","steam_id":76561198219898025,"connected_time":651000000000,"state":"active","ping":69},{"user_id":334,"name":"TTV ChocoMilk","steam_id":76561198167049794,"connected_time":219000000000,"state":"active","ping":69},{"user_id":332,"name":"Mooty","steam_id":76561198301293435,"connected_time":230000000000,"state":"active","ping":55},{"user_id":342,"name":"hyak","steam_id":76561198175700625,"connected_time":47000000000,"state":"active","ping":84},{"user_id":338,"name":"Lumalee ‚ù§","steam_id":76561198157613299,"connected_time":98000000000,"state":"active","ping":68},{"user_id":318,"name":"wody","steam_id":76561198867007873,"connected_time":1264000000000,"state":"active","ping":122},{"user_id":325,"name":"ziah","steam_id":76561198159375596,"connected_time":1104000000000,"state":"active","ping":55},{"user_id":328,"name":"Altara","steam_id":76561198022306164,"connected_time":753000000000,"state":"active","ping":61},{"user_id":320,"name":"Errytay_Adlay","steam_id":76561198129767964,"connected_time":1223000000000,"state":"active","ping":43},{"user_id":305,"name":"osborn","steam_id":76561198033663866,"connected_time":2061000000000,"state":"active","ping":30},{"user_id":339,"name":"TheJTop","steam_id":76561198237338232,"connected_time":89000000000,"state":"active","ping":40},{"user_id":343,"name":"Lord Oink","steam_id":76561198125237921,"connected_time":33000000000,"state":"active","ping":46},{"user_id":344,"name":"Behind the Normies","steam_id":76561198449827267,"connected_time":29000000000,"state":"active","ping":58},{"user_id":280,"name":"Homebrand Chronic","steam_id":76561198941549137,"connected_time":3311000000000,"state":"active","ping":83},{"user_id":301,"name":"Qwerty","steam_id":76561199157092367,"connected_time":2313000000000,"state":"active","ping":66},{"user_id":302,"name":"jules99","steam_id":76561199005815714,"connected_time":2297000000000,"state":"active","ping":58},{"user_id":289,"name":"Marzell","steam_id":76561198151276153,"connected_time":2590000000000,"state":"active","ping":83},{"user_id":281,"name":"carrot monster","steam_id":76561199056025092,"connected_time":3270000000000,"state":"active","ping":35},{"user_id":324,"name":"Tees","steam_id":76561199174602317,"connected_time":1179000000000,"state":"active","ping":50}]},{"server_id":123,"name":"Uncletopia | Sydney | 2 | All Maps","name_short":"syd-2","host":"syd-1.au.uncletopia.com","port":27025,"enabled":true,"region":"au","cc":"au","latitude":-33.865143,"longitude":151.2099,"reserved":0,"last_update":"0001-01-01T00:00:00Z","name_a2s":"Uncletopia | Sydney | 2 | All Maps","protocol":17,"map":"cp_altitude","folder":"tf","game":"Team Fortress","app_id":440,"player_count":0,"max_players":24,"Bots":0,"server_type":"Dedicated","server_os":"Linux","password":true,"vac":true,"version":"7695204","steam_id":85568392924470002,"keywords":["cp","nocrits","nodmgspread","uncletopia"],"game_id":440,"stv_port":27026,"stv_name":"Uncletopia | Sydney | 2 | All Maps | STV","players":null},{"server_id":395,"name":"Uncletopia | Sydney | 3 | All Maps","name_short":"syd-3","host":"syd-1.au.uncletopia.com","port":27035,"enabled":true,"region":"au","cc":"au","latitude":-33.865143,"longitude":151.2099,"reserved":0,"last_update":"0001-01-01T00:00:00Z","name_a2s":"Uncletopia | Sydney | 3 | All Maps","protocol":17,"map":"pl_badwater","folder":"tf","game":"Team Fortress","app_id":440,"player_count":24,"max_players":24,"Bots":0,"server_type":"Dedicated","server_os":"Linux","password":true,"vac":true,"version":"7695204","steam_id":85568392925194467,"keywords":["nocrits","nodmgspread","payload","uncletopia"],"game_id":440,"stv_port":27036,"stv_name":"Uncletopia | Sydney | 3 | All Maps | STV","players":[{"user_id":42,"name":"hijik","steam_id":76561198359069277,"connected_time":1827000000000,"state":"active","ping":94},{"user_id":31,"name":"WebSpook","steam_id":76561197976931725,"connected_time":2739000000000,"state":"active","ping":55},{"user_id":88,"name":"Eswamp","steam_id":76561198852898296,"connected_time":45000000000,"state":"active","ping":40},{"user_id":65,"name":"jenkins","steam_id":76561198267552367,"connected_time":1000000000000,"state":"active","ping":61},{"user_id":66,"name":"[DH] ClankoreTheGreat","steam_id":76561199000417501,"connected_time":975000000000,"state":"active","ping":68},{"user_id":85,"name":"Pizzaray","steam_id":76561198005075102,"connected_time":136000000000,"state":"active","ping":33},{"user_id":32,"name":"Jetgirljo","steam_id":76561198178284561,"connected_time":2686000000000,"state":"active","ping":55},{"user_id":56,"name":"Sherali","steam_id":76561199148361903,"connected_time":1220000000000,"state":"active","ping":67},{"user_id":40,"name":"Rodman","steam_id":76561198073532116,"connected_time":1898000000000,"state":"active","ping":96},{"user_id":44,"name":"Meh.","steam_id":76561198024380159,"connected_time":1634000000000,"state":"active","ping":55},{"user_id":45,"name":"-=N=-","steam_id":76561198283331043,"connected_time":1614000000000,"state":"active","ping":41},{"user_id":38,"name":"King Clapass","steam_id":76561199122315157,"connected_time":2125000000000,"state":"active","ping":59},{"user_id":82,"name":"Charm","steam_id":76561198028891054,"connected_time":334000000000,"state":"active","ping":61},{"user_id":47,"name":"Alicia ‚ô•","steam_id":76561198241303512,"connected_time":1545000000000,"state":"active","ping":58},{"user_id":48,"name":"perturb","steam_id":76561198085124297,"connected_time":1520000000000,"state":"active","ping":59},{"user_id":89,"name":"Spidery7","steam_id":76561198410517437,"connected_time":19000000000,"state":"spawning","ping":65},{"user_id":84,"name":"zise","steam_id":76561198079210881,"connected_time":179000000000,"state":"active","ping":55},{"user_id":58,"name":"fuschu","steam_id":76561198125648728,"connected_time":1173000000000,"state":"active","ping":46},{"user_id":59,"name":"Bing Lao","steam_id":76561198909869133,"connected_time":1144000000000,"state":"active","ping":46},{"user_id":67,"name":"krandlez` (Any/All)","steam_id":76561198044839726,"connected_time":896000000000,"state":"active","ping":44},{"user_id":83,"name":"RR Kony","steam_id":76561198838132101,"connected_time":266000000000,"state":"active","ping":57},{"user_id":81,"name":"Gasoline","steam_id":76561198879023728,"connected_time":536000000000,"state":"active","ping":67},{"user_id":87,"name":"tenten","steam_id":76561198402822072,"connected_time":109000000000,"state":"active","ping":83},{"user_id":77,"name":"letbe","steam_id":76561198071178936,"connected_time":679000000000,"state":"active","ping":98}]},{"server_id":396,"name":"Uncletopia | Sydney | 4 | All Maps","name_short":"syd-4","host":"syd-1.au.uncletopia.com","port":27045,"enabled":true,"region":"au","cc":"au","latitude":-33.865143,"longitude":151.2099,"reserved":0,"last_update":"0001-01-01T00:00:00Z","name_a2s":"Uncletopia | Sydney | 4 | All Maps","protocol":17,"map":"koth_viaduct","folder":"tf","game":"Team Fortress","app_id":440,"player_count":2,"max_players":24,"Bots":0,"server_type":"Dedicated","server_os":"Linux","password":true,"vac":true,"version":"7695204","steam_id":85568392925397958,"keywords":["cp","nocrits","nodmgspread","uncletopia"],"game_id":440,"stv_port":27046,"stv_name":"Uncletopia | Sydney | 4 | All Maps | STV","players":[{"user_id":50,"name":"starfinder","steam_id":76561199071758773,"connected_time":324000000000,"state":"active","ping":81},{"user_id":51,"name":"Underrocks","steam_id":76561198134725167,"connected_time":284000000000,"state":"active","ping":75}]},{"server_id":58,"name":"Uncletopia | Sydney | 5 | No Payload","name_short":"syd-5","host":"syd-1.au.uncletopia.com","port":27055,"enabled":true,"region":"au","cc":"au","latitude":-33.865143,"longitude":151.2099,"reserved":0,"last_update":"0001-01-01T00:00:00Z","name_a2s":"Uncletopia | Sydney | 5 | No Payload","protocol":17,"map":"koth_viaduct","folder":"tf","game":"Team Fortress","app_id":440,"player_count":0,"max_players":24,"Bots":0,"server_type":"Dedicated","server_os":"Linux","password":true,"vac":true,"version":"7695204","steam_id":85568392925397959,"keywords":["cp","nocrits","nodmgspread","uncletopia"],"game_id":440,"stv_port":0,"stv_name":"","players":null},{"server_id":59,"name":"Uncletopia | Sydney | 6 | Community","name_short":"syd-6","host":"syd-1.au.uncletopia.com","port":27065,"enabled":true,"region":"au","cc":"au","latitude":-33.865143,"longitude":151.2099,"reserved":0,"last_update":"0001-01-01T00:00:00Z","name_a2s":"Uncletopia | Sydney | 6 | Community","protocol":17,"map":"workshop/koth_synthetic_rc6a.ugc1549817316","folder":"tf","game":"Team Fortress","app_id":440,"player_count":0,"max_players":24,"Bots":0,"server_type":"Dedicated","server_os":"Linux","password":true,"vac":true,"version":"7695204","steam_id":85568392925397960,"keywords":["cp","nocrits","nodmgspread","uncletopia"],"game_id":440,"stv_port":27066,"stv_name":"Uncletopia | Sydney | 6 | Community | STV","players":null},{"server_id":49,"name":"Uncletopia | Warsaw | 1 | All Maps","name_short":"waw-1","host":"waw-1.pl.uncletopia.com","port":27015,"enabled":true,"region":"eu","cc":"pl","latitude":52.2297,"longitude":21.017532,"reserved":0,"last_update":"0001-01-01T00:00:00Z","name_a2s":"Uncletopia | Warsaw | 1 | All Maps","protocol":17,"map":"cp_altitude","folder":"tf","game":"Team Fortress","app_id":440,"player_count":0,"max_players":24,"Bots":0,"server_type":"Dedicated","server_os":"Linux","password":true,"vac":true,"version":"7695204","steam_id":85568392925397850,"keywords":["cp","nocrits","nodmgspread","uncletopia"],"game_id":440,"stv_port":27016,"stv_name":"Uncletopia | Warsaw | 1 | All Maps | STV","players":null},{"server_id":50,"name":"Uncletopia | Warsaw | 2 | All Maps","name_short":"waw-2","host":"waw-1.pl.uncletopia.com","port":27025,"enabled":true,"region":"eu","cc":"pl","latitude":52.2297,"longitude":21.017532,"reserved":0,"last_update":"0001-01-01T00:00:00Z","name_a2s":"Uncletopia | Warsaw | 2 | All Maps","protocol":17,"map":"cp_altitude","folder":"tf","game":"Team Fortress","app_id":440,"player_count":0,"max_players":24,"Bots":0,"server_type":"Dedicated","server_os":"Linux","password":true,"vac":true,"version":"7695204","steam_id":85568392925397851,"keywords":["cp","nocrits","nodmgspread","uncletopia"],"game_id":440,"stv_port":27026,"stv_name":"Uncletopia | Warsaw | 2 | All Maps | STV","players":null},{"server_id":51,"name":"Uncletopia | Warsaw | 3 | All Maps","name_short":"waw-3","host":"waw-1.pl.uncletopia.com","port":27035,"enabled":true,"region":"eu","cc":"pl","latitude":52.2297,"longitude":21.017532,"reserved":0,"last_update":"0001-01-01T00:00:00Z","name_a2s":"Uncletopia | Warsaw | 3 | All Maps","protocol":17,"map":"koth_lakeside_final","folder":"tf","game":"Team Fortress","app_id":440,"player_count":0,"max_players":24,"Bots":0,"server_type":"Dedicated","server_os":"Linux","password":true,"vac":true,"version":"7695204","steam_id":85568392925397852,"keywords":["cp","nocrits","nodmgspread","uncletopia"],"game_id":440,"stv_port":27036,"stv_name":"Uncletopia | Warsaw | 3 | All Maps | STV","players":null},{"server_id":52,"name":"Uncletopia | Warsaw | 4 | All Maps","name_short":"waw-4","host":"waw-1.pl.uncletopia.com","port":27045,"enabled":true,"region":"eu","cc":"pl","latitude":52.2297,"longitude":21.017532,"reserved":0,"last_update":"0001-01-01T00:00:00Z","name_a2s":"Uncletopia | Warsaw | 4 | All Maps","protocol":17,"map":"pl_borneo","folder":"tf","game":"Team Fortress","app_id":440,"player_count":0,"max_players":24,"Bots":0,"server_type":"Dedicated","server_os":"Linux","password":true,"vac":true,"version":"7695204","steam_id":85568392925397853,"keywords":["nocrits","nodmgspread","payload","uncletopia"],"game_id":440,"stv_port":27046,"stv_name":"Uncletopia | Warsaw | 4 | All Maps | STV","players":null},{"server_id":53,"name":"Uncletopia | Warsaw | 5 | No Payload","name_short":"waw-5","host":"waw-1.pl.uncletopia.com","port":27055,"enabled":true,"region":"eu","cc":"pl","latitude":52.2297,"longitude":21.017532,"reserved":0,"last_update":"0001-01-01T00:00:00Z","name_a2s":"Uncletopia | Warsaw | 5 | No Payload","protocol":17,"map":"koth_highpass","folder":"tf","game":"Team Fortress","app_id":440,"player_count":0,"max_players":24,"Bots":0,"server_type":"Dedicated","server_os":"Linux","password":true,"vac":true,"version":"7695204","steam_id":85568392925397854,"keywords":["cp","nocrits","nodmgspread","uncletopia"],"game_id":440,"stv_port":27056,"stv_name":"Uncletopia | Warsaw | 5 | No Payload | STV","players":null},{"server_id":54,"name":"Uncletopia | Warsaw | 6 | Community","name_short":"waw-6","host":"waw-1.pl.uncletopia.com","port":27065,"enabled":true,"region":"eu","cc":"pl","latitude":52.2297,"longitude":21.017532,"reserved":0,"last_update":"0001-01-01T00:00:00Z","name_a2s":"Uncletopia | Warsaw | 6 | Community","protocol":17,"map":"workshop/koth_product_final.ugc454272353","folder":"tf","game":"Team Fortress","app_id":440,"player_count":0,"max_players":24,"Bots":0,"server_type":"Dedicated","server_os":"Linux","password":true,"vac":true,"version":"7695204","steam_id":85568392925397856,"keywords":["cp","nocrits","nodmgspread","uncletopia"],"game_id":440,"stv_port":27066,"stv_name":"Uncletopia | Warsaw | 6 | Community | STV","players":null}]}