{"status":true,"message":"","result":[{"server_id":9,"name":"Uncletopia | Atlanta | 1 | All Maps","name_short":"atl-1","host":"atl-1.us.uncletopia.com","port":27015,"enabled":true,"region":"us-east","cc":"us","latitude":33.753746,"longitude":-84.38633,"reserved":0,"last_update":"0001-01-01T00:00:00Z","name_a2s":"Uncletopia | Atlanta | 1 | All Maps","protocol":17,"map":"pl_upward","folder":"tf","game":"Team Fortress","app_id":440,"player_count":24,"max_players":24,"Bots":0,"server_type":"Dedicated","server_os":"Linux","password":true,"vac":true,"version":"7961495","steam_id":85568392924469982,"keywords":["nocrits","nodmgspread","payload","uncletopia"],"game_id":440,"stv_port":27016,"stv_name":"Uncletopia | Atlanta | 1 | All Maps | STV","players":[{"user_id":395,"name":"marguerite","steam_id":76561198170873495,"connected_time":116000000000,"state":"active","ping":51},{"user_id":355,"name":"BIG HOG","steam_id":76561198079923652,"connected_time":4812000000000,"state":"active","ping":72},{"user_id":374,"name":"Sheembs","steam_id":76561199010524390,"connected_time":2243000000000,"state":"active","ping":53},{"user_id":394,"name":"Kuri","steam_id":76561199037050183,"connected_time":438000000000,"state":"active","ping":77},{"user_id":389,"name":"loot","steam_id":76561198069954956,"connected_time":865000000000,"state":"active","ping":45},{"user_id":379,"name":"Toasr","steam_id":76561199106140887,"connected_time":2132000000000,"state":"active","ping":75},{"user_id":398,"name":"Shame","steam_id":76561198100490994,"connected_time":92000000000,"state":"active","ping":61},{"user_id":292,"name":"gallowsCalibrator","steam_id":76561198404707578,"connected_time":8616000000000,"state":"active","ping":45},{"user_id":393,"name":"GUTTERBALL","steam_id":76561198927517471,"connected_time":581000000000,"state":"active","ping":59},{"user_id":300,"name":"Echo","steam_id":76561198072092594,"connected_time":8054000000000,"state":"active","ping":46},{"user_id":402,"name":"smugmirk","steam_id":76561198880748680,"connected_time":24000000000,"state":"spawning","ping":63},{"user_id":384,"name":"Le4n!!!","steam_id":76561198045522596,"connected_time":960000000000,"state":"active","ping":70},{"user_id":400,"name":"cooldog01","steam_id":76561198121922413,"connected_time":86000000000,"state":"active","ping":95},{"user_id":401,"name":"Mog","steam_id":76561198025575870,"connected_time":81000000000,"state":"active","ping":63},{"user_id":375,"name":"Gang Stalker","steam_id":76561199151545966,"connected_time":2189000000000,"state":"active","ping":69},{"user_id":396,"name":"Decolour","steam_id":76561199045608372,"connected_time":116000000000,"state":"active","ping":82},{"user_id":383,"name":"ATL1 | to4st","steam_id":76561198981009008,"connected_time":1519000000000,"state":"active","ping":85},{"user_id":397,"name":"the controller pyro","steam_id":76561199468748840,"connected_time":115000000000,"state":"active","ping":73},{"user_id":336,"name":"lu","steam_id":76561198080731872,"connected_time":5411000000000,"state":"active","ping":75},{"user_id":366,"name":"corviraptor!!!!!!","steam_id":76561198058284392,"connected_time":3465000000000,"state":"active","ping":79},{"user_id":361,"name":"Im High","steam_id":76561198049954886,"connected_time":3867000000000,"state":"active","ping":70},{"user_id":348,"name":"lil hog","steam_id":76561199230929836,"connected_time":5112000000000,"state":"active","ping":84},{"user_id":388,"name":"Dr.Inkmix(femboy medic!)","steam_id":76561198854070384,"connected_time":890000000000,"state":"active","ping":118},{"user_id":378,"name":"Fercho Mo","steam_id":76561198168935077,"connected_time":2164000000000,"state":"active","ping":90}]},{"server_id":104,"name":"Uncletopia | Atlanta | 2 | All Maps","name_short":"atl-2","host":"atl-1.us.uncletopia.com","port":27025,"enabled":true,"region":"us-east","cc":"us","latitude":33.753746,"longitude":-84.38633,"reserved":0,"last_update":"0001-01-01T00:00:00Z","name_a2s":"Uncletopia | Atlanta | 2 | All Maps","protocol":17,"map":"pl_pier","folder":"tf","game":"Team Fortress","app_id":440,"player_count":24,"max_players":24,"Bots":0,"server_type":"Dedicated","server_os":"Linux","password":true,"vac":true,"version":"7961495","steam_id":85568392924469983,"keywords":["nocrits","nodmgspread","payload","uncletopia"],"game_id":440,"stv_port":27026,"stv_name":"Uncletopia | Atlanta | 2 | All Maps | STV","players":[{"user_id":442,"name":".Jake","steam_id":76561198044360108,"connected_time":2014000000000,"state":"active","ping":61},{"user_id":474,"name":"Ÿ©(‚óèÃÆÃÉ‚Ä¢)€∂","steam_id":76561198043909391,"connected_time":544000000000,"state":"active","ping":59},{"user_id":477,"name":"Yep","steam_id":76561198041437251,"connected_time":313000000000,"state":"active","ping":74},{"user_id":445,"name":"ACrispSlimJim","steam_id":76561198145913920,"connected_time":1788000000000,"state":"active","ping":59},{"user_id":466,"name":"Fox","steam_id":76561198076635466,"connected_time":716000000000,"state":"active","ping":52},{"user_id":412,"name":"femboy birb","steam_id":76561199198726572,"connected_time":3277000000000,"state":"active","ping":69},{"user_id":446,"name":"duBstep","steam_id":76561198353928965,"connected_time":1753000000000,"state":"active","ping":70},{"user_id":356,"name":"Vin","steam_id":76561198043601929,"connected_time":5192000000000,"state":"active","ping":119},{"user_id":475,"name":"snrm","steam_id":76561198196374619,"connected_time":507000000000,"state":"active","ping":116},{"user_id":467,"name":"Im Groot","steam_id":76561198294943420,"connected_time":684000000000,"state":"active","ping":117},{"user_id":464,"name":"KandyKane_404","steam_id":76561198844209170,"connected_time":784000000000,"state":"active","ping":145},{"user_id":478,"name":"b etween d","steam_id":76561198802099686,"connected_time":307000000000,"state":"active","ping":150},{"user_id":456,"name":"dogatemytaco","steam_id":76561199074263563,"connected_time":1185000000000,"state":"active","ping":108},{"user_id":468,"name":"swan","steam_id":76561198012569200,"connected_time":682000000000,"state":"active","ping":75},{"user_id":463,"name":"lalman","steam_id":76561198196605887,"connected_time":877000000000,"state":"active","ping":65},{"user_id":141,"name":"Indigo","steam_id":76561198430362969,"connected_time":14333000000000,"state":"active","ping":66},{"user_id":460,"name":"DlTTO","steam_id":76561199427026752,"connected_time":914000000000,"state":"active","ping":88},{"user_id":481,"name":"cold","steam_id":76561199017901552,"connected_time":24000000000,"state":"active","ping":73},{"user_id":470,"name":"mosquito gaming","steam_id":76561198807323057,"connected_time":646000000000,"state":"active","ping":162},{"user_id":263,"name":"Orceus","steam_id":76561198254906285,"connected_time":7586000000000,"state":"active","ping":139},{"user_id":480,"name":"zUrik","steam_id":76561199038911272,"connected_time":159000000000,"state":"active","ping":109},{"user_id":435,"name":"Nooblord","steam_id":76561199105123730,"connected_time":2406000000000,"state":"active","ping":158},{"user_id":472,"name":"LerN","steam_id":76561198083463877,"connected_time":602000000000,"state":"active","ping":63},{"user_id":473,"name":"Foolie","steam_id":76561198291741747,"connected_time":573000000000,"state":"active","ping":78}]},{"server_id":400,"name":"Uncletopia | Atlanta | 3 | Stopwatch","name_short":"atl-3","host":"atl-1.us.uncletopia.com","port":27035,"enabled":true,"region":"us-east","cc":"us","latitude":33.753746,"longitude":-84.38633,"reserved":0,"last_update":"0001-01-01T00:00:00Z","name_a2s":"Uncletopia | Atlanta | 3 | Stopwatch","protocol":17,"map":"workshop/koth_bagel_rc6.ugc2514036946","folder":"tf","game":"Team Fortress","app_id":440,"player_count":0,"max_players":24,"Bots":0,"server_type":"Dedicated","server_os":"Linux","password":true,"vac":true,"version":"7961495","steam_id":85568392924515187,"keywords":["cp","nocrits","nodmgspread","uncletopia"],"game_id":440,"stv_port":27036,"stv_name":"Uncletopia | Atlanta | 3 | Stopwatch | STV","players":null},{"server_id":401,"name":"Uncletopia | Atlanta | 4 | Community","name_short":"atl-4","host":"atl-1.us.uncletopia.com","port":27045,"enabled":true,"region":"us-east","cc":"us","latitude":33.753746,"longitude":-84.38633,"reserved":0,"last_update":"0001-01-01T00:00:00Z","name_a2s":"Uncletopia | Atlanta | 4 | Community","protocol":17,"map":"workshop/koth_kemptown_rc1.ugc767410655","folder":"tf","game":"Team Fortress","app_id":440,"player_count":0,"max_players":24,"Bots":0,"server_type":"Dedicated","server_os":"Linux","password":true,"vac":true,"version":"7961495","steam_id":85568392924515188,"keywords":["cp","nocrits","nodmgspread","uncletopia"],"game_id":440,"stv_port":27046,"stv_name":"Uncletopia | Atlanta | 4 | Community | STV","players":null},{"server_id":2,"name":"Uncletopia | Chicago | 1 | All Maps","name_short":"chi-1","host":"chi-1.us.uncletopia.com","port":27015,"enabled":true,"region":"us-central","cc":"us","latitude":41.881832,"longitude":-87.62318,"reserved":0,"last_update":"0001-01-01T00:00:00Z","name_a2s":"Uncletopia | Chicago | 1 | All Maps","protocol":17,"map":"pl_pier","folder":"tf","game":"Team Fortress","app_id":440,"player_count":22,"max_players":24,"Bots":0,"server_type":"Dedicated","server_os":"Linux","password":true,"vac":true,"version":"7961495","steam_id":85568392924469984,"keywords":["nocrits","nodmgspread","payload","uncletopia"],"game_id":440,"stv_port":27016,"stv_name":"Uncletopia | Chicago | 1 | All Maps | STV","players":[{"user_id":488,"name":"Robo Boss","steam_id":76561199067098696,"connected_time":5423000000000,"state":"active","ping":79},{"user_id":543,"name":"swiftyy","steam_id":76561198142939433,"connected_time":1676000000000,"state":"active","ping":71},{"user_id":555,"name":"Yam Jazzy Jim","steam_id":76561198000788950,"connected_time":881000000000,"state":"active","ping":67},{"user_id":561,"name":"Satan-2","steam_id":76561199231742764,"connected_time":15000000000,"state":"active","ping":65},{"user_id":560,"name":"Valenhart","steam_id":76561198354036240,"connected_time":62000000000,"state":"active","ping":70},{"user_id":457,"name":"-_-","steam_id":76561198005773253,"connected_time":7431000000000,"state":"active","ping":66},{"user_id":554,"name":"avantime","steam_id":76561199203175541,"connected_time":988000000000,"state":"active","ping":91},{"user_id":510,"name":"Wooden E","steam_id":76561198020308956,"connected_time":3941000000000,"state":"active","ping":59},{"user_id":546,"name":"Slip","steam_id":76561199057232579,"connected_time":1633000000000,"state":"active","ping":55},{"user_id":550,"name":"Psychosis","steam_id":76561198078659070,"connected_time":1249000000000,"state":"active","ping":69},{"user_id":518,"name":"Ka√±ul","steam_id":76561198977359464,"connected_time":3522000000000,"state":"active","ping":104},{"user_id":557,"name":"FinnaBust","steam_id":76561198397669078,"connected_time":613000000000,"state":"active","ping":63},{"user_id":551,"name":"recycle","steam_id":76561198819562111,"connected_time":1210000000000,"state":"active","ping":53},{"user_id":538,"name":"shy femboy ‚ô•","steam_id":76561199105702683,"connected_time":2077000000000,"state":"active","ping":80},{"user_id":559,"name":"Owen","steam_id":76561198025446908,"connected_time":192000000000,"state":"active","ping":60},{"user_id":456,"name":"Dead Face","steam_id":76561198857643139,"connected_time":7477000000000,"state":"active","ping":54},{"user_id":545,"name":"Linguine Alfredo","steam_id":76561198022045816,"connected_time":1673000000000,"state":"active","ping":73},{"user_id":535,"name":"Yiggs_","steam_id":76561198058742814,"connected_time":2367000000000,"state":"active","ping":45},{"user_id":528,"name":"‚òºBarracuda‚òº","steam_id":76561198013022083,"connected_time":2503000000000,"state":"active","ping":59},{"user_id":470,"name":"Notsocreative","steam_id":76561198236372202,"connected_time":5902000000000,"state":"active","ping":78},{"user_id":552,"name":"Tito","steam_id":76561198041702529,"connected_time":1201000000000,"state":"active","ping":82},{"user_id":553,"name":"Andrew's Taint","steam_id":76561198131400543,"connected_time":1179000000000,"state":"active","ping":75}]},{"server_id":106,"name":"Uncletopia | Chicago | 2 | All Maps","name_short":"chi-2","host":"chi-1.us.uncletopia.com","port":27025,"enabled":true,"region":"us-central","cc":"us","latitude":41.881832,"longitude":-87.62318,"reserved":0,"last_update":"0001-01-01T00:00:00Z","name_a2s":"Uncletopia | Chicago | 2 | All Maps","protocol":17,"map":"pl_snowycoast","folder":"tf","game":"Team Fortress","app_id":440,"player_count":24,"max_players":24,"Bots":0,"server_type":"Dedicated","server_os":"Linux","password":true,"vac":true,"version":"7961495","steam_id":85568392924469985,"keywords":["nocrits","nodmgspread","payload","uncletopia"],"game_id":440,"stv_port":27026,"stv_name":"Uncletopia | Chicago | 2 | All Maps | STV","players":[{"user_id":704,"name":"Gotta Move That Gear Up","steam_id":76561197993467034,"connected_time":221000000000,"state":"active","ping":56},{"user_id":668,"name":"Mx.OmniLeaf","steam_id":76561198049001928,"connected_time":1976000000000,"state":"active","ping":52},{"user_id":706,"name":"Rein","steam_id":76561198300340427,"connected_time":72000000000,"state":"active","ping":60},{"user_id":707,"name":"anonion","steam_id":76561198056477584,"connected_time":29000000000,"state":"active","ping":81},{"user_id":651,"name":"Phil Collins","steam_id":76561198068868644,"connected_time":3496000000000,"state":"active","ping":105},{"user_id":687,"name":"Letters","steam_id":76561198035508148,"connected_time":946000000000,"state":"active","ping":67},{"user_id":654,"name":"Suenu","steam_id":76561198079437501,"connected_time":3304000000000,"state":"active","ping":65},{"user_id":693,"name":"Death March","steam_id":76561199068956882,"connected_time":642000000000,"state":"active","ping":50},{"user_id":673,"name":"igotmail","steam_id":76561198070631899,"connected_time":1688000000000,"state":"active","ping":66},{"user_id":645,"name":"kermitcreeper(ZAZA)","steam_id":76561199222829972,"connected_time":3687000000000,"state":"active","ping":59},{"user_id":679,"name":"Transbian mommy GF","steam_id":76561198153233822,"connected_time":1422000000000,"state":"active","ping":77},{"user_id":691,"name":"GruntRule","steam_id":76561198039987143,"connected_time":750000000000,"state":"active","ping":84},{"user_id":703,"name":"Acuzik","steam_id":76561198045453400,"connected_time":245000000000,"state":"active","ping":43},{"user_id":694,"name":"Severeburrito16","steam_id":76561198353155991,"connected_time":641000000000,"state":"active","ping":73},{"user_id":695,"name":"TacoLeShanty","steam_id":76561198821490321,"connected_time":638000000000,"state":"active","ping":124},{"user_id":696,"name":"KevilPo","steam_id":76561199244507267,"connected_time":620000000000,"state":"active","ping":76},{"user_id":653,"name":"Reznika","steam_id":76561198116144377,"connected_time":3349000000000,"state":"active","ping":74},{"user_id":678,"name":"jade","steam_id":76561198055611029,"connected_time":1442000000000,"state":"active","ping":60},{"user_id":697,"name":"AMD Ryzen #SaveTF2","steam_id":76561198181028110,"connected_time":554000000000,"state":"active","ping":78},{"user_id":702,"name":"Mr. Tickle","steam_id":76561198126684647,"connected_time":364000000000,"state":"active","ping":60},{"user_id":698,"name":"Trippin","steam_id":76561199077154751,"connected_time":549000000000,"state":"active","ping":96},{"user_id":573,"name":"Nobody","steam_id":76561198286486517,"connected_time":8065000000000,"state":"active","ping":62},{"user_id":701,"name":"ark","steam_id":76561198041066271,"connected_time":480000000000,"state":"active","ping":78},{"user_id":685,"name":"Mildstrife","steam_id":76561198000080715,"connected_time":1212000000000,"state":"active","ping":72}]},{"server_id":402,"name":"Uncletopia | Chicago | 3 | All Maps","name_short":"chi-3","host":"chi-1.us.uncletopia.com","port":27035,"enabled":true,"region":"us-central","cc":"us","latitude":41.881832,"longitude":-87.62318,"reserved":0,"last_update":"0001-01-01T00:00:00Z","name_a2s":"Uncletopia | Chicago | 3 | All Maps","protocol":17,"map":"pl_borneo","folder":"tf","game":"Team Fortress","app_id":440,"player_count":24,"max_players":24,"Bots":0,"server_type":"Dedicated","server_os":"Linux","password":true,"vac":true,"version":"7961495","steam_id":85568392924515191,"keywords":["nocrits","nodmgspread","payload","uncletopia"],"game_id":440,"stv_port":27036,"stv_name":"Uncletopia | Chicago | 3 | All Maps | STV","players":[{"user_id":319,"name":"dadgummit","steam_id":76561198005806915,"connected_time":521000000000,"state":"active","ping":68},{"user_id":332,"name":"he suckin on my rick til i mort","steam_id":76561198310711692,"connected_time":67000000000,"state":"active","ping":173},{"user_id":329,"name":"Dr. Pleasant","steam_id":76561198111945101,"connected_time":169000000000,"state":"active","ping":66},{"user_id":326,"name":"Mista Boombastic","steam_id":76561197973121212,"connected_time":290000000000,"state":"active","ping":55},{"user_id":279,"name":"CherriKat","steam_id":76561198821297512,"connected_time":3218000000000,"state":"active","ping":107},{"user_id":301,"name":"Bigburgers","steam_id":76561198165013808,"connected_time":1771000000000,"state":"active","ping":63},{"user_id":321,"name":"4TheColiny","steam_id":76561198062184455,"connected_time":484000000000,"state":"active","ping":59},{"user_id":306,"name":"CyborgHexapus4","steam_id":76561198160335724,"connected_time":1125000000000,"state":"active","ping":167},{"user_id":287,"name":"benjamator67","steam_id":76561198209002860,"connected_time":2149000000000,"state":"active","ping":49},{"user_id":331,"name":"texas butthole tickling bandit","steam_id":76561198984228021,"connected_time":70000000000,"state":"active","ping":72},{"user_id":311,"name":"enhanced with disney's FastPlay","steam_id":76561198164134387,"connected_time":894000000000,"state":"active","ping":102},{"user_id":312,"name":"Digitic","steam_id":76561198080295536,"connected_time":863000000000,"state":"active","ping":80},{"user_id":299,"name":"JetZ","steam_id":76561199122488957,"connected_time":1890000000000,"state":"active","ping":67},{"user_id":327,"name":"Myg0T 07","steam_id":76561199022134054,"connected_time":284000000000,"state":"active","ping":108},{"user_id":323,"name":"Girl Cock Enjoyer","steam_id":76561198087675425,"connected_time":471000000000,"state":"active","ping":60},{"user_id":333,"name":"KASHI","steam_id":76561198045285049,"connected_time":8000000000,"state":"spawning","ping":65},{"user_id":261,"name":"Zeloznog","steam_id":76561198210031789,"connected_time":4676000000000,"state":"active","ping":86},{"user_id":330,"name":"Egg Guzzler","steam_id":76561199109194893,"connected_time":155000000000,"state":"active","ping":79},{"user_id":318,"name":"Space Lizard","steam_id":76561198056798193,"connected_time":619000000000,"state":"active","ping":71},{"user_id":289,"name":"Whiamy Aleeve","steam_id":76561199007736086,"connected_time":2137000000000,"state":"active","ping":79},{"user_id":315,"name":"Tony Pizza","steam_id":76561198276513608,"connected_time":845000000000,"state":"active","ping":165},{"user_id":223,"name":"Hashmere","steam_id":76561198002797253,"connected_time":7085000000000,"state":"active","ping":85},{"user_id":307,"name":"Cranjis McBasketball","steam_id":76561198811130843,"connected_time":1046000000000,"state":"active","ping":78},{"user_id":316,"name":"Guitar Queero","steam_id":76561198880568662,"connected_time":775000000000,"state":"active","ping":89}]},{"server_id":403,"name":"Uncletopia | Chicago | 4 | All Maps","name_short":"chi-4","host":"chi-1.us.uncletopia.com","port":27045,"enabled":true,"region":"us-central","cc":"us","latitude":41.881832,"longitude":-87.62318,"reserved":0,"last_update":"0001-01-01T00:00:00Z","name_a2s":"Uncletopia | Chicago | 4 | All Maps","protocol":17,"map":"pl_thundermountain","folder":"tf","game":"Team Fortress","app_id":440,"player_count":24,"max_players":24,"Bots":0,"server_type":"Dedicated","server_os":"Linux","password":true,"vac":true,"version":"7961495","steam_id":85568392924515193,"keywords":["nocrits","nodmgspread","payload","uncletopia"],"game_id":440,"stv_port":27046,"stv_name":"Uncletopia | Chicago | 4 | All Maps | STV","players":[{"user_id":226,"name":"Chrome","steam_id":76561198163475348,"connected_time":2808000000000,"state":"active","ping":130},{"user_id":184,"name":"Spirit","steam_id":76561198205388573,"connected_time":5071000000000,"state":"active","ping":59},{"user_id":259,"name":"the big shitter","steam_id":76561198396326793,"connected_time":140000000000,"state":"active","ping":93},{"user_id":245,"name":"MXGE","steam_id":76561198050452658,"connected_time":1484000000000,"state":"active","ping":85},{"user_id":231,"name":"nhbiker","steam_id":76561198081277675,"connected_time":2497000000000,"state":"active","ping":58},{"user_id":189,"name":"Thepaperbag","steam_id":76561198992945912,"connected_time":4873000000000,"state":"active","ping":65},{"user_id":235,"name":"tsbro40","steam_id":76561199455605580,"connected_time":1638000000000,"state":"active","ping":108},{"user_id":249,"name":"bologna forklift 2012","steam_id":76561198199061206,"connected_time":765000000000,"state":"active","ping":42},{"user_id":258,"name":"koth_purbleplace","steam_id":76561198811523459,"connected_time":364000000000,"state":"active","ping":45},{"user_id":240,"name":"SanitysEdge","steam_id":76561198130732813,"connected_time":1593000000000,"state":"active","ping":97},{"user_id":191,"name":"Mung Daal Gaming","steam_id":76561198365878178,"connected_time":4803000000000,"state":"active","ping":60},{"user_id":223,"name":"SlyGuySaysHi","steam_id":76561197964157694,"connected_time":2863000000000,"state":"active","ping":64},{"user_id":260,"name":"moe","steam_id":76561198929586245,"connected_time":105000000000,"state":"active","ping":90},{"user_id":172,"name":"ekgooby","steam_id":76561198043678479,"connected_time":6137000000000,"state":"active","ping":46},{"user_id":243,"name":"Hancock on Blu-Ray","steam_id":76561198076436414,"connected_time":1572000000000,"state":"active","ping":905},{"user_id":253,"name":"Just washed","steam_id":76561199030160932,"connected_time":457000000000,"state":"active","ping":76},{"user_id":234,"name":"Scelo","steam_id":76561197987805095,"connected_time":1647000000000,"state":"active","ping":91},{"user_id":232,"name":"Levin","steam_id":76561198410302974,"connected_time":2449000000000,"state":"active","ping":67},{"user_id":261,"name":"‚ú∞Rainy Days‚ú∞","steam_id":76561198825412838,"connected_time":1000000000,"state":"spawning","ping":46},{"user_id":246,"name":"MONKE","steam_id":76561199211345801,"connected_time":1475000000000,"state":"active","ping":70},{"user_id":254,"name":"DropBear","steam_id":76561197964435496,"connected_time":435000000000,"state":"active","ping":69},{"user_id":229,"name":"One Shot and A Miss","steam_id":76561198124269698,"connected_time":2622000000000,"state":"active","ping":898},{"user_id":256,"name":"yate","steam_id":76561198311004039,"connected_time":417000000000,"state":"active","ping":90},{"user_id":247,"name":"DethSQRL","steam_id":76561199149628610,"connected_time":1425000000000,"state":"active","ping":79}]},{"server_id":36,"name":"Uncletopia | Chicago | 5 | All Maps","name_short":"chi-5","host":"chi-2.us.uncletopia.com","port":27015,"enabled":true,"region":"us-central","cc":"us","latitude":41.881832,"longitude":-87.62318,"reserved":0,"last_update":"0001-01-01T00:00:00Z","name_a2s":"Uncletopia | Chicago | 5 | All Maps","protocol":17,"map":"pl_badwater","folder":"tf","game":"Team Fortress","app_id":440,"player_count":24,"max_players":24,"Bots":0,"server_type":"Dedicated","server_os":"Linux","password":true,"vac":true,"version":"7961495","steam_id":85568392924866362,"keywords":["nocrits","nodmgspread","payload","uncletopia"],"game_id":440,"stv_port":27016,"stv_name":"Uncletopia | Chicago | 5 | All Maps | STV","players":[{"user_id":204,"name":"Cyberpunk McDonald's Play Place","steam_id":76561198063512035,"connected_time":6993000000000,"state":"active","ping":74},{"user_id":314,"name":"Victoria Wood (as seen on TV)","steam_id":76561198066243851,"connected_time":408000000000,"state":"active","ping":136},{"user_id":315,"name":"WEED SOLDIER","steam_id":76561198079973828,"connected_time":383000000000,"state":"active","ping":73},{"user_id":296,"name":"gunnnerman","steam_id":76561198232459112,"connected_time":1401000000000,"state":"active","ping":77},{"user_id":321,"name":"Female Gamer","steam_id":76561199366482682,"connected_time":260000000000,"state":"active","ping":131},{"user_id":287,"name":"Prayut gaming","steam_id":76561198210919945,"connected_time":1869000000000,"state":"active","ping":132},{"user_id":298,"name":"üü†„ÉÑ","steam_id":76561198018213050,"connected_time":1128000000000,"state":"active","ping":49},{"user_id":317,"name":"Medici","steam_id":76561198310130481,"connected_time":356000000000,"state":"active","ping":64},{"user_id":304,"name":"LavenderSys","steam_id":76561198289106015,"connected_time":988000000000,"state":"active","ping":83},{"user_id":258,"name":"Chaos Lich","steam_id":76561198010393452,"connected_time":3266000000000,"state":"active","ping":69},{"user_id":259,"name":"Zara","steam_id":76561198018493904,"connected_time":3254000000000,"state":"active","ping":71},{"user_id":288,"name":"AkimboAoki","steam_id":76561198158323058,"connected_time":1846000000000,"state":"active","ping":97},{"user_id":305,"name":"Binkems","steam_id":76561198084220655,"connected_time":972000000000,"state":"active","ping":57},{"user_id":311,"name":"Raiden","steam_id":76561199206544358,"connected_time":855000000000,"state":"active","ping":123},{"user_id":285,"name":"Person","steam_id":76561198093244204,"connected_time":2154000000000,"state":"active","ping":903},{"user_id":306,"name":"Gobemouche","steam_id":76561198040418719,"connected_time":964000000000,"state":"active","ping":85},{"user_id":322,"name":"LobsterPot","steam_id":76561198072225973,"connected_time":44000000000,"state":"active","ping":60},{"user_id":318,"name":"slep.py","steam_id":76561197988287144,"connected_time":342000000000,"state":"active","ping":56},{"user_id":307,"name":"Joyous Jenny","steam_id":76561198127998866,"connected_time":935000000000,"state":"active","ping":81},{"user_id":319,"name":"Kiwi","steam_id":76561198162162816,"connected_time":340000000000,"state":"active","ping":139},{"user_id":308,"name":"DJpocalypse","steam_id":76561199230125964,"connected_time":923000000000,"state":"active","ping":99},{"user_id":320,"name":"Emails","steam_id":76561198836919458,"connected_time":337000000000,"state":"active","ping":74},{"user_id":277,"name":"jackistan","steam_id":76561198444415179,"connected_time":2531000000000,"state":"active","ping":69},{"user_id":309,"name":"yaldabaoth","steam_id":76561198084606869,"connected_time":922000000000,"state":"active","ping":50}]},{"server_id":37,"name":"Uncletopia | Chicago | 6 | All Maps","name_short":"chi-6","host":"chi-2.us.uncletopia.com","port":27025,"enabled":true,"region":"us-central","cc":"us","latitude":41.881832,"longitude":-87.62318,"reserved":0,"last_update":"0001-01-01T00:00:00Z","name_a2s":"Uncletopia | Chicago | 6 | All Maps","protocol":17,"map":"koth_viaduct","folder":"tf","game":"Team Fortress","app_id":440,"player_count":0,"max_players":24,"Bots":0,"server_type":"Dedicated","server_os":"Linux","password":true,"vac":true,"version":"7961495","steam_id":85568392924866363,"keywords":["cp","nocrits","nodmgspread","uncletopia"],"game_id":440,"stv_port":27026,"stv_name":"Uncletopia | Chicago | 6 | All Maps | STV","players":null},{"server_id":38,"name":"Uncletopia | Chicago | 7 | Stopwatch","name_short":"chi-7","host":"chi-2.us.uncletopia.com","port":27035,"enabled":true,"region":"us-central","cc":"us","latitude":41.881832,"longitude":-87.62318,"reserved":0,"last_update":"0001-01-01T00:00:00Z","name_a2s":"Uncletopia | Chicago | 7 | Stopwatch","protocol":17,"map":"workshop/pl_vigil_rc10.ugc1266210012","folder":"tf","game":"Team Fortress","app_id":440,"player_count":0,"max_players":24,"Bots":0,"server_type":"Dedicated","server_os":"Linux","password":true,"vac":true,"version":"7961495","steam_id":85568392924866364,"keywords":["nocrits","nodmgspread","payload","uncletopia"],"game_id":440,"stv_port":27036,"stv_name":"Uncletopia | Chicago | 7 | Stopwatch | STV","players":null},{"server_id":39,"name":"Uncletopia | Chicago | 8 | Community","name_short":"chi-8","host":"chi-2.us.uncletopia.com","port":27045,"enabled":true,"region":"us-central","cc":"us","latitude":41.881832,"longitude":-87.62318,"reserved":0,"last_update":"0001-01-01T00:00:00Z","name_a2s":"Uncletopia | Chicago | 8 | Community","protocol":17,"map":"workshop/cp_indulge.ugc528106646","folder":"tf","game":"Team Fortress","app_id":440,"player_count":0,"max_players":24,"Bots":0,"server_type":"Dedicated","server_os":"Linux","password":true,"vac":true,"version":"7961495","steam_id":85568392924866365,"keywords":["cp","nocrits","nodmgspread","uncletopia"],"game_id":440,"stv_port":27046,"stv_name":"Uncletopia | Chicago | 8 | Community | STV","players":null},{"server_id":8,"name":"Uncletopia | Dallas | 1 | All Maps","name_short":"dal-1","host":"dal-1.us.uncletopia.com","port":27015,"enabled":true,"region":"us-central","cc":"us","latitude":32.779167,"longitude":-96.80889,"reserved":0,"last_update":"0001-01-01T00:00:00Z","name_a2s":"Uncletopia | Dallas | 1 | All Maps","protocol":17,"map":"cp_steel","folder":"tf","game":"Team Fortress","app_id":440,"player_count":24,"max_players":24,"Bots":0,"server_type":"Dedicated","server_os":"Linux","password":true,"vac":true,"version":"7961495","steam_id":85568392924469986,"keywords":["cp","nocrits","nodmgspread","uncletopia"],"game_id":440,"stv_port":27016,"stv_name":"Uncletopia | Dallas | 1 | All Maps | STV","players":[{"user_id":519,"name":"Hamhog","steam_id":76561198353967566,"connected_time":900000000000,"state":"active","ping":99},{"user_id":499,"name":"Nyah","steam_id":76561199192601345,"connected_time":2221000000000,"state":"active","ping":76},{"user_id":500,"name":"tan flan the engineer man","steam_id":76561198040558474,"connected_time":2185000000000,"state":"active","ping":70},{"user_id":521,"name":"ZILICON","steam_id":76561199044705592,"connected_time":891000000000,"state":"active","ping":106},{"user_id":513,"name":"TechnoBear2099","steam_id":76561198238863596,"connected_time":1278000000000,"state":"active","ping":46},{"user_id":516,"name":"Kamin","steam_id":76561198255299559,"connected_time":1162000000000,"state":"active","ping":70},{"user_id":470,"name":"McDonald","steam_id":76561199028533497,"connected_time":4493000000000,"state":"active","ping":74},{"user_id":502,"name":"Knight","steam_id":76561198048041133,"connected_time":2172000000000,"state":"active","ping":77},{"user_id":534,"name":"ecumber","steam_id":76561198169958831,"connected_time":37000000000,"state":"spawning","ping":132},{"user_id":421,"name":"radicalPolio","steam_id":76561197961561855,"connected_time":7518000000000,"state":"active","ping":45},{"user_id":498,"name":"Cheesi","steam_id":76561199417190840,"connected_time":2499000000000,"state":"active","ping":84},{"user_id":537,"name":"Question Mark","steam_id":76561199433313023,"connected_time":5000000000,"state":"spawning","ping":58},{"user_id":447,"name":"Pork Soda","steam_id":76561198119575082,"connected_time":5940000000000,"state":"active","ping":103},{"user_id":533,"name":"Boot Mcstink","steam_id":76561199226873917,"connected_time":61000000000,"state":"active","ping":86},{"user_id":531,"name":"KING SORROWFUL","steam_id":76561198066376528,"connected_time":406000000000,"state":"active","ping":118},{"user_id":532,"name":"Captain Underbelly","steam_id":76561198811270935,"connected_time":373000000000,"state":"active","ping":100},{"user_id":496,"name":"Cloey","steam_id":76561199161591235,"connected_time":2726000000000,"state":"active","ping":57},{"user_id":506,"name":"TacoMan","steam_id":76561198049405741,"connected_time":2083000000000,"state":"active","ping":104},{"user_id":515,"name":"TrashPanda (she/her)","steam_id":76561198447864095,"connected_time":1251000000000,"state":"active","ping":67},{"user_id":508,"name":"my mom","steam_id":76561199225201569,"connected_time":2047000000000,"state":"active","ping":78},{"user_id":524,"name":"Mick","steam_id":76561198972619900,"connected_time":800000000000,"state":"active","ping":49},{"user_id":487,"name":"Lolxdloldx","steam_id":76561198136887125,"connected_time":3171000000000,"state":"active","ping":82},{"user_id":472,"name":"redarcher42","steam_id":76561199027887687,"connected_time":4483000000000,"state":"active","ping":80},{"user_id":529,"name":"Asanez3","steam_id":76561198037381436,"connected_time":428000000000,"state":"active","ping":100}]},{"server_id":108,"name":"Uncletopia | Dallas | 2 | All Maps","name_short":"dal-2","host":"dal-1.us.uncletopia.com","port":27025,"enabled":true,"region":"us-central","cc":"us","latitude":32.779167,"longitude":-96.80889,"reserved":0,"last_update":"0001-01-01T00:00:00Z","name_a2s":"Uncletopia | Dallas | 2 | All Maps","protocol":17,"map":"pl_pier","folder":"tf","game":"Team Fortress","app_id":440,"player_count":24,"max_players":24,"Bots":0,"server_type":"Dedicated","server_os":"Linux","password":true,"vac":true,"version":"7961495","steam_id":85568392924469988,"keywords":["nocrits","nodmgspread","payload","uncletopia"],"game_id":440,"stv_port":27026,"stv_name":"Uncletopia | Dallas | 2 | All Maps | STV","players":[{"user_id":348,"name":"Erra","steam_id":76561198845682517,"connected_time":1833000000000,"state":"active","ping":90},{"user_id":371,"name":"lacava.ryan","steam_id":76561199118865787,"connected_time":86000000000,"state":"active","ping":89},{"user_id":372,"name":"Mocha Josie","steam_id":76561198066452726,"connected_time":72000000000,"state":"active","ping":75},{"user_id":353,"name":"SURRENDER FREEMEN","steam_id":76561198072277956,"connected_time":1732000000000,"state":"active","ping":80},{"user_id":373,"name":"The Witchfinder General","steam_id":76561199113662942,"connected_time":49000000000,"state":"active","ping":75},{"user_id":365,"name":"FearMeisterMedusa","steam_id":76561198330311673,"connected_time":1188000000000,"state":"active","ping":69},{"user_id":326,"name":"Mellou","steam_id":76561198212048740,"connected_time":3148000000000,"state":"spawning","ping":60},{"user_id":374,"name":"Smoky Haus","steam_id":76561199040586542,"connected_time":25000000000,"state":"spawning","ping":81},{"user_id":375,"name":"Discount TaDa #SaveTF2 Repeat.g","steam_id":76561198340196737,"connected_time":22000000000,"state":"spawning","ping":86},{"user_id":376,"name":"HaloStarz","steam_id":76561199221412803,"connected_time":9000000000,"state":"spawning","ping":157},{"user_id":331,"name":"men kisser","steam_id":76561199026721822,"connected_time":2786000000000,"state":"active","ping":93},{"user_id":370,"name":"BADWOLF42","steam_id":76561198055447523,"connected_time":247000000000,"state":"active","ping":52},{"user_id":368,"name":"uncletopia dallas 2 player","steam_id":76561198412786186,"connected_time":1063000000000,"state":"active","ping":54},{"user_id":310,"name":"Squigly","steam_id":76561198084811625,"connected_time":3939000000000,"state":"active","ping":96},{"user_id":354,"name":"The Grungler","steam_id":76561198126561438,"connected_time":1724000000000,"state":"active","ping":75},{"user_id":366,"name":"schmuck","steam_id":76561198143789773,"connected_time":1136000000000,"state":"active","ping":53},{"user_id":346,"name":"Kanye Asada","steam_id":76561198186678831,"connected_time":1957000000000,"state":"active","ping":83},{"user_id":358,"name":"amaz","steam_id":76561198386233160,"connected_time":1506000000000,"state":"active","ping":60},{"user_id":349,"name":"Coffee","steam_id":76561198140879627,"connected_time":1827000000000,"state":"active","ping":67},{"user_id":350,"name":"NoodleQueen","steam_id":76561198141010662,"connected_time":1816000000000,"state":"active","ping":75},{"user_id":351,"name":"Jongle","steam_id":76561198112347567,"connected_time":1812000000000,"state":"active","ping":62},{"user_id":359,"name":"Hamlindigo Blue‚Ñ¢","steam_id":76561198116337540,"connected_time":1463000000000,"state":"active","ping":73},{"user_id":355,"name":"artichoke","steam_id":76561198980994364,"connected_time":1718000000000,"state":"active","ping":91},{"user_id":362,"name":"AckWhack","steam_id":76561199060503258,"connected_time":1377000000000,"state":"active","ping":88}]},{"server_id":404,"name":"Uncletopia | Dallas | 3 | All Maps","name_short":"dal-3","host":"dal-1.us.uncletopia.com","port":27035,"enabled":true,"region":"us-central","cc":"us","latitude":32.779167,"longitude":-96.80889,"reserved":0,"last_update":"0001-01-01T00:00:00Z","name_a2s":"Uncletopia | Dallas | 3 | All Maps","protocol":17,"map":"cp_altitude","folder":"tf","game":"Team Fortress","app_id":440,"player_count":0,"max_players":24,"Bots":0,"server_type":"Dedicated","server_os":"Linux","password":true,"vac":true,"version":"7961495","steam_id":85568392924515219,"keywords":["cp","nocrits","nodmgspread","uncletopia"],"game_id":440,"stv_port":27036,"stv_name":"Uncletopia | Dallas | 3 | All Maps | STV","players":null},{"server_id":405,"name":"Uncletopia | Dallas | 4 | Community","name_short":"dal-4","host":"dal-1.us.uncletopia.com","port":27045,"enabled":true,"region":"us-central","cc":"us","latitude":32.779167,"longitude":-96.80889,"reserved":0,"last_update":"0001-01-01T00:00:00Z","name_a2s":"Uncletopia | Dallas | 4 | Community","protocol":17,"map":"workshop/pl_emerge_rc2.ugc888027758","folder":"tf","game":"Team Fortress","app_id":440,"player_count":0,"max_players":24,"Bots":0,"server_type":"Dedicated","server_os":"Linux","password":true,"vac":true,"version":"7961495","steam_id":85568392924515220,"keywords":["nocrits","nodmgspread","payload","uncletopia"],"game_id":440,"stv_port":27046,"stv_name":"Uncletopia | Dallas | 4 | Community | STV","players":null},{"server_id":5,"name":"Uncletopia | Frankfurt | 1 | All Maps","name_short":"frk-1","host":"frk-1.de.uncletopia.com","port":27015,"enabled":true,"region":"eu","cc":"de","latitude":50.110924,"longitude":8.682127,"reserved":0,"last_update":"0001-01-01T00:00:00Z","name_a2s":"Uncletopia | Frankfurt | 1 | All Maps","protocol":17,"map":"pl_swiftwater_final1","folder":"tf","game":"Team Fortress","app_id":440,"player_count":11,"max_players":24,"Bots":0,"server_type":"Dedicated","server_os":"Linux","password":true,"vac":true,"version":"7961495","steam_id":85568392924469989,"keywords":["nocrits","nodmgspread","payload","uncletopia"],"game_id":440,"stv_port":27016,"stv_name":"Uncletopia | Frankfurt | 1 | All Maps | STV","players":[{"user_id":1058,"name":"Adam","steam_id":76561198083655265,"connected_time":888000000000,"state":"active","ping":65},{"user_id":1070,"name":"ZeroxyZXE","steam_id":76561198113710681,"connected_time":260000000000,"state":"active","ping":107},{"user_id":1072,"name":"Lorenzo Lovers","steam_id":76561198073973581,"connected_time":65000000000,"state":"active","ping":75},{"user_id":1071,"name":"swag time :)","steam_id":76561199033683770,"connected_time":184000000000,"state":"active","ping":208},{"user_id":996,"name":"Invicator","steam_id":76561198082895461,"connected_time":6188000000000,"state":"active","ping":51},{"user_id":1040,"name":"Carangn","steam_id":76561198246522590,"connected_time":2278000000000,"state":"active","ping":36},{"user_id":1073,"name":"Gorgeous George","steam_id":76561198144256544,"connected_time":60000000000,"state":"active","ping":59},{"user_id":1007,"name":"=OKB= P4NTH3R","steam_id":76561197999204603,"connected_time":4798000000000,"state":"active","ping":62},{"user_id":1035,"name":"–¥–∂–µ–≥–µ–º–∏ —Ö—ç–ø–∫–∏–Ω–≥—Å","steam_id":76561198131531394,"connected_time":3045000000000,"state":"active","ping":88},{"user_id":1069,"name":"Stop The Violence","steam_id":76561198044876779,"connected_time":404000000000,"state":"active","ping":64},{"user_id":1065,"name":"Penis Contortionist","steam_id":76561198073663784,"connected_time":673000000000,"state":"active","ping":47}]},{"server_id":110,"name":"Uncletopia | Frankfurt | 2 | All Maps","name_short":"frk-2","host":"frk-1.de.uncletopia.com","port":27025,"enabled":true,"region":"eu","cc":"de","latitude":50.110924,"longitude":8.682127,"reserved":0,"last_update":"0001-01-01T00:00:00Z","name_a2s":"Uncletopia | Frankfurt | 2 | All Maps","protocol":17,"map":"koth_viaduct","folder":"tf","game":"Team Fortress","app_id":440,"player_count":0,"max_players":24,"Bots":0,"server_type":"Dedicated","server_os":"Linux","password":true,"vac":true,"version":"7961495","steam_id":85568392924469990,"keywords":["cp","nocrits","nodmgspread","uncletopia"],"game_id":440,"stv_port":27026,"stv_name":"Uncletopia | Frankfurt | 2 | All Maps | STV","players":null},{"server_id":308,"name":"Uncletopia | Frankfurt | 3 | All Maps","name_short":"frk-3","host":"frk-1.de.uncletopia.com","port":27035,"enabled":true,"region":"eu","cc":"de","latitude":50.110924,"longitude":8.682127,"reserved":0,"last_update":"0001-01-01T00:00:00Z","name_a2s":"Uncletopia | Frankfurt | 3 | All Maps","protocol":17,"map":"cp_snakewater_final1","folder":"tf","game":"Team Fortress","app_id":440,"player_count":0,"max_players":24,"Bots":0,"server_type":"Dedicated","server_os":"Linux","password":true,"vac":true,"version":"7961495","steam_id":85568392924504274,"keywords":["cp","nocrits","nodmgspread","uncletopia"],"game_id":440,"stv_port":27036,"stv_name":"Uncletopia | Frankfurt | 3 | All Maps | STV","players":null},{"server_id":309,"name":"Uncletopia | Frankfurt | 4 | All Maps","name_short":"frk-4","host":"frk-1.de.uncletopia.com","port":27045,"enabled":true,"region":"eu","cc":"de","latitude":50.110924,"longitude":8.682127,"reserved":0,"last_update":"0001-01-01T00:00:00Z","name_a2s":"Uncletopia | Frankfurt | 4 | All Maps","protocol":17,"map":"pl_borneo","folder":"tf","game":"Team Fortress","app_id":440,"player_count":24,"max_players":24,"Bots":0,"server_type":"Dedicated","server_os":"Linux","password":true,"vac":true,"version":"7961495","steam_id":85568392924504275,"keywords":["nocrits","nodmgspread","payload","uncletopia"],"game_id":440,"stv_port":27046,"stv_name":"Uncletopia | Frankfurt | 4 | All Maps | STV","players":[{"user_id":389,"name":"finbar","steam_id":76561198056812396,"connected_time":10216000000000,"state":"active","ping":76},{"user_id":494,"name":"shadowhunter","steam_id":76561198247456394,"connected_time":3654000000000,"state":"active","ping":45},{"user_id":531,"name":"Rrako","steam_id":76561198078708823,"connected_time":398000000000,"state":"active","ping":63},{"user_id":475,"name":"TidB","steam_id":76561198055342304,"connected_time":4873000000000,"state":"active","ping":59},{"user_id":487,"name":"AFerociousTeddyBearSlayer","steam_id":76561198247447256,"connected_time":3792000000000,"state":"active","ping":50},{"user_id":526,"name":"W","steam_id":76561199501358967,"connected_time":576000000000,"state":"active","ping":59},{"user_id":527,"name":"Dr.Disrespect","steam_id":76561198043820228,"connected_time":573000000000,"state":"active","ping":45},{"user_id":469,"name":"FJADL","steam_id":76561198237008214,"connected_time":5339000000000,"state":"active","ping":75},{"user_id":523,"name":"Kackhammer","steam_id":76561198132133702,"connected_time":835000000000,"state":"active","ping":44},{"user_id":518,"name":"some noob","steam_id":76561199081452666,"connected_time":1149000000000,"state":"active","ping":72},{"user_id":464,"name":"flave","steam_id":76561198056372101,"connected_time":5467000000000,"state":"active","ping":63},{"user_id":516,"name":"Woman (Real)","steam_id":76561199151823932,"connected_time":1261000000000,"state":"active","ping":75},{"user_id":502,"name":"myon","steam_id":76561197992528570,"connected_time":2303000000000,"state":"active","ping":90},{"user_id":537,"name":"Barkofthephoenix","steam_id":76561198045037829,"connected_time":196000000000,"state":"active","ping":57},{"user_id":519,"name":"- Indigo -","steam_id":76561198380193071,"connected_time":1142000000000,"state":"active","ping":64},{"user_id":532,"name":"Cioly","steam_id":76561198257791981,"connected_time":367000000000,"state":"active","ping":74},{"user_id":533,"name":"Up.Loader","steam_id":76561198040360693,"connected_time":361000000000,"state":"active","ping":83},{"user_id":538,"name":"Aku+","steam_id":76561198813782795,"connected_time":106000000000,"state":"active","ping":75},{"user_id":501,"name":"Aspartus","steam_id":76561198101385763,"connected_time":2397000000000,"state":"active","ping":45},{"user_id":520,"name":"[503. ]captain swiftfingers","steam_id":76561198043684517,"connected_time":1065000000000,"state":"active","ping":66},{"user_id":525,"name":"xavier","steam_id":76561198076494034,"connected_time":686000000000,"state":"active","ping":56},{"user_id":512,"name":"cocaine fan","steam_id":76561198123592400,"connected_time":1443000000000,"state":"active","ping":89},{"user_id":535,"name":"SNEAKY TURTLE","steam_id":76561198172177650,"connected_time":354000000000,"state":"active","ping":75},{"user_id":536,"name":"48dripz","steam_id":76561198057040197,"connected_time":348000000000,"state":"active","ping":59}]},{"server_id":310,"name":"Uncletopia | Frankfurt | 5 | All Maps","name_short":"frk-5","host":"frk-1.de.uncletopia.com","port":27055,"enabled":true,"region":"eu","cc":"de","latitude":50.110924,"longitude":8.682127,"reserved":0,"last_update":"0001-01-01T00:00:00Z","name_a2s":"Uncletopia | Frankfurt | 5 | All Maps","protocol":17,"map":"cp_process_final","folder":"tf","game":"Team Fortress","app_id":440,"player_count":11,"max_players":24,"Bots":0,"server_type":"Dedicated","server_os":"Linux","password":true,"vac":true,"version":"7961495","steam_id":85568392924504277,"keywords":["cp","nocrits","nodmgspread","uncletopia"],"game_id":440,"stv_port":27056,"stv_name":"Uncletopia | Frankfurt | 5 | All Maps | STV","players":[{"user_id":791,"name":"pc \u003c shoe","steam_id":76561198071440081,"connected_time":327000000000,"state":"active","ping":83},{"user_id":801,"name":"dale","steam_id":76561198143625115,"connected_time":54000000000,"state":"active","ping":208},{"user_id":792,"name":"SlikeDollar","steam_id":76561199092295526,"connected_time":300000000000,"state":"active","ping":59},{"user_id":793,"name":"Duke Fishlord","steam_id":76561198079928327,"connected_time":275000000000,"state":"active","ping":56},{"user_id":802,"name":"ScampSixteen","steam_id":76561198021771000,"connected_time":48000000000,"state":"active","ping":67},{"user_id":797,"name":"smiley","steam_id":76561198042245117,"connected_time":235000000000,"state":"active","ping":89},{"user_id":752,"name":"robouki","steam_id":76561198168265569,"connected_time":2755000000000,"state":"active","ping":56},{"user_id":796,"name":"gods beastest soldier","steam_id":76561198315371425,"connected_time":240000000000,"state":"active","ping":45},{"user_id":754,"name":"noahh","steam_id":76561198108014277,"connected_time":2675000000000,"state":"active","ping":69},{"user_id":799,"name":"Artificial.Ignorance","steam_id":76561198453090180,"connected_time":212000000000,"state":"active","ping":175},{"user_id":783,"name":"Isaac Boush","steam_id":76561198179746529,"connected_time":1046000000000,"state":"active","ping":68}]},{"server_id":311,"name":"Uncletopia | Frankfurt | 6 | All Maps","name_short":"frk-6","host":"frk-1.de.uncletopia.com","port":27065,"enabled":true,"region":"eu","cc":"de","latitude":50.110924,"longitude":8.682127,"reserved":0,"last_update":"0001-01-01T00:00:00Z","name_a2s":"Uncletopia | Frankfurt | 6 | All Maps","protocol":17,"map":"koth_viaduct","folder":"tf","game":"Team Fortress","app_id":440,"player_count":24,"max_players":24,"Bots":0,"server_type":"Dedicated","server_os":"Linux","password":true,"vac":true,"version":"7961495","steam_id":85568392924504278,"keywords":["cp","nocrits","nodmgspread","uncletopia"],"game_id":440,"stv_port":27066,"stv_name":"Uncletopia | Frankfurt | 6 | All Maps | STV","players":[{"user_id":871,"name":"Loki Beaker","steam_id":76561198048086250,"connected_time":590000000000,"state":"active","ping":48},{"user_id":856,"name":"guru{Bishop_45}","steam_id":76561197983245285,"connected_time":1427000000000,"state":"active","ping":54},{"user_id":886,"name":"Dr. Sus","steam_id":76561198344435644,"connected_time":47000000000,"state":"active","ping":61},{"user_id":865,"name":"R8N - Obismal","steam_id":76561198007482714,"connected_time":712000000000,"state":"active","ping":74},{"user_id":862,"name":"Ozzie","steam_id":76561197992915315,"connected_time":1022000000000,"state":"active","ping":77},{"user_id":857,"name":"FurbyZone","steam_id":76561198268344503,"connected_time":1327000000000,"state":"active","ping":61},{"user_id":863,"name":"makotothompson","steam_id":76561199012033756,"connected_time":861000000000,"state":"active","ping":165},{"user_id":841,"name":"guru{Hari}","steam_id":76561197997001681,"connected_time":3072000000000,"state":"active","ping":73},{"user_id":872,"name":"BerejMan","steam_id":76561198873137917,"connected_time":575000000000,"state":"active","ping":68},{"user_id":866,"name":"Huscper","steam_id":76561198106229481,"connected_time":659000000000,"state":"active","ping":88},{"user_id":860,"name":"–°–∞–º—É—ó–ª –ú–∞—Ä—à–∞–∫","steam_id":76561198344433829,"connected_time":1286000000000,"state":"active","ping":82},{"user_id":874,"name":"vacenhosjon","steam_id":76561198127517772,"connected_time":483000000000,"state":"active","ping":45},{"user_id":873,"name":"bbno$","steam_id":76561199011326770,"connected_time":534000000000,"state":"active","ping":58},{"user_id":870,"name":"bruh","steam_id":76561197993922244,"connected_time":614000000000,"state":"active","ping":55},{"user_id":849,"name":"Ink in veins","steam_id":76561199082262091,"connected_time":2478000000000,"state":"active","ping":75},{"user_id":875,"name":"Gunlord","steam_id":76561198812418613,"connected_time":475000000000,"state":"active","ping":162},{"user_id":879,"name":"REN","steam_id":76561198000596385,"connected_time":187000000000,"state":"active","ping":77},{"user_id":878,"name":"decriminalise goblins","steam_id":76561198048257605,"connected_time":250000000000,"state":"active","ping":81},{"user_id":880,"name":"Coke Himmy","steam_id":76561198397459211,"connected_time":173000000000,"state":"active","ping":149},{"user_id":881,"name":"filthy","steam_id":76561198089069719,"connected_time":142000000000,"state":"active","ping":65},{"user_id":882,"name":"footballween","steam_id":76561198796143531,"connected_time":141000000000,"state":"active","ping":60},{"user_id":883,"name":"selzic ‚òÖ","steam_id":76561198068100717,"connected_time":116000000000,"state":"active","ping":61},{"user_id":884,"name":"lasagne for lunch","steam_id":76561198060620030,"connected_time":109000000000,"state":"active","ping":82},{"user_id":885,"name":"Jeryx","steam_id":76561197995602803,"connected_time":101000000000,"state":"active","ping":91}]},{"server_id":23,"name":"Uncletopia | Frankfurt | 7 | Stopwatch","name_short":"frk-7","host":"frk-1.de.uncletopia.com","port":27075,"enabled":true,"region":"eu","cc":"de","latitude":50.110924,"longitude":8.682127,"reserved":0,"last_update":"0001-01-01T00:00:00Z","name_a2s":"Uncletopia | Frankfurt | 7 | Stopwatch","protocol":17,"map":"workshop/koth_clearcut_b15.ugc2107050255","folder":"tf","game":"Team Fortress","app_id":440,"player_count":0,"max_players":24,"Bots":0,"server_type":"Dedicated","server_os":"Linux","password":true,"vac":true,"version":"7961495","steam_id":85568392924742827,"keywords":["cp","nocrits","nodmgspread","uncletopia"],"game_id":440,"stv_port":27076,"stv_name":"Uncletopia | Frankfurt | 7 | Stopwatch | STV","players":null},{"server_id":24,"name":"Uncletopia | Frankfurt | 8 | Community","name_short":"frk-8","host":"frk-1.de.uncletopia.com","port":27085,"enabled":true,"region":"eu","cc":"de","latitude":50.110924,"longitude":8.682127,"reserved":0,"last_update":"0001-01-01T00:00:00Z","name_a2s":"Uncletopia | Frankfurt | 8 | Community","protocol":17,"map":"workshop/cp_glassworks_rc7a.ugc454118349","folder":"tf","game":"Team Fortress","app_id":440,"player_count":0,"max_players":24,"Bots":0,"server_type":"Dedicated","server_os":"Linux","password":true,"vac":true,"version":"7961495","steam_id":85568392924742828,"keywords":["cp","nocrits","nodmgspread","uncletopia"],"game_id":440,"stv_port":27086,"stv_name":"Uncletopia | Frankfurt | 8 | Community | STV","players":null},{"server_id":202,"name":"Uncletopia | Hong Kong | 1 | All Maps","name_short":"hgk-1","host":"hgk-1.hk.uncletopia.com","port":27015,"enabled":true,"region":"asia","cc":"hk","latitude":22.302711,"longitude":114.177216,"reserved":0,"last_update":"0001-01-01T00:00:00Z","name_a2s":"Uncletopia | Hong Kong | 1 | All Maps","protocol":17,"map":"koth_suijin","folder":"tf","game":"Team Fortress","app_id":440,"player_count":0,"max_players":24,"Bots":0,"server_type":"Dedicated","server_os":"Linux","password":true,"vac":true,"version":"7961495","steam_id":85568392924494504,"keywords":["cp","nocrits","nodmgspread","uncletopia"],"game_id":440,"stv_port":27016,"stv_name":"Uncletopia | Hong Kong | 1 | All Maps | STV","players":null},{"server_id":1,"name":"Uncletopia | Los Angeles | 1 | All Maps","name_short":"lax-1","host":"lax-1.us.uncletopia.com","port":27015,"enabled":true,"region":"us-west","cc":"us","latitude":33.94279,"longitude":-118.41004,"reserved":0,"last_update":"0001-01-01T00:00:00Z","name_a2s":"Uncletopia | Los Angeles | 1 | All Maps","protocol":17,"map":"cp_dustbowl","folder":"tf","game":"Team Fortress","app_id":440,"player_count":23,"max_players":24,"Bots":0,"server_type":"Dedicated","server_os":"Linux","password":true,"vac":true,"version":"7961495","steam_id":85568392924469991,"keywords":["cp","nocrits","nodmgspread","uncletopia"],"game_id":440,"stv_port":27016,"stv_name":"Uncletopia | Los Angeles | 1 | All Maps | STV","players":[{"user_id":247,"name":"Keyboardbreaker","steam_id":76561198372836132,"connected_time":2282000000000,"state":"active","ping":70},{"user_id":257,"name":"green bean","steam_id":76561198113099204,"connected_time":1091000000000,"state":"active","ping":54},{"user_id":256,"name":"cremesodafan44","steam_id":76561198298605136,"connected_time":1117000000000,"state":"active","ping":89},{"user_id":258,"name":"Mr. Noodle","steam_id":76561198025280658,"connected_time":1075000000000,"state":"active","ping":53},{"user_id":269,"name":"PunyHappyFace","steam_id":76561198118059305,"connected_time":597000000000,"state":"active","ping":44},{"user_id":225,"name":"fulices","steam_id":76561198420163702,"connected_time":3705000000000,"state":"active","ping":31},{"user_id":259,"name":"rmx^-^","steam_id":76561197961779026,"connected_time":1036000000000,"state":"active","ping":48},{"user_id":248,"name":"theranos drip","steam_id":76561198004882625,"connected_time":2272000000000,"state":"active","ping":46},{"user_id":251,"name":"Wackydavo","steam_id":76561197990094209,"connected_time":2229000000000,"state":"active","ping":81},{"user_id":239,"name":"roach :3","steam_id":76561198354811369,"connected_time":2758000000000,"state":"active","ping":45},{"user_id":260,"name":"MrLeftTurn","steam_id":76561198856743969,"connected_time":1036000000000,"state":"active","ping":112},{"user_id":262,"name":"Platinum","steam_id":76561198052463484,"connected_time":972000000000,"state":"active","ping":77},{"user_id":234,"name":"Antis","steam_id":76561198055790522,"connected_time":2960000000000,"state":"active","ping":56},{"user_id":263,"name":"choi","steam_id":76561198053669887,"connected_time":951000000000,"state":"active","ping":59},{"user_id":253,"name":"Tom","steam_id":76561198139202942,"connected_time":2021000000000,"state":"active","ping":116},{"user_id":186,"name":"JOHN WICK","steam_id":76561198091877422,"connected_time":6280000000000,"state":"active","ping":99},{"user_id":233,"name":"Chimp Peen's Revunge","steam_id":76561198165778514,"connected_time":3181000000000,"state":"active","ping":93},{"user_id":220,"name":"beezer","steam_id":76561199049160726,"connected_time":3980000000000,"state":"active","ping":57},{"user_id":236,"name":"Sergeant Sear","steam_id":76561197963477221,"connected_time":2921000000000,"state":"active","ping":50},{"user_id":264,"name":"fwaeoij-4","steam_id":76561198057691823,"connected_time":941000000000,"state":"active","ping":108},{"user_id":265,"name":"cofferhead","steam_id":76561199191108449,"connected_time":891000000000,"state":"active","ping":84},{"user_id":271,"name":"bird who can't aim","steam_id":76561198062360755,"connected_time":206000000000,"state":"active","ping":99},{"user_id":267,"name":"Holo Jumpscare","steam_id":76561198153908250,"connected_time":845000000000,"state":"active","ping":65}]},{"server_id":112,"name":"Uncletopia | Los Angeles | 2 | All Maps","name_short":"lax-2","host":"lax-1.us.uncletopia.com","port":27025,"enabled":true,"region":"us-west","cc":"us","latitude":33.94279,"longitude":-118.41004,"reserved":0,"last_update":"0001-01-01T00:00:00Z","name_a2s":"Uncletopia | Los Angeles | 2 | All Maps","protocol":17,"map":"pl_swiftwater_final1","folder":"tf","game":"Team Fortress","app_id":440,"player_count":0,"max_players":24,"Bots":0,"server_type":"Dedicated","server_os":"Linux","password":true,"vac":true,"version":"7961495","steam_id":85568392924469992,"keywords":["nocrits","nodmgspread","payload","uncletopia"],"game_id":440,"stv_port":27026,"stv_name":"Uncletopia | Los Angeles | 2 | All Maps | STV","players":null},{"server_id":324,"name":"Uncletopia | Los Angeles | 3 | All Maps","name_short":"lax-3","host":"lax-1.us.uncletopia.com","port":27035,"enabled":true,"region":"us-west","cc":"us","latitude":33.94279,"longitude":-118.41004,"reserved":0,"last_update":"0001-01-01T00:00:00Z","name_a2s":"Uncletopia | Los Angeles | 3 | All Maps","protocol":17,"map":"koth_viaduct","folder":"tf","game":"Team Fortress","app_id":440,"player_count":0,"max_players":24,"Bots":0,"server_type":"Dedicated","server_os":"Linux","password":true,"vac":true,"version":"7961495","steam_id":85568392924510198,"keywords":["cp","nocrits","nodmgspread","uncletopia"],"game_id":440,"stv_port":27036,"stv_name":"Uncletopia | Los Angeles | 3 | All Maps | STV","players":null},{"server_id":25,"name":"Uncletopia | Los Angeles | 4 | Stopwatch","name_short":"lax-4","host":"lax-1.us.uncletopia.com","port":27045,"enabled":true,"region":"us-west","cc":"us","latitude":33.94279,"longitude":-118.41004,"reserved":0,"last_update":"0001-01-01T00:00:00Z","name_a2s":"Uncletopia | Los Angeles | 4 | Stopwatch","protocol":17,"map":"cp_snakewater_final1","folder":"tf","game":"Team Fortress","app_id":440,"player_count":0,"max_players":24,"Bots":0,"server_type":"Dedicated","server_os":"Linux","password":true,"vac":true,"version":"7961495","steam_id":85568392924510199,"keywords":["cp","nocrits","nodmgspread","uncletopia"],"game_id":440,"stv_port":27046,"stv_name":"Uncletopia | Los Angeles | 4 | Stopwatch | STV","players":null},{"server_id":11,"name":"Uncletopia | London | 1 | All Maps","name_short":"lon-1","host":"lon-1.uk.uncletopia.com","port":27015,"enabled":true,"region":"eu","cc":"gb","latitude":51.509865,"longitude":-0.118092,"reserved":0,"last_update":"0001-01-01T00:00:00Z","name_a2s":"Uncletopia | London | 1 | All Maps","protocol":17,"map":"plr_hightower","folder":"tf","game":"Team Fortress","app_id":440,"player_count":24,"max_players":24,"Bots":0,"server_type":"Dedicated","server_os":"Linux","password":true,"vac":true,"version":"7961495","steam_id":85568392924367362,"keywords":["nocrits","nodmgspread","payload","uncletopia"],"game_id":440,"stv_port":27016,"stv_name":"Uncletopia | London | 1 | All Maps | STV","players":[{"user_id":725,"name":"Kphi(i)","steam_id":76561198970587061,"connected_time":1569000000000,"state":"active","ping":59},{"user_id":735,"name":"green spy","steam_id":76561198080064268,"connected_time":450000000000,"state":"active","ping":54},{"user_id":742,"name":"engineer gaming","steam_id":76561198976416610,"connected_time":369000000000,"state":"active","ping":55},{"user_id":737,"name":"George Winner Bush","steam_id":76561198846784757,"connected_time":416000000000,"state":"active","ping":57},{"user_id":736,"name":"Asfedia","steam_id":76561199386836351,"connected_time":435000000000,"state":"active","ping":58},{"user_id":717,"name":"Yelowchy","steam_id":76561198199416121,"connected_time":2850000000000,"state":"active","ping":70},{"user_id":734,"name":"Boil em mash em","steam_id":76561198026508026,"connected_time":508000000000,"state":"active","ping":66},{"user_id":738,"name":"runcar222","steam_id":76561198077085528,"connected_time":406000000000,"state":"active","ping":81},{"user_id":722,"name":"GothicEndless","steam_id":76561198280339557,"connected_time":1669000000000,"state":"active","ping":38},{"user_id":631,"name":"shooer!","steam_id":76561198110531281,"connected_time":12140000000000,"state":"active","ping":69},{"user_id":676,"name":"Minimi","steam_id":76561198873850443,"connected_time":6928000000000,"state":"active","ping":45},{"user_id":684,"name":"Anri Okita's Massive Milkers","steam_id":76561199186352720,"connected_time":6320000000000,"state":"active","ping":48},{"user_id":685,"name":"gibb (heLP HELP HELP)","steam_id":76561198074097655,"connected_time":6198000000000,"state":"active","ping":64},{"user_id":739,"name":"Businessman","steam_id":76561199437827758,"connected_time":396000000000,"state":"active","ping":49},{"user_id":741,"name":"slnc","steam_id":76561198041151496,"connected_time":385000000000,"state":"active","ping":74},{"user_id":728,"name":"SmolJak","steam_id":76561199057045168,"connected_time":1331000000000,"state":"active","ping":54},{"user_id":731,"name":"owlsie","steam_id":76561198094883280,"connected_time":588000000000,"state":"active","ping":66},{"user_id":706,"name":"WHO AM I?","steam_id":76561198106802803,"connected_time":4155000000000,"state":"active","ping":79},{"user_id":723,"name":"Jimmy Poppadopolos","steam_id":76561198044825612,"connected_time":1654000000000,"state":"active","ping":60},{"user_id":672,"name":"KnugenIV","steam_id":76561198127091993,"connected_time":6961000000000,"state":"active","ping":57},{"user_id":732,"name":"Onions","steam_id":76561198150195195,"connected_time":542000000000,"state":"active","ping":47},{"user_id":730,"name":"Û†Å≥","steam_id":76561199169154431,"connected_time":838000000000,"state":"active","ping":47},{"user_id":686,"name":"map","steam_id":76561198370196400,"connected_time":5986000000000,"state":"active","ping":90},{"user_id":688,"name":"ein","steam_id":76561198152162834,"connected_time":5758000000000,"state":"active","ping":96}]},{"server_id":114,"name":"Uncletopia | London | 2 | All Maps","name_short":"lon-2","host":"lon-1.uk.uncletopia.com","port":27025,"enabled":true,"region":"eu","cc":"gb","latitude":51.509865,"longitude":-0.118092,"reserved":0,"last_update":"0001-01-01T00:00:00Z","name_a2s":"Uncletopia | London | 2 | All Maps","protocol":17,"map":"cp_snakewater_final1","folder":"tf","game":"Team Fortress","app_id":440,"player_count":0,"max_players":24,"Bots":0,"server_type":"Dedicated","server_os":"Linux","password":true,"vac":true,"version":"7961495","steam_id":85568392924470941,"keywords":["cp","nocrits","nodmgspread","uncletopia"],"game_id":440,"stv_port":27026,"stv_name":"Uncletopia | London | 2 | All Maps | STV","players":null},{"server_id":320,"name":"Uncletopia | London | 3 | All Maps","name_short":"lon-3","host":"lon-1.uk.uncletopia.com","port":27035,"enabled":true,"region":"eu","cc":"gb","latitude":51.509865,"longitude":-0.118092,"reserved":0,"last_update":"0001-01-01T00:00:00Z","name_a2s":"Uncletopia | London | 3 | All Maps","protocol":17,"map":"koth_cascade","folder":"tf","game":"Team Fortress","app_id":440,"player_count":0,"max_players":24,"Bots":0,"server_type":"Dedicated","server_os":"Linux","password":true,"vac":true,"version":"7961495","steam_id":85568392924510192,"keywords":["cp","nocrits","nodmgspread","uncletopia"],"game_id":440,"stv_port":27036,"stv_name":"Uncletopia | London | 3 | All Maps | STV","players":null},{"server_id":321,"name":"Uncletopia | London | 4 | All Maps","name_short":"lon-4","host":"lon-1.uk.uncletopia.com","port":27045,"enabled":true,"region":"eu","cc":"gb","latitude":51.509865,"longitude":-0.118092,"reserved":0,"last_update":"0001-01-01T00:00:00Z","name_a2s":"Uncletopia | London | 4 | All Maps","protocol":17,"map":"pl_swiftwater_final1","folder":"tf","game":"Team Fortress","app_id":440,"player_count":24,"max_players":24,"Bots":0,"server_type":"Dedicated","server_os":"Linux","password":true,"vac":true,"version":"7961495","steam_id":85568392924510193,"keywords":["nocrits","nodmgspread","payload","uncletopia"],"game_id":440,"stv_port":27046,"stv_name":"Uncletopia | London | 4 | All Maps | STV","players":[{"user_id":895,"name":"will","steam_id":76561198153952378,"connected_time":2159000000000,"state":"active","ping":48},{"user_id":910,"name":"Zamorocian","steam_id":76561198076604017,"connected_time":1034000000000,"state":"active","ping":33},{"user_id":905,"name":"The worst TF2 player(Real)","steam_id":76561199184873889,"connected_time":1102000000000,"state":"active","ping":80},{"user_id":903,"name":"Mike","steam_id":76561198266996665,"connected_time":1284000000000,"state":"active","ping":43},{"user_id":894,"name":"Grogon","steam_id":76561198203300218,"connected_time":2590000000000,"state":"active","ping":70},{"user_id":856,"name":"Beeg","steam_id":76561198152269182,"connected_time":5336000000000,"state":"active","ping":58},{"user_id":911,"name":"Conibun","steam_id":76561198066389567,"connected_time":1001000000000,"state":"active","ping":121},{"user_id":912,"name":"K O T","steam_id":76561198179360022,"connected_time":961000000000,"state":"active","ping":84},{"user_id":810,"name":"robindarozzer","steam_id":76561198118198074,"connected_time":6873000000000,"state":"active","ping":59},{"user_id":930,"name":"g4yl0rd","steam_id":76561198195935759,"connected_time":78000000000,"state":"active","ping":106},{"user_id":920,"name":"randompixel","steam_id":76561198003941207,"connected_time":836000000000,"state":"active","ping":52},{"user_id":812,"name":"JarvoH","steam_id":76561198322804182,"connected_time":6832000000000,"state":"active","ping":57},{"user_id":914,"name":"zen","steam_id":76561198358006442,"connected_time":945000000000,"state":"active","ping":60},{"user_id":902,"name":"Wigfrid","steam_id":76561198121820360,"connected_time":1401000000000,"state":"active","ping":64},{"user_id":818,"name":"Hans The Orange","steam_id":76561198082167183,"connected_time":6649000000000,"state":"active","ping":75},{"user_id":915,"name":"=flashpoint=","steam_id":76561197976774456,"connected_time":917000000000,"state":"active","ping":45},{"user_id":928,"name":"Umbro","steam_id":76561198087930438,"connected_time":105000000000,"state":"active","ping":75},{"user_id":869,"name":"dingledong","steam_id":76561198287096215,"connected_time":4494000000000,"state":"active","ping":66},{"user_id":916,"name":"NitPig","steam_id":76561198212991935,"connected_time":911000000000,"state":"active","ping":115},{"user_id":917,"name":"Retro6Scientist","steam_id":76561199436407430,"connected_time":869000000000,"state":"active","ping":39},{"user_id":919,"name":"hbdie_","steam_id":76561198109996675,"connected_time":855000000000,"state":"active","ping":30},{"user_id":918,"name":"Bull","steam_id":76561199233979726,"connected_time":868000000000,"state":"active","ping":89},{"user_id":926,"name":"‚òÖLily","steam_id":76561198014774371,"connected_time":260000000000,"state":"active","ping":46},{"user_id":893,"name":"Silverdarlin","steam_id":76561198118540970,"connected_time":2601000000000,"state":"active","ping":50}]},{"server_id":21,"name":"Uncletopia | London | 5 | All Maps","name_short":"lon-5","host":"lon-1.uk.uncletopia.com","port":27055,"enabled":true,"region":"eu","cc":"gb","latitude":51.509865,"longitude":-0.118092,"reserved":0,"last_update":"0001-01-01T00:00:00Z","name_a2s":"Uncletopia | London | 5 | All Maps","protocol":17,"map":"cp_snakewater_final1","folder":"tf","game":"Team Fortress","app_id":440,"player_count":7,"max_players":24,"Bots":0,"server_type":"Dedicated","server_os":"Linux","password":true,"vac":true,"version":"7961495","steam_id":85568392924742829,"keywords":["cp","nocrits","nodmgspread","uncletopia"],"game_id":440,"stv_port":27056,"stv_name":"Uncletopia | London | 5 | All Maps | STV","players":[{"user_id":635,"name":"Mortified","steam_id":76561198010225496,"connected_time":677000000000,"state":"active","ping":43},{"user_id":636,"name":"A Cat","steam_id":76561199015740181,"connected_time":504000000000,"state":"active","ping":63},{"user_id":637,"name":"Princess Peach","steam_id":76561198260272240,"connected_time":405000000000,"state":"active","ping":47},{"user_id":568,"name":"MakeItRainbow","steam_id":76561198045098064,"connected_time":6308000000000,"state":"active","ping":60},{"user_id":627,"name":"Mr.Boop","steam_id":76561198252192070,"connected_time":2373000000000,"state":"active","ping":64},{"user_id":619,"name":"nitwit with a gun","steam_id":76561198334042273,"connected_time":2964000000000,"state":"active","ping":52},{"user_id":605,"name":"IndigoJones","steam_id":76561198050284262,"connected_time":4223000000000,"state":"active","ping":45}]},{"server_id":22,"name":"Uncletopia | London | 6 | All Maps","name_short":"lon-6","host":"lon-1.uk.uncletopia.com","port":27065,"enabled":true,"region":"eu","cc":"gb","latitude":51.509865,"longitude":-0.118092,"reserved":0,"last_update":"0001-01-01T00:00:00Z","name_a2s":"Uncletopia | London | 6 | All Maps","protocol":17,"map":"pl_pier","folder":"tf","game":"Team Fortress","app_id":440,"player_count":24,"max_players":24,"Bots":0,"server_type":"Dedicated","server_os":"Linux","password":true,"vac":true,"version":"7961495","steam_id":85568392924742830,"keywords":["nocrits","nodmgspread","payload","uncletopia"],"game_id":440,"stv_port":27066,"stv_name":"Uncletopia | London | 6 | All Maps | STV","players":[{"user_id":438,"name":"meriones","steam_id":76561198034234373,"connected_time":4480000000000,"state":"active","ping":45},{"user_id":391,"name":"wardex","steam_id":76561198058776834,"connected_time":7015000000000,"state":"active","ping":55},{"user_id":468,"name":"Testy","steam_id":76561198169996602,"connected_time":1527000000000,"state":"active","ping":50},{"user_id":463,"name":"malotenbende","steam_id":76561198201171239,"connected_time":1664000000000,"state":"active","ping":44},{"user_id":431,"name":"BELADIT","steam_id":76561198011911501,"connected_time":4812000000000,"state":"active","ping":75},{"user_id":483,"name":"Labracababrador","steam_id":76561198255280285,"connected_time":806000000000,"state":"active","ping":75},{"user_id":470,"name":"D O M","steam_id":76561199490641827,"connected_time":1373000000000,"state":"active","ping":46},{"user_id":488,"name":"Tornado","steam_id":76561198025684320,"connected_time":184000000000,"state":"active","ping":45},{"user_id":489,"name":"noot","steam_id":76561198148074472,"connected_time":147000000000,"state":"active","ping":47},{"user_id":475,"name":"jon_chris","steam_id":76561198121431680,"connected_time":1143000000000,"state":"active","ping":63},{"user_id":485,"name":"Laurie","steam_id":76561198082951750,"connected_time":547000000000,"state":"active","ping":49},{"user_id":474,"name":"geroxe cruo","steam_id":76561199480942903,"connected_time":1186000000000,"state":"active","ping":75},{"user_id":464,"name":"Curse of the Blackened Eye","steam_id":76561198097175164,"connected_time":1644000000000,"state":"active","ping":145},{"user_id":452,"name":"GunGuy","steam_id":76561198124510978,"connected_time":3192000000000,"state":"active","ping":39},{"user_id":486,"name":"AlphaEMC","steam_id":76561198884448755,"connected_time":260000000000,"state":"active","ping":50},{"user_id":455,"name":"committed to the bit","steam_id":76561198181368101,"connected_time":3143000000000,"state":"active","ping":58},{"user_id":482,"name":"Valen","steam_id":76561198049614521,"connected_time":1022000000000,"state":"active","ping":75},{"user_id":467,"name":"pies.","steam_id":76561197963099504,"connected_time":1558000000000,"state":"active","ping":50},{"user_id":487,"name":"Phayzer Lazer","steam_id":76561198082147774,"connected_time":244000000000,"state":"active","ping":152},{"user_id":479,"name":"Mimic","steam_id":76561198064890253,"connected_time":1116000000000,"state":"active","ping":121},{"user_id":491,"name":"DocTwoEight","steam_id":76561198153488940,"connected_time":110000000000,"state":"active","ping":78},{"user_id":456,"name":"Xiqui","steam_id":76561198818386611,"connected_time":3053000000000,"state":"active","ping":78},{"user_id":492,"name":"Tort","steam_id":76561198329646769,"connected_time":72000000000,"state":"active","ping":59},{"user_id":481,"name":"tm`","steam_id":76561197993580412,"connected_time":1094000000000,"state":"active","ping":71}]},{"server_id":40,"name":"Uncletopia | London | 7 | Stopwatch","name_short":"lon-7","host":"lon-1.uk.uncletopia.com","port":27075,"enabled":true,"region":"eu","cc":"gb","latitude":51.509865,"longitude":-0.118092,"reserved":0,"last_update":"0001-01-01T00:00:00Z","name_a2s":"Uncletopia | London | 7 | Stopwatch","protocol":17,"map":"koth_highpass","folder":"tf","game":"Team Fortress","app_id":440,"player_count":0,"max_players":24,"Bots":0,"server_type":"Dedicated","server_os":"Linux","password":true,"vac":true,"version":"7961495","steam_id":85568392924964314,"keywords":["cp","nocrits","nodmgspread","uncletopia"],"game_id":440,"stv_port":27076,"stv_name":"Uncletopia | London | 7 | Stopwatch | STV","players":null},{"server_id":41,"name":"Uncletopia | London | 8 | Community","name_short":"lon-8","host":"lon-1.uk.uncletopia.com","port":27085,"enabled":true,"region":"eu","cc":"gb","latitude":51.509865,"longitude":-0.118092,"reserved":0,"last_update":"0001-01-01T00:00:00Z","name_a2s":"Uncletopia | London | 8 | Community","protocol":17,"map":"workshop/koth_kemptown_rc1.ugc767410655","folder":"tf","game":"Team Fortress","app_id":440,"player_count":0,"max_players":24,"Bots":0,"server_type":"Dedicated","server_os":"Linux","password":true,"vac":true,"version":"7961495","steam_id":85568392924964315,"keywords":["cp","nocrits","nodmgspread","uncletopia"],"game_id":440,"stv_port":27086,"stv_name":"Uncletopia | London | 8 | Community | STV","players":null},{"server_id":300,"name":"Uncletopia | Montr√©al | 1 | One Thousand Uncles","name_short":"mtl-1","host":"mtl-1.ca.uncletopia.com","port":27015,"enabled":true,"region":"us-east","cc":"ca","latitude":45.50889,"longitude":-73.56167,"reserved":0,"last_update":"0001-01-01T00:00:00Z","name_a2s":"","protocol":0,"map":"","folder":"","game":"","app_id":0,"player_count":0,"max_players":0,"Bots":0,"server_type":"","server_os":"","password":false,"vac":false,"version":"","steam_id":0,"keywords":null,"game_id":0,"stv_port":0,"stv_name":"","players":null},{"server_id":301,"name":"Uncletopia | Montr√©al | 2 | One Thousand Uncles","name_short":"mtl-2","host":"mtl-1.ca.uncletopia.com","port":27025,"enabled":true,"region":"us-east","cc":"ca","latitude":45.50889,"longitude":-73.56167,"reserved":0,"last_update":"0001-01-01T00:00:00Z","name_a2s":"","protocol":0,"map":"","folder":"","game":"","app_id":0,"player_count":0,"max_players":0,"Bots":0,"server_type":"","server_os":"","password":false,"vac":false,"version":"","steam_id":0,"keywords":null,"game_id":0,"stv_port":0,"stv_name":"","players":null},{"server_id":302,"name":"Uncletopia | Montr√©al | 3 | One Thousand Uncles","name_short":"mtl-3","host":"mtl-1.ca.uncletopia.com","port":27035,"enabled":true,"region":"us-east","cc":"ca","latitude":45.50889,"longitude":-73.56167,"reserved":0,"last_update":"0001-01-01T00:00:00Z","name_a2s":"","protocol":0,"map":"","folder":"","game":"","app_id":0,"player_count":0,"max_players":0,"Bots":0,"server_type":"","server_os":"","password":false,"vac":false,"version":"","steam_id":0,"keywords":null,"game_id":0,"stv_port":0,"stv_name":"","players":null},{"server_id":13,"name":"Uncletopia | New York City | 1 | All Maps","name_short":"nyc-1","host":"nyc-1.us.uncletopia.com","port":27015,"enabled":true,"region":"us-east","cc":"us","latitude":40.73061,"longitude":-73.93524,"reserved":0,"last_update":"0001-01-01T00:00:00Z","name_a2s":"Uncletopia | New York City | 1 | All Maps","protocol":17,"map":"pl_upward","folder":"tf","game":"Team Fortress","app_id":440,"player_count":24,"max_players":24,"Bots":0,"server_type":"Dedicated","server_os":"Linux","password":true,"vac":true,"version":"7961495","steam_id":85568392924469993,"keywords":["nocrits","nodmgspread","payload","uncletopia"],"game_id":440,"stv_port":27016,"stv_name":"Uncletopia | New York City | 1 | All Maps | STV","players":[{"user_id":592,"name":"Nicholas Deckolas","steam_id":76561198005301468,"connected_time":1966000000000,"state":"active","ping":84},{"user_id":597,"name":"BirdieNuke","steam_id":76561198244538150,"connected_time":1770000000000,"state":"active","ping":55},{"user_id":599,"name":"Larry Laffer","steam_id":76561198046832069,"connected_time":1480000000000,"state":"active","ping":44},{"user_id":598,"name":"Gigo","steam_id":76561198093535014,"connected_time":1549000000000,"state":"active","ping":135},{"user_id":569,"name":"Nice21","steam_id":76561199427548141,"connected_time":3307000000000,"state":"active","ping":70},{"user_id":593,"name":"‚óΩSpoo‚óæ","steam_id":76561198188021354,"connected_time":1886000000000,"state":"active","ping":47},{"user_id":595,"name":"Hi, I'm Jesus","steam_id":76561198015327152,"connected_time":1844000000000,"state":"active","ping":50},{"user_id":600,"name":"CLG","steam_id":76561197965524846,"connected_time":1419000000000,"state":"active","ping":89},{"user_id":602,"name":"raebbitos","steam_id":76561198167580006,"connected_time":1369000000000,"state":"active","ping":122},{"user_id":619,"name":"UnlivingSkunk","steam_id":76561198324517387,"connected_time":339000000000,"state":"active","ping":56},{"user_id":620,"name":"glam","steam_id":76561198059570070,"connected_time":79000000000,"state":"active","ping":60},{"user_id":613,"name":"Bolshenose","steam_id":76561198069857272,"connected_time":963000000000,"state":"active","ping":54},{"user_id":614,"name":"-œÄ- BakaD","steam_id":76561197960559169,"connected_time":902000000000,"state":"active","ping":48},{"user_id":610,"name":"Congcrab","steam_id":76561198078687685,"connected_time":1080000000000,"state":"active","ping":94},{"user_id":578,"name":"Connection","steam_id":76561199230740231,"connected_time":2982000000000,"state":"active","ping":59},{"user_id":549,"name":"Xavibite","steam_id":76561198209380493,"connected_time":3849000000000,"state":"active","ping":42},{"user_id":618,"name":"Lin","steam_id":76561198143746480,"connected_time":389000000000,"state":"active","ping":129},{"user_id":617,"name":"Deluxe_Taco34","steam_id":76561199037653437,"connected_time":539000000000,"state":"active","ping":110},{"user_id":616,"name":"Boom 13","steam_id":76561198126796502,"connected_time":684000000000,"state":"active","ping":91},{"user_id":580,"name":"ndvr (femboy (REAL))","steam_id":76561199379200102,"connected_time":2834000000000,"state":"active","ping":54},{"user_id":615,"name":"GogsCrunchyNuts","steam_id":76561198150599213,"connected_time":761000000000,"state":"active","ping":149},{"user_id":609,"name":"mostly ham","steam_id":76561199479937232,"connected_time":1147000000000,"state":"active","ping":72},{"user_id":581,"name":"Brook Prime","steam_id":76561198185126222,"connected_time":2794000000000,"state":"active","ping":119},{"user_id":596,"name":"canadian birds","steam_id":76561198059466588,"connected_time":1813000000000,"state":"active","ping":60}]},{"server_id":14,"name":"Uncletopia | New York City | 2 | All Maps","name_short":"nyc-2","host":"nyc-1.us.uncletopia.com","port":27025,"enabled":true,"region":"us-east","cc":"us","latitude":40.73061,"longitude":-73.93524,"reserved":0,"last_update":"0001-01-01T00:00:00Z","name_a2s":"Uncletopia | New York City | 2 | All Maps","protocol":17,"map":"pl_barnblitz","folder":"tf","game":"Team Fortress","app_id":440,"player_count":24,"max_players":24,"Bots":0,"server_type":"Dedicated","server_os":"Linux","password":true,"vac":true,"version":"7961495","steam_id":85568392924469994,"keywords":["nocrits","nodmgspread","payload","uncletopia"],"game_id":440,"stv_port":27026,"stv_name":"Uncletopia | New York City | 2 | All Maps | STV","players":[{"user_id":519,"name":"Ikemen","steam_id":76561198161379820,"connected_time":563000000000,"state":"active","ping":59},{"user_id":524,"name":"Butt Cheese Wanky","steam_id":76561198006569710,"connected_time":98000000000,"state":"active","ping":74},{"user_id":420,"name":"Cat on Your Porch","steam_id":76561197979078330,"connected_time":5225000000000,"state":"active","ping":60},{"user_id":520,"name":"yu","steam_id":76561198397848370,"connected_time":501000000000,"state":"active","ping":73},{"user_id":522,"name":"vandeer","steam_id":76561198120124007,"connected_time":224000000000,"state":"active","ping":107},{"user_id":515,"name":"BradB.","steam_id":76561199163905036,"connected_time":878000000000,"state":"active","ping":89},{"user_id":440,"name":"Aaron","steam_id":76561198035433264,"connected_time":4261000000000,"state":"active","ping":59},{"user_id":503,"name":"hitchuwithdawork","steam_id":76561198074687094,"connected_time":1343000000000,"state":"active","ping":59},{"user_id":472,"name":"TMKPresents","steam_id":76561198118999995,"connected_time":2832000000000,"state":"active","ping":51},{"user_id":471,"name":"BiggSlorp","steam_id":76561199130776156,"connected_time":2853000000000,"state":"active","ping":60},{"user_id":493,"name":"titan","steam_id":76561198961972464,"connected_time":2054000000000,"state":"active","ping":94},{"user_id":511,"name":"HOOPLA","steam_id":76561198993451858,"connected_time":1010000000000,"state":"active","ping":74},{"user_id":517,"name":"ctf_well","steam_id":76561198016826181,"connected_time":851000000000,"state":"active","ping":64},{"user_id":505,"name":"Storebrand Vegeta","steam_id":76561197999105221,"connected_time":1281000000000,"state":"active","ping":90},{"user_id":462,"name":"msay","steam_id":76561198170888029,"connected_time":3194000000000,"state":"active","ping":90},{"user_id":525,"name":"Luke","steam_id":76561198253533632,"connected_time":11000000000,"state":"active","ping":76},{"user_id":502,"name":"suns","steam_id":76561198079583278,"connected_time":1448000000000,"state":"active","ping":60},{"user_id":483,"name":"Artic_Ryuu","steam_id":76561198182194918,"connected_time":2245000000000,"state":"active","ping":107},{"user_id":507,"name":"feenman","steam_id":76561199383834799,"connected_time":1233000000000,"state":"active","ping":114},{"user_id":513,"name":"Kollateral","steam_id":76561198845860800,"connected_time":905000000000,"state":"active","ping":115},{"user_id":523,"name":"scoobert","steam_id":76561199215184828,"connected_time":134000000000,"state":"active","ping":86},{"user_id":429,"name":"sadako","steam_id":76561198170642407,"connected_time":5006000000000,"state":"active","ping":61},{"user_id":492,"name":"The Port Authority of NY \u0026 NJ","steam_id":76561198089430717,"connected_time":2103000000000,"state":"active","ping":96},{"user_id":485,"name":"meow","steam_id":76561198236343140,"connected_time":2213000000000,"state":"active","ping":72}]},{"server_id":15,"name":"Uncletopia | New York City | 3 | Stopwatch","name_short":"nyc-3","host":"nyc-1.us.uncletopia.com","port":27035,"enabled":true,"region":"us-east","cc":"us","latitude":40.73061,"longitude":-73.93524,"reserved":0,"last_update":"0001-01-01T00:00:00Z","name_a2s":"Uncletopia | New York City | 3 | Stopwatch","protocol":17,"map":"pl_snowycoast","folder":"tf","game":"Team Fortress","app_id":440,"player_count":0,"max_players":24,"Bots":0,"server_type":"Dedicated","server_os":"Linux","password":true,"vac":true,"version":"7961495","steam_id":85568392924742820,"keywords":["nocrits","nodmgspread","payload","uncletopia"],"game_id":440,"stv_port":27036,"stv_name":"Uncletopia | New York City | 3 | Stopwatch | STV","players":null},{"server_id":16,"name":"Uncletopia | New York City | 4 | Community","name_short":"nyc-4","host":"nyc-1.us.uncletopia.com","port":27045,"enabled":true,"region":"us-east","cc":"us","latitude":40.73061,"longitude":-73.93524,"reserved":0,"last_update":"0001-01-01T00:00:00Z","name_a2s":"Uncletopia | New York City | 4 | Community","protocol":17,"map":"workshop/koth_product_final.ugc454272353","folder":"tf","game":"Team Fortress","app_id":440,"player_count":0,"max_players":24,"Bots":0,"server_type":"Dedicated","server_os":"Linux","password":true,"vac":true,"version":"7961495","steam_id":85568392924742821,"keywords":["cp","nocrits","nodmgspread","uncletopia"],"game_id":440,"stv_port":27046,"stv_name":"Uncletopia | New York City | 4 | Community | STV","players":null},{"server_id":142,"name":"Uncletopia | S√£o Paulo | 1 | All Maps","name_short":"sao-1","host":"sao-1.br.uncletopia.com","port":27015,"enabled":true,"region":"sa","cc":"br","latitude":-23.533773,"longitude":-46.62529,"reserved":0,"last_update":"0001-01-01T00:00:00Z","name_a2s":"Uncletopia | S√£o Paulo | 1 | All Maps","protocol":17,"map":"koth_viaduct","folder":"tf","game":"Team Fortress","app_id":440,"player_count":0,"max_players":24,"Bots":0,"server_type":"Dedicated","server_os":"Linux","password":true,"vac":true,"version":"7961495","steam_id":85568392924469996,"keywords":["cp","nocrits","nodmgspread","uncletopia"],"game_id":440,"stv_port":27016,"stv_name":"Uncletopia | S√£o Paulo | 1 | All Maps | STV","players":null},{"server_id":143,"name":"Uncletopia | S√£o Paulo | 2 | Community","name_short":"sao-2","host":"sao-2.br.uncletopia.com","port":27015,"enabled":true,"region":"sa","cc":"br","latitude":-23.533773,"longitude":-46.62529,"reserved":0,"last_update":"0001-01-01T00:00:00Z","name_a2s":"Uncletopia | S√£o Paulo | 2 | Community","protocol":17,"map":"workshop/koth_kemptown_rc1.ugc767410655","folder":"tf","game":"Team Fortress","app_id":440,"player_count":0,"max_players":24,"Bots":0,"server_type":"Dedicated","server_os":"Linux","password":true,"vac":true,"version":"7961495","steam_id":85568392924485349,"keywords":["cp","nocrits","nodmgspread","uncletopia"],"game_id":440,"stv_port":27016,"stv_name":"Uncletopia | S√£o Paulo | 2 | Community | STV","players":null},{"server_id":7,"name":"Uncletopia | Seattle | 1 | All Maps","name_short":"sea-1","host":"sea-1.us.uncletopia.com","port":27015,"enabled":true,"region":"us-west","cc":"us","latitude":47.608013,"longitude":-122.33517,"reserved":0,"last_update":"0001-01-01T00:00:00Z","name_a2s":"Uncletopia | Seattle | 1 | All Maps","protocol":17,"map":"pl_badwater","folder":"tf","game":"Team Fortress","app_id":440,"player_count":24,"max_players":24,"Bots":0,"server_type":"Dedicated","server_os":"Linux","password":true,"vac":true,"version":"7961495","steam_id":85568392924469997,"keywords":["nocrits","nodmgspread","payload","uncletopia"],"game_id":440,"stv_port":27016,"stv_name":"Uncletopia | Seattle | 1 | All Maps | STV","players":[{"user_id":144,"name":"turn around","steam_id":76561198046526036,"connected_time":1421000000000,"state":"active","ping":75},{"user_id":124,"name":"TheMagicMrWaffle","steam_id":76561198104357256,"connected_time":4450000000000,"state":"active","ping":69},{"user_id":141,"name":"Epifiny","steam_id":76561198027958086,"connected_time":1660000000000,"state":"active","ping":108},{"user_id":157,"name":"Dr. Juvenal","steam_id":76561198114553453,"connected_time":786000000000,"state":"active","ping":56},{"user_id":136,"name":"Shipmunk","steam_id":76561198063062670,"connected_time":2442000000000,"state":"active","ping":104},{"user_id":145,"name":"havarti gaming","steam_id":76561198069895678,"connected_time":1372000000000,"state":"active","ping":61},{"user_id":158,"name":"christanator","steam_id":76561198203142552,"connected_time":781000000000,"state":"active","ping":58},{"user_id":159,"name":"KOJAKK","steam_id":76561199060841878,"connected_time":742000000000,"state":"active","ping":54},{"user_id":160,"name":"Unlimited_Trees","steam_id":76561198299141443,"connected_time":731000000000,"state":"active","ping":69},{"user_id":148,"name":"cardboardwarrior1","steam_id":76561199145044693,"connected_time":1305000000000,"state":"active","ping":71},{"user_id":134,"name":"Banette","steam_id":76561198215458333,"connected_time":3231000000000,"state":"active","ping":54},{"user_id":106,"name":"mooney","steam_id":76561199110622484,"connected_time":5993000000000,"state":"active","ping":55},{"user_id":149,"name":"Zeke","steam_id":76561198389722871,"connected_time":1210000000000,"state":"active","ping":85},{"user_id":150,"name":"Ayayayayayayayayayayayayahuasca","steam_id":76561199002906056,"connected_time":1127000000000,"state":"active","ping":46},{"user_id":161,"name":"Hooked","steam_id":76561198007302139,"connected_time":729000000000,"state":"active","ping":122},{"user_id":152,"name":"Useless","steam_id":76561198116079299,"connected_time":1076000000000,"state":"active","ping":45},{"user_id":122,"name":"hungry kibten","steam_id":76561198184099558,"connected_time":4624000000000,"state":"active","ping":47},{"user_id":153,"name":"rad killl raccoon","steam_id":76561198980975595,"connected_time":1071000000000,"state":"active","ping":41},{"user_id":111,"name":"A UsedNom","steam_id":76561198402832756,"connected_time":5237000000000,"state":"active","ping":57},{"user_id":74,"name":"Nom Skirrett","steam_id":76561198014600788,"connected_time":9298000000000,"state":"active","ping":60},{"user_id":165,"name":"Callie","steam_id":76561198131833567,"connected_time":619000000000,"state":"active","ping":69},{"user_id":163,"name":"CaptainPikachu","steam_id":76561198075667401,"connected_time":703000000000,"state":"active","ping":68},{"user_id":164,"name":"toss","steam_id":76561198024060038,"connected_time":692000000000,"state":"active","ping":120},{"user_id":142,"name":"Anthid","steam_id":76561198074493797,"connected_time":1635000000000,"state":"active","ping":74}]},{"server_id":119,"name":"Uncletopia | Seattle | 2 | All Maps","name_short":"sea-2","host":"sea-1.us.uncletopia.com","port":27025,"enabled":true,"region":"us-west","cc":"us","latitude":47.608013,"longitude":-122.33517,"reserved":0,"last_update":"0001-01-01T00:00:00Z","name_a2s":"Uncletopia | Seattle | 2 | All Maps","protocol":17,"map":"cp_sunshine","folder":"tf","game":"Team Fortress","app_id":440,"player_count":24,"max_players":24,"Bots":0,"server_type":"Dedicated","server_os":"Linux","password":true,"vac":true,"version":"7961495","steam_id":85568392924469998,"keywords":["cp","nocrits","nodmgspread","uncletopia"],"game_id":440,"stv_port":27026,"stv_name":"Uncletopia | Seattle | 2 | All Maps | STV","players":[{"user_id":591,"name":"The CEO of cement","steam_id":76561199107177460,"connected_time":1470000000000,"state":"active","ping":92},{"user_id":618,"name":"Arkus","steam_id":76561199092478198,"connected_time":36000000000,"state":"active","ping":45},{"user_id":604,"name":"robloxscream","steam_id":76561199048027781,"connected_time":464000000000,"state":"active","ping":69},{"user_id":599,"name":"Jomdac","steam_id":76561198150447896,"connected_time":855000000000,"state":"active","ping":83},{"user_id":561,"name":"Tomato","steam_id":76561197996472649,"connected_time":3669000000000,"state":"active","ping":119},{"user_id":596,"name":"ED","steam_id":76561198441715445,"connected_time":1033000000000,"state":"active","ping":111},{"user_id":575,"name":"goos  e","steam_id":76561198036774894,"connected_time":2809000000000,"state":"active","ping":58},{"user_id":616,"name":"leumas","steam_id":76561198240408540,"connected_time":196000000000,"state":"active","ping":116},{"user_id":606,"name":"Sawbez","steam_id":76561198394863729,"connected_time":408000000000,"state":"active","ping":56},{"user_id":611,"name":"Be Gay, Do Crimes, Smoke Weed!","steam_id":76561198092419868,"connected_time":324000000000,"state":"active","ping":49},{"user_id":593,"name":"Huzoop","steam_id":76561199249278873,"connected_time":1323000000000,"state":"active","ping":46},{"user_id":597,"name":"Femboy Friday (they/them)\u0026","steam_id":76561198027321950,"connected_time":898000000000,"state":"active","ping":44},{"user_id":546,"name":"no vc no c","steam_id":76561197989503095,"connected_time":4900000000000,"state":"active","ping":154},{"user_id":617,"name":"hoOmIN","steam_id":76561198334947079,"connected_time":143000000000,"state":"active","ping":74},{"user_id":610,"name":"ImagineExisting","steam_id":76561198860261731,"connected_time":341000000000,"state":"active","ping":62},{"user_id":609,"name":"ZodomiteApeling","steam_id":76561198019050435,"connected_time":348000000000,"state":"active","ping":95},{"user_id":589,"name":"Rev","steam_id":76561199060355036,"connected_time":1500000000000,"state":"active","ping":39},{"user_id":612,"name":"Dimple","steam_id":76561198980324190,"connected_time":303000000000,"state":"active","ping":59},{"user_id":613,"name":"canakblasteran","steam_id":76561199472518822,"connected_time":295000000000,"state":"active","ping":89},{"user_id":566,"name":"Gwuf","steam_id":76561198091503282,"connected_time":3458000000000,"state":"active","ping":88},{"user_id":588,"name":"MrYadaization","steam_id":76561198050770818,"connected_time":1787000000000,"state":"active","ping":53},{"user_id":590,"name":"Lunarthrope","steam_id":76561198292132147,"connected_time":1487000000000,"state":"active","ping":79},{"user_id":614,"name":"Coach McFish","steam_id":76561198210456405,"connected_time":251000000000,"state":"active","ping":128},{"user_id":615,"name":"gooselover42069","steam_id":76561198059562839,"connected_time":250000000000,"state":"active","ping":105}]},{"server_id":406,"name":"Uncletopia | Seattle | 3 | Stopwatch","name_short":"sea-3","host":"sea-1.us.uncletopia.com","port":27035,"enabled":true,"region":"us-west","cc":"us","latitude":47.608013,"longitude":-122.33517,"reserved":0,"last_update":"0001-01-01T00:00:00Z","name_a2s":"Uncletopia | Seattle | 3 | Stopwatch","protocol":17,"map":"workshop/koth_ashville_final.ugc2130459942","folder":"tf","game":"Team Fortress","app_id":440,"player_count":3,"max_players":24,"Bots":0,"server_type":"Dedicated","server_os":"Linux","password":true,"vac":true,"version":"7961495","steam_id":85568392924515217,"keywords":["cp","nocrits","nodmgspread","uncletopia"],"game_id":440,"stv_port":27036,"stv_name":"Uncletopia | Seattle | 3 | Stopwatch | STV","players":[{"user_id":92,"name":"Cheezbeargur","steam_id":76561198164702899,"connected_time":138000000000,"state":"active","ping":60},{"user_id":93,"name":"Melvin McDingle","steam_id":76561198362635423,"connected_time":118000000000,"state":"active","ping":65},{"user_id":94,"name":"Krooked","steam_id":76561198974450352,"connected_time":107000000000,"state":"active","ping":45}]},{"server_id":17,"name":"Uncletopia | San Francisco | 1 | All Maps","name_short":"sfo-1","host":"sfo-1.us.uncletopia.com","port":27015,"enabled":true,"region":"us-west","cc":"us","latitude":37.77397,"longitude":-122.4313,"reserved":0,"last_update":"0001-01-01T00:00:00Z","name_a2s":"Uncletopia | San Francisco | 1 | All Maps","protocol":17,"map":"koth_cascade","folder":"tf","game":"Team Fortress","app_id":440,"player_count":0,"max_players":24,"Bots":0,"server_type":"Dedicated","server_os":"Linux","password":true,"vac":true,"version":"7961495","steam_id":85568392924469999,"keywords":["cp","nocrits","nodmgspread","uncletopia"],"game_id":440,"stv_port":27016,"stv_name":"Uncletopia | San Francisco | 1 | All Maps | STV","players":null},{"server_id":18,"name":"Uncletopia | San Francisco | 2 | All Maps","name_short":"sfo-2","host":"sfo-1.us.uncletopia.com","port":27025,"enabled":true,"region":"us-west","cc":"us","latitude":37.77397,"longitude":-122.4313,"reserved":0,"last_update":"0001-01-01T00:00:00Z","name_a2s":"Uncletopia | San Francisco | 2 | All Maps","protocol":17,"map":"cp_dustbowl","folder":"tf","game":"Team Fortress","app_id":440,"player_count":1,"max_players":24,"Bots":0,"server_type":"Dedicated","server_os":"Linux","password":true,"vac":true,"version":"7961495","steam_id":85568392924470000,"keywords":["cp","nocrits","nodmgspread","uncletopia"],"game_id":440,"stv_port":27026,"stv_name":"Uncletopia | San Francisco | 2 | All Maps | STV","players":[{"user_id":5,"name":"Timothy5291","steam_id":76561198402046998,"connected_time":56000000000,"state":"active","ping":59}]},{"server_id":19,"name":"Uncletopia | San Francisco | 3 | Stopwatch","name_short":"sfo-3","host":"sfo-1.us.uncletopia.com","port":27035,"enabled":true,"region":"us-west","cc":"us","latitude":37.77397,"longitude":-122.4313,"reserved":0,"last_update":"0001-01-01T00:00:00Z","name_a2s":"Uncletopia | San Francisco | 3 | Stopwatch","protocol":17,"map":"pl_pier","folder":"tf","game":"Team Fortress","app_id":440,"player_count":0,"max_players":24,"Bots":0,"server_type":"Dedicated","server_os":"Linux","password":true,"vac":true,"version":"7961495","steam_id":85568392924742824,"keywords":["nocrits","nodmgspread","payload","uncletopia"],"game_id":440,"stv_port":27036,"stv_name":"Uncletopia | San Francisco | 3 | Stopwatch | STV","players":null},{"server_id":20,"name":"Uncletopia | San Francisco | 4 | Community","name_short":"sfo-4","host":"sfo-1.us.uncletopia.com","port":27045,"enabled":true,"region":"us-west","cc":"us","latitude":37.77397,"longitude":-122.4313,"reserved":0,"last_update":"0001-01-01T00:00:00Z","name_a2s":"Uncletopia | San Francisco | 4 | Community","protocol":17,"map":"workshop/koth_ashville_final.ugc2130459942","folder":"tf","game":"Team Fortress","app_id":440,"player_count":0,"max_players":24,"Bots":0,"server_type":"Dedicated","server_os":"Linux","password":true,"vac":true,"version":"7961495","steam_id":85568392924742826,"keywords":["cp","nocrits","nodmgspread","uncletopia"],"game_id":440,"stv_port":27046,"stv_name":"Uncletopia | San Francisco | 4 | Community | STV","players":null},{"server_id":141,"name":"Uncletopia | Sydney | 1 | All Maps","name_short":"syd-1","host":"syd-1.au.uncletopia.com","port":27015,"enabled":true,"region":"au","cc":"au","latitude":-33.865143,"longitude":151.2099,"reserved":0,"last_update":"0001-01-01T00:00:00Z","name_a2s":"Uncletopia | Sydney | 1 | All Maps","protocol":17,"map":"koth_viaduct","folder":"tf","game":"Team Fortress","app_id":440,"player_count":0,"max_players":24,"Bots":0,"server_type":"Dedicated","server_os":"Linux","password":true,"vac":true,"version":"7961495","steam_id":85568392924470001,"keywords":["cp","nocrits","nodmgspread","uncletopia"],"game_id":440,"stv_port":27016,"stv_name":"Uncletopia | Sydney | 1 | All Maps | STV","players":null},{"server_id":123,"name":"Uncletopia | Sydney | 2 | All Maps","name_short":"syd-2","host":"syd-1.au.uncletopia.com","port":27025,"enabled":true,"region":"au","cc":"au","latitude":-33.865143,"longitude":151.2099,"reserved":0,"last_update":"0001-01-01T00:00:00Z","name_a2s":"Uncletopia | Sydney | 2 | All Maps","protocol":17,"map":"koth_lakeside_final","folder":"tf","game":"Team Fortress","app_id":440,"player_count":0,"max_players":24,"Bots":0,"server_type":"Dedicated","server_os":"Linux","password":true,"vac":true,"version":"7961495","steam_id":85568392924470002,"keywords":["cp","nocrits","nodmgspread","uncletopia"],"game_id":440,"stv_port":27026,"stv_name":"Uncletopia | Sydney | 2 | All Maps | STV","players":null},{"server_id":395,"name":"Uncletopia | Sydney | 3 | All Maps","name_short":"syd-3","host":"syd-1.au.uncletopia.com","port":27035,"enabled":true,"region":"au","cc":"au","latitude":-33.865143,"longitude":151.2099,"reserved":0,"last_update":"0001-01-01T00:00:00Z","name_a2s":"Uncletopia | Sydney | 3 | All Maps","protocol":17,"map":"pl_swiftwater_final1","folder":"tf","game":"Team Fortress","app_id":440,"player_count":0,"max_players":24,"Bots":0,"server_type":"Dedicated","server_os":"Linux","password":true,"vac":true,"version":"7961495","steam_id":85568392925194467,"keywords":["nocrits","nodmgspread","payload","uncletopia"],"game_id":440,"stv_port":27036,"stv_name":"Uncletopia | Sydney | 3 | All Maps | STV","players":null},{"server_id":396,"name":"Uncletopia | Sydney | 4 | All Maps","name_short":"syd-4","host":"syd-1.au.uncletopia.com","port":27045,"enabled":true,"region":"au","cc":"au","latitude":-33.865143,"longitude":151.2099,"reserved":0,"last_update":"0001-01-01T00:00:00Z","name_a2s":"Uncletopia | Sydney | 4 | All Maps","protocol":17,"map":"cp_process_final","folder":"tf","game":"Team Fortress","app_id":440,"player_count":0,"max_players":24,"Bots":0,"server_type":"Dedicated","server_os":"Linux","password":true,"vac":true,"version":"7961495","steam_id":85568392925397958,"keywords":["cp","nocrits","nodmgspread","uncletopia"],"game_id":440,"stv_port":27046,"stv_name":"Uncletopia | Sydney | 4 | All Maps | STV","players":null},{"server_id":58,"name":"Uncletopia | Sydney | 5 | Stopwatch","name_short":"syd-5","host":"syd-1.au.uncletopia.com","port":27055,"enabled":true,"region":"au","cc":"au","latitude":-33.865143,"longitude":151.2099,"reserved":0,"last_update":"0001-01-01T00:00:00Z","name_a2s":"Uncletopia | Sydney | 5 | Stopwatch","protocol":17,"map":"pl_frontier_final","folder":"tf","game":"Team Fortress","app_id":440,"player_count":0,"max_players":24,"Bots":0,"server_type":"Dedicated","server_os":"Linux","password":true,"vac":true,"version":"7961495","steam_id":85568392925397959,"keywords":["nocrits","nodmgspread","payload","uncletopia"],"game_id":440,"stv_port":27056,"stv_name":"Uncletopia | Sydney | 5 | Stopwatch | STV","players":null},{"server_id":59,"name":"Uncletopia | Sydney | 6 | Community","name_short":"syd-6","host":"syd-1.au.uncletopia.com","port":27065,"enabled":true,"region":"au","cc":"au","latitude":-33.865143,"longitude":151.2099,"reserved":0,"last_update":"0001-01-01T00:00:00Z","name_a2s":"Uncletopia | Sydney | 6 | Community","protocol":17,"map":"cp_sunshine","folder":"tf","game":"Team Fortress","app_id":440,"player_count":0,"max_players":24,"Bots":0,"server_type":"Dedicated","server_os":"Linux","password":true,"vac":true,"version":"7961495","steam_id":85568392925397960,"keywords":["cp","nocrits","nodmgspread","uncletopia"],"game_id":440,"stv_port":27066,"stv_name":"Uncletopia | Sydney | 6 | Community | STV","players":null},{"server_id":49,"name":"Uncletopia | Warsaw | 1 | One Thousand Uncles","name_short":"waw-1","host":"waw-1.pl.uncletopia.com","port":27015,"enabled":true,"region":"eu","cc":"pl","latitude":52.2297,"longitude":21.017532,"reserved":0,"last_update":"0001-01-01T00:00:00Z","name_a2s":"Uncletopia | Warsaw | 1 | One Thousand Uncles","protocol":17,"map":"cp_egypt_final","folder":"tf","game":"Team Fortress","app_id":440,"player_count":0,"max_players":32,"Bots":0,"server_type":"Dedicated","server_os":"Linux","password":true,"vac":true,"version":"7961495","steam_id":85568392925397850,"keywords":["alltalk","cp","danepve","increased_maxplayers","nocrits","norespawntime","uncletopia"],"game_id":440,"stv_port":0,"stv_name":"","players":null},{"server_id":50,"name":"Uncletopia | Warsaw | 2 | One Thousand Uncles","name_short":"waw-2","host":"waw-1.pl.uncletopia.com","port":27025,"enabled":true,"region":"eu","cc":"pl","latitude":52.2297,"longitude":21.017532,"reserved":0,"last_update":"0001-01-01T00:00:00Z","name_a2s":"Uncletopia | Warsaw | 2 | One Thousand Uncles","protocol":17,"map":"pl_pier","folder":"tf","game":"Team Fortress","app_id":440,"player_count":24,"max_players":32,"Bots":16,"server_type":"Dedicated","server_os":"Linux","password":true,"vac":true,"version":"7961495","steam_id":85568392925397851,"keywords":["alltalk","bots","danepve","increased_maxplayers","nocrits","norespawntime","payload","uncletopia"],"game_id":440,"stv_port":0,"stv_name":"","players":[{"user_id":219,"name":"Crimson","steam_id":76561197987552332,"connected_time":2785000000000,"state":"active","ping":61},{"user_id":220,"name":"Den","steam_id":76561198043835212,"connected_time":2681000000000,"state":"active","ping":60},{"user_id":184,"name":"Sidflap","steam_id":76561198041652855,"connected_time":6005000000000,"state":"active","ping":67},{"user_id":215,"name":"muwi","steam_id":76561198379039743,"connected_time":3528000000000,"state":"active","ping":103},{"user_id":244,"name":"Skayek","steam_id":76561198847189156,"connected_time":1124000000000,"state":"active","ping":66},{"user_id":180,"name":"Gregor Samsa","steam_id":76561198973069177,"connected_time":7030000000000,"state":"active","ping":63},{"user_id":218,"name":"Mr_Pulse_","steam_id":76561198095001602,"connected_time":3272000000000,"state":"active","ping":97},{"user_id":222,"name":"penis atomizer 9000 üè≥Ô∏è?","steam_id":76561198864841966,"connected_time":2599000000000,"state":"active","ping":192}]},{"server_id":51,"name":"Uncletopia | Warsaw | 3 | All Maps","name_short":"waw-3","host":"waw-1.pl.uncletopia.com","port":27035,"enabled":true,"region":"eu","cc":"pl","latitude":52.2297,"longitude":21.017532,"reserved":0,"last_update":"0001-01-01T00:00:00Z","name_a2s":"Uncletopia | Warsaw | 3 | All Maps","protocol":17,"map":"plr_pipeline","folder":"tf","game":"Team Fortress","app_id":440,"player_count":0,"max_players":24,"Bots":0,"server_type":"Dedicated","server_os":"Linux","password":true,"vac":true,"version":"7961495","steam_id":85568392925397852,"keywords":["nocrits","nodmgspread","payload","uncletopia"],"game_id":440,"stv_port":27036,"stv_name":"Uncletopia | Warsaw | 3 | All Maps | STV","players":null},{"server_id":52,"name":"Uncletopia | Warsaw | 4 | All Maps","name_short":"waw-4","host":"waw-1.pl.uncletopia.com","port":27045,"enabled":true,"region":"eu","cc":"pl","latitude":52.2297,"longitude":21.017532,"reserved":0,"last_update":"0001-01-01T00:00:00Z","name_a2s":"Uncletopia | Warsaw | 4 | All Maps","protocol":17,"map":"cp_sunshine","folder":"tf","game":"Team Fortress","app_id":440,"player_count":0,"max_players":24,"Bots":0,"server_type":"Dedicated","server_os":"Linux","password":true,"vac":true,"version":"7961495","steam_id":85568392925397853,"keywords":["cp","nocrits","nodmgspread","uncletopia"],"game_id":440,"stv_port":27046,"stv_name":"Uncletopia | Warsaw | 4 | All Maps | STV","players":null},{"server_id":53,"name":"Uncletopia | Warsaw | 5 | Stopwatch","name_short":"waw-5","host":"waw-1.pl.uncletopia.com","port":27055,"enabled":true,"region":"eu","cc":"pl","latitude":52.2297,"longitude":21.017532,"reserved":0,"last_update":"0001-01-01T00:00:00Z","name_a2s":"Uncletopia | Warsaw | 5 | Stopwatch","protocol":17,"map":"koth_lakeside_final","folder":"tf","game":"Team Fortress","app_id":440,"player_count":0,"max_players":24,"Bots":0,"server_type":"Dedicated","server_os":"Linux","password":true,"vac":true,"version":"7961495","steam_id":85568392925397854,"keywords":["cp","nocrits","nodmgspread","uncletopia"],"game_id":440,"stv_port":27056,"stv_name":"Uncletopia | Warsaw | 5 | Stopwatch | STV","players":null},{"server_id":54,"name":"Uncletopia | Warsaw | 6 | Community","name_short":"waw-6","host":"waw-1.pl.uncletopia.com","port":27065,"enabled":true,"region":"eu","cc":"pl","latitude":52.2297,"longitude":21.017532,"reserved":0,"last_update":"0001-01-01T00:00:00Z","name_a2s":"Uncletopia | Warsaw | 6 | Community","protocol":17,"map":"workshop/koth_ashville_final.ugc2130459942","folder":"tf","game":"Team Fortress","app_id":440,"player_count":0,"max_players":24,"Bots":0,"server_type":"Dedicated","server_os":"Linux","password":true,"vac":true,"version":"7961495","steam_id":85568392925397856,"keywords":["cp","nocrits","nodmgspread","uncletopia"],"game_id":440,"stv_port":27066,"stv_name":"Uncletopia | Warsaw | 6 | Community | STV","players":null}]}