{"status":true,"message":"","result":[{"server_id":9,"name":"Uncletopia | Atlanta | 1 | All Maps","name_short":"atl-1","host":"atl-1.us.uncletopia.com","port":27015,"enabled":true,"region":"us-east","cc":"us","latitude":33.753746,"longitude":-84.38633,"reserved":0,"last_update":"0001-01-01T00:00:00Z","name_a2s":"Uncletopia | Atlanta | 1 | All Maps","protocol":17,"map":"cp_dustbowl","folder":"tf","game":"Team Fortress","app_id":440,"player_count":0,"max_players":24,"Bots":0,"server_type":"Dedicated","server_os":"Linux","password":true,"vac":true,"version":"7961495","steam_id":85568392924469982,"keywords":["cp","nocrits","nodmgspread","uncletopia"],"game_id":440,"stv_port":27016,"stv_name":"Uncletopia | Atlanta | 1 | All Maps | STV","players":null},{"server_id":104,"name":"Uncletopia | Atlanta | 2 | All Maps","name_short":"atl-2","host":"atl-1.us.uncletopia.com","port":27025,"enabled":true,"region":"us-east","cc":"us","latitude":33.753746,"longitude":-84.38633,"reserved":0,"last_update":"0001-01-01T00:00:00Z","name_a2s":"Uncletopia | Atlanta | 2 | All Maps","protocol":17,"map":"koth_cascade","folder":"tf","game":"Team Fortress","app_id":440,"player_count":0,"max_players":24,"Bots":0,"server_type":"Dedicated","server_os":"Linux","password":true,"vac":true,"version":"7961495","steam_id":85568392924469983,"keywords":["cp","nocrits","nodmgspread","uncletopia"],"game_id":440,"stv_port":27026,"stv_name":"Uncletopia | Atlanta | 2 | All Maps | STV","players":null},{"server_id":400,"name":"Uncletopia | Atlanta | 3 | Stopwatch","name_short":"atl-3","host":"atl-1.us.uncletopia.com","port":27035,"enabled":true,"region":"us-east","cc":"us","latitude":33.753746,"longitude":-84.38633,"reserved":0,"last_update":"0001-01-01T00:00:00Z","name_a2s":"Uncletopia | Atlanta | 3 | Stopwatch","protocol":17,"map":"workshop/cp_reckoner_rc6.ugc674719999","folder":"tf","game":"Team Fortress","app_id":440,"player_count":0,"max_players":24,"Bots":0,"server_type":"Dedicated","server_os":"Linux","password":true,"vac":true,"version":"7961495","steam_id":85568392924515187,"keywords":["cp","nocrits","nodmgspread","uncletopia"],"game_id":440,"stv_port":27036,"stv_name":"Uncletopia | Atlanta | 3 | Stopwatch | STV","players":null},{"server_id":401,"name":"Uncletopia | Atlanta | 4 | Community","name_short":"atl-4","host":"atl-1.us.uncletopia.com","port":27045,"enabled":true,"region":"us-east","cc":"us","latitude":33.753746,"longitude":-84.38633,"reserved":0,"last_update":"0001-01-01T00:00:00Z","name_a2s":"Uncletopia | Atlanta | 4 | Community","protocol":17,"map":"cp_sunshine","folder":"tf","game":"Team Fortress","app_id":440,"player_count":0,"max_players":24,"Bots":0,"server_type":"Dedicated","server_os":"Linux","password":true,"vac":true,"version":"7961495","steam_id":85568392924515188,"keywords":["cp","nocrits","nodmgspread","uncletopia"],"game_id":440,"stv_port":27046,"stv_name":"Uncletopia | Atlanta | 4 | Community | STV","players":null},{"server_id":2,"name":"Uncletopia | Chicago | 1 | All Maps","name_short":"chi-1","host":"chi-1.us.uncletopia.com","port":27015,"enabled":true,"region":"us-central","cc":"us","latitude":41.881832,"longitude":-87.62318,"reserved":0,"last_update":"0001-01-01T00:00:00Z","name_a2s":"Uncletopia | Chicago | 1 | All Maps","protocol":17,"map":"pl_borneo","folder":"tf","game":"Team Fortress","app_id":440,"player_count":24,"max_players":24,"Bots":0,"server_type":"Dedicated","server_os":"Linux","password":true,"vac":true,"version":"7961495","steam_id":85568392924469984,"keywords":["nocrits","nodmgspread","payload","uncletopia"],"game_id":440,"stv_port":27016,"stv_name":"Uncletopia | Chicago | 1 | All Maps | STV","players":[{"user_id":135,"name":"ThatGamingKiwi","steam_id":76561199170522237,"connected_time":1377000000000,"state":"active","ping":77},{"user_id":140,"name":"MechaSixVII","steam_id":76561198014927379,"connected_time":1086000000000,"state":"active","ping":68},{"user_id":105,"name":"beta central","steam_id":76561198301876831,"connected_time":3942000000000,"state":"active","ping":60},{"user_id":133,"name":"THORNFIELDGAMER","steam_id":76561199087167473,"connected_time":1392000000000,"state":"active","ping":89},{"user_id":132,"name":"Dry-guy","steam_id":76561199387729966,"connected_time":1395000000000,"state":"active","ping":63},{"user_id":151,"name":"Dr. Livesey","steam_id":76561198066018972,"connected_time":329000000000,"state":"active","ping":77},{"user_id":139,"name":"Lefty [Gentlemen of Leisure]","steam_id":76561197980825914,"connected_time":1169000000000,"state":"active","ping":93},{"user_id":111,"name":"incredirocks","steam_id":76561198061079993,"connected_time":3271000000000,"state":"active","ping":45},{"user_id":146,"name":"Loogus","steam_id":76561198811561721,"connected_time":422000000000,"state":"active","ping":90},{"user_id":148,"name":"YourFriendJessie","steam_id":76561198176883097,"connected_time":388000000000,"state":"active","ping":57},{"user_id":153,"name":"GrapeFieldGamer","steam_id":76561199382834868,"connected_time":162000000000,"state":"active","ping":68},{"user_id":136,"name":"Shooter of Walls","steam_id":76561197988105207,"connected_time":1374000000000,"state":"active","ping":68},{"user_id":118,"name":"shy-chan","steam_id":76561199499730677,"connected_time":2552000000000,"state":"active","ping":81},{"user_id":141,"name":"Mike Will","steam_id":76561199500265332,"connected_time":1074000000000,"state":"active","ping":70},{"user_id":130,"name":"NOLSEY","steam_id":76561198108959504,"connected_time":1413000000000,"state":"active","ping":45},{"user_id":108,"name":"epiczlolz","steam_id":76561198208369443,"connected_time":3394000000000,"state":"active","ping":60},{"user_id":137,"name":"debin","steam_id":76561198070711217,"connected_time":1371000000000,"state":"active","ping":54},{"user_id":152,"name":"head in the ceiling fan","steam_id":76561199063223088,"connected_time":168000000000,"state":"active","ping":75},{"user_id":117,"name":"Sunflower","steam_id":76561198081223793,"connected_time":2602000000000,"state":"active","ping":58},{"user_id":134,"name":"Ripheart","steam_id":76561198089661561,"connected_time":1389000000000,"state":"active","ping":44},{"user_id":143,"name":"Crab Rangoon","steam_id":76561198059310510,"connected_time":821000000000,"state":"active","ping":60},{"user_id":127,"name":"vacachimuela","steam_id":76561198297332421,"connected_time":2121000000000,"state":"active","ping":111},{"user_id":131,"name":"DysfunctionJunction","steam_id":76561198051815183,"connected_time":1413000000000,"state":"active","ping":49},{"user_id":154,"name":"I_Am_Lazy","steam_id":76561199030283067,"connected_time":127000000000,"state":"active","ping":81}]},{"server_id":106,"name":"Uncletopia | Chicago | 2 | All Maps","name_short":"chi-2","host":"chi-1.us.uncletopia.com","port":27025,"enabled":true,"region":"us-central","cc":"us","latitude":41.881832,"longitude":-87.62318,"reserved":0,"last_update":"0001-01-01T00:00:00Z","name_a2s":"Uncletopia | Chicago | 2 | All Maps","protocol":17,"map":"koth_harvest_final","folder":"tf","game":"Team Fortress","app_id":440,"player_count":24,"max_players":24,"Bots":0,"server_type":"Dedicated","server_os":"Linux","password":true,"vac":true,"version":"7961495","steam_id":85568392924469985,"keywords":["cp","nocrits","nodmgspread","uncletopia"],"game_id":440,"stv_port":27026,"stv_name":"Uncletopia | Chicago | 2 | All Maps | STV","players":[{"user_id":307,"name":"Oogie (OddMonster)","steam_id":76561198026802918,"connected_time":32000000000,"state":"active","ping":94},{"user_id":300,"name":"winrarFanatic","steam_id":76561198026538317,"connected_time":599000000000,"state":"active","ping":53},{"user_id":293,"name":"custodian","steam_id":76561198058793778,"connected_time":967000000000,"state":"active","ping":71},{"user_id":302,"name":"Cursed WiFi","steam_id":76561198090419068,"connected_time":179000000000,"state":"active","ping":118},{"user_id":274,"name":"IGOR","steam_id":76561199128786637,"connected_time":2490000000000,"state":"active","ping":92},{"user_id":299,"name":"Poppet","steam_id":76561198012301951,"connected_time":744000000000,"state":"active","ping":54},{"user_id":295,"name":"Gordon Ramsay","steam_id":76561198123893900,"connected_time":922000000000,"state":"active","ping":77},{"user_id":290,"name":"BigNugs","steam_id":76561198056402610,"connected_time":1299000000000,"state":"active","ping":62},{"user_id":254,"name":"Dr. No Name","steam_id":76561198058656869,"connected_time":4552000000000,"state":"active","ping":82},{"user_id":301,"name":"Dzhoshua","steam_id":76561198071915251,"connected_time":483000000000,"state":"active","ping":70},{"user_id":284,"name":"Bee","steam_id":76561198074681324,"connected_time":1779000000000,"state":"active","ping":78},{"user_id":277,"name":"Beef Wellington","steam_id":76561198049837377,"connected_time":2012000000000,"state":"active","ping":46},{"user_id":283,"name":"Castroy","steam_id":76561198108160099,"connected_time":1825000000000,"state":"active","ping":54},{"user_id":288,"name":"Christian Bonnie","steam_id":76561199194702127,"connected_time":1386000000000,"state":"active","ping":75},{"user_id":304,"name":"Fobby #Savetf2","steam_id":76561198047681469,"connected_time":171000000000,"state":"active","ping":80},{"user_id":212,"name":"Coffee Instant Type 2","steam_id":76561198307845869,"connected_time":6597000000000,"state":"active","ping":73},{"user_id":306,"name":"anaidangel717","steam_id":76561199099121097,"connected_time":133000000000,"state":"active","ping":77},{"user_id":298,"name":"V_","steam_id":76561198147577835,"connected_time":789000000000,"state":"active","ping":88},{"user_id":292,"name":"VioletSpecs (She/Her)","steam_id":76561198089366466,"connected_time":1270000000000,"state":"active","ping":71},{"user_id":291,"name":"Just PYE","steam_id":76561199439622967,"connected_time":1292000000000,"state":"active","ping":108},{"user_id":221,"name":"Ajax","steam_id":76561197962240140,"connected_time":6120000000000,"state":"active","ping":55},{"user_id":175,"name":"Nefy","steam_id":76561198030017316,"connected_time":9495000000000,"state":"active","ping":76},{"user_id":251,"name":"Petrivus","steam_id":76561198202152453,"connected_time":4684000000000,"state":"active","ping":100},{"user_id":308,"name":"Drachma","steam_id":76561198007310514,"connected_time":15000000000,"state":"active","ping":53}]},{"server_id":402,"name":"Uncletopia | Chicago | 3 | All Maps","name_short":"chi-3","host":"chi-1.us.uncletopia.com","port":27035,"enabled":true,"region":"us-central","cc":"us","latitude":41.881832,"longitude":-87.62318,"reserved":0,"last_update":"0001-01-01T00:00:00Z","name_a2s":"Uncletopia | Chicago | 3 | All Maps","protocol":17,"map":"pl_upward","folder":"tf","game":"Team Fortress","app_id":440,"player_count":24,"max_players":24,"Bots":0,"server_type":"Dedicated","server_os":"Linux","password":true,"vac":true,"version":"7961495","steam_id":85568392924515191,"keywords":["nocrits","nodmgspread","payload","uncletopia"],"game_id":440,"stv_port":27036,"stv_name":"Uncletopia | Chicago | 3 | All Maps | STV","players":[{"user_id":10,"name":"Bongo","steam_id":76561198393756793,"connected_time":1966000000000,"state":"active","ping":78},{"user_id":7,"name":"Cyberpunk McDonald's Play Place","steam_id":76561198063512035,"connected_time":2180000000000,"state":"active","ping":71},{"user_id":47,"name":"Plant Enthusiast","steam_id":76561198045718960,"connected_time":85000000000,"state":"active","ping":65},{"user_id":48,"name":"anonion","steam_id":76561198056477584,"connected_time":9000000000,"state":"spawning","ping":74},{"user_id":13,"name":"dark souls boss","steam_id":76561198316610724,"connected_time":1581000000000,"state":"active","ping":87},{"user_id":43,"name":"MasonJar","steam_id":76561198268816354,"connected_time":343000000000,"state":"active","ping":83},{"user_id":17,"name":"coWolves","steam_id":76561198171921618,"connected_time":1256000000000,"state":"active","ping":102},{"user_id":49,"name":"fuckterry","steam_id":76561198271957738,"connected_time":7000000000,"state":"spawning","ping":71},{"user_id":22,"name":"Fewny","steam_id":76561198225977000,"connected_time":909000000000,"state":"active","ping":69},{"user_id":23,"name":"mkl","steam_id":76561197986401685,"connected_time":891000000000,"state":"active","ping":80},{"user_id":24,"name":"Bleg","steam_id":76561198144606839,"connected_time":849000000000,"state":"active","ping":93},{"user_id":25,"name":"Burny Sanders","steam_id":76561197961879048,"connected_time":841000000000,"state":"active","ping":62},{"user_id":40,"name":"cristophergamez09","steam_id":76561199454665809,"connected_time":514000000000,"state":"active","ping":100},{"user_id":28,"name":"+03e","steam_id":76561198147970180,"connected_time":692000000000,"state":"active","ping":47},{"user_id":29,"name":"messenger zidgeon","steam_id":76561198098770013,"connected_time":679000000000,"state":"active","ping":95},{"user_id":30,"name":"hounschellxd","steam_id":76561198165243870,"connected_time":642000000000,"state":"active","ping":36},{"user_id":41,"name":"Jesse Bear","steam_id":76561198217075305,"connected_time":491000000000,"state":"active","ping":84},{"user_id":33,"name":"DbrotLord","steam_id":76561198156461280,"connected_time":601000000000,"state":"active","ping":64},{"user_id":36,"name":"Mr.President","steam_id":76561198971144834,"connected_time":572000000000,"state":"active","ping":60},{"user_id":37,"name":"TheRatBoi","steam_id":76561199123032506,"connected_time":571000000000,"state":"active","ping":72},{"user_id":38,"name":"The Potato Romancer","steam_id":76561198204197648,"connected_time":557000000000,"state":"active","ping":97},{"user_id":39,"name":"OHGODBEES!","steam_id":76561198000653374,"connected_time":555000000000,"state":"active","ping":123},{"user_id":46,"name":"Mog","steam_id":76561198025575870,"connected_time":164000000000,"state":"active","ping":55}]},{"server_id":403,"name":"Uncletopia | Chicago | 4 | All Maps","name_short":"chi-4","host":"chi-1.us.uncletopia.com","port":27045,"enabled":true,"region":"us-central","cc":"us","latitude":41.881832,"longitude":-87.62318,"reserved":0,"last_update":"0001-01-01T00:00:00Z","name_a2s":"Uncletopia | Chicago | 4 | All Maps","protocol":17,"map":"koth_cascade","folder":"tf","game":"Team Fortress","app_id":440,"player_count":0,"max_players":24,"Bots":0,"server_type":"Dedicated","server_os":"Linux","password":true,"vac":true,"version":"7961495","steam_id":85568392924515193,"keywords":["cp","nocrits","nodmgspread","uncletopia"],"game_id":440,"stv_port":27046,"stv_name":"Uncletopia | Chicago | 4 | All Maps | STV","players":null},{"server_id":36,"name":"Uncletopia | Chicago | 5 | All Maps","name_short":"chi-5","host":"chi-2.us.uncletopia.com","port":27015,"enabled":true,"region":"us-central","cc":"us","latitude":41.881832,"longitude":-87.62318,"reserved":0,"last_update":"0001-01-01T00:00:00Z","name_a2s":"Uncletopia | Chicago | 5 | All Maps","protocol":17,"map":"koth_viaduct","folder":"tf","game":"Team Fortress","app_id":440,"player_count":0,"max_players":24,"Bots":0,"server_type":"Dedicated","server_os":"Linux","password":true,"vac":true,"version":"7961495","steam_id":85568392924866362,"keywords":["cp","nocrits","nodmgspread","uncletopia"],"game_id":440,"stv_port":27016,"stv_name":"Uncletopia | Chicago | 5 | All Maps | STV","players":null},{"server_id":37,"name":"Uncletopia | Chicago | 6 | All Maps","name_short":"chi-6","host":"chi-2.us.uncletopia.com","port":27025,"enabled":true,"region":"us-central","cc":"us","latitude":41.881832,"longitude":-87.62318,"reserved":0,"last_update":"0001-01-01T00:00:00Z","name_a2s":"Uncletopia | Chicago | 6 | All Maps","protocol":17,"map":"pl_frontier_final","folder":"tf","game":"Team Fortress","app_id":440,"player_count":0,"max_players":24,"Bots":0,"server_type":"Dedicated","server_os":"Linux","password":true,"vac":true,"version":"7961495","steam_id":85568392924866363,"keywords":["nocrits","nodmgspread","payload","uncletopia"],"game_id":440,"stv_port":27026,"stv_name":"Uncletopia | Chicago | 6 | All Maps | STV","players":null},{"server_id":38,"name":"Uncletopia | Chicago | 7 | Stopwatch","name_short":"chi-7","host":"chi-2.us.uncletopia.com","port":27035,"enabled":true,"region":"us-central","cc":"us","latitude":41.881832,"longitude":-87.62318,"reserved":0,"last_update":"0001-01-01T00:00:00Z","name_a2s":"Uncletopia | Chicago | 7 | Stopwatch","protocol":17,"map":"koth_highpass","folder":"tf","game":"Team Fortress","app_id":440,"player_count":0,"max_players":24,"Bots":0,"server_type":"Dedicated","server_os":"Linux","password":true,"vac":true,"version":"7961495","steam_id":85568392924866364,"keywords":["cp","nocrits","nodmgspread","uncletopia"],"game_id":440,"stv_port":27036,"stv_name":"Uncletopia | Chicago | 7 | Stopwatch | STV","players":null},{"server_id":39,"name":"Uncletopia | Chicago | 8 | Community","name_short":"chi-8","host":"chi-2.us.uncletopia.com","port":27045,"enabled":true,"region":"us-central","cc":"us","latitude":41.881832,"longitude":-87.62318,"reserved":0,"last_update":"0001-01-01T00:00:00Z","name_a2s":"Uncletopia | Chicago | 8 | Community","protocol":17,"map":"pl_pier","folder":"tf","game":"Team Fortress","app_id":440,"player_count":0,"max_players":24,"Bots":0,"server_type":"Dedicated","server_os":"Linux","password":true,"vac":true,"version":"7961495","steam_id":85568392924866365,"keywords":["nocrits","nodmgspread","payload","uncletopia"],"game_id":440,"stv_port":27046,"stv_name":"Uncletopia | Chicago | 8 | Community | STV","players":null},{"server_id":8,"name":"Uncletopia | Dallas | 1 | All Maps","name_short":"dal-1","host":"dal-1.us.uncletopia.com","port":27015,"enabled":true,"region":"us-central","cc":"us","latitude":32.779167,"longitude":-96.80889,"reserved":0,"last_update":"0001-01-01T00:00:00Z","name_a2s":"Uncletopia | Dallas | 1 | All Maps","protocol":17,"map":"pl_swiftwater_final1","folder":"tf","game":"Team Fortress","app_id":440,"player_count":0,"max_players":24,"Bots":0,"server_type":"Dedicated","server_os":"Linux","password":true,"vac":true,"version":"7961495","steam_id":85568392924469986,"keywords":["nocrits","nodmgspread","payload","uncletopia"],"game_id":440,"stv_port":27016,"stv_name":"Uncletopia | Dallas | 1 | All Maps | STV","players":null},{"server_id":108,"name":"Uncletopia | Dallas | 2 | All Maps","name_short":"dal-2","host":"dal-1.us.uncletopia.com","port":27025,"enabled":true,"region":"us-central","cc":"us","latitude":32.779167,"longitude":-96.80889,"reserved":0,"last_update":"0001-01-01T00:00:00Z","name_a2s":"Uncletopia | Dallas | 2 | All Maps","protocol":17,"map":"koth_lakeside_final","folder":"tf","game":"Team Fortress","app_id":440,"player_count":0,"max_players":24,"Bots":0,"server_type":"Dedicated","server_os":"Linux","password":true,"vac":true,"version":"7961495","steam_id":85568392924469988,"keywords":["cp","nocrits","nodmgspread","uncletopia"],"game_id":440,"stv_port":27026,"stv_name":"Uncletopia | Dallas | 2 | All Maps | STV","players":null},{"server_id":404,"name":"Uncletopia | Dallas | 3 | All Maps","name_short":"dal-3","host":"dal-1.us.uncletopia.com","port":27035,"enabled":true,"region":"us-central","cc":"us","latitude":32.779167,"longitude":-96.80889,"reserved":0,"last_update":"0001-01-01T00:00:00Z","name_a2s":"Uncletopia | Dallas | 3 | All Maps","protocol":17,"map":"pl_badwater","folder":"tf","game":"Team Fortress","app_id":440,"player_count":0,"max_players":24,"Bots":0,"server_type":"Dedicated","server_os":"Linux","password":true,"vac":true,"version":"7961495","steam_id":85568392924515219,"keywords":["nocrits","nodmgspread","payload","uncletopia"],"game_id":440,"stv_port":27036,"stv_name":"Uncletopia | Dallas | 3 | All Maps | STV","players":null},{"server_id":405,"name":"Uncletopia | Dallas | 4 | Community","name_short":"dal-4","host":"dal-1.us.uncletopia.com","port":27045,"enabled":true,"region":"us-central","cc":"us","latitude":32.779167,"longitude":-96.80889,"reserved":0,"last_update":"0001-01-01T00:00:00Z","name_a2s":"Uncletopia | Dallas | 4 | Community","protocol":17,"map":"pl_pier","folder":"tf","game":"Team Fortress","app_id":440,"player_count":0,"max_players":24,"Bots":0,"server_type":"Dedicated","server_os":"Linux","password":true,"vac":true,"version":"7961495","steam_id":85568392924515220,"keywords":["nocrits","nodmgspread","payload","uncletopia"],"game_id":440,"stv_port":27046,"stv_name":"Uncletopia | Dallas | 4 | Community | STV","players":null},{"server_id":5,"name":"Uncletopia | Frankfurt | 1 | All Maps","name_short":"frk-1","host":"frk-1.de.uncletopia.com","port":27015,"enabled":true,"region":"eu","cc":"de","latitude":50.110924,"longitude":8.682127,"reserved":0,"last_update":"0001-01-01T00:00:00Z","name_a2s":"Uncletopia | Frankfurt | 1 | All Maps","protocol":17,"map":"pl_swiftwater_final1","folder":"tf","game":"Team Fortress","app_id":440,"player_count":24,"max_players":24,"Bots":0,"server_type":"Dedicated","server_os":"Linux","password":true,"vac":true,"version":"7961495","steam_id":85568392924469989,"keywords":["nocrits","nodmgspread","payload","uncletopia"],"game_id":440,"stv_port":27016,"stv_name":"Uncletopia | Frankfurt | 1 | All Maps | STV","players":[{"user_id":541,"name":"‚Ä¢ME∆éM‚Ä¢","steam_id":76561199121514586,"connected_time":1664000000000,"state":"active","ping":85},{"user_id":563,"name":"Loosing_at_Games","steam_id":76561199101517352,"connected_time":717000000000,"state":"active","ping":63},{"user_id":535,"name":"benjels big day","steam_id":76561198025970709,"connected_time":2576000000000,"state":"active","ping":51},{"user_id":554,"name":"lucy","steam_id":76561198261852808,"connected_time":1130000000000,"state":"active","ping":45},{"user_id":587,"name":"manure merchant","steam_id":76561198010109316,"connected_time":105000000000,"state":"active","ping":59},{"user_id":562,"name":"skeleton_archer_1","steam_id":76561198407636430,"connected_time":820000000000,"state":"active","ping":101},{"user_id":580,"name":"Guuse","steam_id":76561198030956814,"connected_time":455000000000,"state":"active","ping":89},{"user_id":546,"name":"frey`","steam_id":76561197971548290,"connected_time":1293000000000,"state":"active","ping":72},{"user_id":547,"name":"WHUSSKEY","steam_id":76561198137827441,"connected_time":1273000000000,"state":"active","ping":65},{"user_id":569,"name":"DudeoftheRock","steam_id":76561198059401865,"connected_time":633000000000,"state":"active","ping":76},{"user_id":556,"name":"cister0","steam_id":76561198130195469,"connected_time":1079000000000,"state":"active","ping":79},{"user_id":583,"name":"Hyperion","steam_id":76561198043716162,"connected_time":285000000000,"state":"active","ping":68},{"user_id":584,"name":"GEP Gun","steam_id":76561197981821003,"connected_time":262000000000,"state":"active","ping":74},{"user_id":586,"name":"frbuz","steam_id":76561198327135462,"connected_time":159000000000,"state":"active","ping":156},{"user_id":578,"name":"peng","steam_id":76561198313672607,"connected_time":509000000000,"state":"active","ping":100},{"user_id":568,"name":"Spinya","steam_id":76561198086653667,"connected_time":657000000000,"state":"active","ping":66},{"user_id":555,"name":"ohm","steam_id":76561198817414001,"connected_time":1129000000000,"state":"active","ping":84},{"user_id":557,"name":"Tre3","steam_id":76561198054795379,"connected_time":1063000000000,"state":"active","ping":49},{"user_id":558,"name":"Vlach Shepherd","steam_id":76561199206064576,"connected_time":1060000000000,"state":"active","ping":98},{"user_id":581,"name":"zombiespira","steam_id":76561198977883996,"connected_time":378000000000,"state":"active","ping":76},{"user_id":576,"name":"Armolitskiy","steam_id":76561198443646513,"connected_time":538000000000,"state":"active","ping":125},{"user_id":582,"name":"TheAnonymeKiller","steam_id":76561198190680978,"connected_time":366000000000,"state":"active","ping":95},{"user_id":531,"name":"Nome","steam_id":76561198867982828,"connected_time":3017000000000,"state":"active","ping":119},{"user_id":577,"name":"vetzakski","steam_id":76561198988041775,"connected_time":536000000000,"state":"active","ping":75}]},{"server_id":110,"name":"Uncletopia | Frankfurt | 2 | All Maps","name_short":"frk-2","host":"frk-1.de.uncletopia.com","port":27025,"enabled":true,"region":"eu","cc":"de","latitude":50.110924,"longitude":8.682127,"reserved":0,"last_update":"0001-01-01T00:00:00Z","name_a2s":"Uncletopia | Frankfurt | 2 | All Maps","protocol":17,"map":"cp_snakewater_final1","folder":"tf","game":"Team Fortress","app_id":440,"player_count":22,"max_players":24,"Bots":0,"server_type":"Dedicated","server_os":"Linux","password":true,"vac":true,"version":"7961495","steam_id":85568392924469990,"keywords":["cp","nocrits","nodmgspread","uncletopia"],"game_id":440,"stv_port":27026,"stv_name":"Uncletopia | Frankfurt | 2 | All Maps | STV","players":[{"user_id":373,"name":"Kapitan Polska","steam_id":76561197968069413,"connected_time":320000000000,"state":"active","ping":72},{"user_id":375,"name":"ralgun","steam_id":76561198086260872,"connected_time":216000000000,"state":"active","ping":50},{"user_id":307,"name":"else1","steam_id":76561197996558319,"connected_time":4372000000000,"state":"active","ping":75},{"user_id":365,"name":"KermSlinger","steam_id":76561198854027069,"connected_time":519000000000,"state":"active","ping":68},{"user_id":367,"name":"tr4ce","steam_id":76561198085296732,"connected_time":399000000000,"state":"active","ping":51},{"user_id":368,"name":"Mafew","steam_id":76561198119993886,"connected_time":375000000000,"state":"active","ping":65},{"user_id":379,"name":"WojStaGra","steam_id":76561198157277370,"connected_time":174000000000,"state":"active","ping":89},{"user_id":370,"name":"DelT","steam_id":76561198204007537,"connected_time":356000000000,"state":"active","ping":53},{"user_id":371,"name":"TrolololNor.","steam_id":76561198324592461,"connected_time":355000000000,"state":"active","ping":53},{"user_id":372,"name":"Jerry","steam_id":76561199025516691,"connected_time":342000000000,"state":"active","ping":64},{"user_id":377,"name":"A moon goose","steam_id":76561198064734905,"connected_time":204000000000,"state":"active","ping":93},{"user_id":380,"name":"mob","steam_id":76561198099696876,"connected_time":170000000000,"state":"active","ping":63},{"user_id":382,"name":"Ziomek","steam_id":76561199131735098,"connected_time":24000000000,"state":"spawning","ping":67},{"user_id":383,"name":"quig","steam_id":76561198849663826,"connected_time":19000000000,"state":"active","ping":108},{"user_id":294,"name":"Milca_11","steam_id":76561198848650365,"connected_time":4963000000000,"state":"active","ping":224},{"user_id":351,"name":"https://www.twitch.tv/zek_q Try","steam_id":76561198862763731,"connected_time":1873000000000,"state":"active","ping":52},{"user_id":384,"name":"Lag","steam_id":76561198159360376,"connected_time":19000000000,"state":"active","ping":65},{"user_id":346,"name":"myon","steam_id":76561197992528570,"connected_time":2307000000000,"state":"active","ping":80},{"user_id":336,"name":"_Ducky_","steam_id":76561198064567728,"connected_time":2968000000000,"state":"active","ping":58},{"user_id":269,"name":"def","steam_id":76561198857396812,"connected_time":6540000000000,"state":"active","ping":48},{"user_id":342,"name":"leonardini.w","steam_id":76561199097963071,"connected_time":2706000000000,"state":"active","ping":88},{"user_id":345,"name":"Miito","steam_id":76561198188000642,"connected_time":2375000000000,"state":"active","ping":63}]},{"server_id":308,"name":"Uncletopia | Frankfurt | 3 | All Maps","name_short":"frk-3","host":"frk-1.de.uncletopia.com","port":27035,"enabled":true,"region":"eu","cc":"de","latitude":50.110924,"longitude":8.682127,"reserved":0,"last_update":"0001-01-01T00:00:00Z","name_a2s":"Uncletopia | Frankfurt | 3 | All Maps","protocol":17,"map":"cp_altitude","folder":"tf","game":"Team Fortress","app_id":440,"player_count":20,"max_players":24,"Bots":0,"server_type":"Dedicated","server_os":"Linux","password":true,"vac":true,"version":"7961495","steam_id":85568392924504274,"keywords":["cp","nocrits","nodmgspread","uncletopia"],"game_id":440,"stv_port":27036,"stv_name":"Uncletopia | Frankfurt | 3 | All Maps | STV","players":[{"user_id":38,"name":"2bunnies","steam_id":76561198866822016,"connected_time":3043000000000,"state":"active","ping":57},{"user_id":97,"name":"flavio.savo09","steam_id":76561199071685483,"connected_time":60000000000,"state":"active","ping":64},{"user_id":95,"name":"emir","steam_id":76561198113089831,"connected_time":556000000000,"state":"active","ping":89},{"user_id":91,"name":"Bony Bertha","steam_id":76561198977948250,"connected_time":747000000000,"state":"active","ping":61},{"user_id":74,"name":"efffcraft","steam_id":76561198306317166,"connected_time":1838000000000,"state":"active","ping":90},{"user_id":98,"name":"cockroach","steam_id":76561198841841656,"connected_time":17000000000,"state":"active","ping":75},{"user_id":83,"name":"Í∞úÏÉà]ÌÇ§Ïïº","steam_id":76561198190451031,"connected_time":1308000000000,"state":"active","ping":46},{"user_id":71,"name":"Trash Compactor","steam_id":76561199383047989,"connected_time":1940000000000,"state":"active","ping":101},{"user_id":62,"name":"KGiorgios_Bully","steam_id":76561198825392728,"connected_time":2465000000000,"state":"active","ping":102},{"user_id":35,"name":"Arsonist","steam_id":76561199087953833,"connected_time":3123000000000,"state":"active","ping":104},{"user_id":36,"name":"Latgaul","steam_id":76561199009145544,"connected_time":3112000000000,"state":"active","ping":96},{"user_id":41,"name":"Reffy the femboy","steam_id":76561199168952494,"connected_time":2939000000000,"state":"active","ping":46},{"user_id":86,"name":"fish","steam_id":76561198092096689,"connected_time":1132000000000,"state":"active","ping":45},{"user_id":45,"name":"dirhs","steam_id":76561198383867611,"connected_time":2862000000000,"state":"active","ping":63},{"user_id":68,"name":"Big Trader","steam_id":76561197992364667,"connected_time":2084000000000,"state":"active","ping":64},{"user_id":77,"name":"Nipa5000","steam_id":76561199027332005,"connected_time":1564000000000,"state":"active","ping":81},{"user_id":96,"name":"Monkey","steam_id":76561199008411791,"connected_time":131000000000,"state":"active","ping":48},{"user_id":80,"name":"alfus","steam_id":76561198071003109,"connected_time":1377000000000,"state":"active","ping":53},{"user_id":51,"name":"hoizil","steam_id":76561198800688436,"connected_time":2807000000000,"state":"active","ping":64},{"user_id":93,"name":"tensh1","steam_id":76561198282471866,"connected_time":721000000000,"state":"active","ping":107}]},{"server_id":309,"name":"Uncletopia | Frankfurt | 4 | All Maps","name_short":"frk-4","host":"frk-1.de.uncletopia.com","port":27045,"enabled":true,"region":"eu","cc":"de","latitude":50.110924,"longitude":8.682127,"reserved":0,"last_update":"0001-01-01T00:00:00Z","name_a2s":"Uncletopia | Frankfurt | 4 | All Maps","protocol":17,"map":"pl_barnblitz","folder":"tf","game":"Team Fortress","app_id":440,"player_count":22,"max_players":24,"Bots":0,"server_type":"Dedicated","server_os":"Linux","password":true,"vac":true,"version":"7961495","steam_id":85568392924504275,"keywords":["nocrits","nodmgspread","payload","uncletopia"],"game_id":440,"stv_port":27046,"stv_name":"Uncletopia | Frankfurt | 4 | All Maps | STV","players":[{"user_id":152,"name":"Creamy","steam_id":76561198063907478,"connected_time":1552000000000,"state":"active","ping":72},{"user_id":140,"name":"kastanomata","steam_id":76561198271832763,"connected_time":1830000000000,"state":"active","ping":79},{"user_id":174,"name":"benny","steam_id":76561198115333087,"connected_time":23000000000,"state":"active","ping":59},{"user_id":157,"name":"hbivnm","steam_id":76561197996468677,"connected_time":886000000000,"state":"active","ping":45},{"user_id":169,"name":"Syd","steam_id":76561198020515027,"connected_time":400000000000,"state":"active","ping":91},{"user_id":165,"name":"SolidShade","steam_id":76561198219790681,"connected_time":624000000000,"state":"active","ping":83},{"user_id":170,"name":"Rops","steam_id":76561198031608011,"connected_time":346000000000,"state":"active","ping":76},{"user_id":119,"name":"S. Krypt","steam_id":76561199387501738,"connected_time":3531000000000,"state":"active","ping":61},{"user_id":171,"name":"dafydd","steam_id":76561198052200325,"connected_time":161000000000,"state":"active","ping":74},{"user_id":144,"name":"Veliki Gospar","steam_id":76561198077733475,"connected_time":1736000000000,"state":"active","ping":58},{"user_id":145,"name":"Tortgamer","steam_id":76561198423709756,"connected_time":1734000000000,"state":"active","ping":70},{"user_id":172,"name":"Endi","steam_id":76561198914938199,"connected_time":92000000000,"state":"active","ping":89},{"user_id":173,"name":"literallyjasonx","steam_id":76561198835895387,"connected_time":81000000000,"state":"active","ping":79},{"user_id":158,"name":"los pollos hermanos","steam_id":76561198988867951,"connected_time":845000000000,"state":"active","ping":68},{"user_id":128,"name":"NoPfizer","steam_id":76561198307914381,"connected_time":2568000000000,"state":"active","ping":56},{"user_id":160,"name":"monocle chicken","steam_id":76561199020106029,"connected_time":780000000000,"state":"active","ping":85},{"user_id":159,"name":"mertefe","steam_id":76561199237126613,"connected_time":823000000000,"state":"active","ping":114},{"user_id":166,"name":"Vel0city","steam_id":76561198049687798,"connected_time":575000000000,"state":"active","ping":49},{"user_id":148,"name":"Realuser30","steam_id":76561198077550318,"connected_time":1691000000000,"state":"active","ping":47},{"user_id":162,"name":"dzgnated","steam_id":76561198026927089,"connected_time":719000000000,"state":"active","ping":109},{"user_id":167,"name":"Mister","steam_id":76561199049647854,"connected_time":554000000000,"state":"active","ping":52},{"user_id":168,"name":"Raivop","steam_id":76561197980854307,"connected_time":554000000000,"state":"active","ping":96}]},{"server_id":310,"name":"Uncletopia | Frankfurt | 5 | All Maps","name_short":"frk-5","host":"frk-1.de.uncletopia.com","port":27055,"enabled":true,"region":"eu","cc":"de","latitude":50.110924,"longitude":8.682127,"reserved":0,"last_update":"0001-01-01T00:00:00Z","name_a2s":"Uncletopia | Frankfurt | 5 | All Maps","protocol":17,"map":"pl_thundermountain","folder":"tf","game":"Team Fortress","app_id":440,"player_count":24,"max_players":24,"Bots":0,"server_type":"Dedicated","server_os":"Linux","password":true,"vac":true,"version":"7961495","steam_id":85568392924504277,"keywords":["nocrits","nodmgspread","payload","uncletopia"],"game_id":440,"stv_port":27056,"stv_name":"Uncletopia | Frankfurt | 5 | All Maps | STV","players":[{"user_id":367,"name":"Pico","steam_id":76561198063552545,"connected_time":2601000000000,"state":"active","ping":101},{"user_id":377,"name":"RocketBoy08","steam_id":76561198833978944,"connected_time":1215000000000,"state":"active","ping":89},{"user_id":388,"name":"Level","steam_id":76561198330505781,"connected_time":301000000000,"state":"active","ping":60},{"user_id":371,"name":"Oghuaha","steam_id":76561198181087086,"connected_time":2213000000000,"state":"active","ping":117},{"user_id":393,"name":"yeldad","steam_id":76561198447264153,"connected_time":193000000000,"state":"active","ping":115},{"user_id":387,"name":"Minecraftamere","steam_id":76561198045358081,"connected_time":339000000000,"state":"active","ping":62},{"user_id":369,"name":"Schiever","steam_id":76561198052136026,"connected_time":2244000000000,"state":"active","ping":56},{"user_id":389,"name":"EEEEEH","steam_id":76561198126717413,"connected_time":284000000000,"state":"active","ping":72},{"user_id":397,"name":"omony","steam_id":76561197983750025,"connected_time":149000000000,"state":"active","ping":86},{"user_id":383,"name":"Nick","steam_id":76561198036109469,"connected_time":724000000000,"state":"active","ping":90},{"user_id":394,"name":"KABOOM!!!!!","steam_id":76561199229964664,"connected_time":192000000000,"state":"active","ping":600},{"user_id":398,"name":"F","steam_id":76561199149462792,"connected_time":97000000000,"state":"active","ping":64},{"user_id":399,"name":"Yves","steam_id":76561198359804640,"connected_time":76000000000,"state":"active","ping":44},{"user_id":400,"name":"Delcup","steam_id":76561199006338376,"connected_time":65000000000,"state":"spawning","ping":105},{"user_id":401,"name":"Hippuloiden jongleeraaja","steam_id":76561198093458326,"connected_time":64000000000,"state":"active","ping":49},{"user_id":340,"name":"Mr. Mundy","steam_id":76561198132008918,"connected_time":4205000000000,"state":"active","ping":85},{"user_id":341,"name":"Tuosan","steam_id":76561198062611429,"connected_time":4177000000000,"state":"active","ping":74},{"user_id":402,"name":"üúè Drepp","steam_id":76561197998867164,"connected_time":37000000000,"state":"spawning","ping":53},{"user_id":384,"name":"¬°!Ulexos!¬°","steam_id":76561198087502998,"connected_time":712000000000,"state":"active","ping":50},{"user_id":403,"name":"iirvas","steam_id":76561198095979063,"connected_time":31000000000,"state":"active","ping":79},{"user_id":364,"name":"your sister","steam_id":76561198154734428,"connected_time":3002000000000,"state":"active","ping":118},{"user_id":404,"name":"StejlBiskutt","steam_id":76561198136661610,"connected_time":6000000000,"state":"spawning","ping":89},{"user_id":385,"name":"rower123","steam_id":76561198265062481,"connected_time":651000000000,"state":"active","ping":76},{"user_id":381,"name":"M√ºesli","steam_id":76561198183105149,"connected_time":851000000000,"state":"active","ping":32}]},{"server_id":311,"name":"Uncletopia | Frankfurt | 6 | All Maps","name_short":"frk-6","host":"frk-1.de.uncletopia.com","port":27065,"enabled":true,"region":"eu","cc":"de","latitude":50.110924,"longitude":8.682127,"reserved":0,"last_update":"0001-01-01T00:00:00Z","name_a2s":"Uncletopia | Frankfurt | 6 | All Maps","protocol":17,"map":"pl_pier","folder":"tf","game":"Team Fortress","app_id":440,"player_count":24,"max_players":24,"Bots":0,"server_type":"Dedicated","server_os":"Linux","password":true,"vac":true,"version":"7961495","steam_id":85568392924504278,"keywords":["nocrits","nodmgspread","payload","uncletopia"],"game_id":440,"stv_port":27066,"stv_name":"Uncletopia | Frankfurt | 6 | All Maps | STV","players":[{"user_id":328,"name":"Doriian","steam_id":76561198071438810,"connected_time":1080000000000,"state":"active","ping":77},{"user_id":302,"name":"omar whateew omar","steam_id":76561198078862151,"connected_time":2152000000000,"state":"active","ping":73},{"user_id":303,"name":"Kekster","steam_id":76561198302448192,"connected_time":2095000000000,"state":"active","ping":36},{"user_id":340,"name":"lupus","steam_id":76561198019146522,"connected_time":386000000000,"state":"active","ping":59},{"user_id":306,"name":"Hundehunde (137)","steam_id":76561198028683991,"connected_time":1871000000000,"state":"active","ping":53},{"user_id":307,"name":"rockBustaz","steam_id":76561198088290698,"connected_time":1855000000000,"state":"active","ping":61},{"user_id":290,"name":"joni","steam_id":76561198048957139,"connected_time":2496000000000,"state":"active","ping":47},{"user_id":326,"name":"stonebum","steam_id":76561198057004606,"connected_time":1193000000000,"state":"active","ping":54},{"user_id":308,"name":"slogar","steam_id":76561198046191991,"connected_time":1834000000000,"state":"active","ping":57},{"user_id":334,"name":"Janfors","steam_id":76561198874152503,"connected_time":632000000000,"state":"active","ping":77},{"user_id":312,"name":"mrflipflop","steam_id":76561198201617170,"connected_time":1475000000000,"state":"active","ping":61},{"user_id":313,"name":"Mia_","steam_id":76561198042757059,"connected_time":1443000000000,"state":"active","ping":63},{"user_id":314,"name":"Rimx","steam_id":76561198053034840,"connected_time":1441000000000,"state":"active","ping":94},{"user_id":320,"name":"Toasty5050","steam_id":76561198073540881,"connected_time":1393000000000,"state":"active","ping":46},{"user_id":329,"name":"Senor Ding Dong","steam_id":76561198102702616,"connected_time":918000000000,"state":"active","ping":73},{"user_id":336,"name":"Big Rod","steam_id":76561198353087230,"connected_time":567000000000,"state":"active","ping":73},{"user_id":276,"name":"sHIFTINGvORTEX","steam_id":76561198231648332,"connected_time":3045000000000,"state":"active","ping":70},{"user_id":277,"name":"Mazz","steam_id":76561197996391673,"connected_time":3035000000000,"state":"active","ping":76},{"user_id":325,"name":"nutsagger","steam_id":76561198089221888,"connected_time":1273000000000,"state":"active","ping":62},{"user_id":331,"name":"WhyNotFans","steam_id":76561198259507564,"connected_time":819000000000,"state":"active","ping":80},{"user_id":342,"name":"Pan Prezydent","steam_id":76561198354738139,"connected_time":340000000000,"state":"active","ping":76},{"user_id":341,"name":"Zodaick","steam_id":76561198083662129,"connected_time":361000000000,"state":"active","ping":57},{"user_id":318,"name":"lunchback of notre dame","steam_id":76561199136755064,"connected_time":1411000000000,"state":"active","ping":56},{"user_id":337,"name":"FNF","steam_id":76561199151422826,"connected_time":561000000000,"state":"active","ping":131}]},{"server_id":23,"name":"Uncletopia | Frankfurt | 7 | Stopwatch","name_short":"frk-7","host":"frk-1.de.uncletopia.com","port":27075,"enabled":true,"region":"eu","cc":"de","latitude":50.110924,"longitude":8.682127,"reserved":0,"last_update":"0001-01-01T00:00:00Z","name_a2s":"Uncletopia | Frankfurt | 7 | Stopwatch","protocol":17,"map":"workshop/koth_ramjam_rc1.ugc459778887","folder":"tf","game":"Team Fortress","app_id":440,"player_count":2,"max_players":24,"Bots":0,"server_type":"Dedicated","server_os":"Linux","password":true,"vac":true,"version":"7961495","steam_id":85568392924742827,"keywords":["cp","nocrits","nodmgspread","uncletopia"],"game_id":440,"stv_port":27076,"stv_name":"Uncletopia | Frankfurt | 7 | Stopwatch | STV","players":[{"user_id":17,"name":"Gul'dan","steam_id":76561198240466940,"connected_time":1843000000000,"state":"active","ping":73},{"user_id":21,"name":"christoph","steam_id":76561198862617811,"connected_time":517000000000,"state":"active","ping":66}]},{"server_id":24,"name":"Uncletopia | Frankfurt | 8 | Community","name_short":"frk-8","host":"frk-1.de.uncletopia.com","port":27085,"enabled":true,"region":"eu","cc":"de","latitude":50.110924,"longitude":8.682127,"reserved":0,"last_update":"0001-01-01T00:00:00Z","name_a2s":"Uncletopia | Frankfurt | 8 | Community","protocol":17,"map":"workshop/cp_coilblaze_rc7.ugc1272700588","folder":"tf","game":"Team Fortress","app_id":440,"player_count":0,"max_players":24,"Bots":0,"server_type":"Dedicated","server_os":"Linux","password":true,"vac":true,"version":"7961495","steam_id":85568392924742828,"keywords":["cp","nocrits","nodmgspread","uncletopia"],"game_id":440,"stv_port":27086,"stv_name":"Uncletopia | Frankfurt | 8 | Community | STV","players":null},{"server_id":202,"name":"Uncletopia | Hong Kong | 1 | All Maps","name_short":"hgk-1","host":"hgk-1.hk.uncletopia.com","port":27015,"enabled":true,"region":"asia","cc":"hk","latitude":22.302711,"longitude":114.177216,"reserved":0,"last_update":"0001-01-01T00:00:00Z","name_a2s":"Uncletopia | Hong Kong | 1 | All Maps","protocol":17,"map":"cp_mountainlab","folder":"tf","game":"Team Fortress","app_id":440,"player_count":0,"max_players":24,"Bots":0,"server_type":"Dedicated","server_os":"Linux","password":true,"vac":true,"version":"7961495","steam_id":85568392924494504,"keywords":["cp","nocrits","nodmgspread","uncletopia"],"game_id":440,"stv_port":27016,"stv_name":"Uncletopia | Hong Kong | 1 | All Maps | STV","players":null},{"server_id":1,"name":"Uncletopia | Los Angeles | 1 | All Maps","name_short":"lax-1","host":"lax-1.us.uncletopia.com","port":27015,"enabled":true,"region":"us-west","cc":"us","latitude":33.94279,"longitude":-118.41004,"reserved":0,"last_update":"0001-01-01T00:00:00Z","name_a2s":"Uncletopia | Los Angeles | 1 | All Maps","protocol":17,"map":"cp_dustbowl","folder":"tf","game":"Team Fortress","app_id":440,"player_count":0,"max_players":24,"Bots":0,"server_type":"Dedicated","server_os":"Linux","password":true,"vac":true,"version":"7961495","steam_id":85568392924469991,"keywords":["cp","nocrits","nodmgspread","uncletopia"],"game_id":440,"stv_port":27016,"stv_name":"Uncletopia | Los Angeles | 1 | All Maps | STV","players":null},{"server_id":112,"name":"Uncletopia | Los Angeles | 2 | All Maps","name_short":"lax-2","host":"lax-1.us.uncletopia.com","port":27025,"enabled":true,"region":"us-west","cc":"us","latitude":33.94279,"longitude":-118.41004,"reserved":0,"last_update":"0001-01-01T00:00:00Z","name_a2s":"Uncletopia | Los Angeles | 2 | All Maps","protocol":17,"map":"cp_snakewater_final1","folder":"tf","game":"Team Fortress","app_id":440,"player_count":0,"max_players":24,"Bots":0,"server_type":"Dedicated","server_os":"Linux","password":true,"vac":true,"version":"7961495","steam_id":85568392924469992,"keywords":["cp","nocrits","nodmgspread","uncletopia"],"game_id":440,"stv_port":27026,"stv_name":"Uncletopia | Los Angeles | 2 | All Maps | STV","players":null},{"server_id":324,"name":"Uncletopia | Los Angeles | 3 | All Maps","name_short":"lax-3","host":"lax-1.us.uncletopia.com","port":27035,"enabled":true,"region":"us-west","cc":"us","latitude":33.94279,"longitude":-118.41004,"reserved":0,"last_update":"0001-01-01T00:00:00Z","name_a2s":"Uncletopia | Los Angeles | 3 | All Maps","protocol":17,"map":"pl_frontier_final","folder":"tf","game":"Team Fortress","app_id":440,"player_count":0,"max_players":24,"Bots":0,"server_type":"Dedicated","server_os":"Linux","password":true,"vac":true,"version":"7961495","steam_id":85568392924510198,"keywords":["nocrits","nodmgspread","payload","uncletopia"],"game_id":440,"stv_port":27036,"stv_name":"Uncletopia | Los Angeles | 3 | All Maps | STV","players":null},{"server_id":25,"name":"Uncletopia | Los Angeles | 4 | Stopwatch","name_short":"lax-4","host":"lax-1.us.uncletopia.com","port":27045,"enabled":true,"region":"us-west","cc":"us","latitude":33.94279,"longitude":-118.41004,"reserved":0,"last_update":"0001-01-01T00:00:00Z","name_a2s":"Uncletopia | Los Angeles | 4 | Stopwatch","protocol":17,"map":"pl_barnblitz","folder":"tf","game":"Team Fortress","app_id":440,"player_count":0,"max_players":24,"Bots":0,"server_type":"Dedicated","server_os":"Linux","password":true,"vac":true,"version":"7961495","steam_id":85568392924510199,"keywords":["nocrits","nodmgspread","payload","uncletopia"],"game_id":440,"stv_port":27046,"stv_name":"Uncletopia | Los Angeles | 4 | Stopwatch | STV","players":null},{"server_id":11,"name":"Uncletopia | London | 1 | All Maps","name_short":"lon-1","host":"lon-1.uk.uncletopia.com","port":27015,"enabled":true,"region":"eu","cc":"gb","latitude":51.509865,"longitude":-0.118092,"reserved":0,"last_update":"0001-01-01T00:00:00Z","name_a2s":"Uncletopia | London | 1 | All Maps","protocol":17,"map":"cp_altitude","folder":"tf","game":"Team Fortress","app_id":440,"player_count":24,"max_players":24,"Bots":0,"server_type":"Dedicated","server_os":"Linux","password":true,"vac":true,"version":"7961495","steam_id":85568392924367362,"keywords":["cp","nocrits","nodmgspread","uncletopia"],"game_id":440,"stv_port":27016,"stv_name":"Uncletopia | London | 1 | All Maps | STV","players":[{"user_id":455,"name":"Dale ‚ù§","steam_id":76561197995189004,"connected_time":4998000000000,"state":"active","ping":49},{"user_id":434,"name":"hhhhhh","steam_id":76561198031982574,"connected_time":7108000000000,"state":"active","ping":69},{"user_id":500,"name":"Jouppi","steam_id":76561198063725468,"connected_time":326000000000,"state":"active","ping":104},{"user_id":502,"name":"Blar","steam_id":76561198042438229,"connected_time":318000000000,"state":"active","ping":59},{"user_id":496,"name":"Kahvi","steam_id":76561198723244199,"connected_time":506000000000,"state":"active","ping":87},{"user_id":488,"name":"Orbit","steam_id":76561198242999878,"connected_time":1794000000000,"state":"active","ping":55},{"user_id":506,"name":"AsianPersuasion","steam_id":76561198202112536,"connected_time":39000000000,"state":"active","ping":57},{"user_id":501,"name":"Archer","steam_id":76561197994239444,"connected_time":325000000000,"state":"active","ping":116},{"user_id":477,"name":"Don Martins brother","steam_id":76561198112980346,"connected_time":3184000000000,"state":"active","ping":59},{"user_id":505,"name":"ultralight","steam_id":76561198022046842,"connected_time":220000000000,"state":"active","ping":78},{"user_id":491,"name":"Slifer the Sky Dragon","steam_id":76561198062255803,"connected_time":1306000000000,"state":"active","ping":80},{"user_id":504,"name":"Mastenbier","steam_id":76561199067658590,"connected_time":246000000000,"state":"active","ping":140},{"user_id":466,"name":"TheGuyFromFortnite","steam_id":76561199099649565,"connected_time":4406000000000,"state":"active","ping":74},{"user_id":492,"name":"‚ú™ Danny","steam_id":76561198104483241,"connected_time":1088000000000,"state":"active","ping":55},{"user_id":503,"name":"‚∏∏aura‚∏∏","steam_id":76561198066258544,"connected_time":301000000000,"state":"active","ping":61},{"user_id":433,"name":"Fran","steam_id":76561199070516960,"connected_time":7132000000000,"state":"active","ping":72},{"user_id":478,"name":"Amandus","steam_id":76561198036281079,"connected_time":2985000000000,"state":"active","ping":60},{"user_id":489,"name":"Jara.","steam_id":76561197992207165,"connected_time":1783000000000,"state":"active","ping":106},{"user_id":439,"name":"Lux","steam_id":76561198060417740,"connected_time":6090000000000,"state":"active","ping":46},{"user_id":482,"name":"Martini","steam_id":76561198086977720,"connected_time":2186000000000,"state":"active","ping":79},{"user_id":479,"name":"pc \u003c shoe","steam_id":76561198071440081,"connected_time":2341000000000,"state":"active","ping":91},{"user_id":490,"name":"Thobias18","steam_id":76561198232561380,"connected_time":1777000000000,"state":"active","ping":103},{"user_id":469,"name":"TenguzOW","steam_id":76561199229674341,"connected_time":4337000000000,"state":"active","ping":68},{"user_id":499,"name":"flappi","steam_id":76561198072892783,"connected_time":339000000000,"state":"active","ping":74}]},{"server_id":114,"name":"Uncletopia | London | 2 | All Maps","name_short":"lon-2","host":"lon-1.uk.uncletopia.com","port":27025,"enabled":true,"region":"eu","cc":"gb","latitude":51.509865,"longitude":-0.118092,"reserved":0,"last_update":"0001-01-01T00:00:00Z","name_a2s":"Uncletopia | London | 2 | All Maps","protocol":17,"map":"cp_gravelpit","folder":"tf","game":"Team Fortress","app_id":440,"player_count":24,"max_players":24,"Bots":0,"server_type":"Dedicated","server_os":"Linux","password":true,"vac":true,"version":"7961495","steam_id":85568392924470941,"keywords":["cp","nocrits","nodmgspread","uncletopia"],"game_id":440,"stv_port":27026,"stv_name":"Uncletopia | London | 2 | All Maps | STV","players":[{"user_id":285,"name":"willfonjr","steam_id":76561198850388985,"connected_time":678000000000,"state":"active","ping":59},{"user_id":176,"name":"Rockwell Retro Encabulator","steam_id":76561198420349969,"connected_time":6132000000000,"state":"active","ping":109},{"user_id":286,"name":"Philiq","steam_id":76561198013695548,"connected_time":672000000000,"state":"active","ping":61},{"user_id":229,"name":"Cattwood","steam_id":76561198054308015,"connected_time":3753000000000,"state":"active","ping":41},{"user_id":284,"name":"Joetron","steam_id":76561198267907985,"connected_time":756000000000,"state":"active","ping":49},{"user_id":294,"name":"Axolotl","steam_id":76561198042135647,"connected_time":470000000000,"state":"active","ping":70},{"user_id":288,"name":"chinese name","steam_id":76561198069649097,"connected_time":566000000000,"state":"active","ping":62},{"user_id":299,"name":"the wagoog","steam_id":76561198354604708,"connected_time":60000000000,"state":"active","ping":58},{"user_id":280,"name":"kyra","steam_id":76561198412004372,"connected_time":1122000000000,"state":"active","ping":63},{"user_id":281,"name":"Odinmuninn99","steam_id":76561198393712705,"connected_time":1083000000000,"state":"active","ping":97},{"user_id":240,"name":"skittish maiden","steam_id":76561198096856475,"connected_time":3447000000000,"state":"active","ping":47},{"user_id":241,"name":"Beanie","steam_id":76561198173882658,"connected_time":3446000000000,"state":"active","ping":47},{"user_id":298,"name":"Egor Pomidor","steam_id":76561199175688390,"connected_time":214000000000,"state":"active","ping":79},{"user_id":291,"name":"UnusedEngine","steam_id":76561199281868902,"connected_time":508000000000,"state":"active","ping":44},{"user_id":295,"name":"Onbeheerde_Jongeheer","steam_id":76561198051685232,"connected_time":457000000000,"state":"active","ping":45},{"user_id":257,"name":"eva","steam_id":76561198054474684,"connected_time":2905000000000,"state":"active","ping":82},{"user_id":297,"name":"PROFILE NAME","steam_id":76561198180056982,"connected_time":342000000000,"state":"active","ping":56},{"user_id":268,"name":"orange","steam_id":76561198153181940,"connected_time":2447000000000,"state":"active","ping":56},{"user_id":293,"name":"rubn","steam_id":76561198119586410,"connected_time":500000000000,"state":"active","ping":66},{"user_id":283,"name":"Alyx","steam_id":76561198064654326,"connected_time":969000000000,"state":"active","ping":64},{"user_id":258,"name":"Xallog","steam_id":76561198050061597,"connected_time":2885000000000,"state":"active","ping":44},{"user_id":296,"name":"Nervo","steam_id":76561198016534804,"connected_time":456000000000,"state":"active","ping":89},{"user_id":276,"name":"Bonuxer","steam_id":76561198093098132,"connected_time":1975000000000,"state":"active","ping":93},{"user_id":277,"name":"Xenophon","steam_id":76561198158781327,"connected_time":1915000000000,"state":"active","ping":54}]},{"server_id":320,"name":"Uncletopia | London | 3 | All Maps","name_short":"lon-3","host":"lon-1.uk.uncletopia.com","port":27035,"enabled":true,"region":"eu","cc":"gb","latitude":51.509865,"longitude":-0.118092,"reserved":0,"last_update":"0001-01-01T00:00:00Z","name_a2s":"Uncletopia | London | 3 | All Maps","protocol":17,"map":"pl_upward","folder":"tf","game":"Team Fortress","app_id":440,"player_count":24,"max_players":24,"Bots":0,"server_type":"Dedicated","server_os":"Linux","password":true,"vac":true,"version":"7961495","steam_id":85568392924510192,"keywords":["nocrits","nodmgspread","payload","uncletopia"],"game_id":440,"stv_port":27036,"stv_name":"Uncletopia | London | 3 | All Maps | STV","players":[{"user_id":53,"name":"CORGI.EXE","steam_id":76561198077093432,"connected_time":1649000000000,"state":"active","ping":120},{"user_id":51,"name":"MEDiUM","steam_id":76561198112328561,"connected_time":1682000000000,"state":"active","ping":83},{"user_id":50,"name":"Xeno","steam_id":76561198975556646,"connected_time":1756000000000,"state":"active","ping":51},{"user_id":37,"name":"Wardruna96","steam_id":76561199057083828,"connected_time":2246000000000,"state":"active","ping":80},{"user_id":52,"name":"Welder","steam_id":76561198355300561,"connected_time":1681000000000,"state":"active","ping":73},{"user_id":79,"name":"Adwulf","steam_id":76561198045489942,"connected_time":543000000000,"state":"active","ping":43},{"user_id":19,"name":"Felwo3","steam_id":76561199217352978,"connected_time":2769000000000,"state":"active","ping":104},{"user_id":20,"name":"Ixsus\u003c3","steam_id":76561198094756869,"connected_time":2731000000000,"state":"active","ping":60},{"user_id":69,"name":"Milk","steam_id":76561198125876588,"connected_time":1033000000000,"state":"active","ping":44},{"user_id":23,"name":"FlameTheGame","steam_id":76561198841108519,"connected_time":2615000000000,"state":"active","ping":100},{"user_id":80,"name":"W","steam_id":76561198190816499,"connected_time":531000000000,"state":"active","ping":75},{"user_id":100,"name":"Standingo","steam_id":76561198035642311,"connected_time":43000000000,"state":"active","ping":113},{"user_id":75,"name":"Zero Sleep Gaming","steam_id":76561198982674420,"connected_time":762000000000,"state":"active","ping":40},{"user_id":48,"name":"NaVi''Un1Soft''","steam_id":76561199059076097,"connected_time":1770000000000,"state":"active","ping":88},{"user_id":97,"name":"Virgineer","steam_id":76561199140814522,"connected_time":137000000000,"state":"active","ping":91},{"user_id":35,"name":"DrExplosive","steam_id":76561198063678579,"connected_time":2358000000000,"state":"active","ping":53},{"user_id":73,"name":"wtabs","steam_id":76561198831766743,"connected_time":881000000000,"state":"active","ping":84},{"user_id":57,"name":"·¥ÄÍú±·¥ã·¥ú ü·¥Ä·¥ò","steam_id":76561197992018795,"connected_time":1603000000000,"state":"active","ping":85},{"user_id":78,"name":"Poule De Combat","steam_id":76561198002108430,"connected_time":665000000000,"state":"active","ping":68},{"user_id":77,"name":"‚ìÅ‚ìû‚ì¶‚ì°‚ìò‚ìì‚ìî‚ì°œü‚´ö","steam_id":76561198993777854,"connected_time":675000000000,"state":"active","ping":70},{"user_id":98,"name":"rets_","steam_id":76561198061551392,"connected_time":104000000000,"state":"active","ping":63},{"user_id":90,"name":"sCOOB","steam_id":76561198164142917,"connected_time":299000000000,"state":"active","ping":81},{"user_id":103,"name":"Cthulhu7901","steam_id":76561198188363679,"connected_time":15000000000,"state":"active","ping":106},{"user_id":102,"name":"Mammut","steam_id":76561198056773933,"connected_time":31000000000,"state":"spawning","ping":63}]},{"server_id":321,"name":"Uncletopia | London | 4 | All Maps","name_short":"lon-4","host":"lon-1.uk.uncletopia.com","port":27045,"enabled":true,"region":"eu","cc":"gb","latitude":51.509865,"longitude":-0.118092,"reserved":0,"last_update":"0001-01-01T00:00:00Z","name_a2s":"Uncletopia | London | 4 | All Maps","protocol":17,"map":"pl_badwater","folder":"tf","game":"Team Fortress","app_id":440,"player_count":24,"max_players":24,"Bots":0,"server_type":"Dedicated","server_os":"Linux","password":true,"vac":true,"version":"7961495","steam_id":85568392924510193,"keywords":["nocrits","nodmgspread","payload","uncletopia"],"game_id":440,"stv_port":27046,"stv_name":"Uncletopia | London | 4 | All Maps | STV","players":[{"user_id":357,"name":"Average Chinese Man","steam_id":76561199076883472,"connected_time":1081000000000,"state":"active","ping":71},{"user_id":375,"name":"Ersin_Asik","steam_id":76561198946468736,"connected_time":99000000000,"state":"active","ping":122},{"user_id":369,"name":"A Shoelace","steam_id":76561198126726364,"connected_time":423000000000,"state":"active","ping":61},{"user_id":277,"name":"Luciat","steam_id":76561198114216087,"connected_time":7158000000000,"state":"active","ping":42},{"user_id":372,"name":"janfwajfnjnafjnagfjnaegja","steam_id":76561198963378933,"connected_time":189000000000,"state":"active","ping":42},{"user_id":310,"name":"Dogdigger","steam_id":76561198032893130,"connected_time":4680000000000,"state":"active","ping":94},{"user_id":271,"name":"Snowy","steam_id":76561198169992461,"connected_time":7383000000000,"state":"active","ping":33},{"user_id":334,"name":"kurage","steam_id":76561198021221288,"connected_time":3020000000000,"state":"active","ping":71},{"user_id":349,"name":"Margaret Thatcher","steam_id":76561198124463930,"connected_time":1475000000000,"state":"active","ping":41},{"user_id":338,"name":"[Sheep] Tomco","steam_id":76561198388549261,"connected_time":2672000000000,"state":"active","ping":61},{"user_id":371,"name":"catstew","steam_id":76561198119449463,"connected_time":234000000000,"state":"active","ping":60},{"user_id":350,"name":"Elsuedi","steam_id":76561198074722832,"connected_time":1465000000000,"state":"active","ping":63},{"user_id":346,"name":"a succulent chinese meal","steam_id":76561198075539799,"connected_time":1922000000000,"state":"active","ping":47},{"user_id":373,"name":"‚òÅ Laz","steam_id":76561197978099948,"connected_time":169000000000,"state":"active","ping":61},{"user_id":365,"name":"weaj","steam_id":76561198053628243,"connected_time":714000000000,"state":"active","ping":42},{"user_id":358,"name":"KLAMA  ‚ù§","steam_id":76561198351549661,"connected_time":1081000000000,"state":"active","ping":74},{"user_id":336,"name":"gamerkiddo","steam_id":76561198047380360,"connected_time":2917000000000,"state":"active","ping":48},{"user_id":355,"name":"Sicko Mode (Chris Pratt Cover)","steam_id":76561198315786174,"connected_time":1109000000000,"state":"active","ping":115},{"user_id":363,"name":"ding ga linga ling","steam_id":76561199502089387,"connected_time":881000000000,"state":"active","ping":103},{"user_id":376,"name":"TheOxideGamer","steam_id":76561199445897326,"connected_time":95000000000,"state":"active","ping":87},{"user_id":326,"name":"HarmlessCanine2","steam_id":76561198389475312,"connected_time":3534000000000,"state":"active","ping":56},{"user_id":359,"name":"Topiv","steam_id":76561198282442030,"connected_time":1058000000000,"state":"active","ping":73},{"user_id":352,"name":"Udinese Dion","steam_id":76561198067931573,"connected_time":1162000000000,"state":"active","ping":53},{"user_id":382,"name":"dunduu","steam_id":76561198875240717,"connected_time":21000000000,"state":"active","ping":82}]},{"server_id":21,"name":"Uncletopia | London | 5 | All Maps","name_short":"lon-5","host":"lon-1.uk.uncletopia.com","port":27055,"enabled":true,"region":"eu","cc":"gb","latitude":51.509865,"longitude":-0.118092,"reserved":0,"last_update":"0001-01-01T00:00:00Z","name_a2s":"Uncletopia | London | 5 | All Maps","protocol":17,"map":"pl_snowycoast","folder":"tf","game":"Team Fortress","app_id":440,"player_count":23,"max_players":24,"Bots":0,"server_type":"Dedicated","server_os":"Linux","password":true,"vac":true,"version":"7961495","steam_id":85568392924742829,"keywords":["nocrits","nodmgspread","payload","uncletopia"],"game_id":440,"stv_port":27056,"stv_name":"Uncletopia | London | 5 | All Maps | STV","players":[{"user_id":161,"name":"olof","steam_id":76561198095681561,"connected_time":3101000000000,"state":"active","ping":96},{"user_id":193,"name":"Snokie Boi","steam_id":76561198081126247,"connected_time":1057000000000,"state":"active","ping":48},{"user_id":194,"name":"TOP G","steam_id":76561198138928548,"connected_time":974000000000,"state":"active","ping":67},{"user_id":177,"name":"Colonel Dimanche","steam_id":76561197994792632,"connected_time":2220000000000,"state":"active","ping":55},{"user_id":181,"name":"Dromeka","steam_id":76561198963557200,"connected_time":2144000000000,"state":"active","ping":56},{"user_id":174,"name":"Ooze","steam_id":76561198039642637,"connected_time":2350000000000,"state":"active","ping":76},{"user_id":62,"name":"finbar","steam_id":76561198056812396,"connected_time":9702000000000,"state":"active","ping":74},{"user_id":195,"name":"Eric Catman","steam_id":76561198802117294,"connected_time":951000000000,"state":"active","ping":66},{"user_id":169,"name":"Gordon Ramsay","steam_id":76561199134631347,"connected_time":2649000000000,"state":"active","ping":60},{"user_id":196,"name":"cyanic","steam_id":76561198047828651,"connected_time":857000000000,"state":"active","ping":50},{"user_id":197,"name":"jacnok","steam_id":76561198281374370,"connected_time":853000000000,"state":"active","ping":50},{"user_id":201,"name":"LeonCactus","steam_id":76561198102360825,"connected_time":537000000000,"state":"active","ping":55},{"user_id":198,"name":"Visco","steam_id":76561199094320962,"connected_time":833000000000,"state":"active","ping":38},{"user_id":145,"name":"William Afton","steam_id":76561198891551659,"connected_time":4067000000000,"state":"active","ping":32},{"user_id":140,"name":"You Don't Nomi.","steam_id":76561197969137836,"connected_time":4341000000000,"state":"active","ping":125},{"user_id":149,"name":"Gir","steam_id":76561198075155374,"connected_time":3871000000000,"state":"active","ping":43},{"user_id":199,"name":"glyph","steam_id":76561197980736364,"connected_time":831000000000,"state":"active","ping":84},{"user_id":186,"name":"jacio","steam_id":76561199491964000,"connected_time":1762000000000,"state":"active","ping":53},{"user_id":203,"name":"Drip-O-bama","steam_id":76561199135631057,"connected_time":379000000000,"state":"active","ping":81},{"user_id":187,"name":"Joo ‚ô¶","steam_id":76561197987609203,"connected_time":1680000000000,"state":"active","ping":73},{"user_id":179,"name":"BING CHILLING","steam_id":76561198065438030,"connected_time":2177000000000,"state":"active","ping":126},{"user_id":110,"name":"zayd","steam_id":76561198895235231,"connected_time":5835000000000,"state":"active","ping":60},{"user_id":189,"name":"i hack smart refrigerators","steam_id":76561199265289808,"connected_time":1503000000000,"state":"active","ping":125}]},{"server_id":22,"name":"Uncletopia | London | 6 | All Maps","name_short":"lon-6","host":"lon-1.uk.uncletopia.com","port":27065,"enabled":true,"region":"eu","cc":"gb","latitude":51.509865,"longitude":-0.118092,"reserved":0,"last_update":"0001-01-01T00:00:00Z","name_a2s":"Uncletopia | London | 6 | All Maps","protocol":17,"map":"pl_swiftwater_final1","folder":"tf","game":"Team Fortress","app_id":440,"player_count":24,"max_players":24,"Bots":0,"server_type":"Dedicated","server_os":"Linux","password":true,"vac":true,"version":"7961495","steam_id":85568392924742830,"keywords":["nocrits","nodmgspread","payload","uncletopia"],"game_id":440,"stv_port":27066,"stv_name":"Uncletopia | London | 6 | All Maps | STV","players":[{"user_id":676,"name":"Sergeant Joker LFT","steam_id":76561198854616604,"connected_time":1786000000000,"state":"active","ping":130},{"user_id":710,"name":"Plep","steam_id":76561198840259819,"connected_time":739000000000,"state":"active","ping":54},{"user_id":630,"name":"AMDA10SERIES","steam_id":76561198869269479,"connected_time":4374000000000,"state":"active","ping":44},{"user_id":703,"name":"Proofmean","steam_id":76561198878552103,"connected_time":936000000000,"state":"active","ping":52},{"user_id":711,"name":"sin","steam_id":76561198193416785,"connected_time":623000000000,"state":"active","ping":56},{"user_id":688,"name":"john fortress","steam_id":76561198013237629,"connected_time":1479000000000,"state":"active","ping":101},{"user_id":675,"name":"Apparently God","steam_id":76561199472680998,"connected_time":1842000000000,"state":"active","ping":57},{"user_id":689,"name":"RLCrazyCat3","steam_id":76561197983757878,"connected_time":1369000000000,"state":"active","ping":69},{"user_id":712,"name":"YEEHAW","steam_id":76561199398026346,"connected_time":613000000000,"state":"active","ping":54},{"user_id":700,"name":"zq4h","steam_id":76561198874605015,"connected_time":1055000000000,"state":"active","ping":137},{"user_id":715,"name":"farmakolog","steam_id":76561198129153029,"connected_time":229000000000,"state":"active","ping":70},{"user_id":611,"name":"Freddy Fazbear","steam_id":76561198299179114,"connected_time":6306000000000,"state":"active","ping":61},{"user_id":693,"name":"silly goose","steam_id":76561198440443334,"connected_time":1164000000000,"state":"active","ping":70},{"user_id":716,"name":"‚ô° Cursed ‚ô°","steam_id":76561199161458959,"connected_time":155000000000,"state":"active","ping":164},{"user_id":681,"name":"Syppy","steam_id":76561198078273095,"connected_time":1727000000000,"state":"active","ping":92},{"user_id":714,"name":"GRN Pyro","steam_id":76561198360754280,"connected_time":328000000000,"state":"active","ping":52},{"user_id":705,"name":"|\\/|r.–∫–æ—á–µ—Ä–≥–∞ „Éù„Éº„Ç´","steam_id":76561198126629775,"connected_time":879000000000,"state":"active","ping":124},{"user_id":697,"name":"Squidiot","steam_id":76561198042754907,"connected_time":1139000000000,"state":"active","ping":68},{"user_id":698,"name":"Wyvern786","steam_id":76561199137770636,"connected_time":1115000000000,"state":"active","ping":49},{"user_id":709,"name":"Bub222","steam_id":76561199455359865,"connected_time":746000000000,"state":"active","ping":104},{"user_id":706,"name":"MOmo","steam_id":76561197973959824,"connected_time":841000000000,"state":"active","ping":106},{"user_id":702,"name":"caixabank879","steam_id":76561198836442412,"connected_time":965000000000,"state":"active","ping":88},{"user_id":704,"name":"D()()mer","steam_id":76561198152252756,"connected_time":927000000000,"state":"active","ping":143},{"user_id":708,"name":"Vee","steam_id":76561198173065294,"connected_time":809000000000,"state":"active","ping":60}]},{"server_id":40,"name":"Uncletopia | London | 7 | Stopwatch","name_short":"lon-7","host":"lon-1.uk.uncletopia.com","port":27075,"enabled":true,"region":"eu","cc":"gb","latitude":51.509865,"longitude":-0.118092,"reserved":0,"last_update":"0001-01-01T00:00:00Z","name_a2s":"Uncletopia | London | 7 | Stopwatch","protocol":17,"map":"koth_highpass","folder":"tf","game":"Team Fortress","app_id":440,"player_count":0,"max_players":24,"Bots":0,"server_type":"Dedicated","server_os":"Linux","password":true,"vac":true,"version":"7961495","steam_id":85568392924964314,"keywords":["cp","nocrits","nodmgspread","uncletopia"],"game_id":440,"stv_port":27076,"stv_name":"Uncletopia | London | 7 | Stopwatch | STV","players":null},{"server_id":41,"name":"Uncletopia | London | 8 | Community","name_short":"lon-8","host":"lon-1.uk.uncletopia.com","port":27085,"enabled":true,"region":"eu","cc":"gb","latitude":51.509865,"longitude":-0.118092,"reserved":0,"last_update":"0001-01-01T00:00:00Z","name_a2s":"Uncletopia | London | 8 | Community","protocol":17,"map":"workshop/koth_slaughter_rc1.ugc1712845210","folder":"tf","game":"Team Fortress","app_id":440,"player_count":0,"max_players":24,"Bots":0,"server_type":"Dedicated","server_os":"Linux","password":true,"vac":true,"version":"7961495","steam_id":85568392924964315,"keywords":["cp","nocrits","nodmgspread","uncletopia"],"game_id":440,"stv_port":27086,"stv_name":"Uncletopia | London | 8 | Community | STV","players":null},{"server_id":300,"name":"Uncletopia | Montr√©al | 1 | One Thousand Uncles","name_short":"mtl-1","host":"mtl-1.ca.uncletopia.com","port":27015,"enabled":true,"region":"us-east","cc":"ca","latitude":45.50889,"longitude":-73.56167,"reserved":0,"last_update":"0001-01-01T00:00:00Z","name_a2s":"","protocol":0,"map":"","folder":"","game":"","app_id":0,"player_count":0,"max_players":0,"Bots":0,"server_type":"","server_os":"","password":false,"vac":false,"version":"","steam_id":0,"keywords":null,"game_id":0,"stv_port":0,"stv_name":"","players":null},{"server_id":301,"name":"Uncletopia | Montr√©al | 2 | One Thousand Uncles","name_short":"mtl-2","host":"mtl-1.ca.uncletopia.com","port":27025,"enabled":true,"region":"us-east","cc":"ca","latitude":45.50889,"longitude":-73.56167,"reserved":0,"last_update":"0001-01-01T00:00:00Z","name_a2s":"","protocol":0,"map":"","folder":"","game":"","app_id":0,"player_count":0,"max_players":0,"Bots":0,"server_type":"","server_os":"","password":false,"vac":false,"version":"","steam_id":0,"keywords":null,"game_id":0,"stv_port":0,"stv_name":"","players":null},{"server_id":302,"name":"Uncletopia | Montr√©al | 3 | One Thousand Uncles","name_short":"mtl-3","host":"mtl-1.ca.uncletopia.com","port":27035,"enabled":true,"region":"us-east","cc":"ca","latitude":45.50889,"longitude":-73.56167,"reserved":0,"last_update":"0001-01-01T00:00:00Z","name_a2s":"","protocol":0,"map":"","folder":"","game":"","app_id":0,"player_count":8,"max_players":0,"Bots":0,"server_type":"","server_os":"","password":false,"vac":false,"version":"","steam_id":0,"keywords":null,"game_id":0,"stv_port":0,"stv_name":"","players":[{"user_id":64,"name":"ECCO","steam_id":76561198002821513,"connected_time":2597000000000,"state":"active","ping":61},{"user_id":71,"name":"Chicken Gaming","steam_id":76561198976697705,"connected_time":1103000000000,"state":"active","ping":57},{"user_id":63,"name":"Platypunk 2.0","steam_id":76561198124169013,"connected_time":2735000000000,"state":"active","ping":54},{"user_id":74,"name":"Knaifu","steam_id":76561199153871657,"connected_time":360000000000,"state":"active","ping":51},{"user_id":40,"name":"Joe Nathan","steam_id":76561198041030399,"connected_time":8604000000000,"state":"active","ping":88},{"user_id":70,"name":"Femboy Menace","steam_id":76561199207174631,"connected_time":1356000000000,"state":"active","ping":113},{"user_id":68,"name":"blue duck the 2nd","steam_id":76561198263142765,"connected_time":1849000000000,"state":"active","ping":248},{"user_id":69,"name":"Stupid","steam_id":76561198127348089,"connected_time":1543000000000,"state":"active","ping":57}]},{"server_id":13,"name":"Uncletopia | New York City | 1 | All Maps","name_short":"nyc-1","host":"nyc-1.us.uncletopia.com","port":27015,"enabled":true,"region":"us-east","cc":"us","latitude":40.73061,"longitude":-73.93524,"reserved":0,"last_update":"0001-01-01T00:00:00Z","name_a2s":"Uncletopia | New York City | 1 | All Maps","protocol":17,"map":"pl_upward","folder":"tf","game":"Team Fortress","app_id":440,"player_count":24,"max_players":24,"Bots":0,"server_type":"Dedicated","server_os":"Linux","password":true,"vac":true,"version":"7961495","steam_id":85568392924469993,"keywords":["nocrits","nodmgspread","payload","uncletopia"],"game_id":440,"stv_port":27016,"stv_name":"Uncletopia | New York City | 1 | All Maps | STV","players":[{"user_id":188,"name":"Bald Vegeta","steam_id":76561198844143746,"connected_time":4139000000000,"state":"active","ping":71},{"user_id":207,"name":"drifter","steam_id":76561197980692654,"connected_time":2513000000000,"state":"active","ping":44},{"user_id":213,"name":"Rummy the Blargh-gineer","steam_id":76561197997192800,"connected_time":1654000000000,"state":"active","ping":62},{"user_id":211,"name":"Lee-Ch","steam_id":76561198164980622,"connected_time":1748000000000,"state":"active","ping":71},{"user_id":212,"name":"Crap Gorps","steam_id":76561198095452955,"connected_time":1741000000000,"state":"active","ping":54},{"user_id":220,"name":"Kritzburgh","steam_id":76561198149466938,"connected_time":580000000000,"state":"active","ping":50},{"user_id":225,"name":"catrinaisahuman","steam_id":76561198281355729,"connected_time":208000000000,"state":"active","ping":77},{"user_id":219,"name":"Oversharing Gaming","steam_id":76561198069735882,"connected_time":593000000000,"state":"active","ping":71},{"user_id":93,"name":"pea ttv/peabeanz","steam_id":76561198119551968,"connected_time":9883000000000,"state":"active","ping":65},{"user_id":221,"name":"CHAI","steam_id":76561198119556082,"connected_time":577000000000,"state":"active","ping":70},{"user_id":214,"name":"Spiral Mountain","steam_id":76561198058683715,"connected_time":1634000000000,"state":"active","ping":62},{"user_id":216,"name":"Wafflez","steam_id":76561198081611996,"connected_time":598000000000,"state":"active","ping":43},{"user_id":226,"name":"( Õ°¬∞ Õú ñ Õ°¬∞)","steam_id":76561198055512527,"connected_time":150000000000,"state":"active","ping":134},{"user_id":217,"name":"retinz","steam_id":76561198135563495,"connected_time":597000000000,"state":"active","ping":54},{"user_id":202,"name":"Broken prototype","steam_id":76561198113608004,"connected_time":3041000000000,"state":"active","ping":61},{"user_id":29,"name":"Minister of God","steam_id":76561198044278802,"connected_time":15211000000000,"state":"active","ping":56},{"user_id":192,"name":"{·¥Ñ·¥á Ä·¥ò} mtc","steam_id":76561199433123171,"connected_time":3560000000000,"state":"active","ping":82},{"user_id":176,"name":"taigaxx","steam_id":76561198202669250,"connected_time":4823000000000,"state":"active","ping":61},{"user_id":175,"name":"The Jar","steam_id":76561198146013385,"connected_time":4864000000000,"state":"active","ping":64},{"user_id":222,"name":"y!","steam_id":76561199342162423,"connected_time":575000000000,"state":"active","ping":60},{"user_id":223,"name":"citrus","steam_id":76561198294606679,"connected_time":289000000000,"state":"active","ping":52},{"user_id":210,"name":"Wow.„É°","steam_id":76561198131795416,"connected_time":2076000000000,"state":"active","ping":60},{"user_id":189,"name":"Hobo Shanker","steam_id":76561198001785187,"connected_time":4121000000000,"state":"active","ping":72},{"user_id":224,"name":"üöΩKorfJobüöΩ","steam_id":76561198212932833,"connected_time":289000000000,"state":"active","ping":184}]},{"server_id":14,"name":"Uncletopia | New York City | 2 | All Maps","name_short":"nyc-2","host":"nyc-1.us.uncletopia.com","port":27025,"enabled":true,"region":"us-east","cc":"us","latitude":40.73061,"longitude":-73.93524,"reserved":0,"last_update":"0001-01-01T00:00:00Z","name_a2s":"Uncletopia | New York City | 2 | All Maps","protocol":17,"map":"koth_highpass","folder":"tf","game":"Team Fortress","app_id":440,"player_count":0,"max_players":24,"Bots":0,"server_type":"Dedicated","server_os":"Linux","password":true,"vac":true,"version":"7961495","steam_id":85568392924469994,"keywords":["cp","nocrits","nodmgspread","uncletopia"],"game_id":440,"stv_port":27026,"stv_name":"Uncletopia | New York City | 2 | All Maps | STV","players":null},{"server_id":15,"name":"Uncletopia | New York City | 3 | Stopwatch","name_short":"nyc-3","host":"nyc-1.us.uncletopia.com","port":27035,"enabled":true,"region":"us-east","cc":"us","latitude":40.73061,"longitude":-73.93524,"reserved":0,"last_update":"0001-01-01T00:00:00Z","name_a2s":"Uncletopia | New York City | 3 | Stopwatch","protocol":17,"map":"workshop/koth_ashville_final.ugc2130459942","folder":"tf","game":"Team Fortress","app_id":440,"player_count":0,"max_players":24,"Bots":0,"server_type":"Dedicated","server_os":"Linux","password":true,"vac":true,"version":"7961495","steam_id":85568392924742820,"keywords":["cp","nocrits","nodmgspread","uncletopia"],"game_id":440,"stv_port":27036,"stv_name":"Uncletopia | New York City | 3 | Stopwatch | STV","players":null},{"server_id":16,"name":"Uncletopia | New York City | 4 | Community","name_short":"nyc-4","host":"nyc-1.us.uncletopia.com","port":27045,"enabled":true,"region":"us-east","cc":"us","latitude":40.73061,"longitude":-73.93524,"reserved":0,"last_update":"0001-01-01T00:00:00Z","name_a2s":"Uncletopia | New York City | 4 | Community","protocol":17,"map":"cp_altitude","folder":"tf","game":"Team Fortress","app_id":440,"player_count":0,"max_players":24,"Bots":0,"server_type":"Dedicated","server_os":"Linux","password":true,"vac":true,"version":"7961495","steam_id":85568392924742821,"keywords":["cp","nocrits","nodmgspread","uncletopia"],"game_id":440,"stv_port":27046,"stv_name":"Uncletopia | New York City | 4 | Community | STV","players":null},{"server_id":142,"name":"Uncletopia | S√£o Paulo | 1 | All Maps","name_short":"sao-1","host":"sao-1.br.uncletopia.com","port":27015,"enabled":true,"region":"sa","cc":"br","latitude":-23.533773,"longitude":-46.62529,"reserved":0,"last_update":"0001-01-01T00:00:00Z","name_a2s":"Uncletopia | S√£o Paulo | 1 | All Maps","protocol":17,"map":"pl_badwater","folder":"tf","game":"Team Fortress","app_id":440,"player_count":1,"max_players":24,"Bots":0,"server_type":"Dedicated","server_os":"Linux","password":true,"vac":true,"version":"7961495","steam_id":85568392924469996,"keywords":["nocrits","nodmgspread","payload","uncletopia"],"game_id":440,"stv_port":27016,"stv_name":"Uncletopia | S√£o Paulo | 1 | All Maps | STV","players":[{"user_id":8,"name":"Astrosloth","steam_id":76561198222011368,"connected_time":709000000000,"state":"active","ping":60}]},{"server_id":143,"name":"Uncletopia | S√£o Paulo | 2 | Community","name_short":"sao-2","host":"sao-2.br.uncletopia.com","port":27015,"enabled":true,"region":"sa","cc":"br","latitude":-23.533773,"longitude":-46.62529,"reserved":0,"last_update":"0001-01-01T00:00:00Z","name_a2s":"Uncletopia | S√£o Paulo | 2 | Community","protocol":17,"map":"workshop/pl_fifthcurve_rc1.ugc648227046","folder":"tf","game":"Team Fortress","app_id":440,"player_count":0,"max_players":24,"Bots":0,"server_type":"Dedicated","server_os":"Linux","password":true,"vac":true,"version":"7961495","steam_id":85568392924485349,"keywords":["nocrits","nodmgspread","payload","uncletopia"],"game_id":440,"stv_port":27016,"stv_name":"Uncletopia | S√£o Paulo | 2 | Community | STV","players":null},{"server_id":7,"name":"Uncletopia | Seattle | 1 | All Maps","name_short":"sea-1","host":"sea-1.us.uncletopia.com","port":27015,"enabled":true,"region":"us-west","cc":"us","latitude":47.608013,"longitude":-122.33517,"reserved":0,"last_update":"0001-01-01T00:00:00Z","name_a2s":"Uncletopia | Seattle | 1 | All Maps","protocol":17,"map":"plr_bananabay","folder":"tf","game":"Team Fortress","app_id":440,"player_count":23,"max_players":24,"Bots":0,"server_type":"Dedicated","server_os":"Linux","password":true,"vac":true,"version":"7961495","steam_id":85568392924469997,"keywords":["nocrits","nodmgspread","payload","uncletopia"],"game_id":440,"stv_port":27016,"stv_name":"Uncletopia | Seattle | 1 | All Maps | STV","players":[{"user_id":209,"name":"Toaster (Hamilton Beach)","steam_id":76561198039891934,"connected_time":2964000000000,"state":"active","ping":58},{"user_id":245,"name":"twitch.tv/rustyorion","steam_id":76561198439186347,"connected_time":482000000000,"state":"active","ping":53},{"user_id":256,"name":"owl","steam_id":76561198088403016,"connected_time":173000000000,"state":"active","ping":153},{"user_id":233,"name":"CheeseCake488","steam_id":76561199407617942,"connected_time":1217000000000,"state":"active","ping":103},{"user_id":234,"name":"Virus858","steam_id":76561199156084410,"connected_time":1155000000000,"state":"active","ping":100},{"user_id":222,"name":"Furrio","steam_id":76561198174104607,"connected_time":2370000000000,"state":"active","ping":78},{"user_id":211,"name":"Tabby!!!!","steam_id":76561198018288153,"connected_time":2832000000000,"state":"active","ping":99},{"user_id":231,"name":"bobtheninjaman","steam_id":76561198066424544,"connected_time":1343000000000,"state":"active","ping":77},{"user_id":241,"name":"Not pawky","steam_id":76561198148738849,"connected_time":884000000000,"state":"active","ping":67},{"user_id":224,"name":"Vincent Van Bro","steam_id":76561197966919802,"connected_time":1911000000000,"state":"active","ping":45},{"user_id":255,"name":"vfa","steam_id":76561198055729118,"connected_time":187000000000,"state":"active","ping":58},{"user_id":223,"name":"Eden","steam_id":76561198081284664,"connected_time":2248000000000,"state":"active","ping":85},{"user_id":229,"name":"floppy muppet","steam_id":76561198003076261,"connected_time":1408000000000,"state":"active","ping":139},{"user_id":254,"name":"oo","steam_id":76561198119626492,"connected_time":219000000000,"state":"active","ping":81},{"user_id":217,"name":"Karthos","steam_id":76561198040827487,"connected_time":2723000000000,"state":"active","ping":61},{"user_id":239,"name":"Dimple","steam_id":76561198980324190,"connected_time":1008000000000,"state":"active","ping":60},{"user_id":230,"name":"SIMAX","steam_id":76561199243011400,"connected_time":1397000000000,"state":"active","ping":74},{"user_id":257,"name":"Echo","steam_id":76561198103342230,"connected_time":80000000000,"state":"active","ping":62},{"user_id":251,"name":"KappaMan69","steam_id":76561199033819139,"connected_time":265000000000,"state":"active","ping":45},{"user_id":250,"name":"MayKay","steam_id":76561199016092265,"connected_time":306000000000,"state":"active","ping":85},{"user_id":228,"name":"Cloudswallower","steam_id":76561198167583291,"connected_time":1518000000000,"state":"active","ping":90},{"user_id":258,"name":"tek lintowe fan","steam_id":76561198206177593,"connected_time":20000000000,"state":"active","ping":75},{"user_id":252,"name":"Overshot","steam_id":76561198050144523,"connected_time":249000000000,"state":"active","ping":115}]},{"server_id":119,"name":"Uncletopia | Seattle | 2 | All Maps","name_short":"sea-2","host":"sea-1.us.uncletopia.com","port":27025,"enabled":true,"region":"us-west","cc":"us","latitude":47.608013,"longitude":-122.33517,"reserved":0,"last_update":"0001-01-01T00:00:00Z","name_a2s":"Uncletopia | Seattle | 2 | All Maps","protocol":17,"map":"koth_lakeside_final","folder":"tf","game":"Team Fortress","app_id":440,"player_count":0,"max_players":24,"Bots":0,"server_type":"Dedicated","server_os":"Linux","password":true,"vac":true,"version":"7961495","steam_id":85568392924469998,"keywords":["cp","nocrits","nodmgspread","uncletopia"],"game_id":440,"stv_port":27026,"stv_name":"Uncletopia | Seattle | 2 | All Maps | STV","players":null},{"server_id":406,"name":"Uncletopia | Seattle | 3 | Stopwatch","name_short":"sea-3","host":"sea-1.us.uncletopia.com","port":27035,"enabled":true,"region":"us-west","cc":"us","latitude":47.608013,"longitude":-122.33517,"reserved":0,"last_update":"0001-01-01T00:00:00Z","name_a2s":"Uncletopia | Seattle | 3 | Stopwatch","protocol":17,"map":"workshop/pl_badwater_pro_v12.ugc2142942074","folder":"tf","game":"Team Fortress","app_id":440,"player_count":0,"max_players":24,"Bots":0,"server_type":"Dedicated","server_os":"Linux","password":true,"vac":true,"version":"7961495","steam_id":85568392924515217,"keywords":["nocrits","nodmgspread","payload","uncletopia"],"game_id":440,"stv_port":27036,"stv_name":"Uncletopia | Seattle | 3 | Stopwatch | STV","players":null},{"server_id":17,"name":"Uncletopia | San Francisco | 1 | All Maps","name_short":"sfo-1","host":"sfo-1.us.uncletopia.com","port":27015,"enabled":true,"region":"us-west","cc":"us","latitude":37.77397,"longitude":-122.4313,"reserved":0,"last_update":"0001-01-01T00:00:00Z","name_a2s":"Uncletopia | San Francisco | 1 | All Maps","protocol":17,"map":"koth_cascade","folder":"tf","game":"Team Fortress","app_id":440,"player_count":0,"max_players":24,"Bots":0,"server_type":"Dedicated","server_os":"Linux","password":true,"vac":true,"version":"7961495","steam_id":85568392924469999,"keywords":["cp","nocrits","nodmgspread","uncletopia"],"game_id":440,"stv_port":27016,"stv_name":"Uncletopia | San Francisco | 1 | All Maps | STV","players":null},{"server_id":18,"name":"Uncletopia | San Francisco | 2 | All Maps","name_short":"sfo-2","host":"sfo-1.us.uncletopia.com","port":27025,"enabled":true,"region":"us-west","cc":"us","latitude":37.77397,"longitude":-122.4313,"reserved":0,"last_update":"0001-01-01T00:00:00Z","name_a2s":"Uncletopia | San Francisco | 2 | All Maps","protocol":17,"map":"pl_frontier_final","folder":"tf","game":"Team Fortress","app_id":440,"player_count":0,"max_players":24,"Bots":0,"server_type":"Dedicated","server_os":"Linux","password":true,"vac":true,"version":"7961495","steam_id":85568392924470000,"keywords":["nocrits","nodmgspread","payload","uncletopia"],"game_id":440,"stv_port":27026,"stv_name":"Uncletopia | San Francisco | 2 | All Maps | STV","players":null},{"server_id":19,"name":"Uncletopia | San Francisco | 3 | Stopwatch","name_short":"sfo-3","host":"sfo-1.us.uncletopia.com","port":27035,"enabled":true,"region":"us-west","cc":"us","latitude":37.77397,"longitude":-122.4313,"reserved":0,"last_update":"0001-01-01T00:00:00Z","name_a2s":"Uncletopia | San Francisco | 3 | Stopwatch","protocol":17,"map":"pl_pier","folder":"tf","game":"Team Fortress","app_id":440,"player_count":0,"max_players":24,"Bots":0,"server_type":"Dedicated","server_os":"Linux","password":true,"vac":true,"version":"7961495","steam_id":85568392924742824,"keywords":["nocrits","nodmgspread","payload","uncletopia"],"game_id":440,"stv_port":27036,"stv_name":"Uncletopia | San Francisco | 3 | Stopwatch | STV","players":null},{"server_id":20,"name":"Uncletopia | San Francisco | 4 | Community","name_short":"sfo-4","host":"sfo-1.us.uncletopia.com","port":27045,"enabled":true,"region":"us-west","cc":"us","latitude":37.77397,"longitude":-122.4313,"reserved":0,"last_update":"0001-01-01T00:00:00Z","name_a2s":"Uncletopia | San Francisco | 4 | Community","protocol":17,"map":"pl_pier","folder":"tf","game":"Team Fortress","app_id":440,"player_count":0,"max_players":24,"Bots":0,"server_type":"Dedicated","server_os":"Linux","password":true,"vac":true,"version":"7961495","steam_id":85568392924742826,"keywords":["nocrits","nodmgspread","payload","uncletopia"],"game_id":440,"stv_port":27046,"stv_name":"Uncletopia | San Francisco | 4 | Community | STV","players":null},{"server_id":141,"name":"Uncletopia | Sydney | 1 | All Maps","name_short":"syd-1","host":"syd-1.au.uncletopia.com","port":27015,"enabled":true,"region":"au","cc":"au","latitude":-33.865143,"longitude":151.2099,"reserved":0,"last_update":"0001-01-01T00:00:00Z","name_a2s":"Uncletopia | Sydney | 1 | All Maps","protocol":17,"map":"pl_swiftwater_final1","folder":"tf","game":"Team Fortress","app_id":440,"player_count":0,"max_players":24,"Bots":0,"server_type":"Dedicated","server_os":"Linux","password":true,"vac":true,"version":"7961495","steam_id":85568392924470001,"keywords":["nocrits","nodmgspread","payload","uncletopia"],"game_id":440,"stv_port":27016,"stv_name":"Uncletopia | Sydney | 1 | All Maps | STV","players":null},{"server_id":123,"name":"Uncletopia | Sydney | 2 | All Maps","name_short":"syd-2","host":"syd-1.au.uncletopia.com","port":27025,"enabled":true,"region":"au","cc":"au","latitude":-33.865143,"longitude":151.2099,"reserved":0,"last_update":"0001-01-01T00:00:00Z","name_a2s":"Uncletopia | Sydney | 2 | All Maps","protocol":17,"map":"koth_highpass","folder":"tf","game":"Team Fortress","app_id":440,"player_count":0,"max_players":24,"Bots":0,"server_type":"Dedicated","server_os":"Linux","password":true,"vac":true,"version":"7961495","steam_id":85568392924470002,"keywords":["cp","nocrits","nodmgspread","uncletopia"],"game_id":440,"stv_port":27026,"stv_name":"Uncletopia | Sydney | 2 | All Maps | STV","players":null},{"server_id":395,"name":"Uncletopia | Sydney | 3 | All Maps","name_short":"syd-3","host":"syd-1.au.uncletopia.com","port":27035,"enabled":true,"region":"au","cc":"au","latitude":-33.865143,"longitude":151.2099,"reserved":0,"last_update":"0001-01-01T00:00:00Z","name_a2s":"Uncletopia | Sydney | 3 | All Maps","protocol":17,"map":"pl_badwater","folder":"tf","game":"Team Fortress","app_id":440,"player_count":0,"max_players":24,"Bots":0,"server_type":"Dedicated","server_os":"Linux","password":true,"vac":true,"version":"7961495","steam_id":85568392925194467,"keywords":["nocrits","nodmgspread","payload","uncletopia"],"game_id":440,"stv_port":27036,"stv_name":"Uncletopia | Sydney | 3 | All Maps | STV","players":null},{"server_id":396,"name":"Uncletopia | Sydney | 4 | All Maps","name_short":"syd-4","host":"syd-1.au.uncletopia.com","port":27045,"enabled":true,"region":"au","cc":"au","latitude":-33.865143,"longitude":151.2099,"reserved":0,"last_update":"0001-01-01T00:00:00Z","name_a2s":"Uncletopia | Sydney | 4 | All Maps","protocol":17,"map":"cp_dustbowl","folder":"tf","game":"Team Fortress","app_id":440,"player_count":0,"max_players":24,"Bots":0,"server_type":"Dedicated","server_os":"Linux","password":true,"vac":true,"version":"7961495","steam_id":85568392925397958,"keywords":["cp","nocrits","nodmgspread","uncletopia"],"game_id":440,"stv_port":27046,"stv_name":"Uncletopia | Sydney | 4 | All Maps | STV","players":null},{"server_id":58,"name":"Uncletopia | Sydney | 5 | Stopwatch","name_short":"syd-5","host":"syd-1.au.uncletopia.com","port":27055,"enabled":true,"region":"au","cc":"au","latitude":-33.865143,"longitude":151.2099,"reserved":0,"last_update":"0001-01-01T00:00:00Z","name_a2s":"Uncletopia | Sydney | 5 | Stopwatch","protocol":17,"map":"pl_frontier_final","folder":"tf","game":"Team Fortress","app_id":440,"player_count":0,"max_players":24,"Bots":0,"server_type":"Dedicated","server_os":"Linux","password":true,"vac":true,"version":"7961495","steam_id":85568392925397959,"keywords":["nocrits","nodmgspread","payload","uncletopia"],"game_id":440,"stv_port":27056,"stv_name":"Uncletopia | Sydney | 5 | Stopwatch | STV","players":null},{"server_id":59,"name":"Uncletopia | Sydney | 6 | Community","name_short":"syd-6","host":"syd-1.au.uncletopia.com","port":27065,"enabled":true,"region":"au","cc":"au","latitude":-33.865143,"longitude":151.2099,"reserved":0,"last_update":"0001-01-01T00:00:00Z","name_a2s":"Uncletopia | Sydney | 6 | Community","protocol":17,"map":"workshop/cp_bruhstbowl_b6.ugc2878604990","folder":"tf","game":"Team Fortress","app_id":440,"player_count":0,"max_players":24,"Bots":0,"server_type":"Dedicated","server_os":"Linux","password":true,"vac":true,"version":"7961495","steam_id":85568392925397960,"keywords":["cp","nocrits","nodmgspread","uncletopia"],"game_id":440,"stv_port":27066,"stv_name":"Uncletopia | Sydney | 6 | Community | STV","players":null},{"server_id":49,"name":"Uncletopia | Warsaw | 1 | One Thousand Uncles","name_short":"waw-1","host":"waw-1.pl.uncletopia.com","port":27015,"enabled":true,"region":"eu","cc":"pl","latitude":52.2297,"longitude":21.017532,"reserved":0,"last_update":"0001-01-01T00:00:00Z","name_a2s":"Uncletopia | Warsaw | 1 | One Thousand Uncles","protocol":17,"map":"cp_dustbowl","folder":"tf","game":"Team Fortress","app_id":440,"player_count":28,"max_players":32,"Bots":16,"server_type":"Dedicated","server_os":"Linux","password":true,"vac":true,"version":"7961495","steam_id":85568392925397850,"keywords":["alltalk","bots","cp","danepve","increased_maxplayers","nocrits","norespawntime","uncletopia"],"game_id":440,"stv_port":0,"stv_name":"","players":[{"user_id":240,"name":"Fritzkrieg","steam_id":76561199231092470,"connected_time":6114000000000,"state":"active","ping":64},{"user_id":284,"name":"Kewlan","steam_id":76561198042775020,"connected_time":3405000000000,"state":"active","ping":92},{"user_id":325,"name":"korea","steam_id":76561198120520111,"connected_time":850000000000,"state":"active","ping":55},{"user_id":324,"name":"al.koll1212","steam_id":76561198410670217,"connected_time":1132000000000,"state":"active","ping":63},{"user_id":321,"name":"Riky95","steam_id":76561198095289436,"connected_time":1558000000000,"state":"active","ping":60},{"user_id":286,"name":"Doctor Sex","steam_id":76561199403229056,"connected_time":3005000000000,"state":"active","ping":75},{"user_id":323,"name":"MaxTheSyntax","steam_id":76561198265061661,"connected_time":1210000000000,"state":"active","ping":36},{"user_id":330,"name":"Fotos√≠ntesis","steam_id":76561198034253525,"connected_time":97000000000,"state":"active","ping":78},{"user_id":288,"name":"BIG SHOT","steam_id":76561199305148374,"connected_time":2934000000000,"state":"active","ping":136},{"user_id":315,"name":"Even R√º√ºd","steam_id":76561197981144291,"connected_time":1896000000000,"state":"active","ping":90},{"user_id":290,"name":"Scout","steam_id":76561198992898803,"connected_time":2805000000000,"state":"active","ping":77},{"user_id":327,"name":"atiaoyul0000","steam_id":76561198325571638,"connected_time":499000000000,"state":"active","ping":380}]},{"server_id":50,"name":"Uncletopia | Warsaw | 2 | One Thousand Uncles","name_short":"waw-2","host":"waw-1.pl.uncletopia.com","port":27025,"enabled":true,"region":"eu","cc":"pl","latitude":52.2297,"longitude":21.017532,"reserved":0,"last_update":"0001-01-01T00:00:00Z","name_a2s":"Uncletopia | Warsaw | 2 | One Thousand Uncles","protocol":17,"map":"pl_swiftwater_final1","folder":"tf","game":"Team Fortress","app_id":440,"player_count":0,"max_players":32,"Bots":0,"server_type":"Dedicated","server_os":"Linux","password":true,"vac":true,"version":"7961495","steam_id":85568392925397851,"keywords":["alltalk","danepve","increased_maxplayers","nocrits","norespawntime","payload","uncletopia"],"game_id":440,"stv_port":0,"stv_name":"","players":null},{"server_id":51,"name":"Uncletopia | Warsaw | 3 | All Maps","name_short":"waw-3","host":"waw-1.pl.uncletopia.com","port":27035,"enabled":true,"region":"eu","cc":"pl","latitude":52.2297,"longitude":21.017532,"reserved":0,"last_update":"0001-01-01T00:00:00Z","name_a2s":"Uncletopia | Warsaw | 3 | All Maps","protocol":17,"map":"koth_viaduct","folder":"tf","game":"Team Fortress","app_id":440,"player_count":0,"max_players":24,"Bots":0,"server_type":"Dedicated","server_os":"Linux","password":true,"vac":true,"version":"7961495","steam_id":85568392925397852,"keywords":["cp","nocrits","nodmgspread","uncletopia"],"game_id":440,"stv_port":27036,"stv_name":"Uncletopia | Warsaw | 3 | All Maps | STV","players":null},{"server_id":52,"name":"Uncletopia | Warsaw | 4 | All Maps","name_short":"waw-4","host":"waw-1.pl.uncletopia.com","port":27045,"enabled":true,"region":"eu","cc":"pl","latitude":52.2297,"longitude":21.017532,"reserved":0,"last_update":"0001-01-01T00:00:00Z","name_a2s":"Uncletopia | Warsaw | 4 | All Maps","protocol":17,"map":"cp_process_final","folder":"tf","game":"Team Fortress","app_id":440,"player_count":9,"max_players":24,"Bots":0,"server_type":"Dedicated","server_os":"Linux","password":true,"vac":true,"version":"7961495","steam_id":85568392925397853,"keywords":["cp","nocrits","nodmgspread","uncletopia"],"game_id":440,"stv_port":27046,"stv_name":"Uncletopia | Warsaw | 4 | All Maps | STV","players":[{"user_id":5,"name":"Jesse Dinkman","steam_id":76561198262996078,"connected_time":3202000000000,"state":"spawning","ping":132},{"user_id":6,"name":"Hostile neighborhood femboy","steam_id":76561198799133372,"connected_time":3162000000000,"state":"connecting","ping":147},{"user_id":7,"name":"Tvx","steam_id":76561198983247585,"connected_time":2246000000000,"state":"connecting","ping":132},{"user_id":8,"name":"Guy2731","steam_id":76561199201704315,"connected_time":2235000000000,"state":"connecting","ping":173},{"user_id":10,"name":"Mabert","steam_id":76561198436058407,"connected_time":1559000000000,"state":"connecting","ping":72},{"user_id":11,"name":"Rescue Wrangler #savetf2","steam_id":76561198916510634,"connected_time":1489000000000,"state":"connecting","ping":195},{"user_id":12,"name":"Ox","steam_id":76561198995730614,"connected_time":1028000000000,"state":"connecting","ping":60},{"user_id":13,"name":"Slowest hands in the west","steam_id":76561199286764992,"connected_time":838000000000,"state":"spawning","ping":73},{"user_id":16,"name":"Michal | TRADEITgg","steam_id":76561198879755450,"connected_time":224000000000,"state":"connecting","ping":113}]},{"server_id":53,"name":"Uncletopia | Warsaw | 5 | Stopwatch","name_short":"waw-5","host":"waw-1.pl.uncletopia.com","port":27055,"enabled":true,"region":"eu","cc":"pl","latitude":52.2297,"longitude":21.017532,"reserved":0,"last_update":"0001-01-01T00:00:00Z","name_a2s":"Uncletopia | Warsaw | 5 | Stopwatch","protocol":17,"map":"koth_highpass","folder":"tf","game":"Team Fortress","app_id":440,"player_count":0,"max_players":24,"Bots":0,"server_type":"Dedicated","server_os":"Linux","password":true,"vac":true,"version":"7961495","steam_id":85568392925397854,"keywords":["cp","nocrits","nodmgspread","uncletopia"],"game_id":440,"stv_port":27056,"stv_name":"Uncletopia | Warsaw | 5 | Stopwatch | STV","players":null},{"server_id":54,"name":"Uncletopia | Warsaw | 6 | Community","name_short":"waw-6","host":"waw-1.pl.uncletopia.com","port":27065,"enabled":true,"region":"eu","cc":"pl","latitude":52.2297,"longitude":21.017532,"reserved":0,"last_update":"0001-01-01T00:00:00Z","name_a2s":"Uncletopia | Warsaw | 6 | Community","protocol":17,"map":"workshop/pl_vigil_rc10.ugc1266210012","folder":"tf","game":"Team Fortress","app_id":440,"player_count":2,"max_players":24,"Bots":0,"server_type":"Dedicated","server_os":"Linux","password":true,"vac":true,"version":"7961495","steam_id":85568392925397856,"keywords":["nocrits","nodmgspread","payload","uncletopia"],"game_id":440,"stv_port":27066,"stv_name":"Uncletopia | Warsaw | 6 | Community | STV","players":[{"user_id":16,"name":"dronstalcer12","steam_id":76561199043322932,"connected_time":572000000000,"state":"active","ping":49},{"user_id":18,"name":"Big Chungus","steam_id":76561198863865699,"connected_time":455000000000,"state":"active","ping":38}]}]}