{"status":true,"message":"","result":[{"server_id":9,"name":"Uncletopia | Atlanta | 1 | All Maps","name_short":"atl-1","host":"atl-1.us.uncletopia.com","port":27015,"enabled":true,"region":"us-east","cc":"us","latitude":33.753746,"longitude":-84.38633,"reserved":0,"last_update":"0001-01-01T00:00:00Z","name_a2s":"Uncletopia | Atlanta | 1 | All Maps","protocol":17,"map":"pl_barnblitz","folder":"tf","game":"Team Fortress","app_id":440,"player_count":16,"max_players":24,"Bots":0,"server_type":"Dedicated","server_os":"Linux","password":true,"vac":true,"version":"7723704","steam_id":85568392924469982,"keywords":["nocrits","nodmgspread","payload","uncletopia"],"game_id":440,"stv_port":27016,"stv_name":"Uncletopia | Atlanta | 1 | All Maps | STV","players":[{"user_id":103,"name":"VurkRoix","steam_id":76561198889393147,"connected_time":1028000000000,"state":"active","ping":81},{"user_id":117,"name":"Mr. Soupman","steam_id":76561198021649598,"connected_time":475000000000,"state":"active","ping":60},{"user_id":5,"name":"mommy claus","steam_id":76561199230929836,"connected_time":7104000000000,"state":"active","ping":81},{"user_id":87,"name":"ATL1 | on my hunting trip","steam_id":76561198315341646,"connected_time":2420000000000,"state":"active","ping":66},{"user_id":7,"name":"HEFTY HOG","steam_id":76561198079923652,"connected_time":7103000000000,"state":"active","ping":74},{"user_id":119,"name":"jandajanda","steam_id":76561198235722476,"connected_time":388000000000,"state":"active","ping":48},{"user_id":97,"name":"roln","steam_id":76561198041066271,"connected_time":1320000000000,"state":"active","ping":87},{"user_id":86,"name":"SHADOW (he/him)","steam_id":76561198207768148,"connected_time":2529000000000,"state":"active","ping":112},{"user_id":98,"name":"fac","steam_id":76561198009818412,"connected_time":1311000000000,"state":"active","ping":57},{"user_id":99,"name":"reik","steam_id":76561198018564445,"connected_time":1309000000000,"state":"active","ping":69},{"user_id":120,"name":"peachy","steam_id":76561198026664629,"connected_time":140000000000,"state":"active","ping":57},{"user_id":116,"name":"Madrox Who?","steam_id":76561197988859134,"connected_time":552000000000,"state":"active","ping":93},{"user_id":110,"name":"merge without looking","steam_id":76561198975450630,"connected_time":801000000000,"state":"active","ping":104},{"user_id":79,"name":"shadow3004","steam_id":76561198064870076,"connected_time":3195000000000,"state":"active","ping":95},{"user_id":111,"name":"Biznickel","steam_id":76561199422511230,"connected_time":792000000000,"state":"active","ping":105},{"user_id":57,"name":"swag commander in chief","steam_id":76561198143132686,"connected_time":5011000000000,"state":"active","ping":100}]},{"server_id":400,"name":"Uncletopia | Atlanta | 3 | Stopwatch Beta","name_short":"atl-3","host":"atl-1.us.uncletopia.com","port":27035,"enabled":true,"region":"us-east","cc":"us","latitude":33.753746,"longitude":-84.38633,"reserved":0,"last_update":"0001-01-01T00:00:00Z","name_a2s":"Uncletopia | Atlanta | 3 | Stopwatch Beta","protocol":17,"map":"koth_cascade","folder":"tf","game":"Team Fortress","app_id":440,"player_count":0,"max_players":24,"Bots":0,"server_type":"Dedicated","server_os":"Linux","password":true,"vac":true,"version":"7723704","steam_id":85568392924515187,"keywords":["cp","nocrits","nodmgspread","uncletopia"],"game_id":440,"stv_port":27036,"stv_name":"Uncletopia | Atlanta | 3 | Stopwatch Beta | STV","players":null},{"server_id":401,"name":"Uncletopia | Atlanta | 4 | No Payload","name_short":"atl-4","host":"atl-1.us.uncletopia.com","port":27045,"enabled":true,"region":"us-east","cc":"us","latitude":33.753746,"longitude":-84.38633,"reserved":0,"last_update":"0001-01-01T00:00:00Z","name_a2s":"Uncletopia | Atlanta | 4 | No Payload","protocol":17,"map":"ctf_well","folder":"tf","game":"Team Fortress","app_id":440,"player_count":19,"max_players":24,"Bots":0,"server_type":"Dedicated","server_os":"Linux","password":true,"vac":true,"version":"7723704","steam_id":85568392924515188,"keywords":["ctf","nocrits","nodmgspread","uncletopia"],"game_id":440,"stv_port":27046,"stv_name":"Uncletopia | Atlanta | 4 | No Payload | STV","players":[{"user_id":293,"name":"_BOBE","steam_id":76561198004578255,"connected_time":1744000000000,"state":"active","ping":119},{"user_id":294,"name":"Gerald Jay Sussman","steam_id":76561198114515026,"connected_time":1739000000000,"state":"active","ping":58},{"user_id":279,"name":"hops_a_pops","steam_id":76561198210902109,"connected_time":2131000000000,"state":"active","ping":47},{"user_id":295,"name":"sheep","steam_id":76561198172943006,"connected_time":1733000000000,"state":"active","ping":60},{"user_id":310,"name":"Shame","steam_id":76561198100490994,"connected_time":185000000000,"state":"active","ping":54},{"user_id":311,"name":"Antwan","steam_id":76561198246200638,"connected_time":88000000000,"state":"active","ping":60},{"user_id":297,"name":"littengamer1112","steam_id":76561198992690060,"connected_time":1717000000000,"state":"active","ping":80},{"user_id":277,"name":"Animal Slices","steam_id":76561198137545511,"connected_time":2210000000000,"state":"active","ping":66},{"user_id":309,"name":"Filliam","steam_id":76561198124028151,"connected_time":588000000000,"state":"active","ping":59},{"user_id":216,"name":"Brother Garland","steam_id":76561198108026255,"connected_time":4644000000000,"state":"active","ping":48},{"user_id":290,"name":"Shepper2k","steam_id":76561198033960883,"connected_time":1864000000000,"state":"active","ping":179},{"user_id":263,"name":"MrPunda59","steam_id":76561199178520181,"connected_time":2395000000000,"state":"active","ping":62},{"user_id":266,"name":"skaj","steam_id":76561198082278586,"connected_time":2381000000000,"state":"active","ping":74},{"user_id":291,"name":"Vitzenhauzer","steam_id":76561198116449787,"connected_time":1855000000000,"state":"active","ping":63},{"user_id":292,"name":"Tsuki","steam_id":76561198299998288,"connected_time":1851000000000,"state":"active","ping":70},{"user_id":245,"name":"tools","steam_id":76561199010542612,"connected_time":3381000000000,"state":"active","ping":59},{"user_id":300,"name":"Hey","steam_id":76561198447517893,"connected_time":1543000000000,"state":"active","ping":56},{"user_id":267,"name":"Infinity","steam_id":76561199134919099,"connected_time":2370000000000,"state":"active","ping":54},{"user_id":304,"name":"Cutercills 9x9","steam_id":76561199125856210,"connected_time":911000000000,"state":"active","ping":118}]},{"server_id":2,"name":"Uncletopia | Chicago | 1 | All Maps","name_short":"chi-1","host":"chi-1.us.uncletopia.com","port":27015,"enabled":true,"region":"us-central","cc":"us","latitude":41.881832,"longitude":-87.62318,"reserved":0,"last_update":"0001-01-01T00:00:00Z","name_a2s":"Uncletopia | Chicago | 1 | All Maps","protocol":17,"map":"pl_borneo","folder":"tf","game":"Team Fortress","app_id":440,"player_count":22,"max_players":24,"Bots":0,"server_type":"Dedicated","server_os":"Linux","password":true,"vac":true,"version":"7723704","steam_id":85568392924469984,"keywords":["nocrits","nodmgspread","payload","uncletopia"],"game_id":440,"stv_port":27016,"stv_name":"Uncletopia | Chicago | 1 | All Maps | STV","players":[{"user_id":124,"name":"valtiel","steam_id":76561198165212575,"connected_time":208000000000,"state":"active","ping":74},{"user_id":106,"name":"Gob From My Singing Monsters","steam_id":76561198272471440,"connected_time":1047000000000,"state":"active","ping":65},{"user_id":107,"name":"uneducated guess","steam_id":76561198140846580,"connected_time":1044000000000,"state":"active","ping":69},{"user_id":117,"name":"jablomi","steam_id":76561198106690989,"connected_time":734000000000,"state":"active","ping":70},{"user_id":101,"name":"canadian birds","steam_id":76561198059466588,"connected_time":1355000000000,"state":"active","ping":68},{"user_id":113,"name":"forklift circumcised","steam_id":76561198278756087,"connected_time":938000000000,"state":"active","ping":90},{"user_id":100,"name":"TeaPirate [TTC]","steam_id":76561197993068398,"connected_time":1447000000000,"state":"active","ping":76},{"user_id":11,"name":"[slug]","steam_id":76561197989592178,"connected_time":6963000000000,"state":"active","ping":59},{"user_id":98,"name":"Genius Meme","steam_id":76561198162911254,"connected_time":1565000000000,"state":"active","ping":111},{"user_id":126,"name":"pinglefingle","steam_id":76561198216580197,"connected_time":194000000000,"state":"active","ping":82},{"user_id":125,"name":"Lord_Manship","steam_id":76561198045168765,"connected_time":207000000000,"state":"active","ping":75},{"user_id":121,"name":"San Francisco Walgreens","steam_id":76561199059401805,"connected_time":368000000000,"state":"active","ping":37},{"user_id":123,"name":"aversa","steam_id":76561198840460101,"connected_time":325000000000,"state":"active","ping":62},{"user_id":127,"name":"Klip","steam_id":76561198316254429,"connected_time":177000000000,"state":"active","ping":85},{"user_id":114,"name":"Chicken Nugget","steam_id":76561198082601232,"connected_time":921000000000,"state":"active","ping":72},{"user_id":73,"name":"Cyborg","steam_id":76561198278373788,"connected_time":3599000000000,"state":"active","ping":43},{"user_id":115,"name":"⦕ 艾萨克 ⦖","steam_id":76561198293727875,"connected_time":905000000000,"state":"active","ping":61},{"user_id":93,"name":"MeatwadMeatwad","steam_id":76561198202194160,"connected_time":1875000000000,"state":"active","ping":86},{"user_id":116,"name":"moe","steam_id":76561198929586245,"connected_time":901000000000,"state":"active","ping":101},{"user_id":79,"name":"General Fisticuffs","steam_id":76561198255721392,"connected_time":3253000000000,"state":"active","ping":78},{"user_id":87,"name":"Garbage","steam_id":76561198286796934,"connected_time":2490000000000,"state":"active","ping":64},{"user_id":118,"name":"KingTinkerer","steam_id":76561198226856548,"connected_time":697000000000,"state":"active","ping":81}]},{"server_id":106,"name":"Uncletopia | Chicago | 2 | All Maps","name_short":"chi-2","host":"chi-1.us.uncletopia.com","port":27025,"enabled":true,"region":"us-central","cc":"us","latitude":41.881832,"longitude":-87.62318,"reserved":0,"last_update":"0001-01-01T00:00:00Z","name_a2s":"Uncletopia | Chicago | 2 | All Maps","protocol":17,"map":"pl_barnblitz","folder":"tf","game":"Team Fortress","app_id":440,"player_count":21,"max_players":24,"Bots":0,"server_type":"Dedicated","server_os":"Linux","password":true,"vac":true,"version":"7723704","steam_id":85568392924469985,"keywords":["nocrits","nodmgspread","payload","uncletopia"],"game_id":440,"stv_port":27026,"stv_name":"Uncletopia | Chicago | 2 | All Maps | STV","players":[{"user_id":89,"name":"ChipperGunslinger","steam_id":76561199100483140,"connected_time":154000000000,"state":"active","ping":85},{"user_id":87,"name":"wife haver","steam_id":76561198248170354,"connected_time":626000000000,"state":"active","ping":76},{"user_id":51,"name":"Fluffeline","steam_id":76561198352909489,"connected_time":4291000000000,"state":"active","ping":142},{"user_id":88,"name":"Kenni, brain cell not haver","steam_id":76561198141344039,"connected_time":300000000000,"state":"active","ping":70},{"user_id":64,"name":"GUINNESS ANYONE?","steam_id":76561197985970131,"connected_time":2639000000000,"state":"active","ping":69},{"user_id":75,"name":"sweaterfan","steam_id":76561199389567214,"connected_time":1863000000000,"state":"active","ping":61},{"user_id":90,"name":"⭕⃤ B. S.","steam_id":76561198317338045,"connected_time":81000000000,"state":"active","ping":140},{"user_id":91,"name":"Super Gay Homo Thug","steam_id":76561198355094896,"connected_time":61000000000,"state":"active","ping":62},{"user_id":92,"name":"Rumpelforeskin","steam_id":76561198022105119,"connected_time":37000000000,"state":"active","ping":53},{"user_id":93,"name":"Deez Nutz","steam_id":76561198057374871,"connected_time":24000000000,"state":"active","ping":47},{"user_id":76,"name":"Zuriel","steam_id":76561198149673080,"connected_time":1717000000000,"state":"active","ping":101},{"user_id":83,"name":"Jimmy","steam_id":76561197970838363,"connected_time":1267000000000,"state":"active","ping":71},{"user_id":79,"name":"slimjim557","steam_id":76561199094710853,"connected_time":1406000000000,"state":"active","ping":77},{"user_id":37,"name":"glug slug","steam_id":76561197988690273,"connected_time":4979000000000,"state":"active","ping":64},{"user_id":48,"name":"ctap2lean","steam_id":76561198068538473,"connected_time":4419000000000,"state":"active","ping":79},{"user_id":39,"name":"merty","steam_id":76561198067874268,"connected_time":4955000000000,"state":"active","ping":62},{"user_id":40,"name":"longer arms","steam_id":76561197984752473,"connected_time":4946000000000,"state":"active","ping":48},{"user_id":62,"name":"Dill","steam_id":76561197985091914,"connected_time":3234000000000,"state":"active","ping":65},{"user_id":84,"name":"Heavy Lobster","steam_id":76561199437953754,"connected_time":1213000000000,"state":"active","ping":93},{"user_id":77,"name":"Female Gamer","steam_id":76561199366482682,"connected_time":1500000000000,"state":"active","ping":97},{"user_id":86,"name":"Brian","steam_id":76561198144650969,"connected_time":1029000000000,"state":"active","ping":90}]},{"server_id":402,"name":"Uncletopia | Chicago | 3 | All Maps","name_short":"chi-3","host":"chi-1.us.uncletopia.com","port":27035,"enabled":true,"region":"us-central","cc":"us","latitude":41.881832,"longitude":-87.62318,"reserved":0,"last_update":"0001-01-01T00:00:00Z","name_a2s":"Uncletopia | Chicago | 3 | All Maps","protocol":17,"map":"cp_mountainlab","folder":"tf","game":"Team Fortress","app_id":440,"player_count":0,"max_players":24,"Bots":0,"server_type":"Dedicated","server_os":"Linux","password":true,"vac":true,"version":"7723704","steam_id":85568392924515191,"keywords":["cp","nocrits","nodmgspread","uncletopia"],"game_id":440,"stv_port":27036,"stv_name":"Uncletopia | Chicago | 3 | All Maps | STV","players":null},{"server_id":403,"name":"Uncletopia | Chicago | 4 | All Maps","name_short":"chi-4","host":"chi-1.us.uncletopia.com","port":27045,"enabled":true,"region":"us-central","cc":"us","latitude":41.881832,"longitude":-87.62318,"reserved":0,"last_update":"0001-01-01T00:00:00Z","name_a2s":"Uncletopia | Chicago | 4 | All Maps","protocol":17,"map":"pl_snowycoast","folder":"tf","game":"Team Fortress","app_id":440,"player_count":24,"max_players":24,"Bots":0,"server_type":"Dedicated","server_os":"Linux","password":true,"vac":true,"version":"7723704","steam_id":85568392924515193,"keywords":["nocrits","nodmgspread","payload","uncletopia"],"game_id":440,"stv_port":27046,"stv_name":"Uncletopia | Chicago | 4 | All Maps | STV","players":[{"user_id":79,"name":"Itgel","steam_id":76561198188572226,"connected_time":44000000000,"state":"active","ping":61},{"user_id":4,"name":"Ye (I Love Hitler) West","steam_id":76561198068830312,"connected_time":6982000000000,"state":"active","ping":45},{"user_id":8,"name":"Zodyxajon","steam_id":76561198165561581,"connected_time":6945000000000,"state":"active","ping":64},{"user_id":72,"name":"Spider","steam_id":76561198051430727,"connected_time":2015000000000,"state":"active","ping":79},{"user_id":7,"name":"Wug","steam_id":76561198084112264,"connected_time":6967000000000,"state":"active","ping":74},{"user_id":77,"name":"NOLSEY","steam_id":76561198108959504,"connected_time":689000000000,"state":"active","ping":55},{"user_id":78,"name":"THICC","steam_id":76561198273234133,"connected_time":644000000000,"state":"active","ping":76},{"user_id":60,"name":"weeb_whacker #Jenius","steam_id":76561198187098041,"connected_time":2967000000000,"state":"active","ping":48},{"user_id":40,"name":"q!k.glodfyeehs","steam_id":76561198086008437,"connected_time":5199000000000,"state":"active","ping":75},{"user_id":76,"name":"The Super Mario Bros. Movie","steam_id":76561198871692156,"connected_time":1382000000000,"state":"active","ping":91},{"user_id":68,"name":"WONDER.","steam_id":76561198092527854,"connected_time":2784000000000,"state":"active","ping":104},{"user_id":57,"name":"NyanPigz","steam_id":76561198124136007,"connected_time":3311000000000,"state":"active","ping":59},{"user_id":73,"name":"Blorgus_J_Blart","steam_id":76561198430926135,"connected_time":1977000000000,"state":"active","ping":108},{"user_id":71,"name":"just call me joe","steam_id":76561198043911582,"connected_time":2032000000000,"state":"active","ping":61},{"user_id":74,"name":"OldManHenderson1976","steam_id":76561198148713751,"connected_time":1934000000000,"state":"active","ping":90},{"user_id":80,"name":"cobalt","steam_id":76561198126982318,"connected_time":27000000000,"state":"active","ping":149},{"user_id":70,"name":"jt","steam_id":76561198059575962,"connected_time":2458000000000,"state":"active","ping":59},{"user_id":66,"name":"ramensniffer","steam_id":76561198046870291,"connected_time":2842000000000,"state":"active","ping":59},{"user_id":41,"name":"{AmethystPlays}","steam_id":76561198314936891,"connected_time":4929000000000,"state":"active","ping":86},{"user_id":54,"name":"Murk Wahlberg","steam_id":76561198131467867,"connected_time":3335000000000,"state":"active","ping":81},{"user_id":52,"name":"josh","steam_id":76561198111565081,"connected_time":3398000000000,"state":"active","ping":112},{"user_id":62,"name":"❤ Ashley ❤","steam_id":76561198056428303,"connected_time":2966000000000,"state":"active","ping":104},{"user_id":32,"name":"cube","steam_id":76561197991759721,"connected_time":6376000000000,"state":"active","ping":62},{"user_id":39,"name":"Rat God","steam_id":76561198066161598,"connected_time":5211000000000,"state":"active","ping":52}]},{"server_id":36,"name":"Uncletopia | Chicago | 5 | All Maps","name_short":"chi-5","host":"chi-2.us.uncletopia.com","port":27015,"enabled":true,"region":"us-central","cc":"us","latitude":41.881832,"longitude":-87.62318,"reserved":0,"last_update":"0001-01-01T00:00:00Z","name_a2s":"Uncletopia | Chicago | 5 | All Maps","protocol":17,"map":"cp_altitude","folder":"tf","game":"Team Fortress","app_id":440,"player_count":0,"max_players":24,"Bots":0,"server_type":"Dedicated","server_os":"Linux","password":true,"vac":true,"version":"7723704","steam_id":85568392924866362,"keywords":["cp","nocrits","nodmgspread","uncletopia"],"game_id":440,"stv_port":27016,"stv_name":"Uncletopia | Chicago | 5 | All Maps | STV","players":null},{"server_id":37,"name":"Uncletopia | Chicago | 6 | All Maps","name_short":"chi-6","host":"chi-2.us.uncletopia.com","port":27025,"enabled":true,"region":"us-central","cc":"us","latitude":41.881832,"longitude":-87.62318,"reserved":0,"last_update":"0001-01-01T00:00:00Z","name_a2s":"Uncletopia | Chicago | 6 | All Maps","protocol":17,"map":"cp_mountainlab","folder":"tf","game":"Team Fortress","app_id":440,"player_count":0,"max_players":24,"Bots":0,"server_type":"Dedicated","server_os":"Linux","password":true,"vac":true,"version":"7723704","steam_id":85568392924866363,"keywords":["cp","nocrits","nodmgspread","uncletopia"],"game_id":440,"stv_port":27026,"stv_name":"Uncletopia | Chicago | 6 | All Maps | STV","players":null},{"server_id":38,"name":"Uncletopia | Chicago | 7 | Stopwatch Beta","name_short":"chi-7","host":"chi-2.us.uncletopia.com","port":27035,"enabled":true,"region":"us-central","cc":"us","latitude":41.881832,"longitude":-87.62318,"reserved":0,"last_update":"0001-01-01T00:00:00Z","name_a2s":"Uncletopia | Chicago | 7 | Stopwatch Beta","protocol":17,"map":"pl_badwater","folder":"tf","game":"Team Fortress","app_id":440,"player_count":0,"max_players":24,"Bots":0,"server_type":"Dedicated","server_os":"Linux","password":true,"vac":true,"version":"7723704","steam_id":85568392924866364,"keywords":["nocrits","nodmgspread","payload","uncletopia"],"game_id":440,"stv_port":27036,"stv_name":"Uncletopia | Chicago | 7 | Stopwatch Beta | STV","players":null},{"server_id":39,"name":"Uncletopia | Chicago | 8 | Community","name_short":"chi-8","host":"chi-2.us.uncletopia.com","port":27045,"enabled":true,"region":"us-central","cc":"us","latitude":41.881832,"longitude":-87.62318,"reserved":0,"last_update":"0001-01-01T00:00:00Z","name_a2s":"Uncletopia | Chicago | 8 | Community","protocol":17,"map":"workshop/pl_eruption_b8c.ugc2865677281","folder":"tf","game":"Team Fortress","app_id":440,"player_count":12,"max_players":24,"Bots":0,"server_type":"Dedicated","server_os":"Linux","password":true,"vac":true,"version":"7723704","steam_id":85568392924866365,"keywords":["nocrits","nodmgspread","payload","uncletopia"],"game_id":440,"stv_port":27046,"stv_name":"Uncletopia | Chicago | 8 | Community | STV","players":[{"user_id":133,"name":"Omnom143","steam_id":76561198097838265,"connected_time":338000000000,"state":"spawning","ping":80},{"user_id":111,"name":"faxxy","steam_id":76561198079621240,"connected_time":2156000000000,"state":"spawning","ping":79},{"user_id":51,"name":"Snoopy","steam_id":76561198273735974,"connected_time":5309000000000,"state":"spawning","ping":94},{"user_id":92,"name":"JakeTheBoi","steam_id":76561199278135331,"connected_time":3270000000000,"state":"spawning","ping":92},{"user_id":135,"name":"Dura","steam_id":76561198334676366,"connected_time":154000000000,"state":"spawning","ping":106},{"user_id":104,"name":"bad","steam_id":76561198090531755,"connected_time":2939000000000,"state":"spawning","ping":84},{"user_id":128,"name":"Vhee","steam_id":76561198032525780,"connected_time":1136000000000,"state":"spawning","ping":90},{"user_id":41,"name":"TÖZI","steam_id":76561198045268695,"connected_time":5765000000000,"state":"spawning","ping":67},{"user_id":119,"name":"The Bee's Knees","steam_id":76561198042153923,"connected_time":1775000000000,"state":"spawning","ping":46},{"user_id":125,"name":"Snoofy Snorfa","steam_id":76561198161556537,"connected_time":1509000000000,"state":"spawning","ping":87},{"user_id":95,"name":"Lizbeth!","steam_id":76561198134418839,"connected_time":3210000000000,"state":"spawning","ping":99},{"user_id":130,"name":"Hamster","steam_id":76561198079599992,"connected_time":1123000000000,"state":"spawning","ping":41}]},{"server_id":8,"name":"Uncletopia | Dallas | 1 | All Maps","name_short":"dal-1","host":"dal-1.us.uncletopia.com","port":27015,"enabled":true,"region":"us-central","cc":"us","latitude":32.779167,"longitude":-96.80889,"reserved":0,"last_update":"0001-01-01T00:00:00Z","name_a2s":"Uncletopia | Dallas | 1 | All Maps","protocol":17,"map":"cp_altitude","folder":"tf","game":"Team Fortress","app_id":440,"player_count":0,"max_players":24,"Bots":0,"server_type":"Dedicated","server_os":"Linux","password":true,"vac":true,"version":"7723704","steam_id":85568392924469986,"keywords":["cp","nocrits","nodmgspread","uncletopia"],"game_id":440,"stv_port":27016,"stv_name":"Uncletopia | Dallas | 1 | All Maps | STV","players":null},{"server_id":108,"name":"Uncletopia | Dallas | 2 | All Maps","name_short":"dal-2","host":"dal-1.us.uncletopia.com","port":27025,"enabled":true,"region":"us-central","cc":"us","latitude":32.779167,"longitude":-96.80889,"reserved":0,"last_update":"0001-01-01T00:00:00Z","name_a2s":"Uncletopia | Dallas | 2 | All Maps","protocol":17,"map":"pl_upward","folder":"tf","game":"Team Fortress","app_id":440,"player_count":19,"max_players":24,"Bots":0,"server_type":"Dedicated","server_os":"Linux","password":true,"vac":true,"version":"7723704","steam_id":85568392924469988,"keywords":["nocrits","nodmgspread","payload","uncletopia"],"game_id":440,"stv_port":27026,"stv_name":"Uncletopia | Dallas | 2 | All Maps | STV","players":[{"user_id":94,"name":"River Rat","steam_id":76561198116383976,"connected_time":146000000000,"state":"active","ping":98},{"user_id":90,"name":"honked off the bobo","steam_id":76561198123287268,"connected_time":400000000000,"state":"active","ping":61},{"user_id":21,"name":"★CyberWario★","steam_id":76561198362810244,"connected_time":6954000000000,"state":"active","ping":44},{"user_id":73,"name":"belieber2011","steam_id":76561198998340318,"connected_time":1394000000000,"state":"active","ping":128},{"user_id":14,"name":"G. Howard Dee","steam_id":76561198058382812,"connected_time":6968000000000,"state":"active","ping":62},{"user_id":95,"name":"pw","steam_id":76561198087945065,"connected_time":124000000000,"state":"active","ping":75},{"user_id":46,"name":"Vazquez Perez","steam_id":76561199185750989,"connected_time":2950000000000,"state":"active","ping":71},{"user_id":89,"name":"Underscore","steam_id":76561198374209415,"connected_time":486000000000,"state":"active","ping":57},{"user_id":38,"name":"+","steam_id":76561198262422184,"connected_time":4551000000000,"state":"active","ping":53},{"user_id":13,"name":"★CyberMario★","steam_id":76561198045798329,"connected_time":6971000000000,"state":"active","ping":50},{"user_id":68,"name":"SwooWoop","steam_id":76561199244312225,"connected_time":1818000000000,"state":"active","ping":78},{"user_id":39,"name":"Medical Asshat","steam_id":76561198004584315,"connected_time":4550000000000,"state":"active","ping":83},{"user_id":50,"name":"El Benjador","steam_id":76561198345883103,"connected_time":2819000000000,"state":"active","ping":68},{"user_id":87,"name":"Gonzo","steam_id":76561198202095541,"connected_time":754000000000,"state":"active","ping":84},{"user_id":78,"name":"POWER IN MISERY","steam_id":76561198032008701,"connected_time":1261000000000,"state":"active","ping":75},{"user_id":91,"name":"Dude With A Gasmask","steam_id":76561198881532241,"connected_time":351000000000,"state":"active","ping":128},{"user_id":92,"name":"Nico The Cheese","steam_id":76561199065272792,"connected_time":347000000000,"state":"active","ping":75},{"user_id":88,"name":"[ Glaze-eta ]","steam_id":76561198304045164,"connected_time":562000000000,"state":"active","ping":66},{"user_id":83,"name":"Xmas Xtar","steam_id":76561198301774048,"connected_time":1170000000000,"state":"active","ping":101}]},{"server_id":5,"name":"Uncletopia | Frankfurt | 1 | All Maps","name_short":"frk-1","host":"frk-1.de.uncletopia.com","port":27015,"enabled":true,"region":"eu","cc":"de","latitude":50.110924,"longitude":8.682127,"reserved":0,"last_update":"0001-01-01T00:00:00Z","name_a2s":"Uncletopia | Frankfurt | 1 | All Maps","protocol":17,"map":"koth_highpass","folder":"tf","game":"Team Fortress","app_id":440,"player_count":0,"max_players":24,"Bots":0,"server_type":"Dedicated","server_os":"Linux","password":true,"vac":true,"version":"7723704","steam_id":85568392924469989,"keywords":["cp","nocrits","nodmgspread","uncletopia"],"game_id":440,"stv_port":27016,"stv_name":"Uncletopia | Frankfurt | 1 | All Maps | STV","players":null},{"server_id":110,"name":"Uncletopia | Frankfurt | 2 | All Maps","name_short":"frk-2","host":"frk-1.de.uncletopia.com","port":27025,"enabled":true,"region":"eu","cc":"de","latitude":50.110924,"longitude":8.682127,"reserved":0,"last_update":"0001-01-01T00:00:00Z","name_a2s":"Uncletopia | Frankfurt | 2 | All Maps","protocol":17,"map":"cp_snakewater_final1","folder":"tf","game":"Team Fortress","app_id":440,"player_count":0,"max_players":24,"Bots":0,"server_type":"Dedicated","server_os":"Linux","password":true,"vac":true,"version":"7723704","steam_id":85568392924469990,"keywords":["cp","nocrits","nodmgspread","uncletopia"],"game_id":440,"stv_port":27026,"stv_name":"Uncletopia | Frankfurt | 2 | All Maps | STV","players":null},{"server_id":308,"name":"Uncletopia | Frankfurt | 3 | All Maps","name_short":"frk-3","host":"frk-1.de.uncletopia.com","port":27035,"enabled":true,"region":"eu","cc":"de","latitude":50.110924,"longitude":8.682127,"reserved":0,"last_update":"0001-01-01T00:00:00Z","name_a2s":"Uncletopia | Frankfurt | 3 | All Maps","protocol":17,"map":"pl_barnblitz","folder":"tf","game":"Team Fortress","app_id":440,"player_count":0,"max_players":24,"Bots":0,"server_type":"Dedicated","server_os":"Linux","password":true,"vac":true,"version":"7723704","steam_id":85568392924504274,"keywords":["nocrits","nodmgspread","payload","uncletopia"],"game_id":440,"stv_port":27036,"stv_name":"Uncletopia | Frankfurt | 3 | All Maps | STV","players":null},{"server_id":309,"name":"Uncletopia | Frankfurt | 4 | All Maps","name_short":"frk-4","host":"frk-1.de.uncletopia.com","port":27045,"enabled":true,"region":"eu","cc":"de","latitude":50.110924,"longitude":8.682127,"reserved":0,"last_update":"0001-01-01T00:00:00Z","name_a2s":"Uncletopia | Frankfurt | 4 | All Maps","protocol":17,"map":"pl_snowycoast","folder":"tf","game":"Team Fortress","app_id":440,"player_count":0,"max_players":24,"Bots":0,"server_type":"Dedicated","server_os":"Linux","password":true,"vac":true,"version":"7723704","steam_id":85568392924504275,"keywords":["nocrits","nodmgspread","payload","uncletopia"],"game_id":440,"stv_port":27046,"stv_name":"Uncletopia | Frankfurt | 4 | All Maps | STV","players":null},{"server_id":310,"name":"Uncletopia | Frankfurt | 5 | All Maps","name_short":"frk-5","host":"frk-1.de.uncletopia.com","port":27055,"enabled":true,"region":"eu","cc":"de","latitude":50.110924,"longitude":8.682127,"reserved":0,"last_update":"0001-01-01T00:00:00Z","name_a2s":"Uncletopia | Frankfurt | 5 | All Maps","protocol":17,"map":"pl_barnblitz","folder":"tf","game":"Team Fortress","app_id":440,"player_count":0,"max_players":24,"Bots":0,"server_type":"Dedicated","server_os":"Linux","password":true,"vac":true,"version":"7723704","steam_id":85568392924504277,"keywords":["nocrits","nodmgspread","payload","uncletopia"],"game_id":440,"stv_port":27056,"stv_name":"Uncletopia | Frankfurt | 5 | All Maps | STV","players":null},{"server_id":311,"name":"Uncletopia | Frankfurt | 6 | All Maps","name_short":"frk-6","host":"frk-1.de.uncletopia.com","port":27065,"enabled":true,"region":"eu","cc":"de","latitude":50.110924,"longitude":8.682127,"reserved":0,"last_update":"0001-01-01T00:00:00Z","name_a2s":"Uncletopia | Frankfurt | 6 | All Maps","protocol":17,"map":"pl_swiftwater_final1","folder":"tf","game":"Team Fortress","app_id":440,"player_count":0,"max_players":24,"Bots":0,"server_type":"Dedicated","server_os":"Linux","password":true,"vac":true,"version":"7723704","steam_id":85568392924504278,"keywords":["nocrits","nodmgspread","payload","uncletopia"],"game_id":440,"stv_port":27066,"stv_name":"Uncletopia | Frankfurt | 6 | All Maps | STV","players":null},{"server_id":23,"name":"Uncletopia | Frankfurt | 7 | Stopwatch Beta","name_short":"frk-7","host":"frk-1.de.uncletopia.com","port":27075,"enabled":true,"region":"eu","cc":"de","latitude":50.110924,"longitude":8.682127,"reserved":0,"last_update":"0001-01-01T00:00:00Z","name_a2s":"Uncletopia | Frankfurt | 7 | Stopwatch Beta","protocol":17,"map":"koth_viaduct","folder":"tf","game":"Team Fortress","app_id":440,"player_count":0,"max_players":24,"Bots":0,"server_type":"Dedicated","server_os":"Linux","password":true,"vac":true,"version":"7723704","steam_id":85568392924742827,"keywords":["cp","nocrits","nodmgspread","uncletopia"],"game_id":440,"stv_port":27076,"stv_name":"Uncletopia | Frankfurt | 7 | Stopwatch Beta | STV","players":null},{"server_id":24,"name":"Uncletopia | Frankfurt | 8 | Community","name_short":"frk-8","host":"frk-1.de.uncletopia.com","port":27085,"enabled":true,"region":"eu","cc":"de","latitude":50.110924,"longitude":8.682127,"reserved":0,"last_update":"0001-01-01T00:00:00Z","name_a2s":"Uncletopia | Frankfurt | 8 | Community","protocol":17,"map":"pl_frontier_final","folder":"tf","game":"Team Fortress","app_id":440,"player_count":0,"max_players":24,"Bots":0,"server_type":"Dedicated","server_os":"Linux","password":true,"vac":true,"version":"7723704","steam_id":85568392924742828,"keywords":["nocrits","nodmgspread","payload","uncletopia"],"game_id":440,"stv_port":27086,"stv_name":"Uncletopia | Frankfurt | 8 | Community | STV","players":null},{"server_id":202,"name":"Uncletopia | Hong Kong | 1 | All Maps","name_short":"hgk-1","host":"hgk-1.hk.uncletopia.com","port":27015,"enabled":true,"region":"asia","cc":"hk","latitude":22.302711,"longitude":114.177216,"reserved":0,"last_update":"0001-01-01T00:00:00Z","name_a2s":"Uncletopia | Hong Kong | 1 | All Maps","protocol":17,"map":"pl_upward","folder":"tf","game":"Team Fortress","app_id":440,"player_count":24,"max_players":24,"Bots":0,"server_type":"Dedicated","server_os":"Linux","password":true,"vac":true,"version":"7723704","steam_id":85568392924494504,"keywords":["nocrits","nodmgspread","payload","uncletopia"],"game_id":440,"stv_port":27016,"stv_name":"Uncletopia | Hong Kong | 1 | All Maps | STV","players":[{"user_id":33,"name":":D","steam_id":76561198009692495,"connected_time":2304000000000,"state":"active","ping":85},{"user_id":4,"name":"Windmill","steam_id":76561199230997986,"connected_time":3029000000000,"state":"active","ping":70},{"user_id":5,"name":"Me is gaming","steam_id":76561199025438331,"connected_time":3028000000000,"state":"active","ping":59},{"user_id":6,"name":"Creeper-Chan","steam_id":76561198172623219,"connected_time":3027000000000,"state":"active","ping":55},{"user_id":7,"name":"UZ","steam_id":76561198179320563,"connected_time":3027000000000,"state":"active","ping":88},{"user_id":8,"name":"Pillboi","steam_id":76561198011172886,"connected_time":3026000000000,"state":"active","ping":44},{"user_id":35,"name":"dunkleshreken","steam_id":76561198044875028,"connected_time":1964000000000,"state":"active","ping":107},{"user_id":10,"name":"Milk❤ (most hated guy in ut)","steam_id":76561198163911560,"connected_time":3025000000000,"state":"active","ping":100},{"user_id":11,"name":"Vortex Morez","steam_id":76561198833527091,"connected_time":3024000000000,"state":"active","ping":89},{"user_id":38,"name":"SOS By SZA","steam_id":76561198400698408,"connected_time":1663000000000,"state":"active","ping":90},{"user_id":13,"name":"Oral Cigarettes","steam_id":76561198347418251,"connected_time":3023000000000,"state":"active","ping":64},{"user_id":51,"name":"angelDivine","steam_id":76561198872518955,"connected_time":0,"state":"spawning","ping":14},{"user_id":15,"name":"Lúd","steam_id":76561198828840546,"connected_time":3015000000000,"state":"active","ping":72},{"user_id":16,"name":"i like cheese","steam_id":76561198085893796,"connected_time":3015000000000,"state":"active","ping":103},{"user_id":17,"name":"煙海 | Enkai","steam_id":76561198050460825,"connected_time":3015000000000,"state":"active","ping":85},{"user_id":39,"name":"derek.patriarca30","steam_id":76561199427230206,"connected_time":1254000000000,"state":"active","ping":63},{"user_id":41,"name":"akblueguy","steam_id":76561198448294021,"connected_time":973000000000,"state":"active","ping":128},{"user_id":47,"name":"Sijikcick","steam_id":76561199097679930,"connected_time":547000000000,"state":"active","ping":99},{"user_id":22,"name":"Bertengkar","steam_id":76561198213031155,"connected_time":2992000000000,"state":"active","ping":106},{"user_id":23,"name":"bakabazooka(merrychrismas)","steam_id":76561198061628689,"connected_time":2990000000000,"state":"active","ping":51},{"user_id":32,"name":"r/leroy","steam_id":76561199137927625,"connected_time":2533000000000,"state":"active","ping":111},{"user_id":46,"name":"Lu","steam_id":76561198320532821,"connected_time":778000000000,"state":"active","ping":57},{"user_id":29,"name":"Yes'Tir'Day","steam_id":76561198091798037,"connected_time":2778000000000,"state":"active","ping":107},{"user_id":37,"name":"Cá Tháng 4","steam_id":76561198047162026,"connected_time":1707000000000,"state":"active","ping":63}]},{"server_id":1,"name":"Uncletopia | Los Angeles | 1 | All Maps","name_short":"lax-1","host":"lax-1.us.uncletopia.com","port":27015,"enabled":true,"region":"us-west","cc":"us","latitude":33.94279,"longitude":-118.41004,"reserved":0,"last_update":"0001-01-01T00:00:00Z","name_a2s":"Uncletopia | Los Angeles | 1 | All Maps","protocol":17,"map":"pl_snowycoast","folder":"tf","game":"Team Fortress","app_id":440,"player_count":0,"max_players":24,"Bots":0,"server_type":"Dedicated","server_os":"Linux","password":true,"vac":true,"version":"7723704","steam_id":85568392924469991,"keywords":["nocrits","nodmgspread","payload","uncletopia"],"game_id":440,"stv_port":27016,"stv_name":"Uncletopia | Los Angeles | 1 | All Maps | STV","players":null},{"server_id":112,"name":"Uncletopia | Los Angeles | 2 | All Maps","name_short":"lax-2","host":"lax-1.us.uncletopia.com","port":27025,"enabled":true,"region":"us-west","cc":"us","latitude":33.94279,"longitude":-118.41004,"reserved":0,"last_update":"0001-01-01T00:00:00Z","name_a2s":"Uncletopia | Los Angeles | 2 | All Maps","protocol":17,"map":"koth_viaduct","folder":"tf","game":"Team Fortress","app_id":440,"player_count":0,"max_players":24,"Bots":0,"server_type":"Dedicated","server_os":"Linux","password":true,"vac":true,"version":"7723704","steam_id":85568392924469992,"keywords":["cp","nocrits","nodmgspread","uncletopia"],"game_id":440,"stv_port":27026,"stv_name":"Uncletopia | Los Angeles | 2 | All Maps | STV","players":null},{"server_id":324,"name":"Uncletopia | Los Angeles | 3 | All Maps","name_short":"lax-3","host":"lax-1.us.uncletopia.com","port":27035,"enabled":true,"region":"us-west","cc":"us","latitude":33.94279,"longitude":-118.41004,"reserved":0,"last_update":"0001-01-01T00:00:00Z","name_a2s":"Uncletopia | Los Angeles | 3 | All Maps","protocol":17,"map":"koth_viaduct","folder":"tf","game":"Team Fortress","app_id":440,"player_count":0,"max_players":24,"Bots":0,"server_type":"Dedicated","server_os":"Linux","password":true,"vac":true,"version":"7723704","steam_id":85568392924510198,"keywords":["cp","nocrits","nodmgspread","uncletopia"],"game_id":440,"stv_port":27036,"stv_name":"Uncletopia | Los Angeles | 3 | All Maps | STV","players":null},{"server_id":25,"name":"Uncletopia | Los Angeles | 4 | Stopwatch Beta","name_short":"lax-4","host":"lax-1.us.uncletopia.com","port":27045,"enabled":true,"region":"us-west","cc":"us","latitude":33.94279,"longitude":-118.41004,"reserved":0,"last_update":"0001-01-01T00:00:00Z","name_a2s":"Uncletopia | Los Angeles | 4 | Stopwatch Beta","protocol":17,"map":"cp_sunshine","folder":"tf","game":"Team Fortress","app_id":440,"player_count":0,"max_players":24,"Bots":0,"server_type":"Dedicated","server_os":"Linux","password":true,"vac":true,"version":"7723704","steam_id":85568392924510199,"keywords":["cp","nocrits","nodmgspread","uncletopia"],"game_id":440,"stv_port":27046,"stv_name":"Uncletopia | Los Angeles | 4 | Stopwatch Beta | STV","players":null},{"server_id":11,"name":"Uncletopia | London | 1 | All Maps","name_short":"lon-1","host":"lon-1.uk.uncletopia.com","port":27015,"enabled":true,"region":"eu","cc":"gb","latitude":51.509865,"longitude":-0.118092,"reserved":0,"last_update":"0001-01-01T00:00:00Z","name_a2s":"Uncletopia | London | 1 | All Maps","protocol":17,"map":"koth_viaduct","folder":"tf","game":"Team Fortress","app_id":440,"player_count":0,"max_players":24,"Bots":0,"server_type":"Dedicated","server_os":"Linux","password":true,"vac":true,"version":"7723704","steam_id":85568392924367362,"keywords":["cp","nocrits","nodmgspread","uncletopia"],"game_id":440,"stv_port":27016,"stv_name":"Uncletopia | London | 1 | All Maps | STV","players":null},{"server_id":114,"name":"Uncletopia | London | 2 | All Maps","name_short":"lon-2","host":"lon-1.uk.uncletopia.com","port":27025,"enabled":true,"region":"eu","cc":"gb","latitude":51.509865,"longitude":-0.118092,"reserved":0,"last_update":"0001-01-01T00:00:00Z","name_a2s":"Uncletopia | London | 2 | All Maps","protocol":17,"map":"pl_upward","folder":"tf","game":"Team Fortress","app_id":440,"player_count":0,"max_players":24,"Bots":0,"server_type":"Dedicated","server_os":"Linux","password":true,"vac":true,"version":"7723704","steam_id":85568392924470941,"keywords":["nocrits","nodmgspread","payload","uncletopia"],"game_id":440,"stv_port":27026,"stv_name":"Uncletopia | London | 2 | All Maps | STV","players":null},{"server_id":320,"name":"Uncletopia | London | 3 | All Maps","name_short":"lon-3","host":"lon-1.uk.uncletopia.com","port":27035,"enabled":true,"region":"eu","cc":"gb","latitude":51.509865,"longitude":-0.118092,"reserved":0,"last_update":"0001-01-01T00:00:00Z","name_a2s":"Uncletopia | London | 3 | All Maps","protocol":17,"map":"pl_snowycoast","folder":"tf","game":"Team Fortress","app_id":440,"player_count":7,"max_players":24,"Bots":0,"server_type":"Dedicated","server_os":"Linux","password":true,"vac":true,"version":"7723704","steam_id":85568392924510192,"keywords":["nocrits","nodmgspread","payload","uncletopia"],"game_id":440,"stv_port":27036,"stv_name":"Uncletopia | London | 3 | All Maps | STV","players":[{"user_id":3,"name":"CODSWOLOP","steam_id":76561199114598660,"connected_time":1378000000000,"state":"active","ping":135},{"user_id":8,"name":"plainview","steam_id":76561198797005395,"connected_time":643000000000,"state":"active","ping":49},{"user_id":6,"name":"hrize","steam_id":76561198829023463,"connected_time":928000000000,"state":"active","ping":112},{"user_id":9,"name":"catboy trickster","steam_id":76561198075665211,"connected_time":528000000000,"state":"active","ping":48},{"user_id":11,"name":"Nika","steam_id":76561198355965587,"connected_time":466000000000,"state":"active","ping":57},{"user_id":12,"name":"NZN_pro","steam_id":76561198862334903,"connected_time":121000000000,"state":"active","ping":156},{"user_id":13,"name":"Squash Banana","steam_id":76561198055480280,"connected_time":103000000000,"state":"active","ping":82}]},{"server_id":321,"name":"Uncletopia | London | 4 | All Maps","name_short":"lon-4","host":"lon-1.uk.uncletopia.com","port":27045,"enabled":true,"region":"eu","cc":"gb","latitude":51.509865,"longitude":-0.118092,"reserved":0,"last_update":"0001-01-01T00:00:00Z","name_a2s":"Uncletopia | London | 4 | All Maps","protocol":17,"map":"koth_lakeside_final","folder":"tf","game":"Team Fortress","app_id":440,"player_count":0,"max_players":24,"Bots":0,"server_type":"Dedicated","server_os":"Linux","password":true,"vac":true,"version":"7723704","steam_id":85568392924510193,"keywords":["cp","nocrits","nodmgspread","uncletopia"],"game_id":440,"stv_port":27046,"stv_name":"Uncletopia | London | 4 | All Maps | STV","players":null},{"server_id":21,"name":"Uncletopia | London | 5 | All Maps","name_short":"lon-5","host":"lon-1.uk.uncletopia.com","port":27055,"enabled":true,"region":"eu","cc":"gb","latitude":51.509865,"longitude":-0.118092,"reserved":0,"last_update":"0001-01-01T00:00:00Z","name_a2s":"Uncletopia | London | 5 | All Maps","protocol":17,"map":"pl_borneo","folder":"tf","game":"Team Fortress","app_id":440,"player_count":0,"max_players":24,"Bots":0,"server_type":"Dedicated","server_os":"Linux","password":true,"vac":true,"version":"7723704","steam_id":85568392924742829,"keywords":["nocrits","nodmgspread","payload","uncletopia"],"game_id":440,"stv_port":27056,"stv_name":"Uncletopia | London | 5 | All Maps | STV","players":null},{"server_id":22,"name":"Uncletopia | London | 6 | All Maps","name_short":"lon-6","host":"lon-1.uk.uncletopia.com","port":27065,"enabled":true,"region":"eu","cc":"gb","latitude":51.509865,"longitude":-0.118092,"reserved":0,"last_update":"0001-01-01T00:00:00Z","name_a2s":"Uncletopia | London | 6 | All Maps","protocol":17,"map":"cp_process_final","folder":"tf","game":"Team Fortress","app_id":440,"player_count":0,"max_players":24,"Bots":0,"server_type":"Dedicated","server_os":"Linux","password":true,"vac":true,"version":"7723704","steam_id":85568392924742830,"keywords":["cp","nocrits","nodmgspread","uncletopia"],"game_id":440,"stv_port":27066,"stv_name":"Uncletopia | London | 6 | All Maps | STV","players":null},{"server_id":40,"name":"Uncletopia | London | 7 | No Payload","name_short":"lon-7","host":"lon-1.uk.uncletopia.com","port":27075,"enabled":true,"region":"eu","cc":"gb","latitude":51.509865,"longitude":-0.118092,"reserved":0,"last_update":"0001-01-01T00:00:00Z","name_a2s":"Uncletopia | London | 7 | No Payload","protocol":17,"map":"koth_viaduct","folder":"tf","game":"Team Fortress","app_id":440,"player_count":0,"max_players":24,"Bots":0,"server_type":"Dedicated","server_os":"Linux","password":true,"vac":true,"version":"7723704","steam_id":85568392924964314,"keywords":["cp","nocrits","nodmgspread","uncletopia"],"game_id":440,"stv_port":27076,"stv_name":"Uncletopia | London | 7 | No Payload | STV","players":null},{"server_id":41,"name":"Uncletopia | London | 8 | Community","name_short":"lon-8","host":"lon-1.uk.uncletopia.com","port":27085,"enabled":true,"region":"eu","cc":"gb","latitude":51.509865,"longitude":-0.118092,"reserved":0,"last_update":"0001-01-01T00:00:00Z","name_a2s":"Uncletopia | London | 8 | Community","protocol":17,"map":"koth_highpass","folder":"tf","game":"Team Fortress","app_id":440,"player_count":0,"max_players":24,"Bots":0,"server_type":"Dedicated","server_os":"Linux","password":true,"vac":true,"version":"7723704","steam_id":85568392924964315,"keywords":["cp","nocrits","nodmgspread","uncletopia"],"game_id":440,"stv_port":27086,"stv_name":"Uncletopia | London | 8 | Community | STV","players":null},{"server_id":300,"name":"Uncletopia | Montréal | 1 | All Maps","name_short":"mtl-1","host":"mtl-1.ca.uncletopia.com","port":27015,"enabled":true,"region":"us-east","cc":"ca","latitude":45.50889,"longitude":-73.56167,"reserved":0,"last_update":"0001-01-01T00:00:00Z","name_a2s":"Uncletopia | Montréal | 1 | All Maps","protocol":17,"map":"pl_snowycoast","folder":"tf","game":"Team Fortress","app_id":440,"player_count":0,"max_players":24,"Bots":0,"server_type":"Dedicated","server_os":"Linux","password":true,"vac":true,"version":"7723704","steam_id":85568392924500087,"keywords":["nocrits","nodmgspread","payload","uncletopia"],"game_id":440,"stv_port":27016,"stv_name":"Uncletopia | Montréal | 1 | All Maps | STV","players":null},{"server_id":301,"name":"Uncletopia | Montréal | 2 | All Maps","name_short":"mtl-2","host":"mtl-1.ca.uncletopia.com","port":27025,"enabled":true,"region":"us-east","cc":"ca","latitude":45.50889,"longitude":-73.56167,"reserved":0,"last_update":"0001-01-01T00:00:00Z","name_a2s":"Uncletopia | Montréal | 2 | All Maps","protocol":17,"map":"cp_process_final","folder":"tf","game":"Team Fortress","app_id":440,"player_count":0,"max_players":24,"Bots":0,"server_type":"Dedicated","server_os":"Linux","password":true,"vac":true,"version":"7723704","steam_id":85568392924500088,"keywords":["cp","nocrits","nodmgspread","uncletopia"],"game_id":440,"stv_port":27026,"stv_name":"Uncletopia | Montréal | 2 | All Maps | STV","players":null},{"server_id":302,"name":"Uncletopia | Montréal | 3 | All Maps","name_short":"mtl-3","host":"mtl-1.ca.uncletopia.com","port":27035,"enabled":true,"region":"us-east","cc":"ca","latitude":45.50889,"longitude":-73.56167,"reserved":0,"last_update":"0001-01-01T00:00:00Z","name_a2s":"Uncletopia | Montréal | 3 | All Maps","protocol":17,"map":"pl_barnblitz","folder":"tf","game":"Team Fortress","app_id":440,"player_count":0,"max_players":24,"Bots":0,"server_type":"Dedicated","server_os":"Linux","password":true,"vac":true,"version":"7723704","steam_id":85568392924500089,"keywords":["nocrits","nodmgspread","payload","uncletopia"],"game_id":440,"stv_port":27036,"stv_name":"Uncletopia | Montréal | 3 | All Maps | STV","players":null},{"server_id":303,"name":"Uncletopia | Montréal | 4 | No Payload","name_short":"mtl-4","host":"mtl-1.ca.uncletopia.com","port":27045,"enabled":true,"region":"us-east","cc":"ca","latitude":45.50889,"longitude":-73.56167,"reserved":0,"last_update":"0001-01-01T00:00:00Z","name_a2s":"Uncletopia | Montréal | 4 | No Payload","protocol":17,"map":"koth_cascade","folder":"tf","game":"Team Fortress","app_id":440,"player_count":0,"max_players":24,"Bots":0,"server_type":"Dedicated","server_os":"Linux","password":true,"vac":true,"version":"7723704","steam_id":85568392924500090,"keywords":["cp","nocrits","nodmgspread","uncletopia"],"game_id":440,"stv_port":27046,"stv_name":"Uncletopia | Montréal | 4 | No Payload | STV","players":null},{"server_id":13,"name":"Uncletopia | New York City | 1 | All Maps","name_short":"nyc-1","host":"nyc-1.us.uncletopia.com","port":27015,"enabled":true,"region":"us-east","cc":"us","latitude":40.73061,"longitude":-73.93524,"reserved":0,"last_update":"0001-01-01T00:00:00Z","name_a2s":"Uncletopia | New York City | 1 | All Maps","protocol":17,"map":"koth_viaduct","folder":"tf","game":"Team Fortress","app_id":440,"player_count":0,"max_players":24,"Bots":0,"server_type":"Dedicated","server_os":"Linux","password":true,"vac":true,"version":"7723704","steam_id":85568392924469993,"keywords":["cp","nocrits","nodmgspread","uncletopia"],"game_id":440,"stv_port":27016,"stv_name":"Uncletopia | New York City | 1 | All Maps | STV","players":null},{"server_id":14,"name":"Uncletopia | New York City | 2 | All Maps","name_short":"nyc-2","host":"nyc-1.us.uncletopia.com","port":27025,"enabled":true,"region":"us-east","cc":"us","latitude":40.73061,"longitude":-73.93524,"reserved":0,"last_update":"0001-01-01T00:00:00Z","name_a2s":"Uncletopia | New York City | 2 | All Maps","protocol":17,"map":"koth_lakeside_final","folder":"tf","game":"Team Fortress","app_id":440,"player_count":24,"max_players":24,"Bots":0,"server_type":"Dedicated","server_os":"Linux","password":true,"vac":true,"version":"7723704","steam_id":85568392924469994,"keywords":["cp","nocrits","nodmgspread","uncletopia"],"game_id":440,"stv_port":27026,"stv_name":"Uncletopia | New York City | 2 | All Maps | STV","players":[{"user_id":95,"name":"Esau","steam_id":76561198110449520,"connected_time":536000000000,"state":"active","ping":80},{"user_id":91,"name":"nickell88","steam_id":76561198061661797,"connected_time":644000000000,"state":"active","ping":60},{"user_id":87,"name":"|AG| Level","steam_id":76561198063633592,"connected_time":735000000000,"state":"active","ping":67},{"user_id":92,"name":"Lore","steam_id":76561198098407538,"connected_time":593000000000,"state":"active","ping":70},{"user_id":88,"name":"Oscy011","steam_id":76561198835503420,"connected_time":721000000000,"state":"active","ping":137},{"user_id":64,"name":"xxxDABGODxxx","steam_id":76561199061979040,"connected_time":2386000000000,"state":"active","ping":121},{"user_id":100,"name":"Hotdog_Gentleman","steam_id":76561199309867837,"connected_time":202000000000,"state":"active","ping":174},{"user_id":36,"name":"sprunk","steam_id":76561198061768122,"connected_time":4924000000000,"state":"active","ping":77},{"user_id":76,"name":"The Great Mighty Poo","steam_id":76561199158397833,"connected_time":2110000000000,"state":"active","ping":95},{"user_id":17,"name":"2003 chevy malibu","steam_id":76561199075669125,"connected_time":6148000000000,"state":"active","ping":45},{"user_id":18,"name":"Juri Han","steam_id":76561198041678517,"connected_time":6143000000000,"state":"active","ping":119},{"user_id":99,"name":"LynBoByn","steam_id":76561198052911142,"connected_time":381000000000,"state":"active","ping":47},{"user_id":21,"name":"lets do it","steam_id":76561198110314362,"connected_time":6082000000000,"state":"active","ping":70},{"user_id":90,"name":"Amaretto Sour","steam_id":76561198063112844,"connected_time":666000000000,"state":"active","ping":63},{"user_id":23,"name":"Iggy!","steam_id":76561198035671259,"connected_time":6078000000000,"state":"active","ping":78},{"user_id":94,"name":"Violet","steam_id":76561198055860134,"connected_time":562000000000,"state":"active","ping":75},{"user_id":78,"name":"Indica","steam_id":76561197996611634,"connected_time":2048000000000,"state":"active","ping":123},{"user_id":67,"name":"Diamond Jack","steam_id":76561198321304762,"connected_time":2359000000000,"state":"active","ping":40},{"user_id":96,"name":"Khallaria","steam_id":76561198000706490,"connected_time":516000000000,"state":"active","ping":130},{"user_id":101,"name":"akirajimbo","steam_id":76561197979960008,"connected_time":86000000000,"state":"active","ping":45},{"user_id":83,"name":"matkaster","steam_id":76561197998546486,"connected_time":1572000000000,"state":"active","ping":76},{"user_id":73,"name":"Juno was mad, knew he'd been ha","steam_id":76561198294013916,"connected_time":2228000000000,"state":"active","ping":45},{"user_id":102,"name":"SkyFlyWhite","steam_id":76561198241383126,"connected_time":78000000000,"state":"active","ping":72},{"user_id":75,"name":"Admiral Misanthrope","steam_id":76561197999529704,"connected_time":2153000000000,"state":"active","ping":113}]},{"server_id":15,"name":"Uncletopia | New York City | 3 | Stopwatch Beta","name_short":"nyc-3","host":"nyc-1.us.uncletopia.com","port":27035,"enabled":true,"region":"us-east","cc":"us","latitude":40.73061,"longitude":-73.93524,"reserved":0,"last_update":"0001-01-01T00:00:00Z","name_a2s":"Uncletopia | New York City | 3 | Stopwatch Beta","protocol":17,"map":"workshop/cp_reckoner_rc6.ugc674719999","folder":"tf","game":"Team Fortress","app_id":440,"player_count":0,"max_players":24,"Bots":0,"server_type":"Dedicated","server_os":"Linux","password":true,"vac":true,"version":"7723704","steam_id":85568392924742820,"keywords":["cp","nocrits","nodmgspread","uncletopia"],"game_id":440,"stv_port":27036,"stv_name":"Uncletopia | New York City | 3 | Stopwatch Beta | STV","players":null},{"server_id":16,"name":"Uncletopia | New York City | 4 | Community","name_short":"nyc-4","host":"nyc-1.us.uncletopia.com","port":27045,"enabled":true,"region":"us-east","cc":"us","latitude":40.73061,"longitude":-73.93524,"reserved":0,"last_update":"0001-01-01T00:00:00Z","name_a2s":"Uncletopia | New York City | 4 | Community","protocol":17,"map":"workshop/pl_eruption_b8c.ugc2865677281","folder":"tf","game":"Team Fortress","app_id":440,"player_count":0,"max_players":24,"Bots":0,"server_type":"Dedicated","server_os":"Linux","password":true,"vac":true,"version":"7723704","steam_id":85568392924742821,"keywords":["nocrits","nodmgspread","payload","uncletopia"],"game_id":440,"stv_port":27046,"stv_name":"Uncletopia | New York City | 4 | Community | STV","players":null},{"server_id":142,"name":"Uncletopia | São Paulo | 1 | All Maps","name_short":"sao-1","host":"sao-1.br.uncletopia.com","port":27015,"enabled":true,"region":"sa","cc":"br","latitude":-23.533773,"longitude":-46.62529,"reserved":0,"last_update":"0001-01-01T00:00:00Z","name_a2s":"Uncletopia | São Paulo | 1 | All Maps","protocol":17,"map":"pl_barnblitz","folder":"tf","game":"Team Fortress","app_id":440,"player_count":0,"max_players":24,"Bots":0,"server_type":"Dedicated","server_os":"Linux","password":true,"vac":true,"version":"7723704","steam_id":85568392924469996,"keywords":["nocrits","nodmgspread","payload","uncletopia"],"game_id":440,"stv_port":27016,"stv_name":"Uncletopia | São Paulo | 1 | All Maps | STV","players":null},{"server_id":143,"name":"Uncletopia | São Paulo | 2 | All Maps","name_short":"sao-2","host":"sao-2.br.uncletopia.com","port":27015,"enabled":true,"region":"sa","cc":"br","latitude":-23.533773,"longitude":-46.62529,"reserved":0,"last_update":"0001-01-01T00:00:00Z","name_a2s":"Uncletopia | São Paulo | 2 | All Maps","protocol":17,"map":"pl_frontier_final","folder":"tf","game":"Team Fortress","app_id":440,"player_count":0,"max_players":24,"Bots":0,"server_type":"Dedicated","server_os":"Linux","password":true,"vac":true,"version":"7723704","steam_id":85568392924485349,"keywords":["nocrits","nodmgspread","payload","uncletopia"],"game_id":440,"stv_port":27016,"stv_name":"Uncletopia | São Paulo | 2 | All Maps | STV","players":null},{"server_id":7,"name":"Uncletopia | Seattle | 1 | All Maps","name_short":"sea-1","host":"sea-1.us.uncletopia.com","port":27015,"enabled":true,"region":"us-west","cc":"us","latitude":47.608013,"longitude":-122.33517,"reserved":0,"last_update":"0001-01-01T00:00:00Z","name_a2s":"Uncletopia | Seattle | 1 | All Maps","protocol":17,"map":"koth_highpass","folder":"tf","game":"Team Fortress","app_id":440,"player_count":0,"max_players":24,"Bots":0,"server_type":"Dedicated","server_os":"Linux","password":true,"vac":true,"version":"7723704","steam_id":85568392924469997,"keywords":["cp","nocrits","nodmgspread","uncletopia"],"game_id":440,"stv_port":27016,"stv_name":"Uncletopia | Seattle | 1 | All Maps | STV","players":null},{"server_id":119,"name":"Uncletopia | Seattle | 2 | All Maps","name_short":"sea-2","host":"sea-1.us.uncletopia.com","port":27025,"enabled":true,"region":"us-west","cc":"us","latitude":47.608013,"longitude":-122.33517,"reserved":0,"last_update":"0001-01-01T00:00:00Z","name_a2s":"Uncletopia | Seattle | 2 | All Maps","protocol":17,"map":"pl_borneo","folder":"tf","game":"Team Fortress","app_id":440,"player_count":24,"max_players":24,"Bots":0,"server_type":"Dedicated","server_os":"Linux","password":true,"vac":true,"version":"7723704","steam_id":85568392924469998,"keywords":["nocrits","nodmgspread","payload","uncletopia"],"game_id":440,"stv_port":27026,"stv_name":"Uncletopia | Seattle | 2 | All Maps | STV","players":[{"user_id":3,"name":"rad killl raccoon","steam_id":76561198980975595,"connected_time":6990000000000,"state":"active","ping":61},{"user_id":63,"name":"timmy","steam_id":76561198063322988,"connected_time":3225000000000,"state":"active","ping":47},{"user_id":89,"name":"viciousbellringer","steam_id":76561198086876652,"connected_time":143000000000,"state":"active","ping":80},{"user_id":64,"name":"digby","steam_id":76561198079927859,"connected_time":3223000000000,"state":"active","ping":49},{"user_id":68,"name":"Boobanator5000","steam_id":76561198393299316,"connected_time":3164000000000,"state":"active","ping":45},{"user_id":56,"name":"Pneumo.","steam_id":76561197987911883,"connected_time":3513000000000,"state":"active","ping":63},{"user_id":77,"name":"pyrotechnic","steam_id":76561198043558709,"connected_time":1874000000000,"state":"active","ping":58},{"user_id":11,"name":"delight","steam_id":76561197980280272,"connected_time":6976000000000,"state":"active","ping":47},{"user_id":50,"name":"rorytherednosedreindeer","steam_id":76561198065825165,"connected_time":4488000000000,"state":"active","ping":80},{"user_id":70,"name":"goldhed","steam_id":76561198051751133,"connected_time":3149000000000,"state":"active","ping":50},{"user_id":80,"name":"oof","steam_id":76561198068031860,"connected_time":1230000000000,"state":"active","ping":76},{"user_id":62,"name":"return of gas station buttplug","steam_id":76561198073269122,"connected_time":3233000000000,"state":"active","ping":120},{"user_id":85,"name":"4","steam_id":76561198009121060,"connected_time":984000000000,"state":"active","ping":49},{"user_id":38,"name":"Arsonist Goose","steam_id":76561198147441830,"connected_time":5650000000000,"state":"active","ping":75},{"user_id":81,"name":"gorlab","steam_id":76561198025089694,"connected_time":1228000000000,"state":"active","ping":60},{"user_id":21,"name":"Sniff","steam_id":76561198010270922,"connected_time":6918000000000,"state":"active","ping":45},{"user_id":74,"name":"vincy","steam_id":76561198055522158,"connected_time":2959000000000,"state":"active","ping":101},{"user_id":23,"name":"[K.Y.L.L.]Drone #0432 (it)","steam_id":76561198027321950,"connected_time":6900000000000,"state":"active","ping":47},{"user_id":84,"name":"Grill Skills","steam_id":76561198053575147,"connected_time":1059000000000,"state":"active","ping":63},{"user_id":55,"name":"Ayayahuasca","steam_id":76561199002906056,"connected_time":4132000000000,"state":"active","ping":47},{"user_id":88,"name":"John Calibur","steam_id":76561197999986606,"connected_time":337000000000,"state":"active","ping":77},{"user_id":82,"name":"Ducks","steam_id":76561198130038345,"connected_time":1227000000000,"state":"active","ping":64},{"user_id":29,"name":"jorts","steam_id":76561199041179985,"connected_time":6821000000000,"state":"active","ping":60},{"user_id":42,"name":"The Squid Gamer™","steam_id":76561198340621517,"connected_time":5446000000000,"state":"active","ping":109}]},{"server_id":17,"name":"Uncletopia | San Francisco | 1 | All Maps","name_short":"sfo-1","host":"sfo-1.us.uncletopia.com","port":27015,"enabled":true,"region":"us-west","cc":"us","latitude":37.77397,"longitude":-122.4313,"reserved":0,"last_update":"0001-01-01T00:00:00Z","name_a2s":"Uncletopia | San Francisco | 1 | All Maps","protocol":17,"map":"pl_barnblitz","folder":"tf","game":"Team Fortress","app_id":440,"player_count":23,"max_players":24,"Bots":0,"server_type":"Dedicated","server_os":"Linux","password":true,"vac":true,"version":"7723704","steam_id":85568392924469999,"keywords":["nocrits","nodmgspread","payload","uncletopia"],"game_id":440,"stv_port":27016,"stv_name":"Uncletopia | San Francisco | 1 | All Maps | STV","players":[{"user_id":79,"name":"chicken salad","steam_id":76561198831172374,"connected_time":2295000000000,"state":"active","ping":142},{"user_id":114,"name":"Jettzky","steam_id":76561198305540151,"connected_time":86000000000,"state":"active","ping":75},{"user_id":9,"name":"Frongus","steam_id":76561197979056451,"connected_time":7011000000000,"state":"active","ping":61},{"user_id":7,"name":"lol","steam_id":76561198026491738,"connected_time":7025000000000,"state":"active","ping":65},{"user_id":92,"name":"plutonium isotope","steam_id":76561198319442494,"connected_time":1248000000000,"state":"active","ping":61},{"user_id":103,"name":"self sufficient kitten","steam_id":76561197960592612,"connected_time":450000000000,"state":"active","ping":60},{"user_id":96,"name":"MegaBron James","steam_id":76561198066091050,"connected_time":753000000000,"state":"active","ping":65},{"user_id":100,"name":"sly1","steam_id":76561198049014977,"connected_time":538000000000,"state":"active","ping":73},{"user_id":106,"name":"A Man Named Pancho","steam_id":76561197984895522,"connected_time":274000000000,"state":"active","ping":54},{"user_id":104,"name":"T^T | pHIL - \u003c3 sab","steam_id":76561198309010627,"connected_time":319000000000,"state":"active","ping":58},{"user_id":98,"name":"Fresh","steam_id":76561198068565728,"connected_time":629000000000,"state":"active","ping":47},{"user_id":109,"name":"Sinn","steam_id":76561199013434543,"connected_time":232000000000,"state":"active","ping":59},{"user_id":102,"name":"Kyurem133","steam_id":76561198145647699,"connected_time":472000000000,"state":"active","ping":67},{"user_id":99,"name":"TheLegend27","steam_id":76561199012721121,"connected_time":565000000000,"state":"active","ping":66},{"user_id":72,"name":"butt3r_","steam_id":76561198156374792,"connected_time":2517000000000,"state":"active","ping":62},{"user_id":86,"name":"TransWomanGaming","steam_id":76561198809645656,"connected_time":1714000000000,"state":"active","ping":97},{"user_id":107,"name":"Colonel Chikara","steam_id":76561198010021087,"connected_time":258000000000,"state":"active","ping":51},{"user_id":80,"name":"Dullahan","steam_id":76561198119668908,"connected_time":2268000000000,"state":"active","ping":47},{"user_id":112,"name":"Kay Z1014","steam_id":76561198374228296,"connected_time":125000000000,"state":"active","ping":88},{"user_id":110,"name":"ape together stronk","steam_id":76561198051950995,"connected_time":228000000000,"state":"active","ping":59},{"user_id":77,"name":"Sivinus","steam_id":76561198025589541,"connected_time":2439000000000,"state":"active","ping":64},{"user_id":113,"name":"Wso1123","steam_id":76561198048040111,"connected_time":117000000000,"state":"active","ping":73},{"user_id":95,"name":"FestiveAnarchist","steam_id":76561199116042550,"connected_time":884000000000,"state":"active","ping":116}]},{"server_id":18,"name":"Uncletopia | San Francisco | 2 | All Maps","name_short":"sfo-2","host":"sfo-1.us.uncletopia.com","port":27025,"enabled":true,"region":"us-west","cc":"us","latitude":37.77397,"longitude":-122.4313,"reserved":0,"last_update":"0001-01-01T00:00:00Z","name_a2s":"Uncletopia | San Francisco | 2 | All Maps","protocol":17,"map":"koth_lakeside_final","folder":"tf","game":"Team Fortress","app_id":440,"player_count":20,"max_players":24,"Bots":0,"server_type":"Dedicated","server_os":"Linux","password":true,"vac":true,"version":"7723704","steam_id":85568392924470000,"keywords":["cp","nocrits","nodmgspread","uncletopia"],"game_id":440,"stv_port":27026,"stv_name":"Uncletopia | San Francisco | 2 | All Maps | STV","players":[{"user_id":104,"name":"Zom_Named_Zam","steam_id":76561198328066203,"connected_time":4000000000,"state":"spawning","ping":75},{"user_id":96,"name":"♥ Cleo ♥ (She/Her)","steam_id":76561198272922325,"connected_time":612000000000,"state":"active","ping":91},{"user_id":14,"name":"lili.winters","steam_id":76561199391478575,"connected_time":6247000000000,"state":"active","ping":76},{"user_id":74,"name":"SmallErection","steam_id":76561198071770147,"connected_time":3653000000000,"state":"active","ping":71},{"user_id":102,"name":"The Blev","steam_id":76561198982544947,"connected_time":165000000000,"state":"active","ping":60},{"user_id":59,"name":"Seriously Bruh","steam_id":76561198070408485,"connected_time":4546000000000,"state":"active","ping":75},{"user_id":88,"name":"Chilihohoho","steam_id":76561198004929152,"connected_time":1698000000000,"state":"active","ping":65},{"user_id":79,"name":"Krow Lyngin (she/her)","steam_id":76561198085410622,"connected_time":3387000000000,"state":"active","ping":73},{"user_id":89,"name":"Dosario","steam_id":76561198298095535,"connected_time":1695000000000,"state":"active","ping":68},{"user_id":97,"name":"bleats (she/her)","steam_id":76561198047643887,"connected_time":610000000000,"state":"active","ping":122},{"user_id":103,"name":"Trashamedly","steam_id":76561199049488718,"connected_time":113000000000,"state":"active","ping":104},{"user_id":82,"name":"Soviet Potato","steam_id":76561198068546113,"connected_time":2893000000000,"state":"active","ping":45},{"user_id":95,"name":"Dwayne \"The Crack Rock\" Johnson","steam_id":76561198073699764,"connected_time":758000000000,"state":"active","ping":66},{"user_id":92,"name":"Nez","steam_id":76561197963109059,"connected_time":1585000000000,"state":"active","ping":66},{"user_id":94,"name":"Rugar","steam_id":76561198200450623,"connected_time":1538000000000,"state":"active","ping":57},{"user_id":85,"name":"keffers | Chrimbus Time","steam_id":76561198202338796,"connected_time":2293000000000,"state":"active","ping":120},{"user_id":83,"name":"SpinnerSpecial","steam_id":76561198065661869,"connected_time":2782000000000,"state":"active","ping":101},{"user_id":34,"name":"jc5000","steam_id":76561198052825211,"connected_time":5721000000000,"state":"active","ping":56},{"user_id":98,"name":"jelderjr","steam_id":76561198208862897,"connected_time":587000000000,"state":"active","ping":51},{"user_id":101,"name":"Chief Beef","steam_id":76561198110682938,"connected_time":256000000000,"state":"active","ping":76}]},{"server_id":19,"name":"Uncletopia | San Francisco | 3 | Stopwatch Beta","name_short":"sfo-3","host":"sfo-1.us.uncletopia.com","port":27035,"enabled":true,"region":"us-west","cc":"us","latitude":37.77397,"longitude":-122.4313,"reserved":0,"last_update":"0001-01-01T00:00:00Z","name_a2s":"Uncletopia | San Francisco | 3 | Stopwatch Beta","protocol":17,"map":"cp_gullywash_final1","folder":"tf","game":"Team Fortress","app_id":440,"player_count":0,"max_players":24,"Bots":0,"server_type":"Dedicated","server_os":"Linux","password":true,"vac":true,"version":"7723704","steam_id":85568392924742824,"keywords":["cp","nocrits","nodmgspread","uncletopia"],"game_id":440,"stv_port":27036,"stv_name":"Uncletopia | San Francisco | 3 | Stopwatch Beta | STV","players":null},{"server_id":20,"name":"Uncletopia | San Francisco | 4 | Community","name_short":"sfo-4","host":"sfo-1.us.uncletopia.com","port":27045,"enabled":true,"region":"us-west","cc":"us","latitude":37.77397,"longitude":-122.4313,"reserved":0,"last_update":"0001-01-01T00:00:00Z","name_a2s":"Uncletopia | San Francisco | 4 | Community","protocol":17,"map":"koth_cascade","folder":"tf","game":"Team Fortress","app_id":440,"player_count":0,"max_players":24,"Bots":0,"server_type":"Dedicated","server_os":"Linux","password":true,"vac":true,"version":"7723704","steam_id":85568392924742826,"keywords":["cp","nocrits","nodmgspread","uncletopia"],"game_id":440,"stv_port":27046,"stv_name":"Uncletopia | San Francisco | 4 | Community | STV","players":null},{"server_id":141,"name":"Uncletopia | Sydney | 1 | All Maps","name_short":"syd-1","host":"syd-1.au.uncletopia.com","port":27015,"enabled":true,"region":"au","cc":"au","latitude":-33.865143,"longitude":151.2099,"reserved":0,"last_update":"0001-01-01T00:00:00Z","name_a2s":"Uncletopia | Sydney | 1 | All Maps","protocol":17,"map":"cp_dustbowl","folder":"tf","game":"Team Fortress","app_id":440,"player_count":0,"max_players":24,"Bots":0,"server_type":"Dedicated","server_os":"Linux","password":true,"vac":true,"version":"7723704","steam_id":85568392924470001,"keywords":["cp","nocrits","nodmgspread","uncletopia"],"game_id":440,"stv_port":27016,"stv_name":"Uncletopia | Sydney | 1 | All Maps | STV","players":null},{"server_id":123,"name":"Uncletopia | Sydney | 2 | All Maps","name_short":"syd-2","host":"syd-1.au.uncletopia.com","port":27025,"enabled":true,"region":"au","cc":"au","latitude":-33.865143,"longitude":151.2099,"reserved":0,"last_update":"0001-01-01T00:00:00Z","name_a2s":"Uncletopia | Sydney | 2 | All Maps","protocol":17,"map":"cp_sunshine","folder":"tf","game":"Team Fortress","app_id":440,"player_count":24,"max_players":24,"Bots":0,"server_type":"Dedicated","server_os":"Linux","password":true,"vac":true,"version":"7723704","steam_id":85568392924470002,"keywords":["cp","nocrits","nodmgspread","uncletopia"],"game_id":440,"stv_port":27026,"stv_name":"Uncletopia | Sydney | 2 | All Maps | STV","players":[{"user_id":41,"name":"the worst tf2 player","steam_id":76561199251626605,"connected_time":248000000000,"state":"active","ping":66},{"user_id":38,"name":"enoeht","steam_id":76561198054187483,"connected_time":595000000000,"state":"active","ping":61},{"user_id":42,"name":"IamDinosaur","steam_id":76561198081540507,"connected_time":69000000000,"state":"active","ping":67},{"user_id":40,"name":"Johngamer2418","steam_id":76561198377832282,"connected_time":466000000000,"state":"active","ping":59},{"user_id":31,"name":"Rodman","steam_id":76561198073532116,"connected_time":719000000000,"state":"active","ping":96},{"user_id":43,"name":"Kiwoo","steam_id":76561198097429186,"connected_time":59000000000,"state":"spawning","ping":94},{"user_id":18,"name":"ziah","steam_id":76561198159375596,"connected_time":1140000000000,"state":"active","ping":63},{"user_id":26,"name":"Cellar_Dweller","steam_id":76561199021048193,"connected_time":955000000000,"state":"active","ping":99},{"user_id":11,"name":"Granola-rama","steam_id":76561198059129270,"connected_time":1409000000000,"state":"active","ping":64},{"user_id":44,"name":"Bin","steam_id":76561199117653318,"connected_time":11000000000,"state":"spawning","ping":53},{"user_id":13,"name":"FrOStY","steam_id":76561198088155805,"connected_time":1319000000000,"state":"active","ping":71},{"user_id":14,"name":"PsychoTy","steam_id":76561198806631730,"connected_time":1295000000000,"state":"active","ping":59},{"user_id":39,"name":"East","steam_id":76561197998179587,"connected_time":549000000000,"state":"active","ping":97},{"user_id":20,"name":"Cyro","steam_id":76561198115325995,"connected_time":1052000000000,"state":"active","ping":104},{"user_id":21,"name":"Kelly-Sama","steam_id":76561198097638698,"connected_time":1046000000000,"state":"active","ping":90},{"user_id":30,"name":"Bobbyjobsocks","steam_id":76561198299024682,"connected_time":786000000000,"state":"active","ping":107},{"user_id":23,"name":"Javier","steam_id":76561198795551290,"connected_time":1016000000000,"state":"active","ping":101},{"user_id":24,"name":"Bonald","steam_id":76561198261041295,"connected_time":999000000000,"state":"active","ping":111},{"user_id":25,"name":"Cyan","steam_id":76561199123867057,"connected_time":984000000000,"state":"active","ping":53},{"user_id":27,"name":"clout","steam_id":76561198073310502,"connected_time":935000000000,"state":"active","ping":62},{"user_id":34,"name":"stevo","steam_id":76561198117749786,"connected_time":683000000000,"state":"active","ping":82},{"user_id":33,"name":"MR. T","steam_id":76561198847421088,"connected_time":689000000000,"state":"active","ping":171},{"user_id":35,"name":"The Cake Is A Pie","steam_id":76561198043068402,"connected_time":677000000000,"state":"active","ping":74},{"user_id":45,"name":"cimpact","steam_id":76561198452258917,"connected_time":10000000000,"state":"spawning","ping":122}]},{"server_id":395,"name":"Uncletopia | Sydney | 3 | All Maps","name_short":"syd-3","host":"syd-1.au.uncletopia.com","port":27035,"enabled":true,"region":"au","cc":"au","latitude":-33.865143,"longitude":151.2099,"reserved":0,"last_update":"0001-01-01T00:00:00Z","name_a2s":"Uncletopia | Sydney | 3 | All Maps","protocol":17,"map":"pl_borneo","folder":"tf","game":"Team Fortress","app_id":440,"player_count":0,"max_players":24,"Bots":0,"server_type":"Dedicated","server_os":"Linux","password":true,"vac":true,"version":"7723704","steam_id":85568392925194467,"keywords":["nocrits","nodmgspread","payload","uncletopia"],"game_id":440,"stv_port":27036,"stv_name":"Uncletopia | Sydney | 3 | All Maps | STV","players":null},{"server_id":396,"name":"Uncletopia | Sydney | 4 | All Maps","name_short":"syd-4","host":"syd-1.au.uncletopia.com","port":27045,"enabled":true,"region":"au","cc":"au","latitude":-33.865143,"longitude":151.2099,"reserved":0,"last_update":"0001-01-01T00:00:00Z","name_a2s":"Uncletopia | Sydney | 4 | All Maps","protocol":17,"map":"pl_pier","folder":"tf","game":"Team Fortress","app_id":440,"player_count":0,"max_players":24,"Bots":0,"server_type":"Dedicated","server_os":"Linux","password":true,"vac":true,"version":"7723704","steam_id":85568392925397958,"keywords":["nocrits","nodmgspread","payload","uncletopia"],"game_id":440,"stv_port":27046,"stv_name":"Uncletopia | Sydney | 4 | All Maps | STV","players":null},{"server_id":58,"name":"Uncletopia | Sydney | 5 | Stopwatch Beta","name_short":"syd-5","host":"syd-1.au.uncletopia.com","port":27055,"enabled":true,"region":"au","cc":"au","latitude":-33.865143,"longitude":151.2099,"reserved":0,"last_update":"0001-01-01T00:00:00Z","name_a2s":"Uncletopia | Sydney | 5 | Stopwatch Beta","protocol":17,"map":"cp_altitude","folder":"tf","game":"Team Fortress","app_id":440,"player_count":0,"max_players":24,"Bots":0,"server_type":"Dedicated","server_os":"Linux","password":true,"vac":true,"version":"7723704","steam_id":85568392925397959,"keywords":["cp","nocrits","nodmgspread","uncletopia"],"game_id":440,"stv_port":27056,"stv_name":"Uncletopia | Sydney | 5 | Stopwatch Beta | STV","players":null},{"server_id":59,"name":"Uncletopia | Sydney | 6 | Community","name_short":"syd-6","host":"syd-1.au.uncletopia.com","port":27065,"enabled":true,"region":"au","cc":"au","latitude":-33.865143,"longitude":151.2099,"reserved":0,"last_update":"0001-01-01T00:00:00Z","name_a2s":"Uncletopia | Sydney | 6 | Community","protocol":17,"map":"pl_frontier_final","folder":"tf","game":"Team Fortress","app_id":440,"player_count":0,"max_players":24,"Bots":0,"server_type":"Dedicated","server_os":"Linux","password":true,"vac":true,"version":"7723704","steam_id":85568392925397960,"keywords":["nocrits","nodmgspread","payload","uncletopia"],"game_id":440,"stv_port":27066,"stv_name":"Uncletopia | Sydney | 6 | Community | STV","players":null},{"server_id":49,"name":"Uncletopia | Warsaw | 1 | All Maps","name_short":"waw-1","host":"waw-1.pl.uncletopia.com","port":27015,"enabled":true,"region":"eu","cc":"pl","latitude":52.2297,"longitude":21.017532,"reserved":0,"last_update":"0001-01-01T00:00:00Z","name_a2s":"Uncletopia | Warsaw | 1 | All Maps","protocol":17,"map":"cp_snakewater_final1","folder":"tf","game":"Team Fortress","app_id":440,"player_count":0,"max_players":24,"Bots":0,"server_type":"Dedicated","server_os":"Linux","password":true,"vac":true,"version":"7723704","steam_id":85568392925397850,"keywords":["cp","nocrits","nodmgspread","uncletopia"],"game_id":440,"stv_port":27016,"stv_name":"Uncletopia | Warsaw | 1 | All Maps | STV","players":null},{"server_id":50,"name":"Uncletopia | Warsaw | 2 | All Maps","name_short":"waw-2","host":"waw-1.pl.uncletopia.com","port":27025,"enabled":true,"region":"eu","cc":"pl","latitude":52.2297,"longitude":21.017532,"reserved":0,"last_update":"0001-01-01T00:00:00Z","name_a2s":"Uncletopia | Warsaw | 2 | All Maps","protocol":17,"map":"pl_barnblitz","folder":"tf","game":"Team Fortress","app_id":440,"player_count":0,"max_players":24,"Bots":0,"server_type":"Dedicated","server_os":"Linux","password":true,"vac":true,"version":"7723704","steam_id":85568392925397851,"keywords":["nocrits","nodmgspread","payload","uncletopia"],"game_id":440,"stv_port":27026,"stv_name":"Uncletopia | Warsaw | 2 | All Maps | STV","players":null},{"server_id":51,"name":"Uncletopia | Warsaw | 3 | All Maps","name_short":"waw-3","host":"waw-1.pl.uncletopia.com","port":27035,"enabled":true,"region":"eu","cc":"pl","latitude":52.2297,"longitude":21.017532,"reserved":0,"last_update":"0001-01-01T00:00:00Z","name_a2s":"Uncletopia | Warsaw | 3 | All Maps","protocol":17,"map":"pl_barnblitz","folder":"tf","game":"Team Fortress","app_id":440,"player_count":0,"max_players":24,"Bots":0,"server_type":"Dedicated","server_os":"Linux","password":true,"vac":true,"version":"7723704","steam_id":85568392925397852,"keywords":["nocrits","nodmgspread","payload","uncletopia"],"game_id":440,"stv_port":27036,"stv_name":"Uncletopia | Warsaw | 3 | All Maps | STV","players":null},{"server_id":52,"name":"Uncletopia | Warsaw | 4 | All Maps","name_short":"waw-4","host":"waw-1.pl.uncletopia.com","port":27045,"enabled":true,"region":"eu","cc":"pl","latitude":52.2297,"longitude":21.017532,"reserved":0,"last_update":"0001-01-01T00:00:00Z","name_a2s":"Uncletopia | Warsaw | 4 | All Maps","protocol":17,"map":"pl_upward","folder":"tf","game":"Team Fortress","app_id":440,"player_count":0,"max_players":24,"Bots":0,"server_type":"Dedicated","server_os":"Linux","password":true,"vac":true,"version":"7723704","steam_id":85568392925397853,"keywords":["nocrits","nodmgspread","payload","uncletopia"],"game_id":440,"stv_port":27046,"stv_name":"Uncletopia | Warsaw | 4 | All Maps | STV","players":null},{"server_id":53,"name":"Uncletopia | Warsaw | 5 | Stopwatch Beta","name_short":"waw-5","host":"waw-1.pl.uncletopia.com","port":27055,"enabled":true,"region":"eu","cc":"pl","latitude":52.2297,"longitude":21.017532,"reserved":0,"last_update":"0001-01-01T00:00:00Z","name_a2s":"Uncletopia | Warsaw | 5 | Stopwatch Beta","protocol":17,"map":"cp_sunshine","folder":"tf","game":"Team Fortress","app_id":440,"player_count":0,"max_players":24,"Bots":0,"server_type":"Dedicated","server_os":"Linux","password":true,"vac":true,"version":"7723704","steam_id":85568392925397854,"keywords":["cp","nocrits","nodmgspread","uncletopia"],"game_id":440,"stv_port":27056,"stv_name":"Uncletopia | Warsaw | 5 | Stopwatch Beta | STV","players":null},{"server_id":54,"name":"Uncletopia | Warsaw | 6 | Community","name_short":"waw-6","host":"waw-1.pl.uncletopia.com","port":27065,"enabled":true,"region":"eu","cc":"pl","latitude":52.2297,"longitude":21.017532,"reserved":0,"last_update":"0001-01-01T00:00:00Z","name_a2s":"Uncletopia | Warsaw | 6 | Community","protocol":17,"map":"pl_snowycoast","folder":"tf","game":"Team Fortress","app_id":440,"player_count":0,"max_players":24,"Bots":0,"server_type":"Dedicated","server_os":"Linux","password":true,"vac":true,"version":"7723704","steam_id":85568392925397856,"keywords":["nocrits","nodmgspread","payload","uncletopia"],"game_id":440,"stv_port":27066,"stv_name":"Uncletopia | Warsaw | 6 | Community | STV","players":null}]}