{"status":true,"message":"","result":[{"server_id":9,"name":"Uncletopia | Atlanta | 1 | All Maps","name_short":"atl-1","host":"atl-1.us.uncletopia.com","port":27015,"enabled":true,"region":"us-east","cc":"us","latitude":33.753746,"longitude":-84.38633,"reserved":0,"last_update":"0001-01-01T00:00:00Z","name_a2s":"Uncletopia | Atlanta | 1 | All Maps","protocol":17,"map":"cp_process_final","folder":"tf","game":"Team Fortress","app_id":440,"player_count":24,"max_players":24,"Bots":0,"server_type":"Dedicated","server_os":"Linux","password":true,"vac":true,"version":"7961495","steam_id":85568392924469982,"keywords":["cp","nocrits","nodmgspread","uncletopia"],"game_id":440,"stv_port":27016,"stv_name":"Uncletopia | Atlanta | 1 | All Maps | STV","players":null},{"server_id":104,"name":"Uncletopia | Atlanta | 2 | All Maps","name_short":"atl-2","host":"atl-1.us.uncletopia.com","port":27025,"enabled":true,"region":"us-east","cc":"us","latitude":33.753746,"longitude":-84.38633,"reserved":0,"last_update":"0001-01-01T00:00:00Z","name_a2s":"Uncletopia | Atlanta | 2 | All Maps","protocol":17,"map":"koth_cascade","folder":"tf","game":"Team Fortress","app_id":440,"player_count":0,"max_players":24,"Bots":0,"server_type":"Dedicated","server_os":"Linux","password":true,"vac":true,"version":"7961495","steam_id":85568392924469983,"keywords":["cp","nocrits","nodmgspread","uncletopia"],"game_id":440,"stv_port":27026,"stv_name":"Uncletopia | Atlanta | 2 | All Maps | STV","players":null},{"server_id":400,"name":"Uncletopia | Atlanta | 3 | Stopwatch","name_short":"atl-3","host":"atl-1.us.uncletopia.com","port":27035,"enabled":true,"region":"us-east","cc":"us","latitude":33.753746,"longitude":-84.38633,"reserved":0,"last_update":"0001-01-01T00:00:00Z","name_a2s":"Uncletopia | Atlanta | 3 | Stopwatch","protocol":17,"map":"koth_clearcut_b15","folder":"tf","game":"Team Fortress","app_id":440,"player_count":0,"max_players":24,"Bots":0,"server_type":"Dedicated","server_os":"Linux","password":true,"vac":true,"version":"7961495","steam_id":85568392924515187,"keywords":["cp","nocrits","nodmgspread","uncletopia"],"game_id":440,"stv_port":27036,"stv_name":"Uncletopia | Atlanta | 3 | Stopwatch | STV","players":null},{"server_id":401,"name":"Uncletopia | Atlanta | 4 | Community","name_short":"atl-4","host":"atl-1.us.uncletopia.com","port":27045,"enabled":true,"region":"us-east","cc":"us","latitude":33.753746,"longitude":-84.38633,"reserved":0,"last_update":"0001-01-01T00:00:00Z","name_a2s":"Uncletopia | Atlanta | 4 | Community","protocol":17,"map":"koth_bagel_rc6","folder":"tf","game":"Team Fortress","app_id":440,"player_count":0,"max_players":24,"Bots":0,"server_type":"Dedicated","server_os":"Linux","password":true,"vac":true,"version":"7961495","steam_id":85568392924515188,"keywords":["cp","nocrits","nodmgspread","uncletopia"],"game_id":440,"stv_port":27046,"stv_name":"Uncletopia | Atlanta | 4 | Community | STV","players":null},{"server_id":2,"name":"Uncletopia | Chicago | 1 | All Maps","name_short":"chi-1","host":"chi-1.us.uncletopia.com","port":27015,"enabled":true,"region":"us-central","cc":"us","latitude":41.881832,"longitude":-87.62318,"reserved":0,"last_update":"0001-01-01T00:00:00Z","name_a2s":"Uncletopia | Chicago | 1 | All Maps","protocol":17,"map":"koth_viaduct","folder":"tf","game":"Team Fortress","app_id":440,"player_count":0,"max_players":24,"Bots":0,"server_type":"Dedicated","server_os":"Linux","password":true,"vac":true,"version":"7961495","steam_id":85568392924469984,"keywords":["cp","nocrits","nodmgspread","uncletopia"],"game_id":440,"stv_port":27016,"stv_name":"Uncletopia | Chicago | 1 | All Maps | STV","players":null},{"server_id":106,"name":"Uncletopia | Chicago | 2 | All Maps","name_short":"chi-2","host":"chi-1.us.uncletopia.com","port":27025,"enabled":true,"region":"us-central","cc":"us","latitude":41.881832,"longitude":-87.62318,"reserved":0,"last_update":"0001-01-01T00:00:00Z","name_a2s":"Uncletopia | Chicago | 2 | All Maps","protocol":17,"map":"pl_snowycoast","folder":"tf","game":"Team Fortress","app_id":440,"player_count":24,"max_players":24,"Bots":0,"server_type":"Dedicated","server_os":"Linux","password":true,"vac":true,"version":"7961495","steam_id":85568392924469985,"keywords":["nocrits","nodmgspread","payload","uncletopia"],"game_id":440,"stv_port":27026,"stv_name":"Uncletopia | Chicago | 2 | All Maps | STV","players":[{"user_id":230,"name":"Bussy Bandit","steam_id":76561198034028769,"connected_time":995000000000,"state":"active","ping":77},{"user_id":228,"name":"leumas","steam_id":76561198240408540,"connected_time":1159000000000,"state":"active","ping":59},{"user_id":216,"name":"Hey","steam_id":76561198447517893,"connected_time":2017000000000,"state":"active","ping":68},{"user_id":180,"name":"ThatOneKnight","steam_id":76561198388583650,"connected_time":4666000000000,"state":"active","ping":51},{"user_id":208,"name":"Sewer Wizard","steam_id":76561199061404496,"connected_time":2661000000000,"state":"active","ping":74},{"user_id":229,"name":"DogsRNice","steam_id":76561198211490864,"connected_time":1018000000000,"state":"active","ping":78},{"user_id":221,"name":"MrKokonut","steam_id":76561198879575825,"connected_time":1652000000000,"state":"active","ping":59},{"user_id":198,"name":"OFF","steam_id":76561198191971493,"connected_time":3446000000000,"state":"active","ping":60},{"user_id":232,"name":"princess fern \u003c3333","steam_id":76561198881792140,"connected_time":84000000000,"state":"active","ping":86},{"user_id":178,"name":"Fluffeline","steam_id":76561198352909489,"connected_time":5198000000000,"state":"active","ping":146},{"user_id":204,"name":"Chicago Shoplifter","steam_id":76561197986530028,"connected_time":2949000000000,"state":"active","ping":106},{"user_id":187,"name":"Rornir","steam_id":76561198081829615,"connected_time":4272000000000,"state":"active","ping":34},{"user_id":227,"name":"Zozbieta","steam_id":76561198010336265,"connected_time":1376000000000,"state":"active","ping":88},{"user_id":233,"name":"PyroTechno","steam_id":76561198060929872,"connected_time":80000000000,"state":"active","ping":66},{"user_id":215,"name":"TheSausageSwiper","steam_id":76561198972869845,"connected_time":2030000000000,"state":"active","ping":87},{"user_id":181,"name":"爪ㄚ丂ㄒ丨匚","steam_id":76561198857357381,"connected_time":4467000000000,"state":"active","ping":48},{"user_id":176,"name":"Ceige LFT","steam_id":76561198068538473,"connected_time":5338000000000,"state":"active","ping":79},{"user_id":201,"name":"Doctor_Redstone","steam_id":76561198061947161,"connected_time":3157000000000,"state":"active","ping":70},{"user_id":231,"name":"Fanatic","steam_id":76561198036960509,"connected_time":781000000000,"state":"active","ping":61},{"user_id":218,"name":"feudal","steam_id":76561198057374871,"connected_time":1935000000000,"state":"active","ping":60},{"user_id":202,"name":"William Wallace","steam_id":76561199343316814,"connected_time":3136000000000,"state":"active","ping":72},{"user_id":213,"name":"Lost","steam_id":76561198025933206,"connected_time":2247000000000,"state":"active","ping":58},{"user_id":219,"name":"twizted","steam_id":76561197960407274,"connected_time":1893000000000,"state":"active","ping":69},{"user_id":224,"name":"vv","steam_id":76561198134813102,"connected_time":1570000000000,"state":"active","ping":57}]},{"server_id":402,"name":"Uncletopia | Chicago | 3 | All Maps","name_short":"chi-3","host":"chi-1.us.uncletopia.com","port":27035,"enabled":true,"region":"us-central","cc":"us","latitude":41.881832,"longitude":-87.62318,"reserved":0,"last_update":"0001-01-01T00:00:00Z","name_a2s":"Uncletopia | Chicago | 3 | All Maps","protocol":17,"map":"cp_dustbowl","folder":"tf","game":"Team Fortress","app_id":440,"player_count":24,"max_players":24,"Bots":0,"server_type":"Dedicated","server_os":"Linux","password":true,"vac":true,"version":"7961495","steam_id":85568392924515191,"keywords":["cp","nocrits","nodmgspread","uncletopia"],"game_id":440,"stv_port":27036,"stv_name":"Uncletopia | Chicago | 3 | All Maps | STV","players":[{"user_id":114,"name":"Steve-O","steam_id":76561199199770572,"connected_time":1515000000000,"state":"active","ping":69},{"user_id":80,"name":"BRUH NATOR","steam_id":76561199094694437,"connected_time":3174000000000,"state":"active","ping":88},{"user_id":115,"name":"Wool #ThankUrMedics","steam_id":76561198332704108,"connected_time":1513000000000,"state":"active","ping":46},{"user_id":99,"name":"SlurpyTheDog","steam_id":76561198799733154,"connected_time":2414000000000,"state":"active","ping":68},{"user_id":119,"name":"darkelaine227","steam_id":76561198097330521,"connected_time":1330000000000,"state":"active","ping":153},{"user_id":94,"name":"dicksnip","steam_id":76561198356515396,"connected_time":2658000000000,"state":"active","ping":83},{"user_id":105,"name":"Soju","steam_id":76561198044130442,"connected_time":2000000000000,"state":"active","ping":79},{"user_id":111,"name":"gary","steam_id":76561198140226890,"connected_time":1685000000000,"state":"active","ping":64},{"user_id":113,"name":"flange","steam_id":76561198040182692,"connected_time":1535000000000,"state":"active","ping":145},{"user_id":124,"name":"Theus117 [ チルノ⑨]","steam_id":76561198108902928,"connected_time":557000000000,"state":"active","ping":63},{"user_id":73,"name":"Crimson","steam_id":76561198129326627,"connected_time":4500000000000,"state":"active","ping":81},{"user_id":101,"name":"chonk97531","steam_id":76561199384248529,"connected_time":2309000000000,"state":"active","ping":78},{"user_id":127,"name":"Paulie Walnuts","steam_id":76561198148078451,"connected_time":391000000000,"state":"active","ping":75},{"user_id":116,"name":"spy has a gun?","steam_id":76561199241619967,"connected_time":1509000000000,"state":"active","ping":65},{"user_id":74,"name":"KFC Rat","steam_id":76561198135128086,"connected_time":4329000000000,"state":"active","ping":114},{"user_id":121,"name":"Bennet","steam_id":76561198194582382,"connected_time":832000000000,"state":"active","ping":77},{"user_id":128,"name":"Riff III","steam_id":76561198066921423,"connected_time":220000000000,"state":"active","ping":75},{"user_id":62,"name":"1-800-GHOST-DANCE","steam_id":76561198835430429,"connected_time":5114000000000,"state":"active","ping":82},{"user_id":120,"name":"Critscare","steam_id":76561198087712508,"connected_time":1010000000000,"state":"active","ping":44},{"user_id":117,"name":"YOU WHAT?!","steam_id":76561198418679471,"connected_time":1504000000000,"state":"active","ping":60},{"user_id":103,"name":"wincel hampton","steam_id":76561198083095146,"connected_time":2048000000000,"state":"active","ping":75},{"user_id":126,"name":"soloDeepSpaceSparkle145","steam_id":76561198128282897,"connected_time":420000000000,"state":"active","ping":55},{"user_id":97,"name":"evil geeker","steam_id":76561198280331687,"connected_time":2593000000000,"state":"active","ping":82},{"user_id":110,"name":"gayforgod","steam_id":76561198364882421,"connected_time":1875000000000,"state":"active","ping":112}]},{"server_id":403,"name":"Uncletopia | Chicago | 4 | All Maps","name_short":"chi-4","host":"chi-1.us.uncletopia.com","port":27045,"enabled":true,"region":"us-central","cc":"us","latitude":41.881832,"longitude":-87.62318,"reserved":0,"last_update":"0001-01-01T00:00:00Z","name_a2s":"Uncletopia | Chicago | 4 | All Maps","protocol":17,"map":"cp_process_final","folder":"tf","game":"Team Fortress","app_id":440,"player_count":24,"max_players":24,"Bots":0,"server_type":"Dedicated","server_os":"Linux","password":true,"vac":true,"version":"7961495","steam_id":85568392924515193,"keywords":["cp","nocrits","nodmgspread","uncletopia"],"game_id":440,"stv_port":27046,"stv_name":"Uncletopia | Chicago | 4 | All Maps | STV","players":[{"user_id":10,"name":"DeadlyBlind","steam_id":76561197986897274,"connected_time":2314000000000,"state":"active","ping":73},{"user_id":4,"name":"OldRavensFan","steam_id":76561198043919562,"connected_time":4399000000000,"state":"active","ping":69},{"user_id":37,"name":"matthatter98","steam_id":76561198953709416,"connected_time":1081000000000,"state":"active","ping":68},{"user_id":11,"name":"Some Dipshit","steam_id":76561197971011603,"connected_time":2307000000000,"state":"active","ping":79},{"user_id":35,"name":"Mint Jelly","steam_id":76561197991286751,"connected_time":1183000000000,"state":"active","ping":47},{"user_id":53,"name":"Prsm","steam_id":76561198053344995,"connected_time":163000000000,"state":"active","ping":56},{"user_id":13,"name":"bandana","steam_id":76561199098102289,"connected_time":2084000000000,"state":"active","ping":80},{"user_id":51,"name":"ratie","steam_id":76561198059399661,"connected_time":241000000000,"state":"active","ping":82},{"user_id":16,"name":"ImagineExisting","steam_id":76561198860261731,"connected_time":1746000000000,"state":"active","ping":84},{"user_id":48,"name":"Keegs","steam_id":76561198346917831,"connected_time":452000000000,"state":"active","ping":54},{"user_id":47,"name":"joenita","steam_id":76561198380018244,"connected_time":498000000000,"state":"active","ping":76},{"user_id":19,"name":"cyren caster","steam_id":76561198204509499,"connected_time":1665000000000,"state":"active","ping":109},{"user_id":43,"name":"yaldabaoth","steam_id":76561198084606869,"connected_time":797000000000,"state":"active","ping":44},{"user_id":38,"name":"Tots","steam_id":76561198027485007,"connected_time":1028000000000,"state":"active","ping":66},{"user_id":49,"name":"username_id","steam_id":76561198103759716,"connected_time":284000000000,"state":"active","ping":77},{"user_id":42,"name":"Blitzy","steam_id":76561198149472890,"connected_time":976000000000,"state":"active","ping":74},{"user_id":26,"name":"sloth (be nice im cringe)","steam_id":76561198047098172,"connected_time":1412000000000,"state":"active","ping":71},{"user_id":36,"name":"UnforeseenCabbages","steam_id":76561198079386608,"connected_time":1144000000000,"state":"active","ping":74},{"user_id":45,"name":"Menachem","steam_id":76561198041226420,"connected_time":660000000000,"state":"active","ping":49},{"user_id":29,"name":"Strigby","steam_id":76561198004116353,"connected_time":1344000000000,"state":"active","ping":45},{"user_id":40,"name":"hatsune miku","steam_id":76561199445009981,"connected_time":1005000000000,"state":"active","ping":97},{"user_id":52,"name":"Yakko Warner","steam_id":76561198099274625,"connected_time":181000000000,"state":"active","ping":60},{"user_id":50,"name":"LW | [wrd]HaloLagann","steam_id":76561198047561568,"connected_time":275000000000,"state":"active","ping":65},{"user_id":34,"name":"Discord Mawd","steam_id":76561198974756301,"connected_time":1285000000000,"state":"active","ping":71}]},{"server_id":36,"name":"Uncletopia | Chicago | 5 | All Maps","name_short":"chi-5","host":"chi-2.us.uncletopia.com","port":27015,"enabled":true,"region":"us-central","cc":"us","latitude":41.881832,"longitude":-87.62318,"reserved":0,"last_update":"0001-01-01T00:00:00Z","name_a2s":"Uncletopia | Chicago | 5 | All Maps","protocol":17,"map":"koth_viaduct","folder":"tf","game":"Team Fortress","app_id":440,"player_count":0,"max_players":24,"Bots":0,"server_type":"Dedicated","server_os":"Linux","password":true,"vac":true,"version":"7961495","steam_id":85568392924866362,"keywords":["cp","nocrits","nodmgspread","uncletopia"],"game_id":440,"stv_port":27016,"stv_name":"Uncletopia | Chicago | 5 | All Maps | STV","players":null},{"server_id":37,"name":"Uncletopia | Chicago | 6 | All Maps","name_short":"chi-6","host":"chi-2.us.uncletopia.com","port":27025,"enabled":true,"region":"us-central","cc":"us","latitude":41.881832,"longitude":-87.62318,"reserved":0,"last_update":"0001-01-01T00:00:00Z","name_a2s":"Uncletopia | Chicago | 6 | All Maps","protocol":17,"map":"cp_granary","folder":"tf","game":"Team Fortress","app_id":440,"player_count":23,"max_players":24,"Bots":0,"server_type":"Dedicated","server_os":"Linux","password":true,"vac":true,"version":"7961495","steam_id":85568392924866363,"keywords":["cp","nocrits","nodmgspread","uncletopia"],"game_id":440,"stv_port":27026,"stv_name":"Uncletopia | Chicago | 6 | All Maps | STV","players":[{"user_id":474,"name":"ZYNTERLINKED","steam_id":76561198241948526,"connected_time":329000000000,"state":"active","ping":58},{"user_id":459,"name":"UNIT 220","steam_id":76561198042243497,"connected_time":1127000000000,"state":"active","ping":69},{"user_id":460,"name":"BUT COME TUESDAY","steam_id":76561198119220289,"connected_time":1121000000000,"state":"active","ping":76},{"user_id":475,"name":"sansa musa","steam_id":76561198163723555,"connected_time":196000000000,"state":"active","ping":73},{"user_id":440,"name":"airballer","steam_id":76561198165899125,"connected_time":2349000000000,"state":"active","ping":60},{"user_id":436,"name":"Lia_Rein TTV","steam_id":76561198151569597,"connected_time":2449000000000,"state":"active","ping":146},{"user_id":480,"name":"oso","steam_id":76561198028042986,"connected_time":96000000000,"state":"active","ping":159},{"user_id":473,"name":"Oogle","steam_id":76561198041815877,"connected_time":354000000000,"state":"active","ping":69},{"user_id":476,"name":"Captian Wobbs","steam_id":76561198142884936,"connected_time":195000000000,"state":"active","ping":76},{"user_id":452,"name":"Ganondorf","steam_id":76561198010421059,"connected_time":1547000000000,"state":"active","ping":53},{"user_id":462,"name":"erm... what the spruce","steam_id":76561198057076267,"connected_time":1071000000000,"state":"active","ping":73},{"user_id":455,"name":"alvöru","steam_id":76561198273488925,"connected_time":1351000000000,"state":"active","ping":75},{"user_id":463,"name":"Griffin","steam_id":76561198159339442,"connected_time":1061000000000,"state":"active","ping":69},{"user_id":456,"name":"soymilksteak","steam_id":76561198001488041,"connected_time":1324000000000,"state":"active","ping":85},{"user_id":469,"name":"Radish Master","steam_id":76561198072523811,"connected_time":415000000000,"state":"active","ping":46},{"user_id":477,"name":"CinnamonBoy","steam_id":76561198882330338,"connected_time":173000000000,"state":"active","ping":64},{"user_id":417,"name":"Sizenberg","steam_id":76561198115842661,"connected_time":3890000000000,"state":"active","ping":87},{"user_id":478,"name":"Retro Phoenix","steam_id":76561198077176271,"connected_time":158000000000,"state":"active","ping":63},{"user_id":465,"name":"i have an rsi","steam_id":76561198020322241,"connected_time":984000000000,"state":"active","ping":75},{"user_id":470,"name":"QuarticalPhysics","steam_id":76561198061386266,"connected_time":390000000000,"state":"active","ping":74},{"user_id":449,"name":"Darkmaen","steam_id":76561198060543390,"connected_time":1658000000000,"state":"active","ping":152},{"user_id":416,"name":"Mury","steam_id":76561198069743049,"connected_time":3915000000000,"state":"active","ping":105},{"user_id":479,"name":"mr poop","steam_id":76561199195196632,"connected_time":152000000000,"state":"active","ping":84}]},{"server_id":38,"name":"Uncletopia | Chicago | 7 | Stopwatch","name_short":"chi-7","host":"chi-2.us.uncletopia.com","port":27035,"enabled":true,"region":"us-central","cc":"us","latitude":41.881832,"longitude":-87.62318,"reserved":0,"last_update":"0001-01-01T00:00:00Z","name_a2s":"Uncletopia | Chicago | 7 | Stopwatch","protocol":17,"map":"pl_badwater","folder":"tf","game":"Team Fortress","app_id":440,"player_count":0,"max_players":24,"Bots":0,"server_type":"Dedicated","server_os":"Linux","password":true,"vac":true,"version":"7961495","steam_id":85568392924866364,"keywords":["nocrits","nodmgspread","payload","uncletopia"],"game_id":440,"stv_port":27036,"stv_name":"Uncletopia | Chicago | 7 | Stopwatch | STV","players":null},{"server_id":39,"name":"Uncletopia | Chicago | 8 | Community","name_short":"chi-8","host":"chi-2.us.uncletopia.com","port":27045,"enabled":true,"region":"us-central","cc":"us","latitude":41.881832,"longitude":-87.62318,"reserved":0,"last_update":"0001-01-01T00:00:00Z","name_a2s":"Uncletopia | Chicago | 8 | Community","protocol":17,"map":"pl_pier","folder":"tf","game":"Team Fortress","app_id":440,"player_count":0,"max_players":24,"Bots":0,"server_type":"Dedicated","server_os":"Linux","password":true,"vac":true,"version":"7961495","steam_id":85568392924866365,"keywords":["nocrits","nodmgspread","payload","uncletopia"],"game_id":440,"stv_port":27046,"stv_name":"Uncletopia | Chicago | 8 | Community | STV","players":null},{"server_id":8,"name":"Uncletopia | Dallas | 1 | All Maps","name_short":"dal-1","host":"dal-1.us.uncletopia.com","port":27015,"enabled":true,"region":"us-central","cc":"us","latitude":32.779167,"longitude":-96.80889,"reserved":0,"last_update":"0001-01-01T00:00:00Z","name_a2s":"Uncletopia | Dallas | 1 | All Maps","protocol":17,"map":"pl_pier","folder":"tf","game":"Team Fortress","app_id":440,"player_count":10,"max_players":24,"Bots":0,"server_type":"Dedicated","server_os":"Linux","password":true,"vac":true,"version":"7961495","steam_id":85568392924469986,"keywords":["nocrits","nodmgspread","payload","uncletopia"],"game_id":440,"stv_port":27016,"stv_name":"Uncletopia | Dallas | 1 | All Maps | STV","players":[{"user_id":15,"name":"cas.sierrafamilia","steam_id":76561199230945873,"connected_time":888000000000,"state":"active","ping":82},{"user_id":13,"name":"Hashmere","steam_id":76561198002797253,"connected_time":1369000000000,"state":"active","ping":92},{"user_id":17,"name":"Gul'dan","steam_id":76561198240466940,"connected_time":464000000000,"state":"active","ping":185},{"user_id":18,"name":"DOORDASH","steam_id":76561199214126908,"connected_time":463000000000,"state":"active","ping":121},{"user_id":19,"name":"KillerGodzilla","steam_id":76561198049361161,"connected_time":411000000000,"state":"active","ping":53},{"user_id":20,"name":"End My Suffering And Knuckles","steam_id":76561198171844685,"connected_time":372000000000,"state":"active","ping":96},{"user_id":21,"name":"jesuslover.2002","steam_id":76561198160629681,"connected_time":349000000000,"state":"active","ping":32},{"user_id":22,"name":"Lovedaddy","steam_id":76561198006569710,"connected_time":199000000000,"state":"active","ping":98},{"user_id":23,"name":"Tossle","steam_id":76561198274178839,"connected_time":165000000000,"state":"active","ping":98},{"user_id":24,"name":"$limek✔ngEM0.an1me.B0Y_33309","steam_id":76561198283687382,"connected_time":64000000000,"state":"active","ping":75}]},{"server_id":108,"name":"Uncletopia | Dallas | 2 | All Maps","name_short":"dal-2","host":"dal-1.us.uncletopia.com","port":27025,"enabled":true,"region":"us-central","cc":"us","latitude":32.779167,"longitude":-96.80889,"reserved":0,"last_update":"0001-01-01T00:00:00Z","name_a2s":"Uncletopia | Dallas | 2 | All Maps","protocol":17,"map":"plr_hightower","folder":"tf","game":"Team Fortress","app_id":440,"player_count":24,"max_players":24,"Bots":0,"server_type":"Dedicated","server_os":"Linux","password":true,"vac":true,"version":"7961495","steam_id":85568392924469988,"keywords":["nocrits","nodmgspread","payload","uncletopia"],"game_id":440,"stv_port":27026,"stv_name":"Uncletopia | Dallas | 2 | All Maps | STV","players":[{"user_id":191,"name":"IchigoDolphin","steam_id":76561198319769482,"connected_time":1426000000000,"state":"active","ping":52},{"user_id":189,"name":"Rob","steam_id":76561199187786660,"connected_time":2079000000000,"state":"active","ping":54},{"user_id":216,"name":"DragonHunter994","steam_id":76561199076203907,"connected_time":61000000000,"state":"active","ping":58},{"user_id":206,"name":"Wigl","steam_id":76561198019324464,"connected_time":423000000000,"state":"active","ping":82},{"user_id":214,"name":"ĐïɐȐɹɦɆa","steam_id":76561198981411945,"connected_time":102000000000,"state":"active","ping":74},{"user_id":199,"name":"ICBMonkey","steam_id":76561198033351821,"connected_time":1004000000000,"state":"active","ping":61},{"user_id":194,"name":"Your Dad™","steam_id":76561198254739340,"connected_time":1413000000000,"state":"active","ping":87},{"user_id":198,"name":"Gary Busey","steam_id":76561197970096950,"connected_time":1086000000000,"state":"active","ping":38},{"user_id":215,"name":"Queen of Latex","steam_id":76561198037779673,"connected_time":71000000000,"state":"active","ping":90},{"user_id":202,"name":"ThatGamingKiwi","steam_id":76561199170522237,"connected_time":898000000000,"state":"active","ping":108},{"user_id":204,"name":"Satori Komeiji","steam_id":76561198158211423,"connected_time":446000000000,"state":"active","ping":80},{"user_id":205,"name":"Engineer who laughs","steam_id":76561199061965517,"connected_time":444000000000,"state":"active","ping":51},{"user_id":192,"name":"MM42","steam_id":76561198338424207,"connected_time":1420000000000,"state":"active","ping":95},{"user_id":182,"name":"Zanylank","steam_id":76561198858480639,"connected_time":2896000000000,"state":"active","ping":104},{"user_id":196,"name":"The_Blaze_king","steam_id":76561198324842122,"connected_time":1267000000000,"state":"active","ping":136},{"user_id":208,"name":"duckmains1","steam_id":76561199499117901,"connected_time":412000000000,"state":"active","ping":59},{"user_id":197,"name":"KESO","steam_id":76561198000391945,"connected_time":1219000000000,"state":"active","ping":150},{"user_id":195,"name":"gock enjoyer","steam_id":76561198439745263,"connected_time":1403000000000,"state":"active","ping":106},{"user_id":203,"name":"Legit_Jaxer","steam_id":76561198172234053,"connected_time":626000000000,"state":"active","ping":106},{"user_id":207,"name":"hedahman","steam_id":76561198052398134,"connected_time":419000000000,"state":"active","ping":92},{"user_id":190,"name":"mterbay","steam_id":76561198023473264,"connected_time":1879000000000,"state":"active","ping":66},{"user_id":209,"name":"ṽ⧉ hank","steam_id":76561197977182378,"connected_time":406000000000,"state":"active","ping":63},{"user_id":210,"name":"Sup m8","steam_id":76561198081659121,"connected_time":382000000000,"state":"active","ping":42},{"user_id":211,"name":"Greasy Guavas","steam_id":76561198089650428,"connected_time":378000000000,"state":"active","ping":69}]},{"server_id":404,"name":"Uncletopia | Dallas | 3 | All Maps","name_short":"dal-3","host":"dal-1.us.uncletopia.com","port":27035,"enabled":true,"region":"us-central","cc":"us","latitude":32.779167,"longitude":-96.80889,"reserved":0,"last_update":"0001-01-01T00:00:00Z","name_a2s":"Uncletopia | Dallas | 3 | All Maps","protocol":17,"map":"pl_pier","folder":"tf","game":"Team Fortress","app_id":440,"player_count":0,"max_players":24,"Bots":0,"server_type":"Dedicated","server_os":"Linux","password":true,"vac":true,"version":"7961495","steam_id":85568392924515219,"keywords":["nocrits","nodmgspread","payload","uncletopia"],"game_id":440,"stv_port":27036,"stv_name":"Uncletopia | Dallas | 3 | All Maps | STV","players":null},{"server_id":405,"name":"Uncletopia | Dallas | 4 | Community","name_short":"dal-4","host":"dal-1.us.uncletopia.com","port":27045,"enabled":true,"region":"us-central","cc":"us","latitude":32.779167,"longitude":-96.80889,"reserved":0,"last_update":"0001-01-01T00:00:00Z","name_a2s":"Uncletopia | Dallas | 4 | Community","protocol":17,"map":"pl_pier","folder":"tf","game":"Team Fortress","app_id":440,"player_count":0,"max_players":24,"Bots":0,"server_type":"Dedicated","server_os":"Linux","password":true,"vac":true,"version":"7961495","steam_id":85568392924515220,"keywords":["nocrits","nodmgspread","payload","uncletopia"],"game_id":440,"stv_port":27046,"stv_name":"Uncletopia | Dallas | 4 | Community | STV","players":null},{"server_id":5,"name":"Uncletopia | Frankfurt | 1 | All Maps","name_short":"frk-1","host":"frk-1.de.uncletopia.com","port":27015,"enabled":true,"region":"eu","cc":"de","latitude":50.110924,"longitude":8.682127,"reserved":0,"last_update":"0001-01-01T00:00:00Z","name_a2s":"Uncletopia | Frankfurt | 1 | All Maps","protocol":17,"map":"koth_harvest_final","folder":"tf","game":"Team Fortress","app_id":440,"player_count":24,"max_players":24,"Bots":0,"server_type":"Dedicated","server_os":"Linux","password":true,"vac":true,"version":"7961495","steam_id":85568392924469989,"keywords":["cp","nocrits","nodmgspread","uncletopia"],"game_id":440,"stv_port":27016,"stv_name":"Uncletopia | Frankfurt | 1 | All Maps | STV","players":[{"user_id":212,"name":"patmat","steam_id":76561198869110531,"connected_time":1084000000000,"state":"active","ping":61},{"user_id":188,"name":"Caliban","steam_id":76561197999696839,"connected_time":2658000000000,"state":"active","ping":114},{"user_id":203,"name":"hey tutorial heads","steam_id":76561197993777553,"connected_time":1838000000000,"state":"active","ping":58},{"user_id":187,"name":"Toasty5050","steam_id":76561198073540881,"connected_time":2670000000000,"state":"active","ping":44},{"user_id":213,"name":"Rigby","steam_id":76561198021552128,"connected_time":1072000000000,"state":"active","ping":100},{"user_id":208,"name":"A.D.H.|Artem","steam_id":76561198041801369,"connected_time":1191000000000,"state":"active","ping":89},{"user_id":177,"name":"Vershal Smershal","steam_id":76561198116223995,"connected_time":3799000000000,"state":"active","ping":60},{"user_id":192,"name":"Bobirulez","steam_id":76561198009125458,"connected_time":2638000000000,"state":"active","ping":61},{"user_id":171,"name":"Woman (Real)","steam_id":76561199151823932,"connected_time":4139000000000,"state":"active","ping":78},{"user_id":215,"name":"Mi Manchi","steam_id":76561198171573129,"connected_time":859000000000,"state":"active","ping":58},{"user_id":214,"name":"Rarky","steam_id":76561198054398642,"connected_time":935000000000,"state":"active","ping":48},{"user_id":194,"name":"Rimx","steam_id":76561198053034840,"connected_time":2412000000000,"state":"active","ping":94},{"user_id":216,"name":"rng","steam_id":76561198436059214,"connected_time":855000000000,"state":"active","ping":52},{"user_id":168,"name":"xavier","steam_id":76561198076494034,"connected_time":4404000000000,"state":"active","ping":57},{"user_id":193,"name":"Totally Clueless","steam_id":76561198085966488,"connected_time":2636000000000,"state":"active","ping":92},{"user_id":143,"name":"Carry Krypl","steam_id":76561198136938121,"connected_time":5982000000000,"state":"active","ping":60},{"user_id":172,"name":"Pilaarius","steam_id":76561198120273212,"connected_time":4053000000000,"state":"active","ping":94},{"user_id":156,"name":"Umme","steam_id":76561198053809566,"connected_time":5386000000000,"state":"active","ping":79},{"user_id":207,"name":"Udinese Dion","steam_id":76561198067931573,"connected_time":1194000000000,"state":"active","ping":53},{"user_id":190,"name":"skippy","steam_id":76561198171958773,"connected_time":2653000000000,"state":"active","ping":66},{"user_id":176,"name":"KnugenIV","steam_id":76561198127091993,"connected_time":3807000000000,"state":"active","ping":52},{"user_id":205,"name":"im tired","steam_id":76561198812159557,"connected_time":1339000000000,"state":"active","ping":75},{"user_id":209,"name":"LEGEND FUMO.","steam_id":76561198061033903,"connected_time":1191000000000,"state":"active","ping":52},{"user_id":186,"name":"Bajas","steam_id":76561198179339326,"connected_time":3014000000000,"state":"active","ping":77}]},{"server_id":110,"name":"Uncletopia | Frankfurt | 2 | All Maps","name_short":"frk-2","host":"frk-1.de.uncletopia.com","port":27025,"enabled":true,"region":"eu","cc":"de","latitude":50.110924,"longitude":8.682127,"reserved":0,"last_update":"0001-01-01T00:00:00Z","name_a2s":"Uncletopia | Frankfurt | 2 | All Maps","protocol":17,"map":"pl_badwater","folder":"tf","game":"Team Fortress","app_id":440,"player_count":24,"max_players":24,"Bots":0,"server_type":"Dedicated","server_os":"Linux","password":true,"vac":true,"version":"7961495","steam_id":85568392924469990,"keywords":["nocrits","nodmgspread","payload","uncletopia"],"game_id":440,"stv_port":27026,"stv_name":"Uncletopia | Frankfurt | 2 | All Maps | STV","players":[{"user_id":342,"name":"❤︎WarMole❤","steam_id":76561198104248760,"connected_time":448000000000,"state":"active","ping":61},{"user_id":343,"name":"Voodoo D Child","steam_id":76561198094569373,"connected_time":423000000000,"state":"active","ping":80},{"user_id":344,"name":"mohemmedmokhter2005","steam_id":76561199197650506,"connected_time":414000000000,"state":"active","ping":100},{"user_id":320,"name":"hamilton","steam_id":76561198034096096,"connected_time":1741000000000,"state":"active","ping":144},{"user_id":319,"name":"golfmastr","steam_id":76561198993144124,"connected_time":1746000000000,"state":"active","ping":72},{"user_id":338,"name":"Repa24","steam_id":76561198033016390,"connected_time":867000000000,"state":"active","ping":65},{"user_id":336,"name":"Vischan but worse","steam_id":76561199371650805,"connected_time":1062000000000,"state":"active","ping":95},{"user_id":290,"name":"Ω","steam_id":76561199088570961,"connected_time":3345000000000,"state":"active","ping":99},{"user_id":287,"name":"Finem Belli","steam_id":76561198227177976,"connected_time":3385000000000,"state":"active","ping":47},{"user_id":339,"name":"TpW","steam_id":76561199227174528,"connected_time":746000000000,"state":"active","ping":65},{"user_id":324,"name":"mex :3","steam_id":76561198091083324,"connected_time":1680000000000,"state":"active","ping":65},{"user_id":337,"name":"sus man","steam_id":76561199234935153,"connected_time":1030000000000,"state":"active","ping":101},{"user_id":325,"name":"The Big J","steam_id":76561198158202901,"connected_time":1677000000000,"state":"active","ping":51},{"user_id":347,"name":"Lux","steam_id":76561198060417740,"connected_time":381000000000,"state":"active","ping":46},{"user_id":326,"name":"Erection Man","steam_id":76561198021714542,"connected_time":1668000000000,"state":"active","ping":59},{"user_id":329,"name":"Durin sein Vater","steam_id":76561198021246713,"connected_time":1540000000000,"state":"active","ping":45},{"user_id":345,"name":"Anet1k","steam_id":76561198137123138,"connected_time":412000000000,"state":"active","ping":68},{"user_id":346,"name":"Pfuck","steam_id":76561198146081601,"connected_time":401000000000,"state":"active","ping":45},{"user_id":312,"name":"Birch","steam_id":76561197998712822,"connected_time":2280000000000,"state":"active","ping":48},{"user_id":341,"name":"TF2 Pro","steam_id":76561198042225094,"connected_time":627000000000,"state":"active","ping":68},{"user_id":301,"name":"Gruset","steam_id":76561198327512432,"connected_time":2988000000000,"state":"active","ping":77},{"user_id":304,"name":"gagalak","steam_id":76561198089979108,"connected_time":2955000000000,"state":"active","ping":84},{"user_id":333,"name":"manure merchant","steam_id":76561198010109316,"connected_time":1384000000000,"state":"active","ping":71},{"user_id":348,"name":"jamkel #savetf2","steam_id":76561199088464666,"connected_time":381000000000,"state":"active","ping":114}]},{"server_id":308,"name":"Uncletopia | Frankfurt | 3 | All Maps","name_short":"frk-3","host":"frk-1.de.uncletopia.com","port":27035,"enabled":true,"region":"eu","cc":"de","latitude":50.110924,"longitude":8.682127,"reserved":0,"last_update":"0001-01-01T00:00:00Z","name_a2s":"Uncletopia | Frankfurt | 3 | All Maps","protocol":17,"map":"pl_barnblitz","folder":"tf","game":"Team Fortress","app_id":440,"player_count":24,"max_players":24,"Bots":0,"server_type":"Dedicated","server_os":"Linux","password":true,"vac":true,"version":"7961495","steam_id":85568392924504274,"keywords":["nocrits","nodmgspread","payload","uncletopia"],"game_id":440,"stv_port":27036,"stv_name":"Uncletopia | Frankfurt | 3 | All Maps | STV","players":[{"user_id":430,"name":"Master Of Noob","steam_id":76561198217926783,"connected_time":2128000000000,"state":"active","ping":66},{"user_id":431,"name":"kreeekz","steam_id":76561198014431602,"connected_time":2051000000000,"state":"active","ping":69},{"user_id":426,"name":"rabbitface26","steam_id":76561198327540113,"connected_time":2269000000000,"state":"active","ping":45},{"user_id":440,"name":"Not Sussy Tanuki","steam_id":76561198137289375,"connected_time":940000000000,"state":"active","ping":95},{"user_id":438,"name":"josef.friztl.1934","steam_id":76561198371317553,"connected_time":1830000000000,"state":"active","ping":103},{"user_id":435,"name":"Sentry hater","steam_id":76561199269309068,"connected_time":1865000000000,"state":"active","ping":83},{"user_id":353,"name":"unKr","steam_id":76561198342024316,"connected_time":7820000000000,"state":"active","ping":74},{"user_id":381,"name":"_Alonso","steam_id":76561198041893314,"connected_time":6146000000000,"state":"active","ping":48},{"user_id":443,"name":"tired","steam_id":76561198046838168,"connected_time":347000000000,"state":"active","ping":45},{"user_id":428,"name":"MuchoBroke","steam_id":76561199389474207,"connected_time":2253000000000,"state":"active","ping":58},{"user_id":352,"name":"DiscoTraveler","steam_id":76561199240168088,"connected_time":8194000000000,"state":"active","ping":127},{"user_id":407,"name":"Catt #saveTF2","steam_id":76561199088078419,"connected_time":3595000000000,"state":"active","ping":82},{"user_id":411,"name":"Piteras","steam_id":76561198858532207,"connected_time":3400000000000,"state":"active","ping":71},{"user_id":444,"name":"cazador","steam_id":76561198123096922,"connected_time":294000000000,"state":"active","ping":94},{"user_id":429,"name":"[ALT_F4]dottor_cacabula_m8","steam_id":76561198173192267,"connected_time":2241000000000,"state":"active","ping":74},{"user_id":441,"name":"xiiski","steam_id":76561198152387747,"connected_time":939000000000,"state":"active","ping":90},{"user_id":445,"name":"snakeghoul","steam_id":76561199018056408,"connected_time":243000000000,"state":"active","ping":74},{"user_id":406,"name":"Fish 'n' Chips","steam_id":76561198033476886,"connected_time":3627000000000,"state":"active","ping":87},{"user_id":358,"name":"MUWEQ","steam_id":76561198107615727,"connected_time":7693000000000,"state":"active","ping":72},{"user_id":446,"name":"Versunix","steam_id":76561197978073496,"connected_time":113000000000,"state":"active","ping":58},{"user_id":392,"name":"Venenakki","steam_id":76561198311526482,"connected_time":5594000000000,"state":"active","ping":67},{"user_id":387,"name":"Eric Catman","steam_id":76561198802117294,"connected_time":5746000000000,"state":"active","ping":98},{"user_id":439,"name":"♥Also Freddy♥","steam_id":76561198200934934,"connected_time":1102000000000,"state":"active","ping":57},{"user_id":442,"name":"Sandro","steam_id":76561198150314892,"connected_time":916000000000,"state":"active","ping":72}]},{"server_id":309,"name":"Uncletopia | Frankfurt | 4 | All Maps","name_short":"frk-4","host":"frk-1.de.uncletopia.com","port":27045,"enabled":true,"region":"eu","cc":"de","latitude":50.110924,"longitude":8.682127,"reserved":0,"last_update":"0001-01-01T00:00:00Z","name_a2s":"Uncletopia | Frankfurt | 4 | All Maps","protocol":17,"map":"cp_steel","folder":"tf","game":"Team Fortress","app_id":440,"player_count":24,"max_players":24,"Bots":0,"server_type":"Dedicated","server_os":"Linux","password":true,"vac":true,"version":"7961495","steam_id":85568392924504275,"keywords":["cp","nocrits","nodmgspread","uncletopia"],"game_id":440,"stv_port":27046,"stv_name":"Uncletopia | Frankfurt | 4 | All Maps | STV","players":[{"user_id":184,"name":"SOONMAN","steam_id":76561198060067117,"connected_time":246000000000,"state":"active","ping":85},{"user_id":118,"name":"Ralistix","steam_id":76561198051654135,"connected_time":4460000000000,"state":"active","ping":89},{"user_id":170,"name":"Chicken","steam_id":76561198146492664,"connected_time":724000000000,"state":"active","ping":90},{"user_id":157,"name":"peeka","steam_id":76561198221122068,"connected_time":2639000000000,"state":"active","ping":66},{"user_id":181,"name":"Shronkistan","steam_id":76561198083697305,"connected_time":373000000000,"state":"active","ping":71},{"user_id":189,"name":"pepega","steam_id":76561198210509251,"connected_time":100000000000,"state":"active","ping":105},{"user_id":185,"name":"emkoç","steam_id":76561198846782346,"connected_time":217000000000,"state":"active","ping":104},{"user_id":110,"name":"Bhast","steam_id":76561198071620021,"connected_time":4648000000000,"state":"active","ping":85},{"user_id":144,"name":"SHRÖX","steam_id":76561198250244554,"connected_time":3167000000000,"state":"active","ping":80},{"user_id":190,"name":"Siemens Desiro","steam_id":76561199203076508,"connected_time":83000000000,"state":"active","ping":93},{"user_id":162,"name":"Kurbeats","steam_id":76561198102259574,"connected_time":2344000000000,"state":"active","ping":56},{"user_id":175,"name":"s a i","steam_id":76561197970379754,"connected_time":679000000000,"state":"active","ping":47},{"user_id":143,"name":"raebbitos","steam_id":76561198167580006,"connected_time":3295000000000,"state":"active","ping":56},{"user_id":191,"name":"Ziano","steam_id":76561199111746284,"connected_time":50000000000,"state":"active","ping":92},{"user_id":177,"name":"Dodo","steam_id":76561198001877653,"connected_time":623000000000,"state":"active","ping":55},{"user_id":155,"name":"Nozzo","steam_id":76561198012367783,"connected_time":2670000000000,"state":"active","ping":75},{"user_id":173,"name":"GAJtheSPY","steam_id":76561198256080023,"connected_time":697000000000,"state":"active","ping":70},{"user_id":188,"name":"Der_Milchmann","steam_id":76561198001417748,"connected_time":144000000000,"state":"active","ping":57},{"user_id":131,"name":"average manicotti enjoyer","steam_id":76561198059535856,"connected_time":3731000000000,"state":"active","ping":170},{"user_id":183,"name":"Grey","steam_id":76561198187190267,"connected_time":286000000000,"state":"active","ping":46},{"user_id":114,"name":"Sn1Ch","steam_id":76561198073076943,"connected_time":4587000000000,"state":"active","ping":91},{"user_id":174,"name":"beno","steam_id":76561198152146711,"connected_time":696000000000,"state":"active","ping":67},{"user_id":169,"name":"gaming (official)","steam_id":76561198106012909,"connected_time":758000000000,"state":"active","ping":70},{"user_id":148,"name":"SneaK","steam_id":76561198280344773,"connected_time":3108000000000,"state":"active","ping":87}]},{"server_id":310,"name":"Uncletopia | Frankfurt | 5 | All Maps","name_short":"frk-5","host":"frk-1.de.uncletopia.com","port":27055,"enabled":true,"region":"eu","cc":"de","latitude":50.110924,"longitude":8.682127,"reserved":0,"last_update":"0001-01-01T00:00:00Z","name_a2s":"Uncletopia | Frankfurt | 5 | All Maps","protocol":17,"map":"pl_borneo","folder":"tf","game":"Team Fortress","app_id":440,"player_count":24,"max_players":24,"Bots":0,"server_type":"Dedicated","server_os":"Linux","password":true,"vac":true,"version":"7961495","steam_id":85568392924504277,"keywords":["nocrits","nodmgspread","payload","uncletopia"],"game_id":440,"stv_port":27056,"stv_name":"Uncletopia | Frankfurt | 5 | All Maps | STV","players":[{"user_id":309,"name":"Jeffrey Harpen","steam_id":76561199073314677,"connected_time":1364000000000,"state":"active","ping":71},{"user_id":295,"name":"Osek","steam_id":76561197972646003,"connected_time":1636000000000,"state":"active","ping":67},{"user_id":315,"name":"Mike","steam_id":76561198228455736,"connected_time":861000000000,"state":"active","ping":65},{"user_id":285,"name":"simeswipe","steam_id":76561198188471097,"connected_time":2806000000000,"state":"active","ping":71},{"user_id":297,"name":"CRANK","steam_id":76561198188720263,"connected_time":1614000000000,"state":"active","ping":55},{"user_id":316,"name":"MR.BLOTTO","steam_id":76561198067920111,"connected_time":830000000000,"state":"active","ping":46},{"user_id":332,"name":"weshanus","steam_id":76561198035380064,"connected_time":172000000000,"state":"active","ping":56},{"user_id":305,"name":"Sippie","steam_id":76561198130393388,"connected_time":1499000000000,"state":"active","ping":70},{"user_id":328,"name":"FoOzTV","steam_id":76561197998636728,"connected_time":327000000000,"state":"active","ping":72},{"user_id":320,"name":"Vitamin Weee","steam_id":76561199183937747,"connected_time":557000000000,"state":"active","ping":80},{"user_id":307,"name":"Supercoxylac","steam_id":76561198376300138,"connected_time":1434000000000,"state":"active","ping":68},{"user_id":326,"name":"Urfangonultasadana","steam_id":76561199389286151,"connected_time":342000000000,"state":"active","ping":96},{"user_id":322,"name":"DevFish","steam_id":76561199010456751,"connected_time":495000000000,"state":"active","ping":70},{"user_id":331,"name":"Trulle","steam_id":76561198059090698,"connected_time":272000000000,"state":"active","ping":76},{"user_id":333,"name":"Knösta","steam_id":76561198143422139,"connected_time":150000000000,"state":"active","ping":104},{"user_id":301,"name":"zek","steam_id":76561198862763731,"connected_time":1589000000000,"state":"active","ping":59},{"user_id":260,"name":"[PVFR]gabi974","steam_id":76561198046574709,"connected_time":4240000000000,"state":"active","ping":64},{"user_id":318,"name":"jorran","steam_id":76561198209925539,"connected_time":757000000000,"state":"active","ping":68},{"user_id":327,"name":"Akubpl","steam_id":76561198453017176,"connected_time":341000000000,"state":"active","ping":83},{"user_id":329,"name":"hhhhhh","steam_id":76561198031982574,"connected_time":322000000000,"state":"active","ping":44},{"user_id":324,"name":"Lisa","steam_id":76561198361723475,"connected_time":481000000000,"state":"active","ping":75},{"user_id":325,"name":"Rob","steam_id":76561198234139612,"connected_time":476000000000,"state":"active","ping":92},{"user_id":330,"name":"Toxicò","steam_id":76561199031920676,"connected_time":317000000000,"state":"active","ping":81},{"user_id":303,"name":"Nickbro101","steam_id":76561198044271692,"connected_time":1564000000000,"state":"active","ping":62}]},{"server_id":311,"name":"Uncletopia | Frankfurt | 6 | All Maps","name_short":"frk-6","host":"frk-1.de.uncletopia.com","port":27065,"enabled":true,"region":"eu","cc":"de","latitude":50.110924,"longitude":8.682127,"reserved":0,"last_update":"0001-01-01T00:00:00Z","name_a2s":"Uncletopia | Frankfurt | 6 | All Maps","protocol":17,"map":"pl_upward","folder":"tf","game":"Team Fortress","app_id":440,"player_count":24,"max_players":24,"Bots":0,"server_type":"Dedicated","server_os":"Linux","password":true,"vac":true,"version":"7961495","steam_id":85568392924504278,"keywords":["nocrits","nodmgspread","payload","uncletopia"],"game_id":440,"stv_port":27066,"stv_name":"Uncletopia | Frankfurt | 6 | All Maps | STV","players":[{"user_id":164,"name":"Warrior555MainsGanon","steam_id":76561198388627786,"connected_time":5466000000000,"state":"active","ping":71},{"user_id":226,"name":"fiddlesticks","steam_id":76561198155229347,"connected_time":1335000000000,"state":"active","ping":53},{"user_id":139,"name":"Ketich","steam_id":76561198021772703,"connected_time":7052000000000,"state":"active","ping":72},{"user_id":237,"name":"Wattseyy","steam_id":76561198248567360,"connected_time":70000000000,"state":"active","ping":52},{"user_id":231,"name":"Schmack","steam_id":76561198026535437,"connected_time":826000000000,"state":"active","ping":60},{"user_id":205,"name":"Rubi","steam_id":76561198139410003,"connected_time":2725000000000,"state":"active","ping":130},{"user_id":227,"name":"Vitun Jonne","steam_id":76561198401737380,"connected_time":1325000000000,"state":"active","ping":47},{"user_id":224,"name":"Timantrop","steam_id":76561198142563461,"connected_time":1358000000000,"state":"active","ping":74},{"user_id":180,"name":"After8","steam_id":76561198090750865,"connected_time":4751000000000,"state":"active","ping":60},{"user_id":233,"name":"hananamanna","steam_id":76561198006570285,"connected_time":542000000000,"state":"active","ping":110},{"user_id":194,"name":"Mischail","steam_id":76561198016127010,"connected_time":4015000000000,"state":"active","ping":68},{"user_id":90,"name":"baby's first domination","steam_id":76561198325898181,"connected_time":10224000000000,"state":"active","ping":72},{"user_id":234,"name":"Syd","steam_id":76561198020515027,"connected_time":527000000000,"state":"active","ping":103},{"user_id":228,"name":"obi","steam_id":76561198040154461,"connected_time":1324000000000,"state":"active","ping":60},{"user_id":236,"name":"gfjhsdf","steam_id":76561198136736426,"connected_time":252000000000,"state":"active","ping":56},{"user_id":219,"name":"DJThunderHeart","steam_id":76561198274197575,"connected_time":1904000000000,"state":"active","ping":131},{"user_id":230,"name":"generic alias","steam_id":76561198271607226,"connected_time":917000000000,"state":"active","ping":100},{"user_id":211,"name":"radu","steam_id":76561198067346802,"connected_time":2372000000000,"state":"active","ping":53},{"user_id":181,"name":"twitch.tv/vision515","steam_id":76561198065293729,"connected_time":4748000000000,"state":"active","ping":175},{"user_id":216,"name":"Apollo","steam_id":76561198866054007,"connected_time":2117000000000,"state":"active","ping":85},{"user_id":232,"name":"shmax","steam_id":76561198889012709,"connected_time":822000000000,"state":"active","ping":88},{"user_id":204,"name":"Star Throne","steam_id":76561198132171027,"connected_time":2774000000000,"state":"active","ping":69},{"user_id":222,"name":"Zor","steam_id":76561198009851383,"connected_time":1551000000000,"state":"active","ping":68},{"user_id":206,"name":"invis","steam_id":76561198120668070,"connected_time":2627000000000,"state":"active","ping":59}]},{"server_id":23,"name":"Uncletopia | Frankfurt | 7 | Stopwatch","name_short":"frk-7","host":"frk-1.de.uncletopia.com","port":27075,"enabled":true,"region":"eu","cc":"de","latitude":50.110924,"longitude":8.682127,"reserved":0,"last_update":"0001-01-01T00:00:00Z","name_a2s":"Uncletopia | Frankfurt | 7 | Stopwatch","protocol":17,"map":"workshop/koth_clearcut_b15.ugc2107050255","folder":"tf","game":"Team Fortress","app_id":440,"player_count":0,"max_players":24,"Bots":0,"server_type":"Dedicated","server_os":"Linux","password":true,"vac":true,"version":"7961495","steam_id":85568392924742827,"keywords":["cp","nocrits","nodmgspread","uncletopia"],"game_id":440,"stv_port":27076,"stv_name":"Uncletopia | Frankfurt | 7 | Stopwatch | STV","players":null},{"server_id":24,"name":"Uncletopia | Frankfurt | 8 | Community","name_short":"frk-8","host":"frk-1.de.uncletopia.com","port":27085,"enabled":true,"region":"eu","cc":"de","latitude":50.110924,"longitude":8.682127,"reserved":0,"last_update":"0001-01-01T00:00:00Z","name_a2s":"Uncletopia | Frankfurt | 8 | Community","protocol":17,"map":"workshop/cp_bruhstbowl_b6.ugc2878604990","folder":"tf","game":"Team Fortress","app_id":440,"player_count":24,"max_players":24,"Bots":0,"server_type":"Dedicated","server_os":"Linux","password":true,"vac":true,"version":"7961495","steam_id":85568392924742828,"keywords":["cp","nocrits","nodmgspread","uncletopia"],"game_id":440,"stv_port":27086,"stv_name":"Uncletopia | Frankfurt | 8 | Community | STV","players":[{"user_id":345,"name":"Commander Pasta","steam_id":76561198045773077,"connected_time":419000000000,"state":"active","ping":38},{"user_id":319,"name":"Torttu","steam_id":76561198013980029,"connected_time":1889000000000,"state":"active","ping":59},{"user_id":338,"name":"Skatnaset","steam_id":76561198298457353,"connected_time":1149000000000,"state":"active","ping":74},{"user_id":350,"name":"TylowStar","steam_id":76561198357107806,"connected_time":21000000000,"state":"active","ping":120},{"user_id":301,"name":"Mr. Master","steam_id":76561199198569317,"connected_time":2727000000000,"state":"active","ping":54},{"user_id":213,"name":"✡Cpruin✡","steam_id":76561198184924239,"connected_time":9426000000000,"state":"active","ping":68},{"user_id":340,"name":"BritishBeef","steam_id":76561197971054321,"connected_time":1053000000000,"state":"active","ping":64},{"user_id":320,"name":"Morgan BullFrog","steam_id":76561198088334623,"connected_time":1870000000000,"state":"active","ping":95},{"user_id":331,"name":"Vonacht","steam_id":76561198016033944,"connected_time":1449000000000,"state":"active","ping":70},{"user_id":336,"name":"zazuza","steam_id":76561198049820905,"connected_time":1376000000000,"state":"active","ping":62},{"user_id":309,"name":"The Engineer","steam_id":76561199437330739,"connected_time":2437000000000,"state":"active","ping":68},{"user_id":310,"name":"jjkun786","steam_id":76561199438517484,"connected_time":2329000000000,"state":"active","ping":49},{"user_id":346,"name":"kloada","steam_id":76561198082113271,"connected_time":373000000000,"state":"active","ping":72},{"user_id":313,"name":"Drinking Problem","steam_id":76561198319162953,"connected_time":2169000000000,"state":"active","ping":61},{"user_id":314,"name":"Smoking problem","steam_id":76561198361351449,"connected_time":2140000000000,"state":"active","ping":47},{"user_id":315,"name":"dfcv rftgvb ghtb","steam_id":76561198397764042,"connected_time":2129000000000,"state":"active","ping":91},{"user_id":322,"name":"Letko","steam_id":76561198022416006,"connected_time":1865000000000,"state":"active","ping":61},{"user_id":348,"name":"Loz405 (YouTube)","steam_id":76561198799315884,"connected_time":256000000000,"state":"active","ping":65},{"user_id":351,"name":"install gentoo","steam_id":76561198185257982,"connected_time":14000000000,"state":"spawning","ping":186},{"user_id":341,"name":"awkward weirdo loser freak","steam_id":76561199042470246,"connected_time":1036000000000,"state":"active","ping":55},{"user_id":324,"name":"Matteo Il Biondo","steam_id":76561198315389475,"connected_time":1849000000000,"state":"active","ping":71},{"user_id":342,"name":"NovaEngineer","steam_id":76561199187304864,"connected_time":1033000000000,"state":"active","ping":57},{"user_id":326,"name":"Klaus","steam_id":76561198150394201,"connected_time":1824000000000,"state":"active","ping":86},{"user_id":344,"name":"Pan Pan","steam_id":76561199074670515,"connected_time":832000000000,"state":"active","ping":80}]},{"server_id":202,"name":"Uncletopia | Hong Kong | 1 | All Maps","name_short":"hgk-1","host":"hgk-1.hk.uncletopia.com","port":27015,"enabled":true,"region":"asia","cc":"hk","latitude":22.302711,"longitude":114.177216,"reserved":0,"last_update":"0001-01-01T00:00:00Z","name_a2s":"Uncletopia | Hong Kong | 1 | All Maps","protocol":17,"map":"koth_cascade","folder":"tf","game":"Team Fortress","app_id":440,"player_count":0,"max_players":24,"Bots":0,"server_type":"Dedicated","server_os":"Linux","password":true,"vac":true,"version":"7961495","steam_id":85568392924494504,"keywords":["cp","nocrits","nodmgspread","uncletopia"],"game_id":440,"stv_port":27016,"stv_name":"Uncletopia | Hong Kong | 1 | All Maps | STV","players":null},{"server_id":1,"name":"Uncletopia | Los Angeles | 1 | All Maps","name_short":"lax-1","host":"lax-1.us.uncletopia.com","port":27015,"enabled":true,"region":"us-west","cc":"us","latitude":33.94279,"longitude":-118.41004,"reserved":0,"last_update":"0001-01-01T00:00:00Z","name_a2s":"Uncletopia | Los Angeles | 1 | All Maps","protocol":17,"map":"pl_swiftwater_final1","folder":"tf","game":"Team Fortress","app_id":440,"player_count":0,"max_players":24,"Bots":0,"server_type":"Dedicated","server_os":"Linux","password":true,"vac":true,"version":"7961495","steam_id":85568392924469991,"keywords":["nocrits","nodmgspread","payload","uncletopia"],"game_id":440,"stv_port":27016,"stv_name":"Uncletopia | Los Angeles | 1 | All Maps | STV","players":null},{"server_id":112,"name":"Uncletopia | Los Angeles | 2 | All Maps","name_short":"lax-2","host":"lax-1.us.uncletopia.com","port":27025,"enabled":true,"region":"us-west","cc":"us","latitude":33.94279,"longitude":-118.41004,"reserved":0,"last_update":"0001-01-01T00:00:00Z","name_a2s":"Uncletopia | Los Angeles | 2 | All Maps","protocol":17,"map":"koth_cascade","folder":"tf","game":"Team Fortress","app_id":440,"player_count":0,"max_players":24,"Bots":0,"server_type":"Dedicated","server_os":"Linux","password":true,"vac":true,"version":"7961495","steam_id":85568392924469992,"keywords":["cp","nocrits","nodmgspread","uncletopia"],"game_id":440,"stv_port":27026,"stv_name":"Uncletopia | Los Angeles | 2 | All Maps | STV","players":null},{"server_id":324,"name":"Uncletopia | Los Angeles | 3 | All Maps","name_short":"lax-3","host":"lax-1.us.uncletopia.com","port":27035,"enabled":true,"region":"us-west","cc":"us","latitude":33.94279,"longitude":-118.41004,"reserved":0,"last_update":"0001-01-01T00:00:00Z","name_a2s":"Uncletopia | Los Angeles | 3 | All Maps","protocol":17,"map":"pl_pier","folder":"tf","game":"Team Fortress","app_id":440,"player_count":0,"max_players":24,"Bots":0,"server_type":"Dedicated","server_os":"Linux","password":true,"vac":true,"version":"7961495","steam_id":85568392924510198,"keywords":["nocrits","nodmgspread","payload","uncletopia"],"game_id":440,"stv_port":27036,"stv_name":"Uncletopia | Los Angeles | 3 | All Maps | STV","players":null},{"server_id":25,"name":"Uncletopia | Los Angeles | 4 | Stopwatch","name_short":"lax-4","host":"lax-1.us.uncletopia.com","port":27045,"enabled":true,"region":"us-west","cc":"us","latitude":33.94279,"longitude":-118.41004,"reserved":0,"last_update":"0001-01-01T00:00:00Z","name_a2s":"Uncletopia | Los Angeles | 4 | Stopwatch","protocol":17,"map":"pl_barnblitz","folder":"tf","game":"Team Fortress","app_id":440,"player_count":0,"max_players":24,"Bots":0,"server_type":"Dedicated","server_os":"Linux","password":true,"vac":true,"version":"7961495","steam_id":85568392924510199,"keywords":["nocrits","nodmgspread","payload","uncletopia"],"game_id":440,"stv_port":27046,"stv_name":"Uncletopia | Los Angeles | 4 | Stopwatch | STV","players":null},{"server_id":11,"name":"Uncletopia | London | 1 | All Maps","name_short":"lon-1","host":"lon-1.uk.uncletopia.com","port":27015,"enabled":true,"region":"eu","cc":"gb","latitude":51.509865,"longitude":-0.118092,"reserved":0,"last_update":"0001-01-01T00:00:00Z","name_a2s":"Uncletopia | London | 1 | All Maps","protocol":17,"map":"pl_badwater","folder":"tf","game":"Team Fortress","app_id":440,"player_count":24,"max_players":24,"Bots":0,"server_type":"Dedicated","server_os":"Linux","password":true,"vac":true,"version":"7961495","steam_id":85568392924367362,"keywords":["nocrits","nodmgspread","payload","uncletopia"],"game_id":440,"stv_port":27016,"stv_name":"Uncletopia | London | 1 | All Maps | STV","players":[{"user_id":485,"name":"Sza","steam_id":76561198022132105,"connected_time":17000000000,"state":"spawning","ping":75},{"user_id":469,"name":"Slifer the BIG SHOT","steam_id":76561198062255803,"connected_time":1328000000000,"state":"active","ping":67},{"user_id":471,"name":"ANGHENFILOD","steam_id":76561199492622823,"connected_time":1320000000000,"state":"active","ping":30},{"user_id":465,"name":"shooer!","steam_id":76561198110531281,"connected_time":1881000000000,"state":"active","ping":70},{"user_id":468,"name":"Skinny101","steam_id":76561197985599360,"connected_time":1600000000000,"state":"active","ping":52},{"user_id":439,"name":"Texas Red","steam_id":76561199069782779,"connected_time":4197000000000,"state":"active","ping":80},{"user_id":483,"name":"shoras","steam_id":76561198019680159,"connected_time":259000000000,"state":"active","ping":93},{"user_id":458,"name":"Illy","steam_id":76561198045537823,"connected_time":3159000000000,"state":"active","ping":57},{"user_id":480,"name":"Scarlet","steam_id":76561198075966579,"connected_time":502000000000,"state":"active","ping":31},{"user_id":442,"name":"Logern","steam_id":76561198085243794,"connected_time":3888000000000,"state":"active","ping":53},{"user_id":451,"name":"Sir Cauterize","steam_id":76561198047079422,"connected_time":3276000000000,"state":"active","ping":61},{"user_id":457,"name":"Senior","steam_id":76561198065014164,"connected_time":3193000000000,"state":"active","ping":51},{"user_id":435,"name":"UltimateSlayer","steam_id":76561198384109309,"connected_time":4288000000000,"state":"active","ping":59},{"user_id":441,"name":"jcb.f.smith","steam_id":76561199491964000,"connected_time":4084000000000,"state":"active","ping":50},{"user_id":473,"name":"i ❤ dragos","steam_id":76561199089599602,"connected_time":1303000000000,"state":"active","ping":90},{"user_id":474,"name":"Cpt_frost","steam_id":76561198218034817,"connected_time":1302000000000,"state":"active","ping":38},{"user_id":475,"name":"sushii","steam_id":76561198297987372,"connected_time":1300000000000,"state":"active","ping":56},{"user_id":467,"name":"flappi","steam_id":76561198072892783,"connected_time":1873000000000,"state":"active","ping":62},{"user_id":462,"name":"breakfast burrito","steam_id":76561198148606969,"connected_time":2887000000000,"state":"active","ping":82},{"user_id":484,"name":"ROX","steam_id":76561198272289320,"connected_time":201000000000,"state":"active","ping":60},{"user_id":476,"name":"CAL","steam_id":76561199217717138,"connected_time":1239000000000,"state":"active","ping":62},{"user_id":477,"name":"I Love Filtered Water","steam_id":76561198016042113,"connected_time":990000000000,"state":"active","ping":84},{"user_id":482,"name":"AWildTamim","steam_id":76561198048060652,"connected_time":344000000000,"state":"active","ping":39},{"user_id":438,"name":"Will","steam_id":76561198173329977,"connected_time":4276000000000,"state":"active","ping":50}]},{"server_id":114,"name":"Uncletopia | London | 2 | All Maps","name_short":"lon-2","host":"lon-1.uk.uncletopia.com","port":27025,"enabled":true,"region":"eu","cc":"gb","latitude":51.509865,"longitude":-0.118092,"reserved":0,"last_update":"0001-01-01T00:00:00Z","name_a2s":"Uncletopia | London | 2 | All Maps","protocol":17,"map":"cp_mountainlab","folder":"tf","game":"Team Fortress","app_id":440,"player_count":5,"max_players":24,"Bots":0,"server_type":"Dedicated","server_os":"Linux","password":true,"vac":true,"version":"7961495","steam_id":85568392924470941,"keywords":["cp","nocrits","nodmgspread","uncletopia"],"game_id":440,"stv_port":27026,"stv_name":"Uncletopia | London | 2 | All Maps | STV","players":[{"user_id":385,"name":"Von Leining","steam_id":76561198859983504,"connected_time":645000000000,"state":"active","ping":54},{"user_id":383,"name":"Zero Sleep Gaming","steam_id":76561198982674420,"connected_time":843000000000,"state":"active","ping":35},{"user_id":391,"name":"cactus varo","steam_id":76561198968770670,"connected_time":181000000000,"state":"active","ping":89},{"user_id":388,"name":"Sheen (Khang)","steam_id":76561198371062974,"connected_time":466000000000,"state":"active","ping":97},{"user_id":392,"name":"Temperance","steam_id":76561198446955878,"connected_time":7000000000,"state":"spawning","ping":48}]},{"server_id":320,"name":"Uncletopia | London | 3 | All Maps","name_short":"lon-3","host":"lon-1.uk.uncletopia.com","port":27035,"enabled":true,"region":"eu","cc":"gb","latitude":51.509865,"longitude":-0.118092,"reserved":0,"last_update":"0001-01-01T00:00:00Z","name_a2s":"Uncletopia | London | 3 | All Maps","protocol":17,"map":"cp_sunshine","folder":"tf","game":"Team Fortress","app_id":440,"player_count":24,"max_players":24,"Bots":0,"server_type":"Dedicated","server_os":"Linux","password":true,"vac":true,"version":"7961495","steam_id":85568392924510192,"keywords":["cp","nocrits","nodmgspread","uncletopia"],"game_id":440,"stv_port":27036,"stv_name":"Uncletopia | London | 3 | All Maps | STV","players":[{"user_id":610,"name":"mere","steam_id":76561199136308055,"connected_time":4260000000000,"state":"active","ping":57},{"user_id":646,"name":"Nithle","steam_id":76561198025372740,"connected_time":1915000000000,"state":"active","ping":30},{"user_id":644,"name":"Yassine","steam_id":76561198140565712,"connected_time":2170000000000,"state":"active","ping":52},{"user_id":662,"name":"quickfast","steam_id":76561199438900919,"connected_time":516000000000,"state":"active","ping":41},{"user_id":609,"name":"Gentlemann Co.","steam_id":76561197997142921,"connected_time":4328000000000,"state":"active","ping":60},{"user_id":640,"name":"Bobo","steam_id":76561198052308399,"connected_time":2650000000000,"state":"active","ping":69},{"user_id":574,"name":"Fuvuk","steam_id":76561198044458593,"connected_time":6342000000000,"state":"active","ping":90},{"user_id":643,"name":"Macci - Obismal","steam_id":76561198050485404,"connected_time":2260000000000,"state":"active","ping":81},{"user_id":650,"name":"stickurr","steam_id":76561198089536805,"connected_time":1423000000000,"state":"active","ping":53},{"user_id":656,"name":"Jewix","steam_id":76561198063457899,"connected_time":782000000000,"state":"active","ping":74},{"user_id":652,"name":"eMcP","steam_id":76561198382509396,"connected_time":1205000000000,"state":"active","ping":59},{"user_id":658,"name":"ExtraFlames","steam_id":76561199136146246,"connected_time":758000000000,"state":"active","ping":60},{"user_id":654,"name":"tua","steam_id":76561198034955422,"connected_time":788000000000,"state":"active","ping":49},{"user_id":664,"name":"soup","steam_id":76561198386933065,"connected_time":160000000000,"state":"active","ping":73},{"user_id":631,"name":"Hotdog_Gentleman","steam_id":76561199309867837,"connected_time":3638000000000,"state":"active","ping":113},{"user_id":647,"name":"Mister","steam_id":76561199049647854,"connected_time":1739000000000,"state":"active","ping":48},{"user_id":637,"name":"Caruzon - Obismal","steam_id":76561198036211170,"connected_time":2776000000000,"state":"active","ping":77},{"user_id":659,"name":"ExaDiyo99","steam_id":76561198090453012,"connected_time":726000000000,"state":"active","ping":78},{"user_id":655,"name":"Hyperion","steam_id":76561198043716162,"connected_time":788000000000,"state":"active","ping":58},{"user_id":633,"name":"Level 1 Noob","steam_id":76561198088586340,"connected_time":3403000000000,"state":"active","ping":66},{"user_id":638,"name":"R8N - Obismal","steam_id":76561198007482714,"connected_time":2774000000000,"state":"active","ping":75},{"user_id":660,"name":"spy's arent real","steam_id":76561198165871469,"connected_time":719000000000,"state":"active","ping":75},{"user_id":661,"name":"pep","steam_id":76561198207543607,"connected_time":698000000000,"state":"active","ping":76},{"user_id":613,"name":"KAMIL","steam_id":76561198014578785,"connected_time":4092000000000,"state":"active","ping":64}]},{"server_id":321,"name":"Uncletopia | London | 4 | All Maps","name_short":"lon-4","host":"lon-1.uk.uncletopia.com","port":27045,"enabled":true,"region":"eu","cc":"gb","latitude":51.509865,"longitude":-0.118092,"reserved":0,"last_update":"0001-01-01T00:00:00Z","name_a2s":"Uncletopia | London | 4 | All Maps","protocol":17,"map":"pl_frontier_final","folder":"tf","game":"Team Fortress","app_id":440,"player_count":24,"max_players":24,"Bots":0,"server_type":"Dedicated","server_os":"Linux","password":true,"vac":true,"version":"7961495","steam_id":85568392924510193,"keywords":["nocrits","nodmgspread","payload","uncletopia"],"game_id":440,"stv_port":27046,"stv_name":"Uncletopia | London | 4 | All Maps | STV","players":[{"user_id":255,"name":"David \"Crash\" Murphy","steam_id":76561198292845505,"connected_time":915000000000,"state":"active","ping":90},{"user_id":200,"name":"jj","steam_id":76561198079200985,"connected_time":4144000000000,"state":"active","ping":53},{"user_id":209,"name":"A Very Fulfilling Salad","steam_id":76561198084530972,"connected_time":3468000000000,"state":"active","ping":49},{"user_id":243,"name":"Swiss_Nostalgia","steam_id":76561199159896259,"connected_time":1377000000000,"state":"active","ping":63},{"user_id":208,"name":"Palex","steam_id":76561198093219465,"connected_time":3526000000000,"state":"active","ping":42},{"user_id":227,"name":"MatarArg","steam_id":76561198280246498,"connected_time":1739000000000,"state":"active","ping":119},{"user_id":263,"name":"jovi_","steam_id":76561198449280552,"connected_time":297000000000,"state":"active","ping":53},{"user_id":259,"name":"Hoopty","steam_id":76561198057012442,"connected_time":444000000000,"state":"active","ping":69},{"user_id":229,"name":"fence_","steam_id":76561198150386379,"connected_time":1670000000000,"state":"active","ping":47},{"user_id":265,"name":"biohazard.pt","steam_id":76561198088367808,"connected_time":93000000000,"state":"active","ping":75},{"user_id":240,"name":"Pudlich","steam_id":76561198300089671,"connected_time":1525000000000,"state":"active","ping":84},{"user_id":258,"name":"Marcus","steam_id":76561198205027963,"connected_time":468000000000,"state":"active","ping":82},{"user_id":235,"name":"GigaСhad Pyro","steam_id":76561198140742485,"connected_time":1568000000000,"state":"active","ping":164},{"user_id":236,"name":"Tort","steam_id":76561198329646769,"connected_time":1567000000000,"state":"active","ping":59},{"user_id":261,"name":"Patatata","steam_id":76561198152188319,"connected_time":382000000000,"state":"active","ping":72},{"user_id":262,"name":"Toa LightMakuta","steam_id":76561198212178104,"connected_time":322000000000,"state":"active","ping":54},{"user_id":224,"name":"UltimateAura","steam_id":76561198338361324,"connected_time":1907000000000,"state":"active","ping":41},{"user_id":257,"name":"kaelan","steam_id":76561198001425310,"connected_time":778000000000,"state":"active","ping":78},{"user_id":216,"name":"skilltissues","steam_id":76561198025828664,"connected_time":2914000000000,"state":"active","ping":53},{"user_id":246,"name":"Blind","steam_id":76561198310295139,"connected_time":1343000000000,"state":"active","ping":100},{"user_id":264,"name":"MrRoAndrei","steam_id":76561198205282000,"connected_time":286000000000,"state":"active","ping":66},{"user_id":215,"name":"[Sheep] Tomco","steam_id":76561198388549261,"connected_time":2953000000000,"state":"active","ping":63},{"user_id":177,"name":"A Very Disappointing Salad","steam_id":76561198020277939,"connected_time":5278000000000,"state":"active","ping":62},{"user_id":252,"name":"Erchius","steam_id":76561198256892300,"connected_time":970000000000,"state":"active","ping":142}]},{"server_id":21,"name":"Uncletopia | London | 5 | All Maps","name_short":"lon-5","host":"lon-1.uk.uncletopia.com","port":27055,"enabled":true,"region":"eu","cc":"gb","latitude":51.509865,"longitude":-0.118092,"reserved":0,"last_update":"0001-01-01T00:00:00Z","name_a2s":"Uncletopia | London | 5 | All Maps","protocol":17,"map":"koth_lakeside_final","folder":"tf","game":"Team Fortress","app_id":440,"player_count":0,"max_players":24,"Bots":0,"server_type":"Dedicated","server_os":"Linux","password":true,"vac":true,"version":"7961495","steam_id":85568392924742829,"keywords":["cp","nocrits","nodmgspread","uncletopia"],"game_id":440,"stv_port":27056,"stv_name":"Uncletopia | London | 5 | All Maps | STV","players":null},{"server_id":22,"name":"Uncletopia | London | 6 | All Maps","name_short":"lon-6","host":"lon-1.uk.uncletopia.com","port":27065,"enabled":true,"region":"eu","cc":"gb","latitude":51.509865,"longitude":-0.118092,"reserved":0,"last_update":"0001-01-01T00:00:00Z","name_a2s":"Uncletopia | London | 6 | All Maps","protocol":17,"map":"pl_badwater","folder":"tf","game":"Team Fortress","app_id":440,"player_count":24,"max_players":24,"Bots":0,"server_type":"Dedicated","server_os":"Linux","password":true,"vac":true,"version":"7961495","steam_id":85568392924742830,"keywords":["nocrits","nodmgspread","payload","uncletopia"],"game_id":440,"stv_port":27066,"stv_name":"Uncletopia | London | 6 | All Maps | STV","players":[{"user_id":668,"name":"H341","steam_id":76561198046754534,"connected_time":1398000000000,"state":"active","ping":85},{"user_id":672,"name":"padillacampos","steam_id":76561198161923970,"connected_time":1356000000000,"state":"active","ping":86},{"user_id":659,"name":"Parky","steam_id":76561198013803623,"connected_time":2407000000000,"state":"active","ping":35},{"user_id":673,"name":"IndigoJones","steam_id":76561198050284262,"connected_time":1336000000000,"state":"active","ping":48},{"user_id":669,"name":"I'm using Tilt Controls.","steam_id":76561198077864552,"connected_time":1396000000000,"state":"active","ping":35},{"user_id":697,"name":"Borat","steam_id":76561198122226417,"connected_time":298000000000,"state":"active","ping":44},{"user_id":696,"name":"Aster","steam_id":76561198448334921,"connected_time":510000000000,"state":"active","ping":55},{"user_id":656,"name":"kingcays","steam_id":76561198006963055,"connected_time":2963000000000,"state":"active","ping":76},{"user_id":675,"name":"PyBOP","steam_id":76561198039583834,"connected_time":1292000000000,"state":"active","ping":52},{"user_id":658,"name":"nug","steam_id":76561198055396568,"connected_time":2803000000000,"state":"active","ping":51},{"user_id":657,"name":"A Featherless Biped","steam_id":76561198307904901,"connected_time":2916000000000,"state":"active","ping":42},{"user_id":701,"name":"MANOLO PRIME","steam_id":76561198149152939,"connected_time":2000000000,"state":"spawning","ping":65},{"user_id":670,"name":"Dan Dan the Furious","steam_id":76561198091032527,"connected_time":1393000000000,"state":"active","ping":52},{"user_id":639,"name":"Egor Pomidor","steam_id":76561199175688390,"connected_time":3934000000000,"state":"active","ping":89},{"user_id":698,"name":"Morkus","steam_id":76561199134560302,"connected_time":286000000000,"state":"active","ping":82},{"user_id":686,"name":"CLAPPER","steam_id":76561199061808252,"connected_time":1028000000000,"state":"active","ping":57},{"user_id":700,"name":"👹POSTER alice","steam_id":76561198180361759,"connected_time":159000000000,"state":"active","ping":43},{"user_id":680,"name":"YouR dad","steam_id":76561198044013623,"connected_time":1211000000000,"state":"active","ping":144},{"user_id":655,"name":"Fat Pigeon","steam_id":76561198817940142,"connected_time":3245000000000,"state":"active","ping":52},{"user_id":653,"name":"Kestrel","steam_id":76561198144033005,"connected_time":3452000000000,"state":"active","ping":53},{"user_id":685,"name":"Gnomes","steam_id":76561198093510773,"connected_time":1067000000000,"state":"active","ping":54},{"user_id":664,"name":"Elsuedi","steam_id":76561198074722832,"connected_time":1461000000000,"state":"active","ping":60},{"user_id":683,"name":"Moose","steam_id":76561198061300061,"connected_time":1174000000000,"state":"active","ping":46},{"user_id":694,"name":"digilith","steam_id":76561199106966802,"connected_time":570000000000,"state":"active","ping":103}]},{"server_id":40,"name":"Uncletopia | London | 7 | Stopwatch","name_short":"lon-7","host":"lon-1.uk.uncletopia.com","port":27075,"enabled":true,"region":"eu","cc":"gb","latitude":51.509865,"longitude":-0.118092,"reserved":0,"last_update":"0001-01-01T00:00:00Z","name_a2s":"Uncletopia | London | 7 | Stopwatch","protocol":17,"map":"pl_upward","folder":"tf","game":"Team Fortress","app_id":440,"player_count":0,"max_players":24,"Bots":0,"server_type":"Dedicated","server_os":"Linux","password":true,"vac":true,"version":"7961495","steam_id":85568392924964314,"keywords":["nocrits","nodmgspread","payload","uncletopia"],"game_id":440,"stv_port":27076,"stv_name":"Uncletopia | London | 7 | Stopwatch | STV","players":null},{"server_id":41,"name":"Uncletopia | London | 8 | Community","name_short":"lon-8","host":"lon-1.uk.uncletopia.com","port":27085,"enabled":true,"region":"eu","cc":"gb","latitude":51.509865,"longitude":-0.118092,"reserved":0,"last_update":"0001-01-01T00:00:00Z","name_a2s":"Uncletopia | London | 8 | Community","protocol":17,"map":"workshop/koth_bagel_rc6.ugc2514036946","folder":"tf","game":"Team Fortress","app_id":440,"player_count":0,"max_players":24,"Bots":0,"server_type":"Dedicated","server_os":"Linux","password":true,"vac":true,"version":"7961495","steam_id":85568392924964315,"keywords":["cp","nocrits","nodmgspread","uncletopia"],"game_id":440,"stv_port":27086,"stv_name":"Uncletopia | London | 8 | Community | STV","players":null},{"server_id":300,"name":"Uncletopia | Montréal | 1 | One Thousand Uncles","name_short":"mtl-1","host":"mtl-1.ca.uncletopia.com","port":27015,"enabled":true,"region":"us-east","cc":"ca","latitude":45.50889,"longitude":-73.56167,"reserved":0,"last_update":"0001-01-01T00:00:00Z","name_a2s":"","protocol":0,"map":"","folder":"","game":"","app_id":0,"player_count":2,"max_players":0,"Bots":0,"server_type":"","server_os":"","password":false,"vac":false,"version":"","steam_id":0,"keywords":null,"game_id":0,"stv_port":0,"stv_name":"","players":[{"user_id":74,"name":"Kibeka the Weird","steam_id":76561198116534133,"connected_time":488000000000,"state":"active","ping":55},{"user_id":139,"name":"Jeb_error","steam_id":76561199260090417,"connected_time":164000000000,"state":"active","ping":104}]},{"server_id":301,"name":"Uncletopia | Montréal | 2 | One Thousand Uncles","name_short":"mtl-2","host":"mtl-1.ca.uncletopia.com","port":27025,"enabled":true,"region":"us-east","cc":"ca","latitude":45.50889,"longitude":-73.56167,"reserved":0,"last_update":"0001-01-01T00:00:00Z","name_a2s":"","protocol":0,"map":"","folder":"","game":"","app_id":0,"player_count":0,"max_players":0,"Bots":0,"server_type":"","server_os":"","password":false,"vac":false,"version":"","steam_id":0,"keywords":null,"game_id":0,"stv_port":0,"stv_name":"","players":null},{"server_id":302,"name":"Uncletopia | Montréal | 3 | One Thousand Uncles","name_short":"mtl-3","host":"mtl-1.ca.uncletopia.com","port":27035,"enabled":true,"region":"us-east","cc":"ca","latitude":45.50889,"longitude":-73.56167,"reserved":0,"last_update":"0001-01-01T00:00:00Z","name_a2s":"","protocol":0,"map":"","folder":"","game":"","app_id":0,"player_count":0,"max_players":0,"Bots":0,"server_type":"","server_os":"","password":false,"vac":false,"version":"","steam_id":0,"keywords":null,"game_id":0,"stv_port":0,"stv_name":"","players":null},{"server_id":13,"name":"Uncletopia | New York City | 1 | All Maps","name_short":"nyc-1","host":"nyc-1.us.uncletopia.com","port":27015,"enabled":true,"region":"us-east","cc":"us","latitude":40.73061,"longitude":-73.93524,"reserved":0,"last_update":"0001-01-01T00:00:00Z","name_a2s":"Uncletopia | New York City | 1 | All Maps","protocol":17,"map":"pl_barnblitz","folder":"tf","game":"Team Fortress","app_id":440,"player_count":22,"max_players":24,"Bots":0,"server_type":"Dedicated","server_os":"Linux","password":true,"vac":true,"version":"7961495","steam_id":85568392924469993,"keywords":["nocrits","nodmgspread","payload","uncletopia"],"game_id":440,"stv_port":27016,"stv_name":"Uncletopia | New York City | 1 | All Maps | STV","players":[{"user_id":86,"name":"Spoon ½","steam_id":76561198032696548,"connected_time":2732000000000,"state":"active","ping":142},{"user_id":117,"name":"FAKE TAXI PRANKS","steam_id":76561198136746987,"connected_time":47000000000,"state":"active","ping":79},{"user_id":95,"name":"Gerrard Johnson","steam_id":76561199499906561,"connected_time":2204000000000,"state":"spawning","ping":19},{"user_id":88,"name":"DaveAtDublin","steam_id":76561198162386715,"connected_time":2650000000000,"state":"active","ping":59},{"user_id":103,"name":"saurhead","steam_id":76561198132937722,"connected_time":813000000000,"state":"active","ping":45},{"user_id":75,"name":"taigaxx","steam_id":76561198202669250,"connected_time":3474000000000,"state":"active","ping":75},{"user_id":113,"name":"Marzz","steam_id":76561198059034982,"connected_time":406000000000,"state":"active","ping":54},{"user_id":105,"name":"NYC APPA YIP YIP","steam_id":76561198112929942,"connected_time":805000000000,"state":"active","ping":57},{"user_id":104,"name":"cyberas","steam_id":76561198257092290,"connected_time":812000000000,"state":"active","ping":74},{"user_id":108,"name":"EmeraldMoth","steam_id":76561198153816586,"connected_time":725000000000,"state":"active","ping":97},{"user_id":92,"name":"Ziath","steam_id":76561198094009164,"connected_time":2579000000000,"state":"active","ping":45},{"user_id":106,"name":"Jonny4Balls","steam_id":76561198979333994,"connected_time":805000000000,"state":"active","ping":69},{"user_id":109,"name":"bajookieland patriot","steam_id":76561198994524569,"connected_time":703000000000,"state":"active","ping":65},{"user_id":114,"name":"Forced2Wipe","steam_id":76561198170390298,"connected_time":390000000000,"state":"active","ping":93},{"user_id":82,"name":"Child Obesity","steam_id":76561198099263425,"connected_time":2795000000000,"state":"active","ping":55},{"user_id":100,"name":"チェンソーマンが好き!","steam_id":76561199123152847,"connected_time":1338000000000,"state":"active","ping":75},{"user_id":85,"name":"REZ","steam_id":76561198071088274,"connected_time":2740000000000,"state":"active","ping":165},{"user_id":115,"name":"CreeperCatBengal","steam_id":76561198213193221,"connected_time":376000000000,"state":"active","ping":66},{"user_id":98,"name":"The Cavalry Is Almost Here","steam_id":76561198044856349,"connected_time":1530000000000,"state":"active","ping":75},{"user_id":111,"name":"4Lukaska","steam_id":76561198083515060,"connected_time":486000000000,"state":"active","ping":33},{"user_id":102,"name":"veemo","steam_id":76561198321393225,"connected_time":832000000000,"state":"active","ping":146},{"user_id":116,"name":"KZ","steam_id":76561198306669868,"connected_time":319000000000,"state":"active","ping":42}]},{"server_id":14,"name":"Uncletopia | New York City | 2 | All Maps","name_short":"nyc-2","host":"nyc-1.us.uncletopia.com","port":27025,"enabled":true,"region":"us-east","cc":"us","latitude":40.73061,"longitude":-73.93524,"reserved":0,"last_update":"0001-01-01T00:00:00Z","name_a2s":"Uncletopia | New York City | 2 | All Maps","protocol":17,"map":"cp_sunshine","folder":"tf","game":"Team Fortress","app_id":440,"player_count":7,"max_players":24,"Bots":0,"server_type":"Dedicated","server_os":"Linux","password":true,"vac":true,"version":"7961495","steam_id":85568392924469994,"keywords":["cp","nocrits","nodmgspread","uncletopia"],"game_id":440,"stv_port":27026,"stv_name":"Uncletopia | New York City | 2 | All Maps | STV","players":[{"user_id":15,"name":"Typh","steam_id":76561198315344079,"connected_time":1069000000000,"state":"active","ping":73},{"user_id":16,"name":"TheSmolPopato","steam_id":76561199076606348,"connected_time":803000000000,"state":"active","ping":76},{"user_id":18,"name":"A Giant Girl Scout","steam_id":76561199160429755,"connected_time":491000000000,"state":"active","ping":72},{"user_id":19,"name":"the pest","steam_id":76561198826298849,"connected_time":393000000000,"state":"active","ping":164},{"user_id":20,"name":"Fish","steam_id":76561199258053772,"connected_time":259000000000,"state":"active","ping":68},{"user_id":22,"name":"LeadLepisma","steam_id":76561198386057151,"connected_time":181000000000,"state":"active","ping":95},{"user_id":23,"name":"Gaminglast","steam_id":76561198362927765,"connected_time":164000000000,"state":"active","ping":120}]},{"server_id":15,"name":"Uncletopia | New York City | 3 | Stopwatch","name_short":"nyc-3","host":"nyc-1.us.uncletopia.com","port":27035,"enabled":true,"region":"us-east","cc":"us","latitude":40.73061,"longitude":-73.93524,"reserved":0,"last_update":"0001-01-01T00:00:00Z","name_a2s":"Uncletopia | New York City | 3 | Stopwatch","protocol":17,"map":"koth_lakeside_final","folder":"tf","game":"Team Fortress","app_id":440,"player_count":0,"max_players":24,"Bots":0,"server_type":"Dedicated","server_os":"Linux","password":true,"vac":true,"version":"7961495","steam_id":85568392924742820,"keywords":["cp","nocrits","nodmgspread","uncletopia"],"game_id":440,"stv_port":27036,"stv_name":"Uncletopia | New York City | 3 | Stopwatch | STV","players":null},{"server_id":16,"name":"Uncletopia | New York City | 4 | Community","name_short":"nyc-4","host":"nyc-1.us.uncletopia.com","port":27045,"enabled":true,"region":"us-east","cc":"us","latitude":40.73061,"longitude":-73.93524,"reserved":0,"last_update":"0001-01-01T00:00:00Z","name_a2s":"Uncletopia | New York City | 4 | Community","protocol":17,"map":"workshop/koth_trenchfoot_b1a.ugc731436616","folder":"tf","game":"Team Fortress","app_id":440,"player_count":0,"max_players":24,"Bots":0,"server_type":"Dedicated","server_os":"Linux","password":true,"vac":true,"version":"7961495","steam_id":85568392924742821,"keywords":["cp","nocrits","nodmgspread","uncletopia"],"game_id":440,"stv_port":27046,"stv_name":"Uncletopia | New York City | 4 | Community | STV","players":null},{"server_id":142,"name":"Uncletopia | São Paulo | 1 | All Maps","name_short":"sao-1","host":"sao-1.br.uncletopia.com","port":27015,"enabled":true,"region":"sa","cc":"br","latitude":-23.533773,"longitude":-46.62529,"reserved":0,"last_update":"0001-01-01T00:00:00Z","name_a2s":"Uncletopia | São Paulo | 1 | All Maps","protocol":17,"map":"koth_viaduct","folder":"tf","game":"Team Fortress","app_id":440,"player_count":2,"max_players":24,"Bots":0,"server_type":"Dedicated","server_os":"Linux","password":true,"vac":true,"version":"7961495","steam_id":85568392924469996,"keywords":["cp","nocrits","nodmgspread","uncletopia"],"game_id":440,"stv_port":27016,"stv_name":"Uncletopia | São Paulo | 1 | All Maps | STV","players":[{"user_id":5,"name":"Darkno","steam_id":76561199219302058,"connected_time":449000000000,"state":"active","ping":83},{"user_id":4,"name":"TrapNaoG4y","steam_id":76561199222936278,"connected_time":575000000000,"state":"active","ping":61}]},{"server_id":143,"name":"Uncletopia | São Paulo | 2 | Community","name_short":"sao-2","host":"sao-2.br.uncletopia.com","port":27015,"enabled":true,"region":"sa","cc":"br","latitude":-23.533773,"longitude":-46.62529,"reserved":0,"last_update":"0001-01-01T00:00:00Z","name_a2s":"Uncletopia | São Paulo | 2 | Community","protocol":17,"map":"pl_badwater","folder":"tf","game":"Team Fortress","app_id":440,"player_count":0,"max_players":24,"Bots":0,"server_type":"Dedicated","server_os":"Linux","password":true,"vac":true,"version":"7961495","steam_id":85568392924485349,"keywords":["nocrits","nodmgspread","payload","uncletopia"],"game_id":440,"stv_port":27016,"stv_name":"Uncletopia | São Paulo | 2 | Community | STV","players":null},{"server_id":7,"name":"Uncletopia | Seattle | 1 | All Maps","name_short":"sea-1","host":"sea-1.us.uncletopia.com","port":27015,"enabled":true,"region":"us-west","cc":"us","latitude":47.608013,"longitude":-122.33517,"reserved":0,"last_update":"0001-01-01T00:00:00Z","name_a2s":"Uncletopia | Seattle | 1 | All Maps","protocol":17,"map":"pl_badwater","folder":"tf","game":"Team Fortress","app_id":440,"player_count":21,"max_players":24,"Bots":0,"server_type":"Dedicated","server_os":"Linux","password":true,"vac":true,"version":"7961495","steam_id":85568392924469997,"keywords":["nocrits","nodmgspread","payload","uncletopia"],"game_id":440,"stv_port":27016,"stv_name":"Uncletopia | Seattle | 1 | All Maps | STV","players":[{"user_id":288,"name":"Hoovy","steam_id":76561198409907417,"connected_time":1158000000000,"state":"active","ping":80},{"user_id":258,"name":"you just got dyked on","steam_id":76561198018977723,"connected_time":3896000000000,"state":"active","ping":48},{"user_id":276,"name":"2 Point Tom","steam_id":76561198087617008,"connected_time":2563000000000,"state":"active","ping":45},{"user_id":257,"name":"my monitor is off","steam_id":76561198074499537,"connected_time":4031000000000,"state":"active","ping":67},{"user_id":291,"name":"Seriously Bruh","steam_id":76561198070408485,"connected_time":446000000000,"state":"active","ping":47},{"user_id":292,"name":"squart guy","steam_id":76561199411560141,"connected_time":444000000000,"state":"active","ping":38},{"user_id":290,"name":"Sudsen","steam_id":76561198370603787,"connected_time":450000000000,"state":"active","ping":68},{"user_id":280,"name":"allahsdroptop","steam_id":76561198133195238,"connected_time":2046000000000,"state":"active","ping":59},{"user_id":295,"name":"MrQuack","steam_id":76561198873049714,"connected_time":368000000000,"state":"active","ping":70},{"user_id":260,"name":"Daz","steam_id":76561198041431938,"connected_time":3800000000000,"state":"active","ping":49},{"user_id":297,"name":"P.C. Baby","steam_id":76561198067011379,"connected_time":263000000000,"state":"active","ping":60},{"user_id":293,"name":"MrYadaization","steam_id":76561198050770818,"connected_time":425000000000,"state":"active","ping":45},{"user_id":283,"name":"HotHead","steam_id":76561198138468982,"connected_time":1751000000000,"state":"active","ping":33},{"user_id":286,"name":"XxDragon4321xX","steam_id":76561198046705735,"connected_time":1432000000000,"state":"active","ping":81},{"user_id":273,"name":"SeeNik","steam_id":76561198149499817,"connected_time":2623000000000,"state":"active","ping":87},{"user_id":248,"name":"Seanvich","steam_id":76561198065805500,"connected_time":4686000000000,"state":"active","ping":120},{"user_id":264,"name":"Firedust19","steam_id":76561198153238631,"connected_time":3351000000000,"state":"active","ping":90},{"user_id":299,"name":"Lawyer","steam_id":76561197974126447,"connected_time":89000000000,"state":"active","ping":91},{"user_id":284,"name":"Mr8bittripper","steam_id":76561198133894229,"connected_time":1637000000000,"state":"active","ping":44},{"user_id":294,"name":"Lili","steam_id":76561199488457138,"connected_time":425000000000,"state":"active","ping":49},{"user_id":255,"name":"UserLeft","steam_id":76561197998297379,"connected_time":4148000000000,"state":"active","ping":68}]},{"server_id":119,"name":"Uncletopia | Seattle | 2 | All Maps","name_short":"sea-2","host":"sea-1.us.uncletopia.com","port":27025,"enabled":true,"region":"us-west","cc":"us","latitude":47.608013,"longitude":-122.33517,"reserved":0,"last_update":"0001-01-01T00:00:00Z","name_a2s":"Uncletopia | Seattle | 2 | All Maps","protocol":17,"map":"koth_cascade","folder":"tf","game":"Team Fortress","app_id":440,"player_count":0,"max_players":24,"Bots":0,"server_type":"Dedicated","server_os":"Linux","password":true,"vac":true,"version":"7961495","steam_id":85568392924469998,"keywords":["cp","nocrits","nodmgspread","uncletopia"],"game_id":440,"stv_port":27026,"stv_name":"Uncletopia | Seattle | 2 | All Maps | STV","players":null},{"server_id":406,"name":"Uncletopia | Seattle | 3 | Stopwatch","name_short":"sea-3","host":"sea-1.us.uncletopia.com","port":27035,"enabled":true,"region":"us-west","cc":"us","latitude":47.608013,"longitude":-122.33517,"reserved":0,"last_update":"0001-01-01T00:00:00Z","name_a2s":"Uncletopia | Seattle | 3 | Stopwatch","protocol":17,"map":"pl_pier","folder":"tf","game":"Team Fortress","app_id":440,"player_count":0,"max_players":24,"Bots":0,"server_type":"Dedicated","server_os":"Linux","password":true,"vac":true,"version":"7961495","steam_id":85568392924515217,"keywords":["nocrits","nodmgspread","payload","uncletopia"],"game_id":440,"stv_port":27036,"stv_name":"Uncletopia | Seattle | 3 | Stopwatch | STV","players":null},{"server_id":17,"name":"Uncletopia | San Francisco | 1 | All Maps","name_short":"sfo-1","host":"sfo-1.us.uncletopia.com","port":27015,"enabled":true,"region":"us-west","cc":"us","latitude":37.77397,"longitude":-122.4313,"reserved":0,"last_update":"0001-01-01T00:00:00Z","name_a2s":"Uncletopia | San Francisco | 1 | All Maps","protocol":17,"map":"koth_cascade","folder":"tf","game":"Team Fortress","app_id":440,"player_count":0,"max_players":24,"Bots":0,"server_type":"Dedicated","server_os":"Linux","password":true,"vac":true,"version":"7961495","steam_id":85568392924469999,"keywords":["cp","nocrits","nodmgspread","uncletopia"],"game_id":440,"stv_port":27016,"stv_name":"Uncletopia | San Francisco | 1 | All Maps | STV","players":null},{"server_id":18,"name":"Uncletopia | San Francisco | 2 | All Maps","name_short":"sfo-2","host":"sfo-1.us.uncletopia.com","port":27025,"enabled":true,"region":"us-west","cc":"us","latitude":37.77397,"longitude":-122.4313,"reserved":0,"last_update":"0001-01-01T00:00:00Z","name_a2s":"Uncletopia | San Francisco | 2 | All Maps","protocol":17,"map":"pl_frontier_final","folder":"tf","game":"Team Fortress","app_id":440,"player_count":0,"max_players":24,"Bots":0,"server_type":"Dedicated","server_os":"Linux","password":true,"vac":true,"version":"7961495","steam_id":85568392924470000,"keywords":["nocrits","nodmgspread","payload","uncletopia"],"game_id":440,"stv_port":27026,"stv_name":"Uncletopia | San Francisco | 2 | All Maps | STV","players":null},{"server_id":19,"name":"Uncletopia | San Francisco | 3 | Stopwatch","name_short":"sfo-3","host":"sfo-1.us.uncletopia.com","port":27035,"enabled":true,"region":"us-west","cc":"us","latitude":37.77397,"longitude":-122.4313,"reserved":0,"last_update":"0001-01-01T00:00:00Z","name_a2s":"Uncletopia | San Francisco | 3 | Stopwatch","protocol":17,"map":"pl_pier","folder":"tf","game":"Team Fortress","app_id":440,"player_count":0,"max_players":24,"Bots":0,"server_type":"Dedicated","server_os":"Linux","password":true,"vac":true,"version":"7961495","steam_id":85568392924742824,"keywords":["nocrits","nodmgspread","payload","uncletopia"],"game_id":440,"stv_port":27036,"stv_name":"Uncletopia | San Francisco | 3 | Stopwatch | STV","players":null},{"server_id":20,"name":"Uncletopia | San Francisco | 4 | Community","name_short":"sfo-4","host":"sfo-1.us.uncletopia.com","port":27045,"enabled":true,"region":"us-west","cc":"us","latitude":37.77397,"longitude":-122.4313,"reserved":0,"last_update":"0001-01-01T00:00:00Z","name_a2s":"Uncletopia | San Francisco | 4 | Community","protocol":17,"map":"workshop/koth_product_final.ugc454272353","folder":"tf","game":"Team Fortress","app_id":440,"player_count":0,"max_players":24,"Bots":0,"server_type":"Dedicated","server_os":"Linux","password":true,"vac":true,"version":"7961495","steam_id":85568392924742826,"keywords":["cp","nocrits","nodmgspread","uncletopia"],"game_id":440,"stv_port":27046,"stv_name":"Uncletopia | San Francisco | 4 | Community | STV","players":null},{"server_id":141,"name":"Uncletopia | Sydney | 1 | All Maps","name_short":"syd-1","host":"syd-1.au.uncletopia.com","port":27015,"enabled":true,"region":"au","cc":"au","latitude":-33.865143,"longitude":151.2099,"reserved":0,"last_update":"0001-01-01T00:00:00Z","name_a2s":"Uncletopia | Sydney | 1 | All Maps","protocol":17,"map":"koth_highpass","folder":"tf","game":"Team Fortress","app_id":440,"player_count":0,"max_players":24,"Bots":0,"server_type":"Dedicated","server_os":"Linux","password":true,"vac":true,"version":"7961495","steam_id":85568392924470001,"keywords":["cp","nocrits","nodmgspread","uncletopia"],"game_id":440,"stv_port":27016,"stv_name":"Uncletopia | Sydney | 1 | All Maps | STV","players":null},{"server_id":123,"name":"Uncletopia | Sydney | 2 | All Maps","name_short":"syd-2","host":"syd-1.au.uncletopia.com","port":27025,"enabled":true,"region":"au","cc":"au","latitude":-33.865143,"longitude":151.2099,"reserved":0,"last_update":"0001-01-01T00:00:00Z","name_a2s":"Uncletopia | Sydney | 2 | All Maps","protocol":17,"map":"pl_badwater","folder":"tf","game":"Team Fortress","app_id":440,"player_count":0,"max_players":24,"Bots":0,"server_type":"Dedicated","server_os":"Linux","password":true,"vac":true,"version":"7961495","steam_id":85568392924470002,"keywords":["nocrits","nodmgspread","payload","uncletopia"],"game_id":440,"stv_port":27026,"stv_name":"Uncletopia | Sydney | 2 | All Maps | STV","players":null},{"server_id":395,"name":"Uncletopia | Sydney | 3 | All Maps","name_short":"syd-3","host":"syd-1.au.uncletopia.com","port":27035,"enabled":true,"region":"au","cc":"au","latitude":-33.865143,"longitude":151.2099,"reserved":0,"last_update":"0001-01-01T00:00:00Z","name_a2s":"Uncletopia | Sydney | 3 | All Maps","protocol":17,"map":"koth_viaduct","folder":"tf","game":"Team Fortress","app_id":440,"player_count":0,"max_players":24,"Bots":0,"server_type":"Dedicated","server_os":"Linux","password":true,"vac":true,"version":"7961495","steam_id":85568392925194467,"keywords":["cp","nocrits","nodmgspread","uncletopia"],"game_id":440,"stv_port":27036,"stv_name":"Uncletopia | Sydney | 3 | All Maps | STV","players":null},{"server_id":396,"name":"Uncletopia | Sydney | 4 | All Maps","name_short":"syd-4","host":"syd-1.au.uncletopia.com","port":27045,"enabled":true,"region":"au","cc":"au","latitude":-33.865143,"longitude":151.2099,"reserved":0,"last_update":"0001-01-01T00:00:00Z","name_a2s":"Uncletopia | Sydney | 4 | All Maps","protocol":17,"map":"koth_highpass","folder":"tf","game":"Team Fortress","app_id":440,"player_count":0,"max_players":24,"Bots":0,"server_type":"Dedicated","server_os":"Linux","password":true,"vac":true,"version":"7961495","steam_id":85568392925397958,"keywords":["cp","nocrits","nodmgspread","uncletopia"],"game_id":440,"stv_port":27046,"stv_name":"Uncletopia | Sydney | 4 | All Maps | STV","players":null},{"server_id":58,"name":"Uncletopia | Sydney | 5 | Stopwatch","name_short":"syd-5","host":"syd-1.au.uncletopia.com","port":27055,"enabled":true,"region":"au","cc":"au","latitude":-33.865143,"longitude":151.2099,"reserved":0,"last_update":"0001-01-01T00:00:00Z","name_a2s":"Uncletopia | Sydney | 5 | Stopwatch","protocol":17,"map":"pl_frontier_final","folder":"tf","game":"Team Fortress","app_id":440,"player_count":0,"max_players":24,"Bots":0,"server_type":"Dedicated","server_os":"Linux","password":true,"vac":true,"version":"7961495","steam_id":85568392925397959,"keywords":["nocrits","nodmgspread","payload","uncletopia"],"game_id":440,"stv_port":27056,"stv_name":"Uncletopia | Sydney | 5 | Stopwatch | STV","players":null},{"server_id":59,"name":"Uncletopia | Sydney | 6 | Community","name_short":"syd-6","host":"syd-1.au.uncletopia.com","port":27065,"enabled":true,"region":"au","cc":"au","latitude":-33.865143,"longitude":151.2099,"reserved":0,"last_update":"0001-01-01T00:00:00Z","name_a2s":"Uncletopia | Sydney | 6 | Community","protocol":17,"map":"workshop/koth_bagel_rc6.ugc2514036946","folder":"tf","game":"Team Fortress","app_id":440,"player_count":0,"max_players":24,"Bots":0,"server_type":"Dedicated","server_os":"Linux","password":true,"vac":true,"version":"7961495","steam_id":85568392925397960,"keywords":["cp","nocrits","nodmgspread","uncletopia"],"game_id":440,"stv_port":27066,"stv_name":"Uncletopia | Sydney | 6 | Community | STV","players":null},{"server_id":49,"name":"Uncletopia | Warsaw | 1 | One Thousand Uncles","name_short":"waw-1","host":"waw-1.pl.uncletopia.com","port":27015,"enabled":true,"region":"eu","cc":"pl","latitude":52.2297,"longitude":21.017532,"reserved":0,"last_update":"0001-01-01T00:00:00Z","name_a2s":"Uncletopia | Warsaw | 1 | One Thousand Uncles","protocol":17,"map":"pl_badwater","folder":"tf","game":"Team Fortress","app_id":440,"player_count":25,"max_players":32,"Bots":16,"server_type":"Dedicated","server_os":"Linux","password":true,"vac":true,"version":"7961495","steam_id":85568392925397850,"keywords":["alltalk","bots","danepve","increased_maxplayers","nocrits","norespawntime","payload","uncletopia"],"game_id":440,"stv_port":0,"stv_name":"","players":[{"user_id":95,"name":"Dj_Bear","steam_id":76561198149865187,"connected_time":2381000000000,"state":"active","ping":37},{"user_id":103,"name":"Joe weak","steam_id":76561198123988931,"connected_time":1707000000000,"state":"active","ping":79},{"user_id":77,"name":"Max Power","steam_id":76561198019269089,"connected_time":2652000000000,"state":"active","ping":60},{"user_id":78,"name":"GeraldyJones65","steam_id":76561199122297098,"connected_time":2591000000000,"state":"active","ping":144},{"user_id":104,"name":"Peter Pammpim","steam_id":76561199103785290,"connected_time":1396000000000,"state":"active","ping":58},{"user_id":108,"name":"limbicsystem","steam_id":76561198025612680,"connected_time":1093000000000,"state":"active","ping":80},{"user_id":112,"name":"hisham","steam_id":76561198414437290,"connected_time":950000000000,"state":"active","ping":116},{"user_id":113,"name":"Hooty","steam_id":76561198365932023,"connected_time":943000000000,"state":"active","ping":63},{"user_id":122,"name":"✪ g0lddyseq","steam_id":76561198321888235,"connected_time":397000000000,"state":"active","ping":53}]},{"server_id":50,"name":"Uncletopia | Warsaw | 2 | One Thousand Uncles","name_short":"waw-2","host":"waw-1.pl.uncletopia.com","port":27025,"enabled":true,"region":"eu","cc":"pl","latitude":52.2297,"longitude":21.017532,"reserved":0,"last_update":"0001-01-01T00:00:00Z","name_a2s":"Uncletopia | Warsaw | 2 | One Thousand Uncles","protocol":17,"map":"cp_dustbowl","folder":"tf","game":"Team Fortress","app_id":440,"player_count":21,"max_players":32,"Bots":16,"server_type":"Dedicated","server_os":"Linux","password":true,"vac":true,"version":"7961495","steam_id":85568392925397851,"keywords":["alltalk","bots","cp","danepve","increased_maxplayers","nocrits","norespawntime","uncletopia"],"game_id":440,"stv_port":0,"stv_name":"","players":[{"user_id":199,"name":"just a person","steam_id":76561198340369454,"connected_time":2654000000000,"state":"active","ping":41},{"user_id":121,"name":"Samuel L. Jackson","steam_id":76561198130427881,"connected_time":6693000000000,"state":"active","ping":179},{"user_id":138,"name":"Lukas","steam_id":76561198009118452,"connected_time":4168000000000,"state":"active","ping":47},{"user_id":206,"name":"Egtu","steam_id":76561198013757235,"connected_time":1398000000000,"state":"active","ping":45},{"user_id":208,"name":"nobleevolved","steam_id":76561199240626135,"connected_time":1072000000000,"state":"active","ping":69}]},{"server_id":51,"name":"Uncletopia | Warsaw | 3 | All Maps","name_short":"waw-3","host":"waw-1.pl.uncletopia.com","port":27035,"enabled":true,"region":"eu","cc":"pl","latitude":52.2297,"longitude":21.017532,"reserved":0,"last_update":"0001-01-01T00:00:00Z","name_a2s":"Uncletopia | Warsaw | 3 | All Maps","protocol":17,"map":"koth_viaduct","folder":"tf","game":"Team Fortress","app_id":440,"player_count":0,"max_players":24,"Bots":0,"server_type":"Dedicated","server_os":"Linux","password":true,"vac":true,"version":"7961495","steam_id":85568392925397852,"keywords":["cp","nocrits","nodmgspread","uncletopia"],"game_id":440,"stv_port":27036,"stv_name":"Uncletopia | Warsaw | 3 | All Maps | STV","players":null},{"server_id":52,"name":"Uncletopia | Warsaw | 4 | All Maps","name_short":"waw-4","host":"waw-1.pl.uncletopia.com","port":27045,"enabled":true,"region":"eu","cc":"pl","latitude":52.2297,"longitude":21.017532,"reserved":0,"last_update":"0001-01-01T00:00:00Z","name_a2s":"Uncletopia | Warsaw | 4 | All Maps","protocol":17,"map":"koth_highpass","folder":"tf","game":"Team Fortress","app_id":440,"player_count":0,"max_players":24,"Bots":0,"server_type":"Dedicated","server_os":"Linux","password":true,"vac":true,"version":"7961495","steam_id":85568392925397853,"keywords":["cp","nocrits","nodmgspread","uncletopia"],"game_id":440,"stv_port":27046,"stv_name":"Uncletopia | Warsaw | 4 | All Maps | STV","players":null},{"server_id":53,"name":"Uncletopia | Warsaw | 5 | Stopwatch","name_short":"waw-5","host":"waw-1.pl.uncletopia.com","port":27055,"enabled":true,"region":"eu","cc":"pl","latitude":52.2297,"longitude":21.017532,"reserved":0,"last_update":"0001-01-01T00:00:00Z","name_a2s":"Uncletopia | Warsaw | 5 | Stopwatch","protocol":17,"map":"koth_highpass","folder":"tf","game":"Team Fortress","app_id":440,"player_count":0,"max_players":24,"Bots":0,"server_type":"Dedicated","server_os":"Linux","password":true,"vac":true,"version":"7961495","steam_id":85568392925397854,"keywords":["cp","nocrits","nodmgspread","uncletopia"],"game_id":440,"stv_port":27056,"stv_name":"Uncletopia | Warsaw | 5 | Stopwatch | STV","players":null},{"server_id":54,"name":"Uncletopia | Warsaw | 6 | Community","name_short":"waw-6","host":"waw-1.pl.uncletopia.com","port":27065,"enabled":true,"region":"eu","cc":"pl","latitude":52.2297,"longitude":21.017532,"reserved":0,"last_update":"0001-01-01T00:00:00Z","name_a2s":"Uncletopia | Warsaw | 6 | Community","protocol":17,"map":"workshop/koth_synthetic_rc6a.ugc1549817316","folder":"tf","game":"Team Fortress","app_id":440,"player_count":0,"max_players":24,"Bots":0,"server_type":"Dedicated","server_os":"Linux","password":true,"vac":true,"version":"7961495","steam_id":85568392925397856,"keywords":["cp","nocrits","nodmgspread","uncletopia"],"game_id":440,"stv_port":27066,"stv_name":"Uncletopia | Warsaw | 6 | Community | STV","players":null}]}