{"status":true,"message":"","result":[{"server_id":9,"name":"Uncletopia | Atlanta | 1 | All Maps","name_short":"atl-1","host":"atl-1.us.uncletopia.com","port":27015,"enabled":true,"region":"us-east","cc":"us","latitude":33.753746,"longitude":-84.38633,"reserved":0,"last_update":"0001-01-01T00:00:00Z","name_a2s":"Uncletopia | Atlanta | 1 | All Maps","protocol":17,"map":"pl_snowycoast","folder":"tf","game":"Team Fortress","app_id":440,"player_count":24,"max_players":24,"Bots":0,"server_type":"Dedicated","server_os":"Linux","password":true,"vac":true,"version":"7695204","steam_id":85568392924469982,"keywords":["nocrits","nodmgspread","payload","uncletopia"],"game_id":440,"stv_port":27016,"stv_name":"Uncletopia | Atlanta | 1 | All Maps | STV","players":[{"user_id":621,"name":"lker","steam_id":76561197976975075,"connected_time":1762000000000,"state":"active","ping":42},{"user_id":622,"name":"Shadow Fox","steam_id":76561197993585706,"connected_time":1376000000000,"state":"active","ping":89},{"user_id":623,"name":"Blue Eyes Ace Dragon.","steam_id":76561198048214237,"connected_time":1361000000000,"state":"active","ping":69},{"user_id":571,"name":"santa mommy","steam_id":76561199230929836,"connected_time":6491000000000,"state":"active","ping":85},{"user_id":599,"name":"mike","steam_id":76561198099412571,"connected_time":4072000000000,"state":"active","ping":73},{"user_id":587,"name":"gAzel.","steam_id":76561198093667100,"connected_time":5707000000000,"state":"active","ping":64},{"user_id":634,"name":"Yeshie the Dragon Layer","steam_id":76561198080214214,"connected_time":505000000000,"state":"active","ping":62},{"user_id":626,"name":"ryqset","steam_id":76561198349299874,"connected_time":1265000000000,"state":"active","ping":128},{"user_id":619,"name":"Jin but white","steam_id":76561198119873148,"connected_time":2229000000000,"state":"active","ping":94},{"user_id":627,"name":"RelativeToZero","steam_id":76561198175875733,"connected_time":1251000000000,"state":"active","ping":100},{"user_id":611,"name":"Temina","steam_id":76561198978778718,"connected_time":2932000000000,"state":"active","ping":131},{"user_id":635,"name":"XD","steam_id":76561198101393625,"connected_time":475000000000,"state":"active","ping":65},{"user_id":580,"name":"joe lft","steam_id":76561198045781320,"connected_time":6145000000000,"state":"active","ping":89},{"user_id":585,"name":"harry gooch","steam_id":76561198024817457,"connected_time":5989000000000,"state":"active","ping":65},{"user_id":512,"name":"ATL1 | eish","steam_id":76561198089463603,"connected_time":9349000000000,"state":"active","ping":108},{"user_id":597,"name":"faxxy","steam_id":76561198079621240,"connected_time":4261000000000,"state":"active","ping":108},{"user_id":636,"name":"Psychosis","steam_id":76561198078659070,"connected_time":467000000000,"state":"active","ping":95},{"user_id":629,"name":"Jolt","steam_id":76561198168669087,"connected_time":1229000000000,"state":"active","ping":56},{"user_id":637,"name":"Vulpes","steam_id":76561198038929334,"connected_time":364000000000,"state":"active","ping":60},{"user_id":601,"name":"ATL1 | Crystron","steam_id":76561198880437428,"connected_time":4020000000000,"state":"active","ping":75},{"user_id":618,"name":"I\u003c3 DUSTBOWL STEEL AND VANGUARD","steam_id":76561198333513882,"connected_time":2248000000000,"state":"active","ping":74},{"user_id":630,"name":"Nuke China","steam_id":76561198097169690,"connected_time":1154000000000,"state":"active","ping":56},{"user_id":631,"name":"Sprinklingmydoughnut","steam_id":76561198168009092,"connected_time":1124000000000,"state":"active","ping":96},{"user_id":632,"name":"jacix3 [gay wolfgirl]{she/it}","steam_id":76561198205004165,"connected_time":1068000000000,"state":"active","ping":117}]},{"server_id":400,"name":"Uncletopia | Atlanta | 3 | All Maps","name_short":"atl-3","host":"atl-1.us.uncletopia.com","port":27035,"enabled":true,"region":"us-east","cc":"us","latitude":33.753746,"longitude":-84.38633,"reserved":0,"last_update":"0001-01-01T00:00:00Z","name_a2s":"Uncletopia | Atlanta | 3 | All Maps","protocol":17,"map":"koth_highpass","folder":"tf","game":"Team Fortress","app_id":440,"player_count":0,"max_players":24,"Bots":0,"server_type":"Dedicated","server_os":"Linux","password":true,"vac":true,"version":"7695204","steam_id":85568392924515187,"keywords":["cp","nocrits","nodmgspread","uncletopia"],"game_id":440,"stv_port":27036,"stv_name":"Uncletopia | Atlanta | 3 | All Maps | STV","players":null},{"server_id":401,"name":"Uncletopia | Atlanta | 4 | No Payload","name_short":"atl-4","host":"atl-1.us.uncletopia.com","port":27045,"enabled":true,"region":"us-east","cc":"us","latitude":33.753746,"longitude":-84.38633,"reserved":0,"last_update":"0001-01-01T00:00:00Z","name_a2s":"Uncletopia | Atlanta | 4 | No Payload","protocol":17,"map":"plr_pipeline","folder":"tf","game":"Team Fortress","app_id":440,"player_count":0,"max_players":24,"Bots":0,"server_type":"Dedicated","server_os":"Linux","password":true,"vac":true,"version":"7695204","steam_id":85568392924515188,"keywords":["nocrits","nodmgspread","payload","uncletopia"],"game_id":440,"stv_port":27046,"stv_name":"Uncletopia | Atlanta | 4 | No Payload | STV","players":null},{"server_id":2,"name":"Uncletopia | Chicago | 1 | All Maps","name_short":"chi-1","host":"chi-1.us.uncletopia.com","port":27015,"enabled":true,"region":"us-central","cc":"us","latitude":41.881832,"longitude":-87.62318,"reserved":0,"last_update":"0001-01-01T00:00:00Z","name_a2s":"Uncletopia | Chicago | 1 | All Maps","protocol":17,"map":"cp_process_final","folder":"tf","game":"Team Fortress","app_id":440,"player_count":1,"max_players":24,"Bots":0,"server_type":"Dedicated","server_os":"Linux","password":true,"vac":true,"version":"7695204","steam_id":85568392924469984,"keywords":["cp","nocrits","nodmgspread","uncletopia"],"game_id":440,"stv_port":27016,"stv_name":"Uncletopia | Chicago | 1 | All Maps | STV","players":[{"user_id":890,"name":"√íw√ì","steam_id":76561197997304387,"connected_time":9000000000,"state":"spawning","ping":65}]},{"server_id":106,"name":"Uncletopia | Chicago | 2 | All Maps","name_short":"chi-2","host":"chi-1.us.uncletopia.com","port":27025,"enabled":true,"region":"us-central","cc":"us","latitude":41.881832,"longitude":-87.62318,"reserved":0,"last_update":"0001-01-01T00:00:00Z","name_a2s":"Uncletopia | Chicago | 2 | All Maps","protocol":17,"map":"pl_frontier_final","folder":"tf","game":"Team Fortress","app_id":440,"player_count":23,"max_players":24,"Bots":0,"server_type":"Dedicated","server_os":"Linux","password":true,"vac":true,"version":"7695204","steam_id":85568392924469985,"keywords":["nocrits","nodmgspread","payload","uncletopia"],"game_id":440,"stv_port":27026,"stv_name":"Uncletopia | Chicago | 2 | All Maps | STV","players":[{"user_id":741,"name":"Turbocat","steam_id":76561198145431353,"connected_time":2895000000000,"state":"active","ping":56},{"user_id":746,"name":"gourmet salad","steam_id":76561198173128765,"connected_time":2410000000000,"state":"active","ping":54},{"user_id":748,"name":"GusyPls","steam_id":76561198058423925,"connected_time":2239000000000,"state":"active","ping":62},{"user_id":765,"name":"uu","steam_id":76561197994492154,"connected_time":817000000000,"state":"active","ping":166},{"user_id":697,"name":"ShinyOrion (She/Her)","steam_id":76561198408378321,"connected_time":6689000000000,"state":"active","ping":74},{"user_id":767,"name":"WONDER.","steam_id":76561198092527854,"connected_time":680000000000,"state":"active","ping":106},{"user_id":759,"name":"Candy Sparkles","steam_id":76561198126871264,"connected_time":1544000000000,"state":"active","ping":81},{"user_id":756,"name":"Mommy Cloud Audios Gaming","steam_id":76561198880304614,"connected_time":1779000000000,"state":"active","ping":62},{"user_id":738,"name":"Gammaplex","steam_id":76561198981228176,"connected_time":3248000000000,"state":"active","ping":54},{"user_id":764,"name":"festivities","steam_id":76561198069407799,"connected_time":945000000000,"state":"active","ping":73},{"user_id":665,"name":"Bobato Chaps","steam_id":76561198065103552,"connected_time":8918000000000,"state":"active","ping":63},{"user_id":773,"name":"debin","steam_id":76561198070711217,"connected_time":106000000000,"state":"active","ping":51},{"user_id":721,"name":"NyanHorses","steam_id":76561198161584966,"connected_time":4825000000000,"state":"active","ping":65},{"user_id":763,"name":"Plasic74x","steam_id":76561199058981206,"connected_time":956000000000,"state":"active","ping":74},{"user_id":761,"name":"Future Gohan's Missing Arm","steam_id":76561198065614782,"connected_time":1310000000000,"state":"active","ping":59},{"user_id":706,"name":"The 40oz Prophet","steam_id":76561198028799975,"connected_time":5895000000000,"state":"active","ping":96},{"user_id":749,"name":"MFB","steam_id":76561198170923095,"connected_time":2037000000000,"state":"active","ping":66},{"user_id":739,"name":"MEDIC!","steam_id":76561198149344029,"connected_time":3174000000000,"state":"active","ping":76},{"user_id":771,"name":"Û†Ä°Û†Ä°","steam_id":76561199169154431,"connected_time":552000000000,"state":"active","ping":161},{"user_id":772,"name":"Verathragna","steam_id":76561198067215453,"connected_time":111000000000,"state":"active","ping":64},{"user_id":755,"name":"Monkey","steam_id":76561198031015186,"connected_time":1903000000000,"state":"active","ping":74},{"user_id":762,"name":"Colin102004","steam_id":76561198202384334,"connected_time":1246000000000,"state":"active","ping":48},{"user_id":750,"name":"Razorback = No heal","steam_id":76561198207987376,"connected_time":2037000000000,"state":"active","ping":50}]},{"server_id":402,"name":"Uncletopia | Chicago | 3 | All Maps","name_short":"chi-3","host":"chi-1.us.uncletopia.com","port":27035,"enabled":true,"region":"us-central","cc":"us","latitude":41.881832,"longitude":-87.62318,"reserved":0,"last_update":"0001-01-01T00:00:00Z","name_a2s":"Uncletopia | Chicago | 3 | All Maps","protocol":17,"map":"cp_snakewater_final1","folder":"tf","game":"Team Fortress","app_id":440,"player_count":0,"max_players":24,"Bots":0,"server_type":"Dedicated","server_os":"Linux","password":true,"vac":true,"version":"7695204","steam_id":85568392924515191,"keywords":["cp","nocrits","nodmgspread","uncletopia"],"game_id":440,"stv_port":27036,"stv_name":"Uncletopia | Chicago | 3 | All Maps | STV","players":null},{"server_id":403,"name":"Uncletopia | Chicago | 4 | All Maps","name_short":"chi-4","host":"chi-1.us.uncletopia.com","port":27045,"enabled":true,"region":"us-central","cc":"us","latitude":41.881832,"longitude":-87.62318,"reserved":0,"last_update":"0001-01-01T00:00:00Z","name_a2s":"Uncletopia | Chicago | 4 | All Maps","protocol":17,"map":"koth_lakeside_final","folder":"tf","game":"Team Fortress","app_id":440,"player_count":0,"max_players":24,"Bots":0,"server_type":"Dedicated","server_os":"Linux","password":true,"vac":true,"version":"7695204","steam_id":85568392924515193,"keywords":["cp","nocrits","nodmgspread","uncletopia"],"game_id":440,"stv_port":27046,"stv_name":"Uncletopia | Chicago | 4 | All Maps | STV","players":null},{"server_id":36,"name":"Uncletopia | Chicago | 5 | All Maps","name_short":"chi-5","host":"chi-2.us.uncletopia.com","port":27015,"enabled":true,"region":"us-central","cc":"us","latitude":41.881832,"longitude":-87.62318,"reserved":0,"last_update":"0001-01-01T00:00:00Z","name_a2s":"Uncletopia | Chicago | 5 | All Maps","protocol":17,"map":"pl_frontier_final","folder":"tf","game":"Team Fortress","app_id":440,"player_count":24,"max_players":24,"Bots":0,"server_type":"Dedicated","server_os":"Linux","password":true,"vac":true,"version":"7695204","steam_id":85568392924866362,"keywords":["nocrits","nodmgspread","payload","uncletopia"],"game_id":440,"stv_port":27016,"stv_name":"Uncletopia | Chicago | 5 | All Maps | STV","players":[{"user_id":222,"name":"Space‚≠êTaffy","steam_id":76561198002271720,"connected_time":768000000000,"state":"active","ping":54},{"user_id":184,"name":"Ramen","steam_id":76561198149725784,"connected_time":2921000000000,"state":"active","ping":81},{"user_id":223,"name":"their accomplice","steam_id":76561198364331423,"connected_time":739000000000,"state":"active","ping":80},{"user_id":224,"name":"DontSinKids","steam_id":76561198142737968,"connected_time":734000000000,"state":"active","ping":73},{"user_id":225,"name":"MaurbaTTV","steam_id":76561198396244334,"connected_time":647000000000,"state":"active","ping":65},{"user_id":227,"name":"JJc","steam_id":76561198021164742,"connected_time":463000000000,"state":"active","ping":46},{"user_id":128,"name":"Convo-B-Gone","steam_id":76561198029527751,"connected_time":7839000000000,"state":"active","ping":65},{"user_id":230,"name":"Watt Dafuq","steam_id":76561198194402925,"connected_time":409000000000,"state":"active","ping":85},{"user_id":235,"name":"Totes Adorbs!","steam_id":76561197994655618,"connected_time":337000000000,"state":"active","ping":71},{"user_id":194,"name":"Sunmist","steam_id":76561198027784824,"connected_time":2251000000000,"state":"active","ping":94},{"user_id":229,"name":"Yatchi.","steam_id":76561198878073232,"connected_time":440000000000,"state":"active","ping":84},{"user_id":237,"name":"loco503","steam_id":76561198827495121,"connected_time":268000000000,"state":"active","ping":111},{"user_id":176,"name":"Reversed","steam_id":76561198136433466,"connected_time":3626000000000,"state":"active","ping":50},{"user_id":238,"name":"Gabinator32","steam_id":76561198872467183,"connected_time":0,"state":"spawning","ping":24},{"user_id":188,"name":"üúè Drepp","steam_id":76561197998867164,"connected_time":2673000000000,"state":"active","ping":149},{"user_id":232,"name":"Mancer","steam_id":76561198002825637,"connected_time":392000000000,"state":"active","ping":96},{"user_id":214,"name":"prozac.popr","steam_id":76561198843961453,"connected_time":1730000000000,"state":"active","ping":100},{"user_id":233,"name":"Pyromanncer TF","steam_id":76561198018508494,"connected_time":387000000000,"state":"active","ping":92},{"user_id":205,"name":"slep.py","steam_id":76561197988287144,"connected_time":2045000000000,"state":"active","ping":57},{"user_id":234,"name":"SquidCubed [SFM Guy]","steam_id":76561198046149411,"connected_time":382000000000,"state":"active","ping":45},{"user_id":192,"name":"Mischief of Rats","steam_id":76561198106307068,"connected_time":2568000000000,"state":"active","ping":52},{"user_id":76,"name":"El Doktor","steam_id":76561198413013439,"connected_time":12302000000000,"state":"active","ping":91},{"user_id":220,"name":"OrangeShoes","steam_id":76561197971249940,"connected_time":861000000000,"state":"active","ping":61}]},{"server_id":37,"name":"Uncletopia | Chicago | 6 | All Maps","name_short":"chi-6","host":"chi-2.us.uncletopia.com","port":27025,"enabled":true,"region":"us-central","cc":"us","latitude":41.881832,"longitude":-87.62318,"reserved":0,"last_update":"0001-01-01T00:00:00Z","name_a2s":"Uncletopia | Chicago | 6 | All Maps","protocol":17,"map":"koth_viaduct","folder":"tf","game":"Team Fortress","app_id":440,"player_count":0,"max_players":24,"Bots":0,"server_type":"Dedicated","server_os":"Linux","password":true,"vac":true,"version":"7695204","steam_id":85568392924866363,"keywords":["cp","nocrits","nodmgspread","uncletopia"],"game_id":440,"stv_port":27026,"stv_name":"Uncletopia | Chicago | 6 | All Maps | STV","players":null},{"server_id":38,"name":"Uncletopia | Chicago | 7 | No Payload","name_short":"chi-7","host":"chi-2.us.uncletopia.com","port":27035,"enabled":true,"region":"us-central","cc":"us","latitude":41.881832,"longitude":-87.62318,"reserved":0,"last_update":"0001-01-01T00:00:00Z","name_a2s":"Uncletopia | Chicago | 7 | No Payload","protocol":17,"map":"ctf_2fort","folder":"tf","game":"Team Fortress","app_id":440,"player_count":2,"max_players":24,"Bots":0,"server_type":"Dedicated","server_os":"Linux","password":true,"vac":true,"version":"7695204","steam_id":85568392924866364,"keywords":["ctf","nocrits","nodmgspread","uncletopia"],"game_id":440,"stv_port":27036,"stv_name":"Uncletopia | Chicago | 7 | No Payload | STV","players":[{"user_id":669,"name":"Tyrus","steam_id":76561198271895141,"connected_time":292000000000,"state":"active","ping":60},{"user_id":670,"name":"Wheel","steam_id":76561198141095251,"connected_time":258000000000,"state":"active","ping":67}]},{"server_id":39,"name":"Uncletopia | Chicago | 8 | Community","name_short":"chi-8","host":"chi-2.us.uncletopia.com","port":27045,"enabled":true,"region":"us-central","cc":"us","latitude":41.881832,"longitude":-87.62318,"reserved":0,"last_update":"0001-01-01T00:00:00Z","name_a2s":"Uncletopia | Chicago | 8 | Community","protocol":17,"map":"workshop/koth_slaughter_rc1.ugc1712845210","folder":"tf","game":"Team Fortress","app_id":440,"player_count":2,"max_players":24,"Bots":0,"server_type":"Dedicated","server_os":"Linux","password":true,"vac":true,"version":"7695204","steam_id":85568392924866365,"keywords":["cp","nocrits","nodmgspread","uncletopia"],"game_id":440,"stv_port":27046,"stv_name":"Uncletopia | Chicago | 8 | Community | STV","players":[{"user_id":33,"name":"starfinder","steam_id":76561199071758773,"connected_time":108000000000,"state":"active","ping":238},{"user_id":34,"name":"Underrocks","steam_id":76561198134725167,"connected_time":88000000000,"state":"active","ping":233}]},{"server_id":8,"name":"Uncletopia | Dallas | 1 | All Maps","name_short":"dal-1","host":"dal-1.us.uncletopia.com","port":27015,"enabled":true,"region":"us-central","cc":"us","latitude":32.779167,"longitude":-96.80889,"reserved":0,"last_update":"0001-01-01T00:00:00Z","name_a2s":"Uncletopia | Dallas | 1 | All Maps","protocol":17,"map":"pl_badwater","folder":"tf","game":"Team Fortress","app_id":440,"player_count":22,"max_players":24,"Bots":0,"server_type":"Dedicated","server_os":"Linux","password":true,"vac":true,"version":"7695204","steam_id":85568392924469986,"keywords":["nocrits","nodmgspread","payload","uncletopia"],"game_id":440,"stv_port":27016,"stv_name":"Uncletopia | Dallas | 1 | All Maps | STV","players":[{"user_id":248,"name":"Fermenting Kiwi","steam_id":76561198253303497,"connected_time":5055000000000,"state":"active","ping":63},{"user_id":315,"name":"Sharmat","steam_id":76561198103492042,"connected_time":725000000000,"state":"active","ping":83},{"user_id":320,"name":"CodeZero","steam_id":76561198135272294,"connected_time":583000000000,"state":"active","ping":69},{"user_id":316,"name":"Rusty","steam_id":76561198056557928,"connected_time":725000000000,"state":"active","ping":45},{"user_id":314,"name":"skyttle","steam_id":76561198069153352,"connected_time":786000000000,"state":"active","ping":90},{"user_id":297,"name":"Sableye","steam_id":76561198061247147,"connected_time":1812000000000,"state":"active","ping":66},{"user_id":304,"name":"jennco","steam_id":76561198212421513,"connected_time":1655000000000,"state":"active","ping":64},{"user_id":247,"name":"Riboflavin","steam_id":76561198077328593,"connected_time":5237000000000,"state":"active","ping":63},{"user_id":317,"name":"Bodacious Meat","steam_id":76561198058742270,"connected_time":634000000000,"state":"spawning","ping":106},{"user_id":326,"name":"Swuft","steam_id":76561198228351596,"connected_time":25000000000,"state":"spawning","ping":115},{"user_id":318,"name":"SavHud","steam_id":76561199111713748,"connected_time":608000000000,"state":"active","ping":77},{"user_id":269,"name":"plink","steam_id":76561198057829889,"connected_time":3774000000000,"state":"active","ping":46},{"user_id":280,"name":"Murk Wahlberg","steam_id":76561198131467867,"connected_time":2855000000000,"state":"active","ping":74},{"user_id":321,"name":"BULK.dinkolaw","steam_id":76561198154072948,"connected_time":482000000000,"state":"active","ping":87},{"user_id":313,"name":"Nature's Cruelest Mistake","steam_id":76561198055163570,"connected_time":924000000000,"state":"active","ping":58},{"user_id":325,"name":"TOASTER IN A RAIN COAT","steam_id":76561199090392905,"connected_time":75000000000,"state":"active","ping":72},{"user_id":255,"name":"Father of Lies","steam_id":76561198985847893,"connected_time":4867000000000,"state":"active","ping":46},{"user_id":327,"name":"floofy","steam_id":76561198389769098,"connected_time":7000000000,"state":"spawning","ping":92},{"user_id":306,"name":"Amogous Supreme","steam_id":76561198025476774,"connected_time":1494000000000,"state":"active","ping":81},{"user_id":307,"name":"Godfred the Lucky One","steam_id":76561198055822497,"connected_time":1398000000000,"state":"active","ping":137},{"user_id":323,"name":"Black Mesa Security","steam_id":76561198161608111,"connected_time":233000000000,"state":"active","ping":66},{"user_id":289,"name":"Tirlby","steam_id":76561198045231233,"connected_time":2416000000000,"state":"active","ping":77}]},{"server_id":108,"name":"Uncletopia | Dallas | 2 | All Maps","name_short":"dal-2","host":"dal-1.us.uncletopia.com","port":27025,"enabled":true,"region":"us-central","cc":"us","latitude":32.779167,"longitude":-96.80889,"reserved":0,"last_update":"0001-01-01T00:00:00Z","name_a2s":"Uncletopia | Dallas | 2 | All Maps","protocol":17,"map":"pl_barnblitz","folder":"tf","game":"Team Fortress","app_id":440,"player_count":24,"max_players":24,"Bots":0,"server_type":"Dedicated","server_os":"Linux","password":true,"vac":true,"version":"7695204","steam_id":85568392924469988,"keywords":["nocrits","nodmgspread","payload","uncletopia"],"game_id":440,"stv_port":27026,"stv_name":"Uncletopia | Dallas | 2 | All Maps | STV","players":[{"user_id":338,"name":"Krow","steam_id":76561198010392099,"connected_time":9137000000000,"state":"active","ping":54},{"user_id":429,"name":"BranMuffin","steam_id":76561198308948414,"connected_time":865000000000,"state":"active","ping":76},{"user_id":373,"name":"brae","steam_id":76561198047126327,"connected_time":5995000000000,"state":"active","ping":107},{"user_id":404,"name":"LobsterPot","steam_id":76561198072225973,"connected_time":3964000000000,"state":"active","ping":72},{"user_id":409,"name":"Etomb","steam_id":76561198210017208,"connected_time":3232000000000,"state":"active","ping":75},{"user_id":418,"name":"Quarky„ÉÑ","steam_id":76561198116411387,"connected_time":1591000000000,"state":"active","ping":86},{"user_id":439,"name":"Concorde","steam_id":76561198079743502,"connected_time":98000000000,"state":"active","ping":96},{"user_id":430,"name":"distantgalaxy314","steam_id":76561198967379786,"connected_time":847000000000,"state":"active","ping":92},{"user_id":426,"name":"[LINUX] F2P=S*(M/B)+H || Spy!","steam_id":76561198093538786,"connected_time":1034000000000,"state":"active","ping":45},{"user_id":410,"name":"Floor Cheetos","steam_id":76561198062763756,"connected_time":3193000000000,"state":"active","ping":73},{"user_id":431,"name":"T.tv/Boring_Baguette","steam_id":76561198300662918,"connected_time":805000000000,"state":"active","ping":58},{"user_id":428,"name":"OHIO MAN","steam_id":76561199136907740,"connected_time":994000000000,"state":"active","ping":97},{"user_id":432,"name":"kid ichster","steam_id":76561198011675372,"connected_time":798000000000,"state":"active","ping":94},{"user_id":433,"name":"Taco","steam_id":76561198158621392,"connected_time":778000000000,"state":"active","ping":90},{"user_id":423,"name":"Reyloko","steam_id":76561198172480913,"connected_time":1383000000000,"state":"active","ping":59},{"user_id":434,"name":"Jaded","steam_id":76561198272575611,"connected_time":771000000000,"state":"active","ping":59},{"user_id":435,"name":"Minecraft Christmas Chest","steam_id":76561198272327629,"connected_time":765000000000,"state":"active","ping":87},{"user_id":417,"name":"That Scrumpy Dumpy","steam_id":76561198147375997,"connected_time":2115000000000,"state":"active","ping":64},{"user_id":369,"name":"dshim ÌïòÌïòÌïòÌïòÌïò","steam_id":76561197987547840,"connected_time":6677000000000,"state":"active","ping":115},{"user_id":419,"name":"Spha","steam_id":76561198796297800,"connected_time":1565000000000,"state":"active","ping":65},{"user_id":412,"name":"Divine Kitty","steam_id":76561198293490689,"connected_time":2701000000000,"state":"active","ping":116},{"user_id":360,"name":"GameGuru the Green Gryphon","steam_id":76561198118495354,"connected_time":7814000000000,"state":"active","ping":61},{"user_id":379,"name":"b.net queue waiter","steam_id":76561197968787431,"connected_time":5738000000000,"state":"active","ping":103},{"user_id":437,"name":"GreenApples","steam_id":76561198120559543,"connected_time":562000000000,"state":"active","ping":90}]},{"server_id":5,"name":"Uncletopia | Frankfurt | 1 | All Maps","name_short":"frk-1","host":"frk-1.de.uncletopia.com","port":27015,"enabled":true,"region":"eu","cc":"de","latitude":50.110924,"longitude":8.682127,"reserved":0,"last_update":"0001-01-01T00:00:00Z","name_a2s":"Uncletopia | Frankfurt | 1 | All Maps","protocol":17,"map":"koth_viaduct","folder":"tf","game":"Team Fortress","app_id":440,"player_count":0,"max_players":24,"Bots":0,"server_type":"Dedicated","server_os":"Linux","password":true,"vac":true,"version":"7695204","steam_id":85568392924469989,"keywords":["cp","nocrits","nodmgspread","uncletopia"],"game_id":440,"stv_port":0,"stv_name":"","players":null},{"server_id":110,"name":"Uncletopia | Frankfurt | 2 | All Maps","name_short":"frk-2","host":"frk-1.de.uncletopia.com","port":27025,"enabled":true,"region":"eu","cc":"de","latitude":50.110924,"longitude":8.682127,"reserved":0,"last_update":"0001-01-01T00:00:00Z","name_a2s":"Uncletopia | Frankfurt | 2 | All Maps","protocol":17,"map":"cp_dustbowl","folder":"tf","game":"Team Fortress","app_id":440,"player_count":0,"max_players":24,"Bots":0,"server_type":"Dedicated","server_os":"Linux","password":true,"vac":true,"version":"7695204","steam_id":85568392924469990,"keywords":["cp","nocrits","nodmgspread","uncletopia"],"game_id":440,"stv_port":27026,"stv_name":"Uncletopia | Frankfurt | 2 | All Maps | STV","players":null},{"server_id":308,"name":"Uncletopia | Frankfurt | 3 | All Maps","name_short":"frk-3","host":"frk-1.de.uncletopia.com","port":27035,"enabled":true,"region":"eu","cc":"de","latitude":50.110924,"longitude":8.682127,"reserved":0,"last_update":"0001-01-01T00:00:00Z","name_a2s":"Uncletopia | Frankfurt | 3 | All Maps","protocol":17,"map":"pl_badwater","folder":"tf","game":"Team Fortress","app_id":440,"player_count":0,"max_players":24,"Bots":0,"server_type":"Dedicated","server_os":"Linux","password":true,"vac":true,"version":"7695204","steam_id":85568392924504274,"keywords":["nocrits","nodmgspread","payload","uncletopia"],"game_id":440,"stv_port":0,"stv_name":"","players":null},{"server_id":309,"name":"Uncletopia | Frankfurt | 4 | All Maps","name_short":"frk-4","host":"frk-1.de.uncletopia.com","port":27045,"enabled":true,"region":"eu","cc":"de","latitude":50.110924,"longitude":8.682127,"reserved":0,"last_update":"0001-01-01T00:00:00Z","name_a2s":"Uncletopia | Frankfurt | 4 | All Maps","protocol":17,"map":"koth_highpass","folder":"tf","game":"Team Fortress","app_id":440,"player_count":0,"max_players":24,"Bots":0,"server_type":"Dedicated","server_os":"Linux","password":true,"vac":true,"version":"7695204","steam_id":85568392924504275,"keywords":["cp","nocrits","nodmgspread","uncletopia"],"game_id":440,"stv_port":0,"stv_name":"","players":null},{"server_id":310,"name":"Uncletopia | Frankfurt | 5 | All Maps","name_short":"frk-5","host":"frk-1.de.uncletopia.com","port":27055,"enabled":true,"region":"eu","cc":"de","latitude":50.110924,"longitude":8.682127,"reserved":0,"last_update":"0001-01-01T00:00:00Z","name_a2s":"Uncletopia | Frankfurt | 5 | All Maps","protocol":17,"map":"pl_pier","folder":"tf","game":"Team Fortress","app_id":440,"player_count":0,"max_players":24,"Bots":0,"server_type":"Dedicated","server_os":"Linux","password":true,"vac":true,"version":"7695204","steam_id":85568392924504277,"keywords":["nocrits","nodmgspread","payload","uncletopia"],"game_id":440,"stv_port":0,"stv_name":"","players":null},{"server_id":311,"name":"Uncletopia | Frankfurt | 6 | All Maps","name_short":"frk-6","host":"frk-1.de.uncletopia.com","port":27065,"enabled":true,"region":"eu","cc":"de","latitude":50.110924,"longitude":8.682127,"reserved":0,"last_update":"0001-01-01T00:00:00Z","name_a2s":"Uncletopia | Frankfurt | 6 | All Maps","protocol":17,"map":"pl_barnblitz","folder":"tf","game":"Team Fortress","app_id":440,"player_count":0,"max_players":24,"Bots":0,"server_type":"Dedicated","server_os":"Linux","password":true,"vac":true,"version":"7695204","steam_id":85568392924504278,"keywords":["nocrits","nodmgspread","payload","uncletopia"],"game_id":440,"stv_port":0,"stv_name":"","players":null},{"server_id":23,"name":"Uncletopia | Frankfurt | 7 | No Payload","name_short":"frk-7","host":"frk-1.de.uncletopia.com","port":27075,"enabled":true,"region":"eu","cc":"de","latitude":50.110924,"longitude":8.682127,"reserved":0,"last_update":"0001-01-01T00:00:00Z","name_a2s":"Uncletopia | Frankfurt | 7 | No Payload","protocol":17,"map":"pl_snowycoast","folder":"tf","game":"Team Fortress","app_id":440,"player_count":0,"max_players":24,"Bots":0,"server_type":"Dedicated","server_os":"Linux","password":true,"vac":true,"version":"7695204","steam_id":85568392924742827,"keywords":["nocrits","nodmgspread","payload","uncletopia"],"game_id":440,"stv_port":0,"stv_name":"","players":null},{"server_id":24,"name":"Uncletopia | Frankfurt | 8 | Community","name_short":"frk-8","host":"frk-1.de.uncletopia.com","port":27085,"enabled":true,"region":"eu","cc":"de","latitude":50.110924,"longitude":8.682127,"reserved":0,"last_update":"0001-01-01T00:00:00Z","name_a2s":"Uncletopia | Frankfurt | 8 | Community","protocol":17,"map":"koth_lakeside_final","folder":"tf","game":"Team Fortress","app_id":440,"player_count":0,"max_players":24,"Bots":0,"server_type":"Dedicated","server_os":"Linux","password":true,"vac":true,"version":"7695204","steam_id":85568392924742828,"keywords":["cp","nocrits","nodmgspread","uncletopia"],"game_id":440,"stv_port":0,"stv_name":"","players":null},{"server_id":202,"name":"Uncletopia | Hong Kong | 1 | All Maps","name_short":"hgk-1","host":"hgk-1.hk.uncletopia.com","port":27015,"enabled":true,"region":"asia","cc":"hk","latitude":22.302711,"longitude":114.177216,"reserved":0,"last_update":"0001-01-01T00:00:00Z","name_a2s":"Uncletopia | Hong Kong | 1 | All Maps","protocol":17,"map":"pl_frontier_final","folder":"tf","game":"Team Fortress","app_id":440,"player_count":25,"max_players":24,"Bots":0,"server_type":"Dedicated","server_os":"Linux","password":true,"vac":true,"version":"7695204","steam_id":85568392924494504,"keywords":["nocrits","nodmgspread","payload","uncletopia"],"game_id":440,"stv_port":27016,"stv_name":"Uncletopia | Hong Kong | 1 | All Maps | STV","players":[{"user_id":93,"name":"Firefly796","steam_id":76561199048899841,"connected_time":364000000000,"state":"active","ping":127},{"user_id":94,"name":"EylDricH","steam_id":76561198370730448,"connected_time":302000000000,"state":"active","ping":62},{"user_id":95,"name":"MASLACK","steam_id":76561198039787857,"connected_time":302000000000,"state":"active","ping":124},{"user_id":104,"name":"silversol","steam_id":76561198004570036,"connected_time":81000000000,"state":"active","ping":91},{"user_id":89,"name":"r","steam_id":76561198811024417,"connected_time":455000000000,"state":"active","ping":65},{"user_id":97,"name":"StilltZ","steam_id":76561198365178086,"connected_time":251000000000,"state":"active","ping":71},{"user_id":98,"name":"Degenerate With Standards!!!!!","steam_id":76561199174449723,"connected_time":228000000000,"state":"active","ping":64},{"user_id":27,"name":"Nimbus","steam_id":76561198877713016,"connected_time":5852000000000,"state":"active","ping":85},{"user_id":99,"name":"The Blue Signet","steam_id":76561198982932902,"connected_time":212000000000,"state":"active","ping":81},{"user_id":105,"name":"Chunky Hippo","steam_id":76561198080014737,"connected_time":27000000000,"state":"active","ping":134},{"user_id":100,"name":"A E S T H E T I C","steam_id":76561198155497031,"connected_time":178000000000,"state":"active","ping":46},{"user_id":64,"name":"defultbot(jk)","steam_id":76561199216945880,"connected_time":2791000000000,"state":"active","ping":107},{"user_id":79,"name":"monkeyman536","steam_id":76561197997717737,"connected_time":1847000000000,"state":"active","ping":124},{"user_id":90,"name":"Telekhine","steam_id":76561198387120618,"connected_time":453000000000,"state":"active","ping":77},{"user_id":68,"name":"MR. T","steam_id":76561198847421088,"connected_time":2387000000000,"state":"active","ping":133},{"user_id":91,"name":"Talkk More","steam_id":76561198305424433,"connected_time":453000000000,"state":"active","ping":100},{"user_id":48,"name":"timmy.1366","steam_id":76561199065433547,"connected_time":4353000000000,"state":"active","ping":80},{"user_id":87,"name":"zlan","steam_id":76561199107596818,"connected_time":775000000000,"state":"active","ping":124},{"user_id":102,"name":"plume'TH ._.","steam_id":76561198965067598,"connected_time":136000000000,"state":"active","ping":98},{"user_id":84,"name":"Xyvanereth","steam_id":76561198844137326,"connected_time":1288000000000,"state":"active","ping":184},{"user_id":81,"name":"L√∫d","steam_id":76561198828840546,"connected_time":1787000000000,"state":"active","ping":65},{"user_id":103,"name":"ketsu","steam_id":76561197966171554,"connected_time":132000000000,"state":"active","ping":109},{"user_id":75,"name":"brizzard","steam_id":76561198048438653,"connected_time":2017000000000,"state":"active","ping":48},{"user_id":88,"name":"Violezine","steam_id":76561199000502615,"connected_time":466000000000,"state":"active","ping":78},{"user_id":106,"name":"Zebediah","steam_id":76561198089379796,"connected_time":1000000000,"state":"spawning","ping":35}]},{"server_id":1,"name":"Uncletopia | Los Angeles | 1 | All Maps","name_short":"lax-1","host":"lax-1.us.uncletopia.com","port":27015,"enabled":true,"region":"us-west","cc":"us","latitude":33.94279,"longitude":-118.41004,"reserved":0,"last_update":"0001-01-01T00:00:00Z","name_a2s":"Uncletopia | Los Angeles | 1 | All Maps","protocol":17,"map":"koth_viaduct","folder":"tf","game":"Team Fortress","app_id":440,"player_count":0,"max_players":24,"Bots":0,"server_type":"Dedicated","server_os":"Linux","password":true,"vac":true,"version":"7695204","steam_id":85568392924469991,"keywords":["cp","nocrits","nodmgspread","uncletopia"],"game_id":440,"stv_port":27016,"stv_name":"Uncletopia | Los Angeles | 1 | All Maps | STV","players":null},{"server_id":112,"name":"Uncletopia | Los Angeles | 2 | All Maps","name_short":"lax-2","host":"lax-1.us.uncletopia.com","port":27025,"enabled":true,"region":"us-west","cc":"us","latitude":33.94279,"longitude":-118.41004,"reserved":0,"last_update":"0001-01-01T00:00:00Z","name_a2s":"Uncletopia | Los Angeles | 2 | All Maps","protocol":17,"map":"cp_dustbowl","folder":"tf","game":"Team Fortress","app_id":440,"player_count":24,"max_players":24,"Bots":0,"server_type":"Dedicated","server_os":"Linux","password":true,"vac":true,"version":"7695204","steam_id":85568392924469992,"keywords":["cp","nocrits","nodmgspread","uncletopia"],"game_id":440,"stv_port":27026,"stv_name":"Uncletopia | Los Angeles | 2 | All Maps | STV","players":[{"user_id":218,"name":"N64Kanroji","steam_id":76561198045209288,"connected_time":1599000000000,"state":"active","ping":73},{"user_id":217,"name":"reshi","steam_id":76561198239598834,"connected_time":1901000000000,"state":"active","ping":90},{"user_id":236,"name":"Oni Enthusiast","steam_id":76561198035410427,"connected_time":348000000000,"state":"active","ping":52},{"user_id":234,"name":"elfy","steam_id":76561198061637177,"connected_time":624000000000,"state":"active","ping":60},{"user_id":213,"name":"rat eater","steam_id":76561198955453886,"connected_time":2363000000000,"state":"active","ping":100},{"user_id":230,"name":"Salt_Inventor","steam_id":76561198090433209,"connected_time":1218000000000,"state":"active","ping":121},{"user_id":220,"name":"Cypress","steam_id":76561198070560915,"connected_time":1592000000000,"state":"active","ping":47},{"user_id":201,"name":"[√òWQJ√ò]chubacaalatake","steam_id":76561198136201697,"connected_time":3313000000000,"state":"active","ping":87},{"user_id":223,"name":"Jahvis","steam_id":76561198063552992,"connected_time":1479000000000,"state":"active","ping":100},{"user_id":231,"name":"Porkchop","steam_id":76561198047654421,"connected_time":1040000000000,"state":"active","ping":88},{"user_id":197,"name":"ldr","steam_id":76561198151135298,"connected_time":3589000000000,"state":"active","ping":38},{"user_id":228,"name":"Dylancyclone","steam_id":76561198000959790,"connected_time":1350000000000,"state":"active","ping":51},{"user_id":188,"name":"Bowl of Soup","steam_id":76561198114255273,"connected_time":3929000000000,"state":"active","ping":81},{"user_id":160,"name":"anti-air turret","steam_id":76561198010226481,"connected_time":6131000000000,"state":"active","ping":46},{"user_id":182,"name":"Th√∂ck","steam_id":76561198028135426,"connected_time":4453000000000,"state":"active","ping":50},{"user_id":235,"name":"VashSpiegel","steam_id":76561198056559175,"connected_time":459000000000,"state":"active","ping":52},{"user_id":225,"name":"Noire","steam_id":76561198077601563,"connected_time":1394000000000,"state":"active","ping":80},{"user_id":227,"name":"Kaos","steam_id":76561198059816476,"connected_time":1368000000000,"state":"active","ping":56},{"user_id":229,"name":"GeekyFox3","steam_id":76561198267733290,"connected_time":1314000000000,"state":"active","ping":67},{"user_id":215,"name":"Whyamidoingthisaaaa","steam_id":76561199168837342,"connected_time":2191000000000,"state":"active","ping":111},{"user_id":237,"name":"Escher","steam_id":76561198045058061,"connected_time":304000000000,"state":"active","ping":60},{"user_id":239,"name":"The Horny","steam_id":76561198863639459,"connected_time":263000000000,"state":"active","ping":74},{"user_id":219,"name":"Can You Feel It Mr.Krabs","steam_id":76561198128302414,"connected_time":1598000000000,"state":"active","ping":52},{"user_id":196,"name":"xbox record that","steam_id":76561198150117455,"connected_time":3628000000000,"state":"active","ping":55}]},{"server_id":324,"name":"Uncletopia | Los Angeles | 3 | All Maps","name_short":"lax-3","host":"lax-1.us.uncletopia.com","port":27035,"enabled":true,"region":"us-west","cc":"us","latitude":33.94279,"longitude":-118.41004,"reserved":0,"last_update":"0001-01-01T00:00:00Z","name_a2s":"Uncletopia | Los Angeles | 3 | All Maps","protocol":17,"map":"cp_snakewater_final1","folder":"tf","game":"Team Fortress","app_id":440,"player_count":0,"max_players":24,"Bots":0,"server_type":"Dedicated","server_os":"Linux","password":true,"vac":true,"version":"7695204","steam_id":85568392924510198,"keywords":["cp","nocrits","nodmgspread","uncletopia"],"game_id":440,"stv_port":27036,"stv_name":"Uncletopia | Los Angeles | 3 | All Maps | STV","players":null},{"server_id":25,"name":"Uncletopia | Los Angeles | 4 | No Payload","name_short":"lax-4","host":"lax-1.us.uncletopia.com","port":27045,"enabled":true,"region":"us-west","cc":"us","latitude":33.94279,"longitude":-118.41004,"reserved":0,"last_update":"0001-01-01T00:00:00Z","name_a2s":"Uncletopia | Los Angeles | 4 | No Payload","protocol":17,"map":"cp_vanguard","folder":"tf","game":"Team Fortress","app_id":440,"player_count":0,"max_players":24,"Bots":0,"server_type":"Dedicated","server_os":"Linux","password":true,"vac":true,"version":"7695204","steam_id":85568392924510199,"keywords":["cp","nocrits","nodmgspread","uncletopia"],"game_id":440,"stv_port":27046,"stv_name":"Uncletopia | Los Angeles | 4 | No Payload | STV","players":null},{"server_id":11,"name":"Uncletopia | London | 1 | All Maps","name_short":"lon-1","host":"lon-1.uk.uncletopia.com","port":27015,"enabled":true,"region":"eu","cc":"gb","latitude":51.509865,"longitude":-0.118092,"reserved":0,"last_update":"0001-01-01T00:00:00Z","name_a2s":"Uncletopia | London | 1 | All Maps","protocol":17,"map":"pl_upward","folder":"tf","game":"Team Fortress","app_id":440,"player_count":0,"max_players":24,"Bots":0,"server_type":"Dedicated","server_os":"Linux","password":true,"vac":true,"version":"7695204","steam_id":85568392924367362,"keywords":["nocrits","nodmgspread","payload","uncletopia"],"game_id":440,"stv_port":0,"stv_name":"","players":null},{"server_id":114,"name":"Uncletopia | London | 2 | All Maps","name_short":"lon-2","host":"lon-1.uk.uncletopia.com","port":27025,"enabled":true,"region":"eu","cc":"gb","latitude":51.509865,"longitude":-0.118092,"reserved":0,"last_update":"0001-01-01T00:00:00Z","name_a2s":"Uncletopia | London | 2 | All Maps","protocol":17,"map":"cp_sunshine","folder":"tf","game":"Team Fortress","app_id":440,"player_count":0,"max_players":24,"Bots":0,"server_type":"Dedicated","server_os":"Linux","password":true,"vac":true,"version":"7695204","steam_id":85568392924470941,"keywords":["cp","nocrits","nodmgspread","uncletopia"],"game_id":440,"stv_port":0,"stv_name":"","players":null},{"server_id":320,"name":"Uncletopia | London | 3 | All Maps","name_short":"lon-3","host":"lon-1.uk.uncletopia.com","port":27035,"enabled":true,"region":"eu","cc":"gb","latitude":51.509865,"longitude":-0.118092,"reserved":0,"last_update":"0001-01-01T00:00:00Z","name_a2s":"Uncletopia | London | 3 | All Maps","protocol":17,"map":"cp_process_final","folder":"tf","game":"Team Fortress","app_id":440,"player_count":4,"max_players":24,"Bots":0,"server_type":"Dedicated","server_os":"Linux","password":true,"vac":true,"version":"7695204","steam_id":85568392924510192,"keywords":["cp","nocrits","nodmgspread","uncletopia"],"game_id":440,"stv_port":0,"stv_name":"","players":[{"user_id":9,"name":"Virgil","steam_id":76561198248786778,"connected_time":173000000000,"state":"active","ping":113},{"user_id":10,"name":"Enigmus","steam_id":76561197994063627,"connected_time":98000000000,"state":"active","ping":75},{"user_id":4,"name":"gs=dg","steam_id":76561199179040672,"connected_time":1042000000000,"state":"active","ping":54},{"user_id":7,"name":"horny heavy","steam_id":76561198305115828,"connected_time":1000000000000,"state":"active","ping":106}]},{"server_id":321,"name":"Uncletopia | London | 4 | All Maps","name_short":"lon-4","host":"lon-1.uk.uncletopia.com","port":27045,"enabled":true,"region":"eu","cc":"gb","latitude":51.509865,"longitude":-0.118092,"reserved":0,"last_update":"0001-01-01T00:00:00Z","name_a2s":"Uncletopia | London | 4 | All Maps","protocol":17,"map":"koth_viaduct","folder":"tf","game":"Team Fortress","app_id":440,"player_count":0,"max_players":24,"Bots":0,"server_type":"Dedicated","server_os":"Linux","password":true,"vac":true,"version":"7695204","steam_id":85568392924510193,"keywords":["cp","nocrits","nodmgspread","uncletopia"],"game_id":440,"stv_port":0,"stv_name":"","players":null},{"server_id":21,"name":"Uncletopia | London | 5 | All Maps","name_short":"lon-5","host":"lon-1.uk.uncletopia.com","port":27055,"enabled":true,"region":"eu","cc":"gb","latitude":51.509865,"longitude":-0.118092,"reserved":0,"last_update":"0001-01-01T00:00:00Z","name_a2s":"Uncletopia | London | 5 | All Maps","protocol":17,"map":"koth_cascade","folder":"tf","game":"Team Fortress","app_id":440,"player_count":0,"max_players":24,"Bots":0,"server_type":"Dedicated","server_os":"Linux","password":true,"vac":true,"version":"7695204","steam_id":85568392924742829,"keywords":["cp","nocrits","nodmgspread","uncletopia"],"game_id":440,"stv_port":0,"stv_name":"","players":null},{"server_id":22,"name":"Uncletopia | London | 6 | All Maps","name_short":"lon-6","host":"lon-1.uk.uncletopia.com","port":27065,"enabled":true,"region":"eu","cc":"gb","latitude":51.509865,"longitude":-0.118092,"reserved":0,"last_update":"0001-01-01T00:00:00Z","name_a2s":"Uncletopia | London | 6 | All Maps","protocol":17,"map":"pl_pier","folder":"tf","game":"Team Fortress","app_id":440,"player_count":0,"max_players":24,"Bots":0,"server_type":"Dedicated","server_os":"Linux","password":true,"vac":true,"version":"7695204","steam_id":85568392924742830,"keywords":["nocrits","nodmgspread","payload","uncletopia"],"game_id":440,"stv_port":0,"stv_name":"","players":null},{"server_id":40,"name":"Uncletopia | London | 7 | No Payload","name_short":"lon-7","host":"lon-1.uk.uncletopia.com","port":27075,"enabled":true,"region":"eu","cc":"gb","latitude":51.509865,"longitude":-0.118092,"reserved":0,"last_update":"0001-01-01T00:00:00Z","name_a2s":"Uncletopia | London | 7 | No Payload","protocol":17,"map":"cp_snakewater_final1","folder":"tf","game":"Team Fortress","app_id":440,"player_count":0,"max_players":24,"Bots":0,"server_type":"Dedicated","server_os":"Linux","password":true,"vac":true,"version":"7695204","steam_id":85568392924964314,"keywords":["cp","nocrits","nodmgspread","uncletopia"],"game_id":440,"stv_port":0,"stv_name":"","players":null},{"server_id":41,"name":"Uncletopia | London | 8 | Community","name_short":"lon-8","host":"lon-1.uk.uncletopia.com","port":27085,"enabled":true,"region":"eu","cc":"gb","latitude":51.509865,"longitude":-0.118092,"reserved":0,"last_update":"0001-01-01T00:00:00Z","name_a2s":"Uncletopia | London | 8 | Community","protocol":17,"map":"cp_dustbowl","folder":"tf","game":"Team Fortress","app_id":440,"player_count":0,"max_players":24,"Bots":0,"server_type":"Dedicated","server_os":"Linux","password":true,"vac":true,"version":"7695204","steam_id":85568392924964315,"keywords":["cp","nocrits","nodmgspread","uncletopia"],"game_id":440,"stv_port":0,"stv_name":"","players":null},{"server_id":300,"name":"Uncletopia | Montr√©al | 1 | All Maps","name_short":"mtl-1","host":"mtl-1.ca.uncletopia.com","port":27015,"enabled":true,"region":"us-east","cc":"ca","latitude":45.50889,"longitude":-73.56167,"reserved":0,"last_update":"0001-01-01T00:00:00Z","name_a2s":"Uncletopia | Montr√©al | 1 | All Maps","protocol":17,"map":"koth_highpass","folder":"tf","game":"Team Fortress","app_id":440,"player_count":0,"max_players":24,"Bots":0,"server_type":"Dedicated","server_os":"Linux","password":true,"vac":true,"version":"7695204","steam_id":85568392924500087,"keywords":["cp","nocrits","nodmgspread","uncletopia"],"game_id":440,"stv_port":27016,"stv_name":"Uncletopia | Montr√©al | 1 | All Maps | STV","players":null},{"server_id":301,"name":"Uncletopia | Montr√©al | 2 | All Maps","name_short":"mtl-2","host":"mtl-1.ca.uncletopia.com","port":27025,"enabled":true,"region":"us-east","cc":"ca","latitude":45.50889,"longitude":-73.56167,"reserved":0,"last_update":"0001-01-01T00:00:00Z","name_a2s":"Uncletopia | Montr√©al | 2 | All Maps","protocol":17,"map":"cp_snakewater_final1","folder":"tf","game":"Team Fortress","app_id":440,"player_count":0,"max_players":24,"Bots":0,"server_type":"Dedicated","server_os":"Linux","password":true,"vac":true,"version":"7695204","steam_id":85568392924500088,"keywords":["cp","nocrits","nodmgspread","uncletopia"],"game_id":440,"stv_port":27026,"stv_name":"Uncletopia | Montr√©al | 2 | All Maps | STV","players":null},{"server_id":302,"name":"Uncletopia | Montr√©al | 3 | All Maps","name_short":"mtl-3","host":"mtl-1.ca.uncletopia.com","port":27035,"enabled":true,"region":"us-east","cc":"ca","latitude":45.50889,"longitude":-73.56167,"reserved":0,"last_update":"0001-01-01T00:00:00Z","name_a2s":"Uncletopia | Montr√©al | 3 | All Maps","protocol":17,"map":"koth_viaduct","folder":"tf","game":"Team Fortress","app_id":440,"player_count":0,"max_players":24,"Bots":0,"server_type":"Dedicated","server_os":"Linux","password":true,"vac":true,"version":"7695204","steam_id":85568392924500089,"keywords":["cp","nocrits","nodmgspread","uncletopia"],"game_id":440,"stv_port":0,"stv_name":"","players":null},{"server_id":303,"name":"Uncletopia | Montr√©al | 4 | No Payload","name_short":"mtl-4","host":"mtl-1.ca.uncletopia.com","port":27045,"enabled":true,"region":"us-east","cc":"ca","latitude":45.50889,"longitude":-73.56167,"reserved":0,"last_update":"0001-01-01T00:00:00Z","name_a2s":"Uncletopia | Montr√©al | 4 | No Payload","protocol":17,"map":"plr_pipeline","folder":"tf","game":"Team Fortress","app_id":440,"player_count":0,"max_players":24,"Bots":0,"server_type":"Dedicated","server_os":"Linux","password":true,"vac":true,"version":"7695204","steam_id":85568392924500090,"keywords":["nocrits","nodmgspread","payload","uncletopia"],"game_id":440,"stv_port":27046,"stv_name":"Uncletopia | Montr√©al | 4 | No Payload | STV","players":null},{"server_id":13,"name":"Uncletopia | New York City | 1 | All Maps","name_short":"nyc-1","host":"nyc-1.us.uncletopia.com","port":27015,"enabled":true,"region":"us-east","cc":"us","latitude":40.73061,"longitude":-73.93524,"reserved":0,"last_update":"0001-01-01T00:00:00Z","name_a2s":"Uncletopia | New York City | 1 | All Maps","protocol":17,"map":"pl_borneo","folder":"tf","game":"Team Fortress","app_id":440,"player_count":0,"max_players":24,"Bots":0,"server_type":"Dedicated","server_os":"Linux","password":true,"vac":true,"version":"7695204","steam_id":85568392924469993,"keywords":["nocrits","nodmgspread","payload","uncletopia"],"game_id":440,"stv_port":27016,"stv_name":"Uncletopia | New York City | 1 | All Maps | STV","players":null},{"server_id":14,"name":"Uncletopia | New York City | 2 | All Maps","name_short":"nyc-2","host":"nyc-1.us.uncletopia.com","port":27025,"enabled":true,"region":"us-east","cc":"us","latitude":40.73061,"longitude":-73.93524,"reserved":0,"last_update":"0001-01-01T00:00:00Z","name_a2s":"Uncletopia | New York City | 2 | All Maps","protocol":17,"map":"pl_badwater","folder":"tf","game":"Team Fortress","app_id":440,"player_count":24,"max_players":24,"Bots":0,"server_type":"Dedicated","server_os":"Linux","password":true,"vac":true,"version":"7695204","steam_id":85568392924469994,"keywords":["nocrits","nodmgspread","payload","uncletopia"],"game_id":440,"stv_port":27026,"stv_name":"Uncletopia | New York City | 2 | All Maps | STV","players":[{"user_id":612,"name":"Toastery","steam_id":76561198258457459,"connected_time":2922000000000,"state":"active","ping":99},{"user_id":642,"name":"p4lly","steam_id":76561198078400787,"connected_time":1497000000000,"state":"active","ping":52},{"user_id":607,"name":"UNIT 220","steam_id":76561198042243497,"connected_time":3160000000000,"state":"active","ping":66},{"user_id":609,"name":"=BA= Guano Man","steam_id":76561197994182156,"connected_time":3012000000000,"state":"active","ping":61},{"user_id":605,"name":"Casual Costanza","steam_id":76561198024409325,"connected_time":3267000000000,"state":"active","ping":62},{"user_id":596,"name":"Deck Gaming #BuffTheCaber","steam_id":76561198062383017,"connected_time":4484000000000,"state":"active","ping":78},{"user_id":608,"name":"Importality","steam_id":76561198049943127,"connected_time":3138000000000,"state":"active","ping":86},{"user_id":610,"name":"Some sort of fox","steam_id":76561198002162167,"connected_time":3010000000000,"state":"active","ping":146},{"user_id":635,"name":"Praise Murp","steam_id":76561198107200166,"connected_time":1826000000000,"state":"active","ping":52},{"user_id":643,"name":"leonardo doujinshi","steam_id":76561198025810326,"connected_time":1227000000000,"state":"active","ping":74},{"user_id":639,"name":"Astro","steam_id":76561198035676106,"connected_time":1709000000000,"state":"active","ping":93},{"user_id":488,"name":"A Puppy","steam_id":76561198828184456,"connected_time":15232000000000,"state":"active","ping":47},{"user_id":616,"name":"‡∂û","steam_id":76561198275101482,"connected_time":2572000000000,"state":"active","ping":124},{"user_id":630,"name":"h","steam_id":76561198367332571,"connected_time":2293000000000,"state":"active","ping":49},{"user_id":618,"name":"Robyn Goodfellowe","steam_id":76561198074719241,"connected_time":2530000000000,"state":"active","ping":55},{"user_id":634,"name":"Riske","steam_id":76561198115840568,"connected_time":2003000000000,"state":"active","ping":70},{"user_id":620,"name":"dongus","steam_id":76561198042774930,"connected_time":2514000000000,"state":"active","ping":143},{"user_id":632,"name":"_vanity","steam_id":76561198043783192,"connected_time":2284000000000,"state":"active","ping":136},{"user_id":640,"name":"OmniXVII","steam_id":76561198027183394,"connected_time":1638000000000,"state":"active","ping":99},{"user_id":646,"name":"hud_saytext_time 0","steam_id":76561198010327228,"connected_time":173000000000,"state":"active","ping":151},{"user_id":645,"name":"based department","steam_id":76561198068060871,"connected_time":785000000000,"state":"active","ping":80},{"user_id":624,"name":"Bait","steam_id":76561198336489647,"connected_time":2457000000000,"state":"active","ping":73},{"user_id":625,"name":"Death_Esquire","steam_id":76561198372526899,"connected_time":2445000000000,"state":"active","ping":68},{"user_id":641,"name":"ape (real)","steam_id":76561198379444671,"connected_time":1622000000000,"state":"active","ping":62}]},{"server_id":15,"name":"Uncletopia | New York City | 3 | All Maps","name_short":"nyc-3","host":"nyc-1.us.uncletopia.com","port":27035,"enabled":true,"region":"us-east","cc":"us","latitude":40.73061,"longitude":-73.93524,"reserved":0,"last_update":"0001-01-01T00:00:00Z","name_a2s":"Uncletopia | New York City | 3 | All Maps","protocol":17,"map":"cp_dustbowl","folder":"tf","game":"Team Fortress","app_id":440,"player_count":24,"max_players":24,"Bots":0,"server_type":"Dedicated","server_os":"Linux","password":true,"vac":true,"version":"7695204","steam_id":85568392924742820,"keywords":["cp","nocrits","nodmgspread","uncletopia"],"game_id":440,"stv_port":27036,"stv_name":"Uncletopia | New York City | 3 | All Maps | STV","players":[{"user_id":169,"name":"surrender to the void","steam_id":76561198055494039,"connected_time":1194000000000,"state":"active","ping":58},{"user_id":178,"name":"K3_Ironside","steam_id":76561198075458738,"connected_time":768000000000,"state":"active","ping":75},{"user_id":150,"name":"metalhydra273","steam_id":76561198139513424,"connected_time":3107000000000,"state":"active","ping":51},{"user_id":167,"name":"HimpoX","steam_id":76561198043946778,"connected_time":1328000000000,"state":"active","ping":165},{"user_id":141,"name":"SuperPengas","steam_id":76561198271958398,"connected_time":3934000000000,"state":"active","ping":53},{"user_id":146,"name":"emctwo","steam_id":76561198095082517,"connected_time":3484000000000,"state":"active","ping":52},{"user_id":179,"name":"pyro jumpscare","steam_id":76561198017120466,"connected_time":753000000000,"state":"active","ping":83},{"user_id":170,"name":"Maxyyt","steam_id":76561198062309005,"connected_time":1145000000000,"state":"active","ping":55},{"user_id":149,"name":"Rust","steam_id":76561198063959574,"connected_time":3174000000000,"state":"active","ping":63},{"user_id":133,"name":"poobis","steam_id":76561198094801861,"connected_time":4097000000000,"state":"active","ping":90},{"user_id":151,"name":"aussykk","steam_id":76561198840092256,"connected_time":3096000000000,"state":"active","ping":104},{"user_id":134,"name":"ow#n","steam_id":76561198048969516,"connected_time":4076000000000,"state":"active","ping":120},{"user_id":181,"name":"Do Moose go Moo?","steam_id":76561198073550620,"connected_time":405000000000,"state":"active","ping":60},{"user_id":136,"name":"CactusFarms","steam_id":76561199009131802,"connected_time":4008000000000,"state":"active","ping":140},{"user_id":171,"name":"jimmybones06@yahoo.com","steam_id":76561198229850516,"connected_time":1140000000000,"state":"active","ping":73},{"user_id":172,"name":"megaboi796","steam_id":76561198122995438,"connected_time":1076000000000,"state":"active","ping":56},{"user_id":107,"name":"hahafunny21","steam_id":76561199045893767,"connected_time":6793000000000,"state":"active","ping":78},{"user_id":35,"name":"BMongrel","steam_id":76561198072166677,"connected_time":12399000000000,"state":"active","ping":67},{"user_id":175,"name":"upisfree","steam_id":76561198064037857,"connected_time":899000000000,"state":"active","ping":158},{"user_id":180,"name":"rlty","steam_id":76561198009395055,"connected_time":724000000000,"state":"active","ping":48},{"user_id":176,"name":"CrackerThatSmilesBack","steam_id":76561198257841533,"connected_time":891000000000,"state":"active","ping":96},{"user_id":177,"name":"Jw. www.vaticancatholic.com","steam_id":76561198190170075,"connected_time":887000000000,"state":"active","ping":49},{"user_id":44,"name":"Big Domino","steam_id":76561198055743516,"connected_time":12297000000000,"state":"active","ping":55},{"user_id":45,"name":"davidflyswag","steam_id":76561198979060652,"connected_time":12253000000000,"state":"active","ping":87}]},{"server_id":16,"name":"Uncletopia | New York City | 4 | Community","name_short":"nyc-4","host":"nyc-1.us.uncletopia.com","port":27045,"enabled":true,"region":"us-east","cc":"us","latitude":40.73061,"longitude":-73.93524,"reserved":0,"last_update":"0001-01-01T00:00:00Z","name_a2s":"Uncletopia | New York City | 4 | Community","protocol":17,"map":"workshop/pl_vigil_rc9.ugc1266210012","folder":"tf","game":"Team Fortress","app_id":440,"player_count":0,"max_players":24,"Bots":0,"server_type":"Dedicated","server_os":"Linux","password":true,"vac":true,"version":"7695204","steam_id":85568392924742821,"keywords":["nocrits","nodmgspread","payload","uncletopia"],"game_id":440,"stv_port":27046,"stv_name":"Uncletopia | New York City | 4 | Community | STV","players":null},{"server_id":142,"name":"Uncletopia | S√£o Paulo | 1 | All Maps","name_short":"sao-1","host":"sao-1.br.uncletopia.com","port":27015,"enabled":true,"region":"sa","cc":"br","latitude":-23.533773,"longitude":-46.62529,"reserved":0,"last_update":"0001-01-01T00:00:00Z","name_a2s":"Uncletopia | S√£o Paulo | 1 | All Maps","protocol":17,"map":"cp_snakewater_final1","folder":"tf","game":"Team Fortress","app_id":440,"player_count":0,"max_players":24,"Bots":0,"server_type":"Dedicated","server_os":"Linux","password":true,"vac":true,"version":"7695204","steam_id":85568392924469996,"keywords":["cp","nocrits","nodmgspread","uncletopia"],"game_id":440,"stv_port":27016,"stv_name":"Uncletopia | S√£o Paulo | 1 | All Maps | STV","players":null},{"server_id":143,"name":"Uncletopia | S√£o Paulo | 2 | All Maps","name_short":"sao-2","host":"sao-2.br.uncletopia.com","port":27015,"enabled":true,"region":"sa","cc":"br","latitude":-23.533773,"longitude":-46.62529,"reserved":0,"last_update":"0001-01-01T00:00:00Z","name_a2s":"Uncletopia | S√£o Paulo | 2 | All Maps","protocol":17,"map":"koth_highpass","folder":"tf","game":"Team Fortress","app_id":440,"player_count":0,"max_players":24,"Bots":0,"server_type":"Dedicated","server_os":"Linux","password":true,"vac":true,"version":"7695204","steam_id":85568392924485349,"keywords":["cp","nocrits","nodmgspread","uncletopia"],"game_id":440,"stv_port":27016,"stv_name":"Uncletopia | S√£o Paulo | 2 | All Maps | STV","players":null},{"server_id":7,"name":"Uncletopia | Seattle | 1 | All Maps","name_short":"sea-1","host":"sea-1.us.uncletopia.com","port":27015,"enabled":true,"region":"us-west","cc":"us","latitude":47.608013,"longitude":-122.33517,"reserved":0,"last_update":"0001-01-01T00:00:00Z","name_a2s":"Uncletopia | Seattle | 1 | All Maps","protocol":17,"map":"pl_upward","folder":"tf","game":"Team Fortress","app_id":440,"player_count":24,"max_players":24,"Bots":0,"server_type":"Dedicated","server_os":"Linux","password":true,"vac":true,"version":"7695204","steam_id":85568392924469997,"keywords":["nocrits","nodmgspread","payload","uncletopia"],"game_id":440,"stv_port":27016,"stv_name":"Uncletopia | Seattle | 1 | All Maps | STV","players":[{"user_id":465,"name":"Common","steam_id":76561198041083863,"connected_time":2390000000000,"state":"active","ping":52},{"user_id":476,"name":"Wso1123","steam_id":76561198048040111,"connected_time":1695000000000,"state":"active","ping":53},{"user_id":492,"name":"duddlee","steam_id":76561198030052564,"connected_time":409000000000,"state":"active","ping":59},{"user_id":485,"name":"seats","steam_id":76561197998756039,"connected_time":870000000000,"state":"active","ping":77},{"user_id":494,"name":"Mom","steam_id":76561198207936000,"connected_time":131000000000,"state":"active","ping":65},{"user_id":483,"name":"[TrC] Nosy","steam_id":76561197978859310,"connected_time":894000000000,"state":"active","ping":58},{"user_id":477,"name":"hotdog every meal","steam_id":76561198392514273,"connected_time":1636000000000,"state":"active","ping":60},{"user_id":470,"name":"Luca","steam_id":76561198125087140,"connected_time":2154000000000,"state":"active","ping":48},{"user_id":488,"name":"Stapler","steam_id":76561198099295077,"connected_time":766000000000,"state":"active","ping":64},{"user_id":420,"name":"lavender","steam_id":76561199069518286,"connected_time":6055000000000,"state":"active","ping":76},{"user_id":473,"name":"[TrC] Dackstrus","steam_id":76561197973518509,"connected_time":1810000000000,"state":"active","ping":61},{"user_id":461,"name":"gorlab","steam_id":76561198025089694,"connected_time":2607000000000,"state":"active","ping":64},{"user_id":416,"name":"General Fisticuffs","steam_id":76561198255721392,"connected_time":6865000000000,"state":"active","ping":106},{"user_id":490,"name":"icecxld","steam_id":76561198079018805,"connected_time":425000000000,"state":"active","ping":99},{"user_id":496,"name":"RiceBoi","steam_id":76561198099635387,"connected_time":0,"state":"spawning","ping":41},{"user_id":457,"name":"Sweets","steam_id":76561198998446307,"connected_time":3352000000000,"state":"active","ping":68},{"user_id":463,"name":"KellyKapoor","steam_id":76561198040828123,"connected_time":2405000000000,"state":"active","ping":50},{"user_id":450,"name":"Discovery","steam_id":76561198841844093,"connected_time":3995000000000,"state":"active","ping":79},{"user_id":489,"name":"zinnk","steam_id":76561198092081825,"connected_time":751000000000,"state":"active","ping":85},{"user_id":456,"name":"Optimore","steam_id":76561198047662990,"connected_time":3397000000000,"state":"active","ping":73},{"user_id":451,"name":"Pubk","steam_id":76561198095939571,"connected_time":3747000000000,"state":"active","ping":42},{"user_id":493,"name":"Level 99 Mudcrab","steam_id":76561198077452771,"connected_time":283000000000,"state":"active","ping":59},{"user_id":458,"name":"Lambchop","steam_id":76561198043900363,"connected_time":3338000000000,"state":"active","ping":85},{"user_id":495,"name":"Zuriel","steam_id":76561198149673080,"connected_time":112000000000,"state":"active","ping":67}]},{"server_id":119,"name":"Uncletopia | Seattle | 2 | All Maps","name_short":"sea-2","host":"sea-1.us.uncletopia.com","port":27025,"enabled":true,"region":"us-west","cc":"us","latitude":47.608013,"longitude":-122.33517,"reserved":0,"last_update":"0001-01-01T00:00:00Z","name_a2s":"Uncletopia | Seattle | 2 | All Maps","protocol":17,"map":"pl_coal_event","folder":"tf","game":"Team Fortress","app_id":440,"player_count":19,"max_players":24,"Bots":0,"server_type":"Dedicated","server_os":"Linux","password":true,"vac":true,"version":"7695204","steam_id":85568392924469998,"keywords":["nocrits","nodmgspread","payload","uncletopia"],"game_id":440,"stv_port":27026,"stv_name":"Uncletopia | Seattle | 2 | All Maps | STV","players":[{"user_id":543,"name":"Wacks","steam_id":76561198079476100,"connected_time":1106000000000,"state":"active","ping":66},{"user_id":551,"name":"El Gato Paranoico","steam_id":76561198116567116,"connected_time":644000000000,"state":"active","ping":119},{"user_id":559,"name":"Feel the bern","steam_id":76561198078824519,"connected_time":47000000000,"state":"active","ping":92},{"user_id":535,"name":"JJP","steam_id":76561198032914094,"connected_time":1922000000000,"state":"active","ping":60},{"user_id":545,"name":"JON","steam_id":76561198057971005,"connected_time":1047000000000,"state":"active","ping":40},{"user_id":532,"name":"bappo del taco","steam_id":76561199068510270,"connected_time":1949000000000,"state":"active","ping":53},{"user_id":557,"name":"Bagaboned","steam_id":76561198043761335,"connected_time":81000000000,"state":"active","ping":49},{"user_id":556,"name":"OH JIMMY I'M HOME #SaveTf2","steam_id":76561198396658806,"connected_time":84000000000,"state":"active","ping":88},{"user_id":558,"name":"hoodclips","steam_id":76561198253706796,"connected_time":78000000000,"state":"active","ping":134},{"user_id":554,"name":"Lore","steam_id":76561198098407538,"connected_time":481000000000,"state":"active","ping":105},{"user_id":553,"name":"westward","steam_id":76561198805512350,"connected_time":541000000000,"state":"active","ping":47},{"user_id":555,"name":"bentley#6761","steam_id":76561198398346442,"connected_time":452000000000,"state":"active","ping":58},{"user_id":526,"name":"lilypad\u003c/3","steam_id":76561198094140669,"connected_time":2338000000000,"state":"active","ping":63},{"user_id":547,"name":"havarti gaming","steam_id":76561198069895678,"connected_time":947000000000,"state":"active","ping":64},{"user_id":548,"name":"Ryan Cranston","steam_id":76561198272658103,"connected_time":897000000000,"state":"active","ping":53},{"user_id":499,"name":"hypotenuse","steam_id":76561198062479158,"connected_time":5009000000000,"state":"active","ping":52},{"user_id":549,"name":"PP_PhD","steam_id":76561198168851111,"connected_time":888000000000,"state":"active","ping":56},{"user_id":550,"name":"Flowey","steam_id":76561198442304406,"connected_time":683000000000,"state":"active","ping":54},{"user_id":537,"name":"onionman0106","steam_id":76561199067766868,"connected_time":1904000000000,"state":"active","ping":38}]},{"server_id":17,"name":"Uncletopia | San Francisco | 1 | All Maps","name_short":"sfo-1","host":"sfo-1.us.uncletopia.com","port":27015,"enabled":true,"region":"us-west","cc":"us","latitude":37.77397,"longitude":-122.4313,"reserved":0,"last_update":"0001-01-01T00:00:00Z","name_a2s":"Uncletopia | San Francisco | 1 | All Maps","protocol":17,"map":"cp_process_final","folder":"tf","game":"Team Fortress","app_id":440,"player_count":24,"max_players":24,"Bots":0,"server_type":"Dedicated","server_os":"Linux","password":true,"vac":true,"version":"7695204","steam_id":85568392924469999,"keywords":["cp","nocrits","nodmgspread","uncletopia"],"game_id":440,"stv_port":27016,"stv_name":"Uncletopia | San Francisco | 1 | All Maps | STV","players":[{"user_id":849,"name":"Nocturnal","steam_id":76561198278704738,"connected_time":3253000000000,"state":"active","ping":60},{"user_id":873,"name":"Kenpachi","steam_id":76561198803824764,"connected_time":250000000000,"state":"active","ping":78},{"user_id":839,"name":"goldhed","steam_id":76561198051751133,"connected_time":4855000000000,"state":"active","ping":79},{"user_id":718,"name":"Soap Man","steam_id":76561198000490235,"connected_time":12436000000000,"state":"active","ping":81},{"user_id":719,"name":"Inspecteur Spie","steam_id":76561198082825407,"connected_time":12422000000000,"state":"active","ping":100},{"user_id":878,"name":"Lily Thorn","steam_id":76561198305488625,"connected_time":67000000000,"state":"active","ping":79},{"user_id":758,"name":"Livin' Like Larry","steam_id":76561198313360974,"connected_time":10466000000000,"state":"active","ping":30},{"user_id":856,"name":"Cam","steam_id":76561198047295832,"connected_time":2080000000000,"state":"active","ping":59},{"user_id":858,"name":"Fall from Grace!!","steam_id":76561198124695376,"connected_time":2059000000000,"state":"active","ping":117},{"user_id":871,"name":"Reisen Udongein Inaba","steam_id":76561198051082314,"connected_time":268000000000,"state":"active","ping":75},{"user_id":866,"name":"cheetaz","steam_id":76561198224614084,"connected_time":875000000000,"state":"active","ping":119},{"user_id":842,"name":"Smiling","steam_id":76561198293407075,"connected_time":4512000000000,"state":"active","ping":78},{"user_id":840,"name":"huiei","steam_id":76561198073763735,"connected_time":4850000000000,"state":"active","ping":59},{"user_id":872,"name":"Junko","steam_id":76561198146089003,"connected_time":262000000000,"state":"active","ping":103},{"user_id":879,"name":"robber","steam_id":76561199033459399,"connected_time":66000000000,"state":"active","ping":42},{"user_id":870,"name":"DeckofDragons","steam_id":76561198057398213,"connected_time":319000000000,"state":"active","ping":69},{"user_id":875,"name":"TriggerPullPone","steam_id":76561198071789810,"connected_time":206000000000,"state":"active","ping":55},{"user_id":845,"name":"Frongus","steam_id":76561197979056451,"connected_time":4453000000000,"state":"active","ping":60},{"user_id":876,"name":"The Fly (1958)","steam_id":76561198131532406,"connected_time":197000000000,"state":"active","ping":142},{"user_id":877,"name":"The_Tax_Man","steam_id":76561198205246144,"connected_time":98000000000,"state":"active","ping":84},{"user_id":855,"name":"Shiel√ê","steam_id":76561198102884594,"connected_time":2423000000000,"state":"active","ping":79},{"user_id":857,"name":"devils nightmare","steam_id":76561198068136765,"connected_time":2080000000000,"state":"active","ping":54},{"user_id":860,"name":"Arizona Ranger Gaming","steam_id":76561199029855908,"connected_time":1753000000000,"state":"active","ping":72},{"user_id":865,"name":"St. Michael","steam_id":76561198037611052,"connected_time":1211000000000,"state":"active","ping":80}]},{"server_id":18,"name":"Uncletopia | San Francisco | 2 | All Maps","name_short":"sfo-2","host":"sfo-1.us.uncletopia.com","port":27025,"enabled":true,"region":"us-west","cc":"us","latitude":37.77397,"longitude":-122.4313,"reserved":0,"last_update":"0001-01-01T00:00:00Z","name_a2s":"Uncletopia | San Francisco | 2 | All Maps","protocol":17,"map":"koth_lakeside_final","folder":"tf","game":"Team Fortress","app_id":440,"player_count":0,"max_players":24,"Bots":0,"server_type":"Dedicated","server_os":"Linux","password":true,"vac":true,"version":"7695204","steam_id":85568392924470000,"keywords":["cp","nocrits","nodmgspread","uncletopia"],"game_id":440,"stv_port":27026,"stv_name":"Uncletopia | San Francisco | 2 | All Maps | STV","players":null},{"server_id":19,"name":"Uncletopia | San Francisco | 3 | No Payload","name_short":"sfo-3","host":"sfo-1.us.uncletopia.com","port":27035,"enabled":true,"region":"us-west","cc":"us","latitude":37.77397,"longitude":-122.4313,"reserved":0,"last_update":"0001-01-01T00:00:00Z","name_a2s":"Uncletopia | San Francisco | 3 | No Payload","protocol":17,"map":"koth_harvest_final","folder":"tf","game":"Team Fortress","app_id":440,"player_count":3,"max_players":24,"Bots":0,"server_type":"Dedicated","server_os":"Linux","password":true,"vac":true,"version":"7695204","steam_id":85568392924742824,"keywords":["cp","nocrits","nodmgspread","uncletopia"],"game_id":440,"stv_port":27036,"stv_name":"Uncletopia | San Francisco | 3 | No Payload | STV","players":[{"user_id":24,"name":"Schizo Femboy","steam_id":76561199162627150,"connected_time":282000000000,"state":"active","ping":79},{"user_id":25,"name":"Cheetos_Burritos","steam_id":76561198149784760,"connected_time":115000000000,"state":"active","ping":44},{"user_id":26,"name":"Elscha2k","steam_id":76561199027598359,"connected_time":69000000000,"state":"active","ping":91}]},{"server_id":20,"name":"Uncletopia | San Francisco | 4 | Community","name_short":"sfo-4","host":"sfo-1.us.uncletopia.com","port":27045,"enabled":true,"region":"us-west","cc":"us","latitude":37.77397,"longitude":-122.4313,"reserved":0,"last_update":"0001-01-01T00:00:00Z","name_a2s":"Uncletopia | San Francisco | 4 | Community","protocol":17,"map":"koth_highpass","folder":"tf","game":"Team Fortress","app_id":440,"player_count":0,"max_players":24,"Bots":0,"server_type":"Dedicated","server_os":"Linux","password":true,"vac":true,"version":"7695204","steam_id":85568392924742826,"keywords":["cp","nocrits","nodmgspread","uncletopia"],"game_id":440,"stv_port":0,"stv_name":"","players":null},{"server_id":141,"name":"Uncletopia | Sydney | 1 | All Maps","name_short":"syd-1","host":"syd-1.au.uncletopia.com","port":27015,"enabled":true,"region":"au","cc":"au","latitude":-33.865143,"longitude":151.2099,"reserved":0,"last_update":"0001-01-01T00:00:00Z","name_a2s":"Uncletopia | Sydney | 1 | All Maps","protocol":17,"map":"pl_badwater","folder":"tf","game":"Team Fortress","app_id":440,"player_count":24,"max_players":24,"Bots":0,"server_type":"Dedicated","server_os":"Linux","password":true,"vac":true,"version":"7695204","steam_id":85568392924470001,"keywords":["nocrits","nodmgspread","payload","uncletopia"],"game_id":440,"stv_port":27016,"stv_name":"Uncletopia | Sydney | 1 | All Maps | STV","players":[{"user_id":284,"name":"tombagatelle","steam_id":76561199232727317,"connected_time":4519000000000,"state":"active","ping":76},{"user_id":328,"name":"John","steam_id":76561198126578228,"connected_time":599000000000,"state":"active","ping":55},{"user_id":324,"name":"Mooty","steam_id":76561198301293435,"connected_time":1127000000000,"state":"active","ping":55},{"user_id":327,"name":"Burger Man Chips","steam_id":76561198019107403,"connected_time":631000000000,"state":"active","ping":62},{"user_id":315,"name":"he made graduation tho","steam_id":76561199090168813,"connected_time":2094000000000,"state":"active","ping":48},{"user_id":276,"name":"Eugene (built different)","steam_id":76561198079108027,"connected_time":5700000000000,"state":"active","ping":57},{"user_id":310,"name":"Mr. Blop","steam_id":76561198072273373,"connected_time":2475000000000,"state":"active","ping":61},{"user_id":277,"name":"Soru","steam_id":76561198010844786,"connected_time":5380000000000,"state":"active","ping":69},{"user_id":247,"name":"SBS | uber_gamer92","steam_id":76561198029766209,"connected_time":8288000000000,"state":"active","ping":55},{"user_id":304,"name":"Chrisy","steam_id":76561198092382473,"connected_time":2675000000000,"state":"active","ping":85},{"user_id":321,"name":"no teles 4 u","steam_id":76561198018478297,"connected_time":1497000000000,"state":"active","ping":70},{"user_id":319,"name":"DeezNutz69Gamer","steam_id":76561199221531190,"connected_time":1812000000000,"state":"active","ping":149},{"user_id":329,"name":"Pak'n'Save","steam_id":76561199199754055,"connected_time":563000000000,"state":"active","ping":63},{"user_id":330,"name":"table","steam_id":76561199218095319,"connected_time":534000000000,"state":"active","ping":64},{"user_id":316,"name":"Xodohtro","steam_id":76561197986660525,"connected_time":2077000000000,"state":"active","ping":69},{"user_id":325,"name":"average nothing enjoyer","steam_id":76561198302936089,"connected_time":1032000000000,"state":"active","ping":64},{"user_id":288,"name":"Altara","steam_id":76561198022306164,"connected_time":4263000000000,"state":"active","ping":56},{"user_id":290,"name":"fido dido","steam_id":76561198017390541,"connected_time":4163000000000,"state":"active","ping":46},{"user_id":323,"name":"Lateralus","steam_id":76561198007865860,"connected_time":1323000000000,"state":"active","ping":108},{"user_id":300,"name":"canned tuna","steam_id":76561198420727269,"connected_time":3771000000000,"state":"active","ping":47},{"user_id":326,"name":"Charikarp","steam_id":76561198132766743,"connected_time":823000000000,"state":"active","ping":96},{"user_id":296,"name":"Soggy Con-Guog","steam_id":76561198115327706,"connected_time":3933000000000,"state":"active","ping":61},{"user_id":298,"name":"juddmandeluxe_","steam_id":76561198044228552,"connected_time":3815000000000,"state":"active","ping":62},{"user_id":331,"name":"Captain Canadia","steam_id":76561198167967735,"connected_time":266000000000,"state":"active","ping":50}]},{"server_id":123,"name":"Uncletopia | Sydney | 2 | All Maps","name_short":"syd-2","host":"syd-1.au.uncletopia.com","port":27025,"enabled":true,"region":"au","cc":"au","latitude":-33.865143,"longitude":151.2099,"reserved":0,"last_update":"0001-01-01T00:00:00Z","name_a2s":"Uncletopia | Sydney | 2 | All Maps","protocol":17,"map":"cp_altitude","folder":"tf","game":"Team Fortress","app_id":440,"player_count":0,"max_players":24,"Bots":0,"server_type":"Dedicated","server_os":"Linux","password":true,"vac":true,"version":"7695204","steam_id":85568392924470002,"keywords":["cp","nocrits","nodmgspread","uncletopia"],"game_id":440,"stv_port":27026,"stv_name":"Uncletopia | Sydney | 2 | All Maps | STV","players":null},{"server_id":395,"name":"Uncletopia | Sydney | 3 | All Maps","name_short":"syd-3","host":"syd-1.au.uncletopia.com","port":27035,"enabled":true,"region":"au","cc":"au","latitude":-33.865143,"longitude":151.2099,"reserved":0,"last_update":"0001-01-01T00:00:00Z","name_a2s":"Uncletopia | Sydney | 3 | All Maps","protocol":17,"map":"koth_highpass","folder":"tf","game":"Team Fortress","app_id":440,"player_count":0,"max_players":24,"Bots":0,"server_type":"Dedicated","server_os":"Linux","password":true,"vac":true,"version":"7695204","steam_id":85568392925194467,"keywords":["cp","nocrits","nodmgspread","uncletopia"],"game_id":440,"stv_port":27036,"stv_name":"Uncletopia | Sydney | 3 | All Maps | STV","players":null},{"server_id":396,"name":"Uncletopia | Sydney | 4 | All Maps","name_short":"syd-4","host":"syd-1.au.uncletopia.com","port":27045,"enabled":true,"region":"au","cc":"au","latitude":-33.865143,"longitude":151.2099,"reserved":0,"last_update":"0001-01-01T00:00:00Z","name_a2s":"Uncletopia | Sydney | 4 | All Maps","protocol":17,"map":"pl_frontier_final","folder":"tf","game":"Team Fortress","app_id":440,"player_count":24,"max_players":24,"Bots":0,"server_type":"Dedicated","server_os":"Linux","password":true,"vac":true,"version":"7695204","steam_id":85568392925397958,"keywords":["nocrits","nodmgspread","payload","uncletopia"],"game_id":440,"stv_port":27046,"stv_name":"Uncletopia | Sydney | 4 | All Maps | STV","players":[{"user_id":95,"name":"EpicGuy4227","steam_id":76561198094132328,"connected_time":2915000000000,"state":"active","ping":55},{"user_id":126,"name":"clout","steam_id":76561198073310502,"connected_time":785000000000,"state":"active","ping":74},{"user_id":105,"name":"spillingpoint","steam_id":76561199252195387,"connected_time":1890000000000,"state":"active","ping":72},{"user_id":117,"name":"Wampy","steam_id":76561199211235248,"connected_time":1125000000000,"state":"active","ping":36},{"user_id":63,"name":"tropical mango brain aneurysm","steam_id":76561199005815714,"connected_time":5123000000000,"state":"active","ping":67},{"user_id":140,"name":"dubspol","steam_id":76561198138367852,"connected_time":101000000000,"state":"active","ping":68},{"user_id":17,"name":"CoolJosh3k","steam_id":76561197997407342,"connected_time":9487000000000,"state":"active","ping":52},{"user_id":109,"name":"Docfelix","steam_id":76561198078038957,"connected_time":1418000000000,"state":"active","ping":53},{"user_id":110,"name":"Pizzaray","steam_id":76561198005075102,"connected_time":1374000000000,"state":"active","ping":38},{"user_id":83,"name":"Kintaro","steam_id":76561199400481258,"connected_time":3738000000000,"state":"active","ping":40},{"user_id":130,"name":"cappa","steam_id":76561198182005235,"connected_time":543000000000,"state":"active","ping":41},{"user_id":114,"name":"helton1 (Happy Holidays!)","steam_id":76561198841855657,"connected_time":1200000000000,"state":"active","ping":48},{"user_id":136,"name":"Worst Sniper","steam_id":76561198025733081,"connected_time":230000000000,"state":"active","ping":73},{"user_id":99,"name":"KeeweMiner","steam_id":76561198373679200,"connected_time":2649000000000,"state":"active","ping":93},{"user_id":124,"name":"LMAO xDDDDDDD","steam_id":76561198104864553,"connected_time":952000000000,"state":"active","ping":47},{"user_id":118,"name":"Nut_Master1235","steam_id":76561199435507484,"connected_time":1103000000000,"state":"active","ping":98},{"user_id":131,"name":"Y0shua3","steam_id":76561199381627916,"connected_time":508000000000,"state":"active","ping":114},{"user_id":132,"name":"Andrew Taint","steam_id":76561198271435803,"connected_time":423000000000,"state":"active","ping":53},{"user_id":100,"name":"Blank","steam_id":76561198063064054,"connected_time":2500000000000,"state":"active","ping":59},{"user_id":129,"name":"kaiyota","steam_id":76561198344064028,"connected_time":661000000000,"state":"active","ping":55},{"user_id":93,"name":"J''''","steam_id":76561198047565137,"connected_time":3090000000000,"state":"active","ping":63},{"user_id":104,"name":"electro599","steam_id":76561198058148858,"connected_time":2250000000000,"state":"active","ping":58},{"user_id":120,"name":"PhatWifri","steam_id":76561198171490029,"connected_time":1055000000000,"state":"active","ping":62},{"user_id":139,"name":"jim","steam_id":76561198157250318,"connected_time":174000000000,"state":"active","ping":56}]},{"server_id":58,"name":"Uncletopia | Sydney | 5 | No Payload","name_short":"syd-5","host":"syd-1.au.uncletopia.com","port":27055,"enabled":true,"region":"au","cc":"au","latitude":-33.865143,"longitude":151.2099,"reserved":0,"last_update":"0001-01-01T00:00:00Z","name_a2s":"Uncletopia | Sydney | 5 | No Payload","protocol":17,"map":"koth_viaduct","folder":"tf","game":"Team Fortress","app_id":440,"player_count":0,"max_players":24,"Bots":0,"server_type":"Dedicated","server_os":"Linux","password":true,"vac":true,"version":"7695204","steam_id":85568392925397959,"keywords":["cp","nocrits","nodmgspread","uncletopia"],"game_id":440,"stv_port":0,"stv_name":"","players":null},{"server_id":59,"name":"Uncletopia | Sydney | 6 | Community","name_short":"syd-6","host":"syd-1.au.uncletopia.com","port":27065,"enabled":true,"region":"au","cc":"au","latitude":-33.865143,"longitude":151.2099,"reserved":0,"last_update":"0001-01-01T00:00:00Z","name_a2s":"Uncletopia | Sydney | 6 | Community","protocol":17,"map":"workshop/koth_product_final.ugc454272353","folder":"tf","game":"Team Fortress","app_id":440,"player_count":0,"max_players":24,"Bots":0,"server_type":"Dedicated","server_os":"Linux","password":true,"vac":true,"version":"7695204","steam_id":85568392925397960,"keywords":["cp","nocrits","nodmgspread","uncletopia"],"game_id":440,"stv_port":27066,"stv_name":"Uncletopia | Sydney | 6 | Community | STV","players":null},{"server_id":49,"name":"Uncletopia | Warsaw | 1 | All Maps","name_short":"waw-1","host":"waw-1.pl.uncletopia.com","port":27015,"enabled":true,"region":"eu","cc":"pl","latitude":52.2297,"longitude":21.017532,"reserved":0,"last_update":"0001-01-01T00:00:00Z","name_a2s":"Uncletopia | Warsaw | 1 | All Maps","protocol":17,"map":"pl_frontier_final","folder":"tf","game":"Team Fortress","app_id":440,"player_count":0,"max_players":24,"Bots":0,"server_type":"Dedicated","server_os":"Linux","password":true,"vac":true,"version":"7695204","steam_id":85568392925397850,"keywords":["nocrits","nodmgspread","payload","uncletopia"],"game_id":440,"stv_port":0,"stv_name":"","players":null},{"server_id":50,"name":"Uncletopia | Warsaw | 2 | All Maps","name_short":"waw-2","host":"waw-1.pl.uncletopia.com","port":27025,"enabled":true,"region":"eu","cc":"pl","latitude":52.2297,"longitude":21.017532,"reserved":0,"last_update":"0001-01-01T00:00:00Z","name_a2s":"Uncletopia | Warsaw | 2 | All Maps","protocol":17,"map":"cp_snakewater_final1","folder":"tf","game":"Team Fortress","app_id":440,"player_count":0,"max_players":24,"Bots":0,"server_type":"Dedicated","server_os":"Linux","password":true,"vac":true,"version":"7695204","steam_id":85568392925397851,"keywords":["cp","nocrits","nodmgspread","uncletopia"],"game_id":440,"stv_port":0,"stv_name":"","players":null},{"server_id":51,"name":"Uncletopia | Warsaw | 3 | All Maps","name_short":"waw-3","host":"waw-1.pl.uncletopia.com","port":27035,"enabled":true,"region":"eu","cc":"pl","latitude":52.2297,"longitude":21.017532,"reserved":0,"last_update":"0001-01-01T00:00:00Z","name_a2s":"Uncletopia | Warsaw | 3 | All Maps","protocol":17,"map":"pl_barnblitz","folder":"tf","game":"Team Fortress","app_id":440,"player_count":0,"max_players":24,"Bots":0,"server_type":"Dedicated","server_os":"Linux","password":true,"vac":true,"version":"7695204","steam_id":85568392925397852,"keywords":["nocrits","nodmgspread","payload","uncletopia"],"game_id":440,"stv_port":0,"stv_name":"","players":null},{"server_id":52,"name":"Uncletopia | Warsaw | 4 | All Maps","name_short":"waw-4","host":"waw-1.pl.uncletopia.com","port":27045,"enabled":true,"region":"eu","cc":"pl","latitude":52.2297,"longitude":21.017532,"reserved":0,"last_update":"0001-01-01T00:00:00Z","name_a2s":"Uncletopia | Warsaw | 4 | All Maps","protocol":17,"map":"cp_altitude","folder":"tf","game":"Team Fortress","app_id":440,"player_count":0,"max_players":24,"Bots":0,"server_type":"Dedicated","server_os":"Linux","password":true,"vac":true,"version":"7695204","steam_id":85568392925397853,"keywords":["cp","nocrits","nodmgspread","uncletopia"],"game_id":440,"stv_port":0,"stv_name":"","players":null},{"server_id":53,"name":"Uncletopia | Warsaw | 5 | No Payload","name_short":"waw-5","host":"waw-1.pl.uncletopia.com","port":27055,"enabled":true,"region":"eu","cc":"pl","latitude":52.2297,"longitude":21.017532,"reserved":0,"last_update":"0001-01-01T00:00:00Z","name_a2s":"Uncletopia | Warsaw | 5 | No Payload","protocol":17,"map":"pl_badwater","folder":"tf","game":"Team Fortress","app_id":440,"player_count":0,"max_players":24,"Bots":0,"server_type":"Dedicated","server_os":"Linux","password":true,"vac":true,"version":"7695204","steam_id":85568392925397854,"keywords":["nocrits","nodmgspread","payload","uncletopia"],"game_id":440,"stv_port":0,"stv_name":"","players":null},{"server_id":54,"name":"Uncletopia | Warsaw | 6 | Community","name_short":"waw-6","host":"waw-1.pl.uncletopia.com","port":27065,"enabled":true,"region":"eu","cc":"pl","latitude":52.2297,"longitude":21.017532,"reserved":0,"last_update":"0001-01-01T00:00:00Z","name_a2s":"Uncletopia | Warsaw | 6 | Community","protocol":17,"map":"pl_barnblitz","folder":"tf","game":"Team Fortress","app_id":440,"player_count":0,"max_players":24,"Bots":0,"server_type":"Dedicated","server_os":"Linux","password":true,"vac":true,"version":"7695204","steam_id":85568392925397856,"keywords":["nocrits","nodmgspread","payload","uncletopia"],"game_id":440,"stv_port":0,"stv_name":"","players":null}]}