{"status":true,"message":"","result":[{"server_id":9,"name":"Uncletopia | Atlanta | 1 | All Maps","name_short":"atl-1","host":"atl-1.us.uncletopia.com","port":27015,"enabled":true,"region":"us-east","cc":"us","latitude":33.753746,"longitude":-84.38633,"reserved":0,"last_update":"0001-01-01T00:00:00Z","name_a2s":"Uncletopia | Atlanta | 1 | All Maps","protocol":17,"map":"koth_cascade","folder":"tf","game":"Team Fortress","app_id":440,"player_count":0,"max_players":24,"Bots":0,"server_type":"Dedicated","server_os":"Linux","password":true,"vac":true,"version":"7961495","steam_id":85568392924469982,"keywords":["cp","nocrits","nodmgspread","uncletopia"],"game_id":440,"stv_port":27016,"stv_name":"Uncletopia | Atlanta | 1 | All Maps | STV","players":null},{"server_id":104,"name":"Uncletopia | Atlanta | 2 | All Maps","name_short":"atl-2","host":"atl-1.us.uncletopia.com","port":27025,"enabled":true,"region":"us-east","cc":"us","latitude":33.753746,"longitude":-84.38633,"reserved":0,"last_update":"0001-01-01T00:00:00Z","name_a2s":"Uncletopia | Atlanta | 2 | All Maps","protocol":17,"map":"cp_process_final","folder":"tf","game":"Team Fortress","app_id":440,"player_count":0,"max_players":24,"Bots":0,"server_type":"Dedicated","server_os":"Linux","password":true,"vac":true,"version":"7961495","steam_id":85568392924469983,"keywords":["cp","nocrits","nodmgspread","uncletopia"],"game_id":440,"stv_port":27026,"stv_name":"Uncletopia | Atlanta | 2 | All Maps | STV","players":null},{"server_id":400,"name":"Uncletopia | Atlanta | 3 | Stopwatch","name_short":"atl-3","host":"atl-1.us.uncletopia.com","port":27035,"enabled":true,"region":"us-east","cc":"us","latitude":33.753746,"longitude":-84.38633,"reserved":0,"last_update":"0001-01-01T00:00:00Z","name_a2s":"Uncletopia | Atlanta | 3 | Stopwatch","protocol":17,"map":"cp_sunshine","folder":"tf","game":"Team Fortress","app_id":440,"player_count":0,"max_players":24,"Bots":0,"server_type":"Dedicated","server_os":"Linux","password":true,"vac":true,"version":"7961495","steam_id":85568392924515187,"keywords":["cp","nocrits","nodmgspread","uncletopia"],"game_id":440,"stv_port":27036,"stv_name":"Uncletopia | Atlanta | 3 | Stopwatch | STV","players":null},{"server_id":401,"name":"Uncletopia | Atlanta | 4 | Community","name_short":"atl-4","host":"atl-1.us.uncletopia.com","port":27045,"enabled":true,"region":"us-east","cc":"us","latitude":33.753746,"longitude":-84.38633,"reserved":0,"last_update":"0001-01-01T00:00:00Z","name_a2s":"Uncletopia | Atlanta | 4 | Community","protocol":17,"map":"workshop/pl_badwater_pro_v12.ugc2142942074","folder":"tf","game":"Team Fortress","app_id":440,"player_count":0,"max_players":24,"Bots":0,"server_type":"Dedicated","server_os":"Linux","password":true,"vac":true,"version":"7961495","steam_id":85568392924515188,"keywords":["nocrits","nodmgspread","payload","uncletopia"],"game_id":440,"stv_port":27046,"stv_name":"Uncletopia | Atlanta | 4 | Community | STV","players":null},{"server_id":2,"name":"Uncletopia | Chicago | 1 | All Maps","name_short":"chi-1","host":"chi-1.us.uncletopia.com","port":27015,"enabled":true,"region":"us-central","cc":"us","latitude":41.881832,"longitude":-87.62318,"reserved":0,"last_update":"0001-01-01T00:00:00Z","name_a2s":"Uncletopia | Chicago | 1 | All Maps","protocol":17,"map":"cp_process_final","folder":"tf","game":"Team Fortress","app_id":440,"player_count":24,"max_players":24,"Bots":0,"server_type":"Dedicated","server_os":"Linux","password":true,"vac":true,"version":"7961495","steam_id":85568392924469984,"keywords":["cp","nocrits","nodmgspread","uncletopia"],"game_id":440,"stv_port":27016,"stv_name":"Uncletopia | Chicago | 1 | All Maps | STV","players":[{"user_id":42,"name":"ParchedPigeon9","steam_id":76561198257204226,"connected_time":5187000000000,"state":"active","ping":63},{"user_id":106,"name":"Smartchicken","steam_id":76561198037744517,"connected_time":943000000000,"state":"active","ping":66},{"user_id":114,"name":"Reed the Flame Shadow","steam_id":76561198348354629,"connected_time":757000000000,"state":"active","ping":100},{"user_id":96,"name":"dingle dongler","steam_id":76561198072986994,"connected_time":1716000000000,"state":"active","ping":73},{"user_id":14,"name":"On The Bright Side...","steam_id":76561198168785883,"connected_time":6316000000000,"state":"active","ping":45},{"user_id":109,"name":"FimmbleBimmble","steam_id":76561198039622715,"connected_time":909000000000,"state":"active","ping":68},{"user_id":112,"name":"The Sexflex 9000","steam_id":76561199134112359,"connected_time":832000000000,"state":"active","ping":49},{"user_id":115,"name":"Scribble","steam_id":76561198046115675,"connected_time":753000000000,"state":"active","ping":62},{"user_id":116,"name":"CORGI.EXE","steam_id":76561198077093432,"connected_time":704000000000,"state":"active","ping":54},{"user_id":111,"name":"Milo Xyloto","steam_id":76561198197296569,"connected_time":859000000000,"state":"active","ping":62},{"user_id":51,"name":"starfungus","steam_id":76561198158312789,"connected_time":4648000000000,"state":"active","ping":77},{"user_id":119,"name":"ginosaurusx","steam_id":76561198410640142,"connected_time":252000000000,"state":"active","ping":98},{"user_id":107,"name":"Blue Sea","steam_id":76561198156077339,"connected_time":928000000000,"state":"active","ping":83},{"user_id":98,"name":"dudeguypersonmanhombre","steam_id":76561198052016845,"connected_time":1574000000000,"state":"active","ping":82},{"user_id":99,"name":"iforwood.if","steam_id":76561198314347332,"connected_time":1464000000000,"state":"active","ping":141},{"user_id":100,"name":"Lagster","steam_id":76561198941816254,"connected_time":1452000000000,"state":"active","ping":55},{"user_id":103,"name":"Stacks63bs","steam_id":76561198067797130,"connected_time":1012000000000,"state":"active","ping":74},{"user_id":62,"name":"Iron Fox (Update-sized)","steam_id":76561198326520372,"connected_time":4392000000000,"state":"active","ping":54},{"user_id":102,"name":"FAT","steam_id":76561198296332500,"connected_time":1025000000000,"state":"active","ping":71},{"user_id":97,"name":"Big Business","steam_id":76561198353366625,"connected_time":1594000000000,"state":"active","ping":84},{"user_id":118,"name":"LanFour","steam_id":76561198092092723,"connected_time":518000000000,"state":"active","ping":160},{"user_id":108,"name":"Ginsai","steam_id":76561198107797443,"connected_time":918000000000,"state":"active","ping":68},{"user_id":113,"name":"Tuvok Shakur","steam_id":76561198018875334,"connected_time":822000000000,"state":"active","ping":101},{"user_id":48,"name":"MiTiP","steam_id":76561198868699864,"connected_time":5058000000000,"state":"active","ping":133}]},{"server_id":106,"name":"Uncletopia | Chicago | 2 | All Maps","name_short":"chi-2","host":"chi-1.us.uncletopia.com","port":27025,"enabled":true,"region":"us-central","cc":"us","latitude":41.881832,"longitude":-87.62318,"reserved":0,"last_update":"0001-01-01T00:00:00Z","name_a2s":"Uncletopia | Chicago | 2 | All Maps","protocol":17,"map":"pl_snowycoast","folder":"tf","game":"Team Fortress","app_id":440,"player_count":24,"max_players":24,"Bots":0,"server_type":"Dedicated","server_os":"Linux","password":true,"vac":true,"version":"7961495","steam_id":85568392924469985,"keywords":["nocrits","nodmgspread","payload","uncletopia"],"game_id":440,"stv_port":27026,"stv_name":"Uncletopia | Chicago | 2 | All Maps | STV","players":[{"user_id":214,"name":"loscemo","steam_id":76561197994884609,"connected_time":296000000000,"state":"active","ping":58},{"user_id":197,"name":"St4pps","steam_id":76561198449842958,"connected_time":1586000000000,"state":"active","ping":64},{"user_id":215,"name":"KhorneBread ︻デ 一","steam_id":76561198097069958,"connected_time":219000000000,"state":"active","ping":74},{"user_id":195,"name":"mister slippery","steam_id":76561198057076267,"connected_time":2209000000000,"state":"active","ping":75},{"user_id":216,"name":"e doctor","steam_id":76561198081851446,"connected_time":165000000000,"state":"active","ping":47},{"user_id":217,"name":"Otis","steam_id":76561199503908224,"connected_time":148000000000,"state":"active","ping":55},{"user_id":196,"name":"jadene11","steam_id":76561199369221113,"connected_time":1926000000000,"state":"active","ping":88},{"user_id":218,"name":"toyota tacoma water pump gasket","steam_id":76561198836802899,"connected_time":117000000000,"state":"active","ping":169},{"user_id":178,"name":"shut the fuck up and listen","steam_id":76561198018093835,"connected_time":3474000000000,"state":"active","ping":75},{"user_id":186,"name":"snoopie","steam_id":76561198316441887,"connected_time":3058000000000,"state":"active","ping":83},{"user_id":148,"name":"The No Longer Mute","steam_id":76561198078359985,"connected_time":5289000000000,"state":"active","ping":48},{"user_id":208,"name":"lebronjames","steam_id":76561199508981381,"connected_time":848000000000,"state":"active","ping":86},{"user_id":200,"name":"CHAI","steam_id":76561198119556082,"connected_time":1250000000000,"state":"active","ping":51},{"user_id":204,"name":"Pacts Gornax","steam_id":76561198066256419,"connected_time":1140000000000,"state":"active","ping":75},{"user_id":219,"name":"Steak-Pocketer","steam_id":76561198277651410,"connected_time":88000000000,"state":"active","ping":59},{"user_id":206,"name":"Kirby On Crack","steam_id":76561199070864271,"connected_time":1084000000000,"state":"active","ping":61},{"user_id":188,"name":"georgethewizard555","steam_id":76561199162641455,"connected_time":3017000000000,"state":"active","ping":60},{"user_id":220,"name":"SuperRican","steam_id":76561199406777735,"connected_time":64000000000,"state":"active","ping":70},{"user_id":201,"name":"dog","steam_id":76561198263873491,"connected_time":1208000000000,"state":"active","ping":46},{"user_id":209,"name":"Makima Enjoyer","steam_id":76561198852044774,"connected_time":844000000000,"state":"active","ping":86},{"user_id":221,"name":"drift","steam_id":76561198093781093,"connected_time":63000000000,"state":"active","ping":60},{"user_id":193,"name":"Underscorn","steam_id":76561198374209415,"connected_time":2628000000000,"state":"active","ping":62},{"user_id":179,"name":"Lennu","steam_id":76561198060730154,"connected_time":3419000000000,"state":"active","ping":71},{"user_id":213,"name":"❤Raine❤","steam_id":76561199081937889,"connected_time":311000000000,"state":"active","ping":175}]},{"server_id":402,"name":"Uncletopia | Chicago | 3 | All Maps","name_short":"chi-3","host":"chi-1.us.uncletopia.com","port":27035,"enabled":true,"region":"us-central","cc":"us","latitude":41.881832,"longitude":-87.62318,"reserved":0,"last_update":"0001-01-01T00:00:00Z","name_a2s":"Uncletopia | Chicago | 3 | All Maps","protocol":17,"map":"cp_dustbowl","folder":"tf","game":"Team Fortress","app_id":440,"player_count":24,"max_players":24,"Bots":0,"server_type":"Dedicated","server_os":"Linux","password":true,"vac":true,"version":"7961495","steam_id":85568392924515191,"keywords":["cp","nocrits","nodmgspread","uncletopia"],"game_id":440,"stv_port":27036,"stv_name":"Uncletopia | Chicago | 3 | All Maps | STV","players":[{"user_id":6,"name":"least gay death grips fan","steam_id":76561199118569153,"connected_time":2785000000000,"state":"active","ping":59},{"user_id":73,"name":"the changed name","steam_id":76561199076837870,"connected_time":347000000000,"state":"active","ping":69},{"user_id":82,"name":"Andrew's Taint","steam_id":76561198131400543,"connected_time":180000000000,"state":"active","ping":74},{"user_id":60,"name":"mechinventor6711","steam_id":76561198348155156,"connected_time":922000000000,"state":"active","ping":61},{"user_id":40,"name":"TheJosiahTurner","steam_id":76561198235740776,"connected_time":1675000000000,"state":"active","ping":74},{"user_id":65,"name":"finn the human","steam_id":76561198072592880,"connected_time":756000000000,"state":"active","ping":49},{"user_id":15,"name":"1-800-GHOST-DANCE","steam_id":76561198835430429,"connected_time":2158000000000,"state":"active","ping":82},{"user_id":53,"name":"Thrain39","steam_id":76561199044572405,"connected_time":1174000000000,"state":"active","ping":119},{"user_id":17,"name":"HewittRangers","steam_id":76561198376503064,"connected_time":2147000000000,"state":"active","ping":60},{"user_id":67,"name":"MausWaffles","steam_id":76561198193160991,"connected_time":646000000000,"state":"active","ping":71},{"user_id":71,"name":"Dan","steam_id":76561199236719411,"connected_time":435000000000,"state":"active","ping":86},{"user_id":80,"name":"Recluse","steam_id":76561198155011568,"connected_time":230000000000,"state":"active","ping":74},{"user_id":81,"name":"Dwanor","steam_id":76561198039571887,"connected_time":221000000000,"state":"active","ping":78},{"user_id":74,"name":"Spaces","steam_id":76561199211001514,"connected_time":342000000000,"state":"active","ping":72},{"user_id":42,"name":"Poo","steam_id":76561198265144507,"connected_time":1543000000000,"state":"active","ping":84},{"user_id":75,"name":"Alison \u003c3","steam_id":76561198126211191,"connected_time":338000000000,"state":"active","ping":104},{"user_id":50,"name":"Grandma","steam_id":76561198040831169,"connected_time":1327000000000,"state":"active","ping":69},{"user_id":76,"name":"Balsamicpork","steam_id":76561197995358472,"connected_time":336000000000,"state":"active","ping":60},{"user_id":77,"name":"Season Leaf","steam_id":76561198133121805,"connected_time":275000000000,"state":"active","ping":65},{"user_id":79,"name":"Peketo","steam_id":76561199104376294,"connected_time":238000000000,"state":"active","ping":60},{"user_id":51,"name":"G_reggie","steam_id":76561198084372410,"connected_time":1281000000000,"state":"active","ping":71},{"user_id":68,"name":"Hovg9000","steam_id":76561199191556710,"connected_time":628000000000,"state":"active","ping":77},{"user_id":78,"name":"*KENNY*","steam_id":76561197969042072,"connected_time":257000000000,"state":"active","ping":60},{"user_id":47,"name":"ZestyTrev","steam_id":76561198253391039,"connected_time":1427000000000,"state":"active","ping":75}]},{"server_id":403,"name":"Uncletopia | Chicago | 4 | All Maps","name_short":"chi-4","host":"chi-1.us.uncletopia.com","port":27045,"enabled":true,"region":"us-central","cc":"us","latitude":41.881832,"longitude":-87.62318,"reserved":0,"last_update":"0001-01-01T00:00:00Z","name_a2s":"Uncletopia | Chicago | 4 | All Maps","protocol":17,"map":"cp_process_final","folder":"tf","game":"Team Fortress","app_id":440,"player_count":0,"max_players":24,"Bots":0,"server_type":"Dedicated","server_os":"Linux","password":true,"vac":true,"version":"7961495","steam_id":85568392924515193,"keywords":["cp","nocrits","nodmgspread","uncletopia"],"game_id":440,"stv_port":27046,"stv_name":"Uncletopia | Chicago | 4 | All Maps | STV","players":null},{"server_id":36,"name":"Uncletopia | Chicago | 5 | All Maps","name_short":"chi-5","host":"chi-2.us.uncletopia.com","port":27015,"enabled":true,"region":"us-central","cc":"us","latitude":41.881832,"longitude":-87.62318,"reserved":0,"last_update":"0001-01-01T00:00:00Z","name_a2s":"Uncletopia | Chicago | 5 | All Maps","protocol":17,"map":"pl_upward","folder":"tf","game":"Team Fortress","app_id":440,"player_count":0,"max_players":24,"Bots":0,"server_type":"Dedicated","server_os":"Linux","password":true,"vac":true,"version":"7961495","steam_id":85568392924866362,"keywords":["nocrits","nodmgspread","payload","uncletopia"],"game_id":440,"stv_port":27016,"stv_name":"Uncletopia | Chicago | 5 | All Maps | STV","players":null},{"server_id":37,"name":"Uncletopia | Chicago | 6 | All Maps","name_short":"chi-6","host":"chi-2.us.uncletopia.com","port":27025,"enabled":true,"region":"us-central","cc":"us","latitude":41.881832,"longitude":-87.62318,"reserved":0,"last_update":"0001-01-01T00:00:00Z","name_a2s":"Uncletopia | Chicago | 6 | All Maps","protocol":17,"map":"koth_highpass","folder":"tf","game":"Team Fortress","app_id":440,"player_count":0,"max_players":24,"Bots":0,"server_type":"Dedicated","server_os":"Linux","password":true,"vac":true,"version":"7961495","steam_id":85568392924866363,"keywords":["cp","nocrits","nodmgspread","uncletopia"],"game_id":440,"stv_port":27026,"stv_name":"Uncletopia | Chicago | 6 | All Maps | STV","players":null},{"server_id":38,"name":"Uncletopia | Chicago | 7 | Stopwatch","name_short":"chi-7","host":"chi-2.us.uncletopia.com","port":27035,"enabled":true,"region":"us-central","cc":"us","latitude":41.881832,"longitude":-87.62318,"reserved":0,"last_update":"0001-01-01T00:00:00Z","name_a2s":"Uncletopia | Chicago | 7 | Stopwatch","protocol":17,"map":"cp_snakewater_final1","folder":"tf","game":"Team Fortress","app_id":440,"player_count":0,"max_players":24,"Bots":0,"server_type":"Dedicated","server_os":"Linux","password":true,"vac":true,"version":"7961495","steam_id":85568392924866364,"keywords":["cp","nocrits","nodmgspread","uncletopia"],"game_id":440,"stv_port":27036,"stv_name":"Uncletopia | Chicago | 7 | Stopwatch | STV","players":null},{"server_id":39,"name":"Uncletopia | Chicago | 8 | Community","name_short":"chi-8","host":"chi-2.us.uncletopia.com","port":27045,"enabled":true,"region":"us-central","cc":"us","latitude":41.881832,"longitude":-87.62318,"reserved":0,"last_update":"0001-01-01T00:00:00Z","name_a2s":"Uncletopia | Chicago | 8 | Community","protocol":17,"map":"workshop/koth_slaughter_rc1.ugc1712845210","folder":"tf","game":"Team Fortress","app_id":440,"player_count":0,"max_players":24,"Bots":0,"server_type":"Dedicated","server_os":"Linux","password":true,"vac":true,"version":"7961495","steam_id":85568392924866365,"keywords":["cp","nocrits","nodmgspread","uncletopia"],"game_id":440,"stv_port":27046,"stv_name":"Uncletopia | Chicago | 8 | Community | STV","players":null},{"server_id":8,"name":"Uncletopia | Dallas | 1 | All Maps","name_short":"dal-1","host":"dal-1.us.uncletopia.com","port":27015,"enabled":true,"region":"us-central","cc":"us","latitude":32.779167,"longitude":-96.80889,"reserved":0,"last_update":"0001-01-01T00:00:00Z","name_a2s":"Uncletopia | Dallas | 1 | All Maps","protocol":17,"map":"pl_upward","folder":"tf","game":"Team Fortress","app_id":440,"player_count":0,"max_players":24,"Bots":0,"server_type":"Dedicated","server_os":"Linux","password":true,"vac":true,"version":"7961495","steam_id":85568392924469986,"keywords":["nocrits","nodmgspread","payload","uncletopia"],"game_id":440,"stv_port":27016,"stv_name":"Uncletopia | Dallas | 1 | All Maps | STV","players":null},{"server_id":108,"name":"Uncletopia | Dallas | 2 | All Maps","name_short":"dal-2","host":"dal-1.us.uncletopia.com","port":27025,"enabled":true,"region":"us-central","cc":"us","latitude":32.779167,"longitude":-96.80889,"reserved":0,"last_update":"0001-01-01T00:00:00Z","name_a2s":"Uncletopia | Dallas | 2 | All Maps","protocol":17,"map":"cp_mountainlab","folder":"tf","game":"Team Fortress","app_id":440,"player_count":0,"max_players":24,"Bots":0,"server_type":"Dedicated","server_os":"Linux","password":true,"vac":true,"version":"7961495","steam_id":85568392924469988,"keywords":["cp","nocrits","nodmgspread","uncletopia"],"game_id":440,"stv_port":27026,"stv_name":"Uncletopia | Dallas | 2 | All Maps | STV","players":null},{"server_id":404,"name":"Uncletopia | Dallas | 3 | All Maps","name_short":"dal-3","host":"dal-1.us.uncletopia.com","port":27035,"enabled":true,"region":"us-central","cc":"us","latitude":32.779167,"longitude":-96.80889,"reserved":0,"last_update":"0001-01-01T00:00:00Z","name_a2s":"Uncletopia | Dallas | 3 | All Maps","protocol":17,"map":"koth_viaduct","folder":"tf","game":"Team Fortress","app_id":440,"player_count":8,"max_players":24,"Bots":0,"server_type":"Dedicated","server_os":"Linux","password":true,"vac":true,"version":"7961495","steam_id":85568392924515219,"keywords":["cp","nocrits","nodmgspread","uncletopia"],"game_id":440,"stv_port":27036,"stv_name":"Uncletopia | Dallas | 3 | All Maps | STV","players":[{"user_id":13,"name":"FlamingoSoup","steam_id":76561199091291154,"connected_time":2169000000000,"state":"active","ping":75},{"user_id":14,"name":"Typh","steam_id":76561198315344079,"connected_time":1394000000000,"state":"active","ping":72},{"user_id":16,"name":"thezranger","steam_id":76561198454086460,"connected_time":701000000000,"state":"active","ping":68},{"user_id":8,"name":"niandits","steam_id":76561198419798900,"connected_time":3834000000000,"state":"active","ping":190},{"user_id":18,"name":"Jim the Fish","steam_id":76561199135784419,"connected_time":598000000000,"state":"active","ping":71},{"user_id":19,"name":"soldlemon","steam_id":76561199034747133,"connected_time":585000000000,"state":"active","ping":71},{"user_id":21,"name":"Dr. Han","steam_id":76561198811130843,"connected_time":501000000000,"state":"active","ping":86},{"user_id":22,"name":"Annabee","steam_id":76561199217903905,"connected_time":479000000000,"state":"active","ping":79}]},{"server_id":405,"name":"Uncletopia | Dallas | 4 | Community","name_short":"dal-4","host":"dal-1.us.uncletopia.com","port":27045,"enabled":true,"region":"us-central","cc":"us","latitude":32.779167,"longitude":-96.80889,"reserved":0,"last_update":"0001-01-01T00:00:00Z","name_a2s":"Uncletopia | Dallas | 4 | Community","protocol":17,"map":"workshop/koth_synthetic_rc6a.ugc1549817316","folder":"tf","game":"Team Fortress","app_id":440,"player_count":0,"max_players":24,"Bots":0,"server_type":"Dedicated","server_os":"Linux","password":true,"vac":true,"version":"7961495","steam_id":85568392924515220,"keywords":["cp","nocrits","nodmgspread","uncletopia"],"game_id":440,"stv_port":27046,"stv_name":"Uncletopia | Dallas | 4 | Community | STV","players":null},{"server_id":5,"name":"Uncletopia | Frankfurt | 1 | All Maps","name_short":"frk-1","host":"frk-1.de.uncletopia.com","port":27015,"enabled":true,"region":"eu","cc":"de","latitude":50.110924,"longitude":8.682127,"reserved":0,"last_update":"0001-01-01T00:00:00Z","name_a2s":"Uncletopia | Frankfurt | 1 | All Maps","protocol":17,"map":"pl_barnblitz","folder":"tf","game":"Team Fortress","app_id":440,"player_count":24,"max_players":24,"Bots":0,"server_type":"Dedicated","server_os":"Linux","password":true,"vac":true,"version":"7961495","steam_id":85568392924469989,"keywords":["nocrits","nodmgspread","payload","uncletopia"],"game_id":440,"stv_port":27016,"stv_name":"Uncletopia | Frankfurt | 1 | All Maps | STV","players":[{"user_id":575,"name":"literallyjasonx","steam_id":76561198835895387,"connected_time":2432000000000,"state":"active","ping":75},{"user_id":612,"name":"microkwas","steam_id":76561199123377384,"connected_time":531000000000,"state":"active","ping":79},{"user_id":600,"name":"Rahmed","steam_id":76561198136056704,"connected_time":803000000000,"state":"active","ping":54},{"user_id":576,"name":"Aash","steam_id":76561198041530759,"connected_time":2403000000000,"state":"active","ping":57},{"user_id":601,"name":"Hussain_144","steam_id":76561198346029208,"connected_time":769000000000,"state":"active","ping":172},{"user_id":617,"name":"System","steam_id":76561199442503973,"connected_time":415000000000,"state":"active","ping":46},{"user_id":603,"name":"9c","steam_id":76561198315632083,"connected_time":743000000000,"state":"active","ping":67},{"user_id":613,"name":"ZANNABLUKE","steam_id":76561198013534336,"connected_time":530000000000,"state":"active","ping":59},{"user_id":474,"name":"❤Speedbump❤","steam_id":76561198388690313,"connected_time":8530000000000,"state":"active","ping":50},{"user_id":607,"name":"zinzyk","steam_id":76561198128011822,"connected_time":621000000000,"state":"active","ping":60},{"user_id":605,"name":"y0stErCix","steam_id":76561198219698192,"connected_time":728000000000,"state":"active","ping":70},{"user_id":588,"name":"Mista LilJimmy","steam_id":76561198130497549,"connected_time":2115000000000,"state":"active","ping":59},{"user_id":623,"name":"Mr.Shpee","steam_id":76561198158701474,"connected_time":126000000000,"state":"active","ping":75},{"user_id":579,"name":"benjels big day","steam_id":76561198025970709,"connected_time":2384000000000,"state":"active","ping":52},{"user_id":608,"name":"Just Nick","steam_id":76561198326430632,"connected_time":615000000000,"state":"active","ping":77},{"user_id":622,"name":"Jedunahoru","steam_id":76561199508744635,"connected_time":180000000000,"state":"active","ping":60},{"user_id":582,"name":"Nittugai","steam_id":76561198067366462,"connected_time":2363000000000,"state":"active","ping":66},{"user_id":610,"name":"bennonatror","steam_id":76561198170942442,"connected_time":595000000000,"state":"active","ping":59},{"user_id":618,"name":"lupus","steam_id":76561198019146522,"connected_time":340000000000,"state":"active","ping":54},{"user_id":572,"name":"hermano pedala","steam_id":76561198299301571,"connected_time":2931000000000,"state":"active","ping":69},{"user_id":620,"name":"jaruś","steam_id":76561198118900480,"connected_time":272000000000,"state":"active","ping":61},{"user_id":619,"name":"Old Boy Anter","steam_id":76561198153786963,"connected_time":308000000000,"state":"active","ping":81},{"user_id":611,"name":"Succubus","steam_id":76561199225653908,"connected_time":585000000000,"state":"active","ping":48},{"user_id":598,"name":"Watermelon","steam_id":76561198078349914,"connected_time":1319000000000,"state":"active","ping":62}]},{"server_id":110,"name":"Uncletopia | Frankfurt | 2 | All Maps","name_short":"frk-2","host":"frk-1.de.uncletopia.com","port":27025,"enabled":true,"region":"eu","cc":"de","latitude":50.110924,"longitude":8.682127,"reserved":0,"last_update":"0001-01-01T00:00:00Z","name_a2s":"Uncletopia | Frankfurt | 2 | All Maps","protocol":17,"map":"cp_steel","folder":"tf","game":"Team Fortress","app_id":440,"player_count":24,"max_players":24,"Bots":0,"server_type":"Dedicated","server_os":"Linux","password":true,"vac":true,"version":"7961495","steam_id":85568392924469990,"keywords":["cp","nocrits","nodmgspread","uncletopia"],"game_id":440,"stv_port":27026,"stv_name":"Uncletopia | Frankfurt | 2 | All Maps | STV","players":[{"user_id":245,"name":"Flight of the Blonde Giraffes","steam_id":76561198451585571,"connected_time":6433000000000,"state":"active","ping":51},{"user_id":326,"name":"ChAAApster","steam_id":76561199098018372,"connected_time":1105000000000,"state":"active","ping":79},{"user_id":315,"name":"Sunduchek","steam_id":76561198067934157,"connected_time":2174000000000,"state":"active","ping":134},{"user_id":320,"name":"Para Bellum","steam_id":76561198375413446,"connected_time":1477000000000,"state":"active","ping":46},{"user_id":313,"name":"KALACH","steam_id":76561198028664460,"connected_time":2229000000000,"state":"active","ping":101},{"user_id":311,"name":"ⓅⓁⓈ | Pink Panther","steam_id":76561198046434381,"connected_time":2529000000000,"state":"active","ping":53},{"user_id":294,"name":"compact disc","steam_id":76561198154677956,"connected_time":3168000000000,"state":"active","ping":60},{"user_id":336,"name":"birchy","steam_id":76561198166697295,"connected_time":936000000000,"state":"active","ping":51},{"user_id":337,"name":"Suolainen","steam_id":76561198133341026,"connected_time":929000000000,"state":"active","ping":88},{"user_id":339,"name":"cazador","steam_id":76561198123096922,"connected_time":867000000000,"state":"active","ping":92},{"user_id":290,"name":"..","steam_id":76561198380752444,"connected_time":3588000000000,"state":"active","ping":45},{"user_id":343,"name":"garry","steam_id":76561198019078145,"connected_time":180000000000,"state":"active","ping":83},{"user_id":342,"name":"Clydios","steam_id":76561198332311225,"connected_time":445000000000,"state":"active","ping":84},{"user_id":235,"name":"Shapeshifter","steam_id":76561198052898368,"connected_time":7105000000000,"state":"active","ping":75},{"user_id":328,"name":"After8","steam_id":76561198090750865,"connected_time":1071000000000,"state":"active","ping":62},{"user_id":329,"name":"Sholunan","steam_id":76561198062435739,"connected_time":1068000000000,"state":"active","ping":57},{"user_id":341,"name":"Jeffrey Harpen","steam_id":76561199073314677,"connected_time":700000000000,"state":"active","ping":54},{"user_id":330,"name":"mihaiandreiaura","steam_id":76561198930688023,"connected_time":1056000000000,"state":"active","ping":75},{"user_id":279,"name":"bitkomet","steam_id":76561198058232147,"connected_time":4423000000000,"state":"active","ping":72},{"user_id":331,"name":"They call me Pap","steam_id":76561198314905760,"connected_time":1050000000000,"state":"active","ping":54},{"user_id":314,"name":"Gordon Birdman","steam_id":76561198013382324,"connected_time":2176000000000,"state":"active","ping":75},{"user_id":271,"name":"PURCATORY","steam_id":76561199199063212,"connected_time":5013000000000,"state":"active","ping":100},{"user_id":325,"name":"Shogg","steam_id":76561198056382237,"connected_time":1272000000000,"state":"active","ping":80},{"user_id":332,"name":"AsuX","steam_id":76561197990333289,"connected_time":1045000000000,"state":"active","ping":61}]},{"server_id":308,"name":"Uncletopia | Frankfurt | 3 | All Maps","name_short":"frk-3","host":"frk-1.de.uncletopia.com","port":27035,"enabled":true,"region":"eu","cc":"de","latitude":50.110924,"longitude":8.682127,"reserved":0,"last_update":"0001-01-01T00:00:00Z","name_a2s":"Uncletopia | Frankfurt | 3 | All Maps","protocol":17,"map":"pl_upward","folder":"tf","game":"Team Fortress","app_id":440,"player_count":24,"max_players":24,"Bots":0,"server_type":"Dedicated","server_os":"Linux","password":true,"vac":true,"version":"7961495","steam_id":85568392924504274,"keywords":["nocrits","nodmgspread","payload","uncletopia"],"game_id":440,"stv_port":27036,"stv_name":"Uncletopia | Frankfurt | 3 | All Maps | STV","players":[{"user_id":214,"name":"Kavary","steam_id":76561198024792146,"connected_time":631000000000,"state":"active","ping":75},{"user_id":224,"name":"Cencut","steam_id":76561198989449047,"connected_time":230000000000,"state":"active","ping":117},{"user_id":201,"name":"Chilly","steam_id":76561198050290328,"connected_time":866000000000,"state":"active","ping":79},{"user_id":101,"name":"d","steam_id":76561198114847909,"connected_time":5617000000000,"state":"active","ping":62},{"user_id":218,"name":"KLAMA  ❤","steam_id":76561198351549661,"connected_time":574000000000,"state":"active","ping":68},{"user_id":203,"name":"dog?","steam_id":76561199232839385,"connected_time":805000000000,"state":"active","ping":90},{"user_id":200,"name":"JepCabestany","steam_id":76561198123812578,"connected_time":941000000000,"state":"active","ping":83},{"user_id":189,"name":"András","steam_id":76561198096947288,"connected_time":1542000000000,"state":"active","ping":52},{"user_id":176,"name":"Comp league Racist","steam_id":76561198842289598,"connected_time":1966000000000,"state":"active","ping":60},{"user_id":216,"name":"BŁäck..","steam_id":76561198300644952,"connected_time":599000000000,"state":"active","ping":70},{"user_id":211,"name":"player(1)","steam_id":76561198055512527,"connected_time":686000000000,"state":"active","ping":58},{"user_id":219,"name":"SynthBox3","steam_id":76561199094075745,"connected_time":539000000000,"state":"active","ping":83},{"user_id":180,"name":"TeaParty","steam_id":76561198092370536,"connected_time":1795000000000,"state":"active","ping":96},{"user_id":225,"name":"is this the real life?","steam_id":76561198292177163,"connected_time":223000000000,"state":"active","ping":75},{"user_id":205,"name":"7xuf","steam_id":76561199389292226,"connected_time":782000000000,"state":"active","ping":74},{"user_id":196,"name":"Drojdier","steam_id":76561198080789836,"connected_time":1296000000000,"state":"active","ping":58},{"user_id":215,"name":"etf2l fear me","steam_id":76561199090511396,"connected_time":627000000000,"state":"active","ping":86},{"user_id":206,"name":"maxx","steam_id":76561198260625229,"connected_time":740000000000,"state":"active","ping":57},{"user_id":222,"name":"HNDRXX","steam_id":76561198202741199,"connected_time":465000000000,"state":"active","ping":63},{"user_id":208,"name":"kvlt","steam_id":76561198119420945,"connected_time":719000000000,"state":"active","ping":84},{"user_id":210,"name":"XJ9","steam_id":76561198349648942,"connected_time":702000000000,"state":"active","ping":90},{"user_id":172,"name":"Arizona Ranger","steam_id":76561198859118707,"connected_time":2044000000000,"state":"active","ping":50},{"user_id":194,"name":"wiserclub6","steam_id":76561198312144351,"connected_time":1389000000000,"state":"active","ping":81},{"user_id":223,"name":"Weehawky","steam_id":76561198012833523,"connected_time":464000000000,"state":"active","ping":181}]},{"server_id":309,"name":"Uncletopia | Frankfurt | 4 | All Maps","name_short":"frk-4","host":"frk-1.de.uncletopia.com","port":27045,"enabled":true,"region":"eu","cc":"de","latitude":50.110924,"longitude":8.682127,"reserved":0,"last_update":"0001-01-01T00:00:00Z","name_a2s":"Uncletopia | Frankfurt | 4 | All Maps","protocol":17,"map":"pl_borneo","folder":"tf","game":"Team Fortress","app_id":440,"player_count":23,"max_players":24,"Bots":0,"server_type":"Dedicated","server_os":"Linux","password":true,"vac":true,"version":"7961495","steam_id":85568392924504275,"keywords":["nocrits","nodmgspread","payload","uncletopia"],"game_id":440,"stv_port":27046,"stv_name":"Uncletopia | Frankfurt | 4 | All Maps | STV","players":[{"user_id":62,"name":"rummy","steam_id":76561197997573379,"connected_time":1551000000000,"state":"active","ping":60},{"user_id":35,"name":"bigeon","steam_id":76561198078601337,"connected_time":2690000000000,"state":"active","ping":77},{"user_id":80,"name":"tool-the_pot.ogg","steam_id":76561198049312442,"connected_time":122000000000,"state":"active","ping":59},{"user_id":59,"name":"Edd","steam_id":76561198078741162,"connected_time":1597000000000,"state":"active","ping":72},{"user_id":70,"name":"hubeezy","steam_id":76561198057722639,"connected_time":929000000000,"state":"active","ping":70},{"user_id":57,"name":"LOBZIK","steam_id":76561198114830120,"connected_time":1629000000000,"state":"active","ping":76},{"user_id":75,"name":"Froenzi","steam_id":76561198168841723,"connected_time":534000000000,"state":"active","ping":64},{"user_id":34,"name":"pepsimus_maximus (pepsi/max)","steam_id":76561198062425104,"connected_time":2771000000000,"state":"active","ping":66},{"user_id":76,"name":"NSK","steam_id":76561197998348694,"connected_time":444000000000,"state":"active","ping":91},{"user_id":50,"name":"Gilford","steam_id":76561198048080861,"connected_time":2332000000000,"state":"active","ping":90},{"user_id":69,"name":"Qdarks","steam_id":76561198013391340,"connected_time":988000000000,"state":"active","ping":134},{"user_id":54,"name":"Cynosure","steam_id":76561198121286517,"connected_time":1821000000000,"state":"active","ping":54},{"user_id":49,"name":"Sad Potato","steam_id":76561198239654762,"connected_time":2459000000000,"state":"active","ping":59},{"user_id":67,"name":"NALA","steam_id":76561198039806469,"connected_time":1368000000000,"state":"active","ping":69},{"user_id":72,"name":"Teo","steam_id":76561198030853412,"connected_time":875000000000,"state":"active","ping":46},{"user_id":73,"name":"acetamiprid","steam_id":76561198058012525,"connected_time":820000000000,"state":"active","ping":57},{"user_id":39,"name":"1/1 OJ","steam_id":76561198054745133,"connected_time":2546000000000,"state":"active","ping":74},{"user_id":79,"name":"GenoTrain","steam_id":76561198065066667,"connected_time":174000000000,"state":"active","ping":50},{"user_id":82,"name":"Watson","steam_id":76561198815648445,"connected_time":66000000000,"state":"active","ping":57},{"user_id":81,"name":"lillunya ♡","steam_id":76561198330418866,"connected_time":119000000000,"state":"active","ping":56},{"user_id":44,"name":"Larry Penus","steam_id":76561198207546233,"connected_time":2507000000000,"state":"active","ping":56},{"user_id":55,"name":"Eyeball Sucker","steam_id":76561198195865734,"connected_time":1653000000000,"state":"active","ping":89},{"user_id":78,"name":"konstt","steam_id":76561198168270939,"connected_time":434000000000,"state":"active","ping":71}]},{"server_id":310,"name":"Uncletopia | Frankfurt | 5 | All Maps","name_short":"frk-5","host":"frk-1.de.uncletopia.com","port":27055,"enabled":true,"region":"eu","cc":"de","latitude":50.110924,"longitude":8.682127,"reserved":0,"last_update":"0001-01-01T00:00:00Z","name_a2s":"Uncletopia | Frankfurt | 5 | All Maps","protocol":17,"map":"pl_barnblitz","folder":"tf","game":"Team Fortress","app_id":440,"player_count":24,"max_players":24,"Bots":0,"server_type":"Dedicated","server_os":"Linux","password":true,"vac":true,"version":"7961495","steam_id":85568392924504277,"keywords":["nocrits","nodmgspread","payload","uncletopia"],"game_id":440,"stv_port":27056,"stv_name":"Uncletopia | Frankfurt | 5 | All Maps | STV","players":[{"user_id":287,"name":"♡ Cursed ♡","steam_id":76561199161458959,"connected_time":329000000000,"state":"active","ping":170},{"user_id":267,"name":"indie","steam_id":76561197998255855,"connected_time":1024000000000,"state":"active","ping":102},{"user_id":290,"name":"Tyrfing♠","steam_id":76561198162815484,"connected_time":252000000000,"state":"active","ping":90},{"user_id":286,"name":"aboutyou.hu","steam_id":76561198068196566,"connected_time":366000000000,"state":"active","ping":62},{"user_id":280,"name":"Gay Truck","steam_id":76561198123648967,"connected_time":626000000000,"state":"active","ping":65},{"user_id":291,"name":"RAT BASTARD","steam_id":76561199195985387,"connected_time":151000000000,"state":"active","ping":75},{"user_id":275,"name":"RubéN","steam_id":76561197968762021,"connected_time":785000000000,"state":"active","ping":46},{"user_id":258,"name":"pfaff","steam_id":76561199502583278,"connected_time":1398000000000,"state":"active","ping":50},{"user_id":265,"name":"hagrididude","steam_id":76561199126255153,"connected_time":1212000000000,"state":"active","ping":68},{"user_id":271,"name":"ХУЙ ВОЙНЕ","steam_id":76561198071517091,"connected_time":932000000000,"state":"active","ping":80},{"user_id":268,"name":"21st century schizoid woman","steam_id":76561198904910888,"connected_time":1022000000000,"state":"active","ping":135},{"user_id":288,"name":"DaiGoji","steam_id":76561198100040594,"connected_time":289000000000,"state":"active","ping":96},{"user_id":253,"name":"Japive","steam_id":76561198046099739,"connected_time":1685000000000,"state":"active","ping":45},{"user_id":251,"name":"☁ Lou1smeister ☁","steam_id":76561198004032968,"connected_time":2196000000000,"state":"active","ping":75},{"user_id":289,"name":"Engi-man","steam_id":76561199438537880,"connected_time":265000000000,"state":"active","ping":67},{"user_id":228,"name":"[UM-monster","steam_id":76561198085098243,"connected_time":4371000000000,"state":"active","ping":97},{"user_id":261,"name":"KarlRanzeier","steam_id":76561198066281337,"connected_time":1321000000000,"state":"active","ping":69},{"user_id":164,"name":"Jeryx","steam_id":76561197995602803,"connected_time":7374000000000,"state":"active","ping":53},{"user_id":224,"name":"john fortress","steam_id":76561198013237629,"connected_time":4629000000000,"state":"active","ping":111},{"user_id":250,"name":"SeeKNDstroY","steam_id":76561198151719545,"connected_time":2758000000000,"state":"active","ping":67},{"user_id":245,"name":"RoastedPotato","steam_id":76561199031811033,"connected_time":2967000000000,"state":"active","ping":63},{"user_id":246,"name":"Fire Moon","steam_id":76561198145916155,"connected_time":2965000000000,"state":"active","ping":54},{"user_id":262,"name":"Schmidt","steam_id":76561198001058733,"connected_time":1314000000000,"state":"active","ping":105},{"user_id":278,"name":"Fantres","steam_id":76561198141741930,"connected_time":710000000000,"state":"active","ping":138}]},{"server_id":311,"name":"Uncletopia | Frankfurt | 6 | All Maps","name_short":"frk-6","host":"frk-1.de.uncletopia.com","port":27065,"enabled":true,"region":"eu","cc":"de","latitude":50.110924,"longitude":8.682127,"reserved":0,"last_update":"0001-01-01T00:00:00Z","name_a2s":"Uncletopia | Frankfurt | 6 | All Maps","protocol":17,"map":"pl_borneo","folder":"tf","game":"Team Fortress","app_id":440,"player_count":19,"max_players":24,"Bots":0,"server_type":"Dedicated","server_os":"Linux","password":true,"vac":true,"version":"7961495","steam_id":85568392924504278,"keywords":["nocrits","nodmgspread","payload","uncletopia"],"game_id":440,"stv_port":27066,"stv_name":"Uncletopia | Frankfurt | 6 | All Maps | STV","players":[{"user_id":151,"name":"PANAANI","steam_id":76561198322322739,"connected_time":116000000000,"state":"active","ping":99},{"user_id":138,"name":"Cream","steam_id":76561198204266952,"connected_time":420000000000,"state":"active","ping":101},{"user_id":139,"name":"Parko","steam_id":76561198869353375,"connected_time":405000000000,"state":"active","ping":60},{"user_id":112,"name":"smoker66","steam_id":76561199333678263,"connected_time":2310000000000,"state":"active","ping":64},{"user_id":140,"name":"Azri","steam_id":76561198238526796,"connected_time":373000000000,"state":"active","ping":75},{"user_id":141,"name":"PLYSH)","steam_id":76561198201724090,"connected_time":362000000000,"state":"active","ping":86},{"user_id":142,"name":"◥F'L◤Художник","steam_id":76561198169980349,"connected_time":335000000000,"state":"active","ping":80},{"user_id":143,"name":"mud","steam_id":76561198141497461,"connected_time":324000000000,"state":"active","ping":58},{"user_id":134,"name":"oVnauT","steam_id":76561198050337882,"connected_time":1011000000000,"state":"active","ping":59},{"user_id":144,"name":"Banana khan (F2P)","steam_id":76561198992414056,"connected_time":321000000000,"state":"active","ping":190},{"user_id":147,"name":"dum","steam_id":76561198053386482,"connected_time":272000000000,"state":"active","ping":146},{"user_id":153,"name":"kto","steam_id":76561199490386326,"connected_time":65000000000,"state":"active","ping":92},{"user_id":148,"name":"Amba Takum","steam_id":76561198307037169,"connected_time":268000000000,"state":"active","ping":60},{"user_id":150,"name":"tealoverr.190","steam_id":76561199028497703,"connected_time":251000000000,"state":"active","ping":101},{"user_id":152,"name":"Staffy","steam_id":76561198859722036,"connected_time":83000000000,"state":"active","ping":87},{"user_id":154,"name":"hoe","steam_id":76561198078902326,"connected_time":59000000000,"state":"active","ping":60},{"user_id":155,"name":"Chiefuz","steam_id":76561198015535215,"connected_time":35000000000,"state":"spawning","ping":60},{"user_id":119,"name":"Rabbit","steam_id":76561199466718294,"connected_time":2219000000000,"state":"active","ping":61},{"user_id":122,"name":"koziol","steam_id":76561198014716232,"connected_time":1844000000000,"state":"active","ping":70}]},{"server_id":23,"name":"Uncletopia | Frankfurt | 7 | Stopwatch","name_short":"frk-7","host":"frk-1.de.uncletopia.com","port":27075,"enabled":true,"region":"eu","cc":"de","latitude":50.110924,"longitude":8.682127,"reserved":0,"last_update":"0001-01-01T00:00:00Z","name_a2s":"Uncletopia | Frankfurt | 7 | Stopwatch","protocol":17,"map":"workshop/koth_product_final.ugc454272353","folder":"tf","game":"Team Fortress","app_id":440,"player_count":0,"max_players":24,"Bots":0,"server_type":"Dedicated","server_os":"Linux","password":true,"vac":true,"version":"7961495","steam_id":85568392924742827,"keywords":["cp","nocrits","nodmgspread","uncletopia"],"game_id":440,"stv_port":27076,"stv_name":"Uncletopia | Frankfurt | 7 | Stopwatch | STV","players":null},{"server_id":24,"name":"Uncletopia | Frankfurt | 8 | Community","name_short":"frk-8","host":"frk-1.de.uncletopia.com","port":27085,"enabled":true,"region":"eu","cc":"de","latitude":50.110924,"longitude":8.682127,"reserved":0,"last_update":"0001-01-01T00:00:00Z","name_a2s":"Uncletopia | Frankfurt | 8 | Community","protocol":17,"map":"workshop/pl_boundary_final1.ugc456799153","folder":"tf","game":"Team Fortress","app_id":440,"player_count":0,"max_players":24,"Bots":0,"server_type":"Dedicated","server_os":"Linux","password":true,"vac":true,"version":"7961495","steam_id":85568392924742828,"keywords":["nocrits","nodmgspread","payload","uncletopia"],"game_id":440,"stv_port":27086,"stv_name":"Uncletopia | Frankfurt | 8 | Community | STV","players":null},{"server_id":202,"name":"Uncletopia | Hong Kong | 1 | All Maps","name_short":"hgk-1","host":"hgk-1.hk.uncletopia.com","port":27015,"enabled":true,"region":"asia","cc":"hk","latitude":22.302711,"longitude":114.177216,"reserved":0,"last_update":"0001-01-01T00:00:00Z","name_a2s":"Uncletopia | Hong Kong | 1 | All Maps","protocol":17,"map":"koth_viaduct","folder":"tf","game":"Team Fortress","app_id":440,"player_count":22,"max_players":24,"Bots":0,"server_type":"Dedicated","server_os":"Linux","password":true,"vac":true,"version":"7961495","steam_id":85568392924494504,"keywords":["cp","nocrits","nodmgspread","uncletopia"],"game_id":440,"stv_port":27016,"stv_name":"Uncletopia | Hong Kong | 1 | All Maps | STV","players":[{"user_id":572,"name":"briksti","steam_id":76561198239125304,"connected_time":1567000000000,"state":"active","ping":92},{"user_id":567,"name":"hopeless romantic ツ","steam_id":76561198131264287,"connected_time":1658000000000,"state":"active","ping":75},{"user_id":577,"name":"Caff","steam_id":76561198149286308,"connected_time":410000000000,"state":"active","ping":76},{"user_id":578,"name":"母の肉団子@hao123.com","steam_id":76561198069561896,"connected_time":408000000000,"state":"active","ping":44},{"user_id":534,"name":"Korudon.","steam_id":76561198073114754,"connected_time":2377000000000,"state":"active","ping":88},{"user_id":579,"name":"Arukas","steam_id":76561198095278714,"connected_time":401000000000,"state":"active","ping":40},{"user_id":515,"name":"Momoxhien","steam_id":76561198414997429,"connected_time":2549000000000,"state":"active","ping":62},{"user_id":576,"name":"fanom","steam_id":76561197964557720,"connected_time":448000000000,"state":"active","ping":192},{"user_id":468,"name":"boom","steam_id":76561199084484236,"connected_time":3224000000000,"state":"active","ping":63},{"user_id":582,"name":"onefatboii","steam_id":76561198073675907,"connected_time":137000000000,"state":"active","ping":105},{"user_id":284,"name":"ryder","steam_id":76561198797699056,"connected_time":10788000000000,"state":"active","ping":99},{"user_id":581,"name":"Beef Wellington","steam_id":76561197995635241,"connected_time":231000000000,"state":"active","ping":109},{"user_id":373,"name":"GAMA","steam_id":76561198049755630,"connected_time":4012000000000,"state":"active","ping":76},{"user_id":566,"name":"Don Keigh","steam_id":76561198175935671,"connected_time":1688000000000,"state":"active","ping":147},{"user_id":516,"name":"yveth","steam_id":76561198320532821,"connected_time":2540000000000,"state":"active","ping":70},{"user_id":285,"name":"쿠키","steam_id":76561197997220367,"connected_time":10631000000000,"state":"active","ping":44},{"user_id":583,"name":"17","steam_id":76561198241530712,"connected_time":133000000000,"state":"active","ping":65},{"user_id":517,"name":"paga","steam_id":76561198296718007,"connected_time":2537000000000,"state":"active","ping":92},{"user_id":334,"name":"ZeniaPY (Playing on Wacom)","steam_id":76561198348487408,"connected_time":5218000000000,"state":"active","ping":42},{"user_id":537,"name":"Fatcat","steam_id":76561198843521175,"connected_time":2332000000000,"state":"active","ping":105},{"user_id":571,"name":"純正的萌新QWQ","steam_id":76561198333268163,"connected_time":1639000000000,"state":"active","ping":69},{"user_id":531,"name":"好油喔peko","steam_id":76561198326354576,"connected_time":2411000000000,"state":"active","ping":96}]},{"server_id":1,"name":"Uncletopia | Los Angeles | 1 | All Maps","name_short":"lax-1","host":"lax-1.us.uncletopia.com","port":27015,"enabled":true,"region":"us-west","cc":"us","latitude":33.94279,"longitude":-118.41004,"reserved":0,"last_update":"0001-01-01T00:00:00Z","name_a2s":"Uncletopia | Los Angeles | 1 | All Maps","protocol":17,"map":"koth_highpass","folder":"tf","game":"Team Fortress","app_id":440,"player_count":0,"max_players":24,"Bots":0,"server_type":"Dedicated","server_os":"Linux","password":true,"vac":true,"version":"7961495","steam_id":85568392924469991,"keywords":["cp","nocrits","nodmgspread","uncletopia"],"game_id":440,"stv_port":27016,"stv_name":"Uncletopia | Los Angeles | 1 | All Maps | STV","players":null},{"server_id":112,"name":"Uncletopia | Los Angeles | 2 | All Maps","name_short":"lax-2","host":"lax-1.us.uncletopia.com","port":27025,"enabled":true,"region":"us-west","cc":"us","latitude":33.94279,"longitude":-118.41004,"reserved":0,"last_update":"0001-01-01T00:00:00Z","name_a2s":"Uncletopia | Los Angeles | 2 | All Maps","protocol":17,"map":"koth_cascade","folder":"tf","game":"Team Fortress","app_id":440,"player_count":0,"max_players":24,"Bots":0,"server_type":"Dedicated","server_os":"Linux","password":true,"vac":true,"version":"7961495","steam_id":85568392924469992,"keywords":["cp","nocrits","nodmgspread","uncletopia"],"game_id":440,"stv_port":27026,"stv_name":"Uncletopia | Los Angeles | 2 | All Maps | STV","players":null},{"server_id":324,"name":"Uncletopia | Los Angeles | 3 | All Maps","name_short":"lax-3","host":"lax-1.us.uncletopia.com","port":27035,"enabled":true,"region":"us-west","cc":"us","latitude":33.94279,"longitude":-118.41004,"reserved":0,"last_update":"0001-01-01T00:00:00Z","name_a2s":"Uncletopia | Los Angeles | 3 | All Maps","protocol":17,"map":"pl_hoodoo_final","folder":"tf","game":"Team Fortress","app_id":440,"player_count":0,"max_players":24,"Bots":0,"server_type":"Dedicated","server_os":"Linux","password":true,"vac":true,"version":"7961495","steam_id":85568392924510198,"keywords":["nocrits","nodmgspread","payload","uncletopia"],"game_id":440,"stv_port":27036,"stv_name":"Uncletopia | Los Angeles | 3 | All Maps | STV","players":null},{"server_id":25,"name":"Uncletopia | Los Angeles | 4 | Stopwatch","name_short":"lax-4","host":"lax-1.us.uncletopia.com","port":27045,"enabled":true,"region":"us-west","cc":"us","latitude":33.94279,"longitude":-118.41004,"reserved":0,"last_update":"0001-01-01T00:00:00Z","name_a2s":"Uncletopia | Los Angeles | 4 | Stopwatch","protocol":17,"map":"pl_upward","folder":"tf","game":"Team Fortress","app_id":440,"player_count":0,"max_players":24,"Bots":0,"server_type":"Dedicated","server_os":"Linux","password":true,"vac":true,"version":"7961495","steam_id":85568392924510199,"keywords":["nocrits","nodmgspread","payload","uncletopia"],"game_id":440,"stv_port":27046,"stv_name":"Uncletopia | Los Angeles | 4 | Stopwatch | STV","players":null},{"server_id":11,"name":"Uncletopia | London | 1 | All Maps","name_short":"lon-1","host":"lon-1.uk.uncletopia.com","port":27015,"enabled":true,"region":"eu","cc":"gb","latitude":51.509865,"longitude":-0.118092,"reserved":0,"last_update":"0001-01-01T00:00:00Z","name_a2s":"Uncletopia | London | 1 | All Maps","protocol":17,"map":"plr_hightower","folder":"tf","game":"Team Fortress","app_id":440,"player_count":24,"max_players":24,"Bots":0,"server_type":"Dedicated","server_os":"Linux","password":true,"vac":true,"version":"7961495","steam_id":85568392924367362,"keywords":["nocrits","nodmgspread","payload","uncletopia"],"game_id":440,"stv_port":27016,"stv_name":"Uncletopia | London | 1 | All Maps | STV","players":[{"user_id":351,"name":"Ryan Gosling (Literally me)","steam_id":76561198438150893,"connected_time":7147000000000,"state":"active","ping":104},{"user_id":428,"name":"Vi100 Dol7","steam_id":76561198118137461,"connected_time":266000000000,"state":"active","ping":63},{"user_id":355,"name":"1couver","steam_id":76561198168553215,"connected_time":6966000000000,"state":"active","ping":103},{"user_id":363,"name":"Mea","steam_id":76561198353496134,"connected_time":6683000000000,"state":"active","ping":57},{"user_id":420,"name":"iminiM","steam_id":76561198249832770,"connected_time":971000000000,"state":"active","ping":45},{"user_id":242,"name":"mag̶p̶i̶e ✿","steam_id":76561198797266244,"connected_time":11573000000000,"state":"active","ping":80},{"user_id":415,"name":"gnarly business","steam_id":76561198832688767,"connected_time":1675000000000,"state":"active","ping":50},{"user_id":392,"name":"nappo","steam_id":76561198060105180,"connected_time":3858000000000,"state":"active","ping":74},{"user_id":385,"name":"Lark","steam_id":76561198066937447,"connected_time":4526000000000,"state":"active","ping":90},{"user_id":430,"name":"High-Key Cat","steam_id":76561198012929012,"connected_time":70000000000,"state":"active","ping":73},{"user_id":431,"name":"BonelessChap","steam_id":76561198854207332,"connected_time":69000000000,"state":"active","ping":74},{"user_id":406,"name":"Time traveler","steam_id":76561199262658394,"connected_time":2855000000000,"state":"active","ping":90},{"user_id":414,"name":"nodeh","steam_id":76561198873850443,"connected_time":1777000000000,"state":"active","ping":46},{"user_id":408,"name":"png.png","steam_id":76561198444446521,"connected_time":2717000000000,"state":"active","ping":106},{"user_id":368,"name":"Spike","steam_id":76561197994537515,"connected_time":6188000000000,"state":"active","ping":55},{"user_id":421,"name":"sloppy transgirl toppy","steam_id":76561198057092208,"connected_time":967000000000,"state":"active","ping":74},{"user_id":386,"name":"Pinkchup","steam_id":76561198106802803,"connected_time":4436000000000,"state":"active","ping":78},{"user_id":433,"name":"Nuuskis","steam_id":76561198084042012,"connected_time":52000000000,"state":"active","ping":101},{"user_id":416,"name":"nudjura","steam_id":76561198281986139,"connected_time":1532000000000,"state":"active","ping":35},{"user_id":425,"name":"Mel Gibson fan","steam_id":76561198380933244,"connected_time":499000000000,"state":"active","ping":119},{"user_id":395,"name":"clunk","steam_id":76561198836460767,"connected_time":3641000000000,"state":"active","ping":74},{"user_id":417,"name":"suna militisto","steam_id":76561198352926998,"connected_time":1485000000000,"state":"active","ping":105},{"user_id":337,"name":"Ullr","steam_id":76561198140547483,"connected_time":8662000000000,"state":"active","ping":45}]},{"server_id":114,"name":"Uncletopia | London | 2 | All Maps","name_short":"lon-2","host":"lon-1.uk.uncletopia.com","port":27025,"enabled":true,"region":"eu","cc":"gb","latitude":51.509865,"longitude":-0.118092,"reserved":0,"last_update":"0001-01-01T00:00:00Z","name_a2s":"Uncletopia | London | 2 | All Maps","protocol":17,"map":"koth_viaduct","folder":"tf","game":"Team Fortress","app_id":440,"player_count":0,"max_players":24,"Bots":0,"server_type":"Dedicated","server_os":"Linux","password":true,"vac":true,"version":"7961495","steam_id":85568392924470941,"keywords":["cp","nocrits","nodmgspread","uncletopia"],"game_id":440,"stv_port":27026,"stv_name":"Uncletopia | London | 2 | All Maps | STV","players":null},{"server_id":320,"name":"Uncletopia | London | 3 | All Maps","name_short":"lon-3","host":"lon-1.uk.uncletopia.com","port":27035,"enabled":true,"region":"eu","cc":"gb","latitude":51.509865,"longitude":-0.118092,"reserved":0,"last_update":"0001-01-01T00:00:00Z","name_a2s":"Uncletopia | London | 3 | All Maps","protocol":17,"map":"koth_highpass","folder":"tf","game":"Team Fortress","app_id":440,"player_count":5,"max_players":24,"Bots":0,"server_type":"Dedicated","server_os":"Linux","password":true,"vac":true,"version":"7961495","steam_id":85568392924510192,"keywords":["cp","nocrits","nodmgspread","uncletopia"],"game_id":440,"stv_port":27036,"stv_name":"Uncletopia | London | 3 | All Maps | STV","players":[{"user_id":16,"name":"B∞p | ❤Fasto❤","steam_id":76561198118298527,"connected_time":1162000000000,"state":"active","ping":46},{"user_id":17,"name":"B∞p | ❤Hina❤","steam_id":76561198058465921,"connected_time":1136000000000,"state":"active","ping":45},{"user_id":18,"name":"Goro Majima","steam_id":76561198003040222,"connected_time":984000000000,"state":"active","ping":45},{"user_id":19,"name":"SaSSolino","steam_id":76561198011308018,"connected_time":974000000000,"state":"active","ping":60},{"user_id":26,"name":"woople","steam_id":76561198076625889,"connected_time":218000000000,"state":"active","ping":77}]},{"server_id":321,"name":"Uncletopia | London | 4 | All Maps","name_short":"lon-4","host":"lon-1.uk.uncletopia.com","port":27045,"enabled":true,"region":"eu","cc":"gb","latitude":51.509865,"longitude":-0.118092,"reserved":0,"last_update":"0001-01-01T00:00:00Z","name_a2s":"Uncletopia | London | 4 | All Maps","protocol":17,"map":"koth_nucleus","folder":"tf","game":"Team Fortress","app_id":440,"player_count":24,"max_players":24,"Bots":0,"server_type":"Dedicated","server_os":"Linux","password":true,"vac":true,"version":"7961495","steam_id":85568392924510193,"keywords":["cp","nocrits","nodmgspread","uncletopia"],"game_id":440,"stv_port":27046,"stv_name":"Uncletopia | London | 4 | All Maps | STV","players":[{"user_id":184,"name":"not poggers","steam_id":76561198237631092,"connected_time":310000000000,"state":"active","ping":81},{"user_id":185,"name":":::::","steam_id":76561197990757157,"connected_time":169000000000,"state":"active","ping":75},{"user_id":166,"name":"FAT Mozart","steam_id":76561198868148394,"connected_time":1195000000000,"state":"active","ping":74},{"user_id":167,"name":"RandomName","steam_id":76561198055552108,"connected_time":1195000000000,"state":"active","ping":61},{"user_id":134,"name":"Dr. Phil","steam_id":76561198047254219,"connected_time":3352000000000,"state":"active","ping":48},{"user_id":154,"name":"Mr Boombastic","steam_id":76561199188883519,"connected_time":2208000000000,"state":"active","ping":39},{"user_id":162,"name":"BluDiamynt","steam_id":76561198894231340,"connected_time":1525000000000,"state":"active","ping":66},{"user_id":135,"name":"DDO1","steam_id":76561198348234399,"connected_time":3210000000000,"state":"active","ping":55},{"user_id":137,"name":"sneaky snake","steam_id":76561198279965791,"connected_time":2697000000000,"state":"active","ping":95},{"user_id":168,"name":"asdf","steam_id":76561198953058588,"connected_time":1193000000000,"state":"active","ping":79},{"user_id":181,"name":"nefarious criminal","steam_id":76561198077506415,"connected_time":613000000000,"state":"active","ping":115},{"user_id":182,"name":"Ethee05","steam_id":76561198221013980,"connected_time":513000000000,"state":"active","ping":45},{"user_id":101,"name":"Nyhde","steam_id":76561198012771416,"connected_time":5914000000000,"state":"active","ping":97},{"user_id":170,"name":"Blar","steam_id":76561198042438229,"connected_time":1172000000000,"state":"active","ping":45},{"user_id":186,"name":"Dungdil","steam_id":76561198351930639,"connected_time":148000000000,"state":"active","ping":56},{"user_id":156,"name":"Unsinn","steam_id":76561198301141748,"connected_time":2026000000000,"state":"active","ping":82},{"user_id":161,"name":"Princess Peach","steam_id":76561198260272240,"connected_time":1564000000000,"state":"active","ping":61},{"user_id":183,"name":"coPe","steam_id":76561198869055760,"connected_time":442000000000,"state":"active","ping":92},{"user_id":179,"name":"Anphenion","steam_id":76561198860129044,"connected_time":914000000000,"state":"active","ping":57},{"user_id":173,"name":"zombee","steam_id":76561198869651716,"connected_time":1165000000000,"state":"active","ping":45},{"user_id":178,"name":"Irme","steam_id":76561198161590299,"connected_time":922000000000,"state":"active","ping":85},{"user_id":175,"name":"no bullets fly","steam_id":76561198290998738,"connected_time":1141000000000,"state":"active","ping":112},{"user_id":114,"name":"Deez nuts","steam_id":76561199429562693,"connected_time":4941000000000,"state":"active","ping":74},{"user_id":159,"name":"[dopijus]","steam_id":76561198943009513,"connected_time":1788000000000,"state":"active","ping":90}]},{"server_id":21,"name":"Uncletopia | London | 5 | All Maps","name_short":"lon-5","host":"lon-1.uk.uncletopia.com","port":27055,"enabled":true,"region":"eu","cc":"gb","latitude":51.509865,"longitude":-0.118092,"reserved":0,"last_update":"0001-01-01T00:00:00Z","name_a2s":"Uncletopia | London | 5 | All Maps","protocol":17,"map":"pl_frontier_final","folder":"tf","game":"Team Fortress","app_id":440,"player_count":24,"max_players":24,"Bots":0,"server_type":"Dedicated","server_os":"Linux","password":true,"vac":true,"version":"7961495","steam_id":85568392924742829,"keywords":["nocrits","nodmgspread","payload","uncletopia"],"game_id":440,"stv_port":27056,"stv_name":"Uncletopia | London | 5 | All Maps | STV","players":[{"user_id":49,"name":"belle bite !","steam_id":76561198204821037,"connected_time":2273000000000,"state":"active","ping":50},{"user_id":85,"name":"GazerBazer","steam_id":76561198879107565,"connected_time":239000000000,"state":"active","ping":51},{"user_id":56,"name":"silicon based life form","steam_id":76561199127121346,"connected_time":2025000000000,"state":"active","ping":45},{"user_id":73,"name":"Monkey Friend","steam_id":76561198144403074,"connected_time":1245000000000,"state":"active","ping":60},{"user_id":43,"name":"Charon","steam_id":76561198061714753,"connected_time":3077000000000,"state":"active","ping":78},{"user_id":10,"name":"𝓹𝓱𝓪𝓷𝓽𝓸𝓶","steam_id":76561199095923041,"connected_time":4541000000000,"state":"active","ping":148},{"user_id":88,"name":"какой-то клоун","steam_id":76561198999200115,"connected_time":121000000000,"state":"active","ping":89},{"user_id":64,"name":"Spycrab Gaming","steam_id":76561199128973607,"connected_time":1691000000000,"state":"active","ping":55},{"user_id":76,"name":"Rui","steam_id":76561198263735498,"connected_time":1185000000000,"state":"active","ping":93},{"user_id":83,"name":"Miss Bari","steam_id":76561198365286092,"connected_time":602000000000,"state":"active","ping":44},{"user_id":58,"name":"Bruce","steam_id":76561198252095326,"connected_time":1982000000000,"state":"active","ping":88},{"user_id":86,"name":"medick","steam_id":76561199380849468,"connected_time":233000000000,"state":"active","ping":59},{"user_id":62,"name":"WHUSSKEY","steam_id":76561198137827441,"connected_time":1801000000000,"state":"active","ping":62},{"user_id":87,"name":"clmntrbgnc","steam_id":76561198046106352,"connected_time":228000000000,"state":"active","ping":142},{"user_id":84,"name":"cisgender clown","steam_id":76561199469909295,"connected_time":472000000000,"state":"active","ping":60},{"user_id":66,"name":"NESS","steam_id":76561197995225318,"connected_time":1607000000000,"state":"active","ping":45},{"user_id":26,"name":"Lucasrio","steam_id":76561198880962360,"connected_time":3795000000000,"state":"active","ping":170},{"user_id":74,"name":"CarbonPan","steam_id":76561198072169983,"connected_time":1238000000000,"state":"active","ping":101},{"user_id":77,"name":"andeddk","steam_id":76561198261869475,"connected_time":962000000000,"state":"active","ping":165},{"user_id":90,"name":"callthecounselortonight","steam_id":76561198236015392,"connected_time":27000000000,"state":"active","ping":120},{"user_id":81,"name":"The_voices","steam_id":76561199095701143,"connected_time":767000000000,"state":"active","ping":76},{"user_id":51,"name":"Prox","steam_id":76561198351490981,"connected_time":2251000000000,"state":"active","ping":32},{"user_id":32,"name":"Zombieslayer","steam_id":76561198407877826,"connected_time":3729000000000,"state":"active","ping":144},{"user_id":89,"name":"Lord of Birds","steam_id":76561198268952995,"connected_time":80000000000,"state":"active","ping":59}]},{"server_id":22,"name":"Uncletopia | London | 6 | All Maps","name_short":"lon-6","host":"lon-1.uk.uncletopia.com","port":27065,"enabled":true,"region":"eu","cc":"gb","latitude":51.509865,"longitude":-0.118092,"reserved":0,"last_update":"0001-01-01T00:00:00Z","name_a2s":"Uncletopia | London | 6 | All Maps","protocol":17,"map":"koth_highpass","folder":"tf","game":"Team Fortress","app_id":440,"player_count":1,"max_players":24,"Bots":0,"server_type":"Dedicated","server_os":"Linux","password":true,"vac":true,"version":"7961495","steam_id":85568392924742830,"keywords":["cp","nocrits","nodmgspread","uncletopia"],"game_id":440,"stv_port":27066,"stv_name":"Uncletopia | London | 6 | All Maps | STV","players":[{"user_id":15,"name":"Thighjob Maniac","steam_id":76561198194004051,"connected_time":65000000000,"state":"active","ping":49}]},{"server_id":40,"name":"Uncletopia | London | 7 | Stopwatch","name_short":"lon-7","host":"lon-1.uk.uncletopia.com","port":27075,"enabled":true,"region":"eu","cc":"gb","latitude":51.509865,"longitude":-0.118092,"reserved":0,"last_update":"0001-01-01T00:00:00Z","name_a2s":"Uncletopia | London | 7 | Stopwatch","protocol":17,"map":"cp_process_final","folder":"tf","game":"Team Fortress","app_id":440,"player_count":0,"max_players":24,"Bots":0,"server_type":"Dedicated","server_os":"Linux","password":true,"vac":true,"version":"7961495","steam_id":85568392924964314,"keywords":["cp","nocrits","nodmgspread","uncletopia"],"game_id":440,"stv_port":27076,"stv_name":"Uncletopia | London | 7 | Stopwatch | STV","players":null},{"server_id":41,"name":"Uncletopia | London | 8 | Community","name_short":"lon-8","host":"lon-1.uk.uncletopia.com","port":27085,"enabled":true,"region":"eu","cc":"gb","latitude":51.509865,"longitude":-0.118092,"reserved":0,"last_update":"0001-01-01T00:00:00Z","name_a2s":"Uncletopia | London | 8 | Community","protocol":17,"map":"workshop/cp_villa_b19.ugc2113052569","folder":"tf","game":"Team Fortress","app_id":440,"player_count":0,"max_players":24,"Bots":0,"server_type":"Dedicated","server_os":"Linux","password":true,"vac":true,"version":"7961495","steam_id":85568392924964315,"keywords":["cp","nocrits","nodmgspread","uncletopia"],"game_id":440,"stv_port":27086,"stv_name":"Uncletopia | London | 8 | Community | STV","players":null},{"server_id":300,"name":"Uncletopia | Montréal | 1 | One Thousand Uncles","name_short":"mtl-1","host":"mtl-1.ca.uncletopia.com","port":27015,"enabled":true,"region":"us-east","cc":"ca","latitude":45.50889,"longitude":-73.56167,"reserved":0,"last_update":"0001-01-01T00:00:00Z","name_a2s":"Uncletopia | Montréal | 1 | One Thousand Uncles","protocol":17,"map":"pl_chilly","folder":"tf","game":"Team Fortress","app_id":440,"player_count":0,"max_players":32,"Bots":0,"server_type":"Dedicated","server_os":"Linux","password":true,"vac":true,"version":"7961495","steam_id":85568392924500087,"keywords":["alltalk","danepve","increased_maxplayers","norespawntime","payload","uncletopia"],"game_id":440,"stv_port":0,"stv_name":"","players":null},{"server_id":301,"name":"Uncletopia | Montréal | 2 | One Thousand Uncles","name_short":"mtl-2","host":"mtl-1.ca.uncletopia.com","port":27025,"enabled":true,"region":"us-east","cc":"ca","latitude":45.50889,"longitude":-73.56167,"reserved":0,"last_update":"0001-01-01T00:00:00Z","name_a2s":"Uncletopia | Montréal | 2 | One Thousand Uncles","protocol":17,"map":"pl_chilly","folder":"tf","game":"Team Fortress","app_id":440,"player_count":0,"max_players":32,"Bots":0,"server_type":"Dedicated","server_os":"Linux","password":true,"vac":true,"version":"7961495","steam_id":85568392924500088,"keywords":["alltalk","danepve","increased_maxplayers","norespawntime","payload","uncletopia"],"game_id":440,"stv_port":0,"stv_name":"","players":null},{"server_id":302,"name":"Uncletopia | Montréal | 3 | One Thousand Uncles","name_short":"mtl-3","host":"mtl-1.ca.uncletopia.com","port":27035,"enabled":true,"region":"us-east","cc":"ca","latitude":45.50889,"longitude":-73.56167,"reserved":0,"last_update":"0001-01-01T00:00:00Z","name_a2s":"Uncletopia | Montréal | 3 | One Thousand Uncles","protocol":17,"map":"pl_upward","folder":"tf","game":"Team Fortress","app_id":440,"player_count":0,"max_players":32,"Bots":0,"server_type":"Dedicated","server_os":"Linux","password":true,"vac":true,"version":"7961495","steam_id":85568392924500089,"keywords":["alltalk","danepve","increased_maxplayers","norespawntime","payload","uncletopia"],"game_id":440,"stv_port":0,"stv_name":"","players":null},{"server_id":13,"name":"Uncletopia | New York City | 1 | All Maps","name_short":"nyc-1","host":"nyc-1.us.uncletopia.com","port":27015,"enabled":true,"region":"us-east","cc":"us","latitude":40.73061,"longitude":-73.93524,"reserved":0,"last_update":"0001-01-01T00:00:00Z","name_a2s":"Uncletopia | New York City | 1 | All Maps","protocol":17,"map":"cp_dustbowl","folder":"tf","game":"Team Fortress","app_id":440,"player_count":0,"max_players":24,"Bots":0,"server_type":"Dedicated","server_os":"Linux","password":true,"vac":true,"version":"7961495","steam_id":85568392924469993,"keywords":["cp","nocrits","nodmgspread","uncletopia"],"game_id":440,"stv_port":27016,"stv_name":"Uncletopia | New York City | 1 | All Maps | STV","players":null},{"server_id":14,"name":"Uncletopia | New York City | 2 | All Maps","name_short":"nyc-2","host":"nyc-1.us.uncletopia.com","port":27025,"enabled":true,"region":"us-east","cc":"us","latitude":40.73061,"longitude":-73.93524,"reserved":0,"last_update":"0001-01-01T00:00:00Z","name_a2s":"Uncletopia | New York City | 2 | All Maps","protocol":17,"map":"cp_granary","folder":"tf","game":"Team Fortress","app_id":440,"player_count":0,"max_players":24,"Bots":0,"server_type":"Dedicated","server_os":"Linux","password":true,"vac":true,"version":"7961495","steam_id":85568392924469994,"keywords":["cp","nocrits","nodmgspread","uncletopia"],"game_id":440,"stv_port":27026,"stv_name":"Uncletopia | New York City | 2 | All Maps | STV","players":null},{"server_id":15,"name":"Uncletopia | New York City | 3 | Stopwatch","name_short":"nyc-3","host":"nyc-1.us.uncletopia.com","port":27035,"enabled":true,"region":"us-east","cc":"us","latitude":40.73061,"longitude":-73.93524,"reserved":0,"last_update":"0001-01-01T00:00:00Z","name_a2s":"Uncletopia | New York City | 3 | Stopwatch","protocol":17,"map":"workshop/cp_reckoner_rc6.ugc674719999","folder":"tf","game":"Team Fortress","app_id":440,"player_count":0,"max_players":24,"Bots":0,"server_type":"Dedicated","server_os":"Linux","password":true,"vac":true,"version":"7961495","steam_id":85568392924742820,"keywords":["cp","nocrits","nodmgspread","uncletopia"],"game_id":440,"stv_port":27036,"stv_name":"Uncletopia | New York City | 3 | Stopwatch | STV","players":null},{"server_id":16,"name":"Uncletopia | New York City | 4 | Community","name_short":"nyc-4","host":"nyc-1.us.uncletopia.com","port":27045,"enabled":true,"region":"us-east","cc":"us","latitude":40.73061,"longitude":-73.93524,"reserved":0,"last_update":"0001-01-01T00:00:00Z","name_a2s":"Uncletopia | New York City | 4 | Community","protocol":17,"map":"workshop/cp_overgrown_rc8.ugc503939302","folder":"tf","game":"Team Fortress","app_id":440,"player_count":0,"max_players":24,"Bots":0,"server_type":"Dedicated","server_os":"Linux","password":true,"vac":true,"version":"7961495","steam_id":85568392924742821,"keywords":["cp","nocrits","nodmgspread","uncletopia"],"game_id":440,"stv_port":27046,"stv_name":"Uncletopia | New York City | 4 | Community | STV","players":null},{"server_id":142,"name":"Uncletopia | São Paulo | 1 | All Maps","name_short":"sao-1","host":"sao-1.br.uncletopia.com","port":27015,"enabled":true,"region":"sa","cc":"br","latitude":-23.533773,"longitude":-46.62529,"reserved":0,"last_update":"0001-01-01T00:00:00Z","name_a2s":"Uncletopia | São Paulo | 1 | All Maps","protocol":17,"map":"cp_process_final","folder":"tf","game":"Team Fortress","app_id":440,"player_count":0,"max_players":24,"Bots":0,"server_type":"Dedicated","server_os":"Linux","password":true,"vac":true,"version":"7961495","steam_id":85568392924469996,"keywords":["cp","nocrits","nodmgspread","uncletopia"],"game_id":440,"stv_port":27016,"stv_name":"Uncletopia | São Paulo | 1 | All Maps | STV","players":null},{"server_id":143,"name":"Uncletopia | São Paulo | 2 | Community","name_short":"sao-2","host":"sao-2.br.uncletopia.com","port":27015,"enabled":true,"region":"sa","cc":"br","latitude":-23.533773,"longitude":-46.62529,"reserved":0,"last_update":"0001-01-01T00:00:00Z","name_a2s":"Uncletopia | São Paulo | 2 | Community","protocol":17,"map":"workshop/cp_croissant_final.ugc458840209","folder":"tf","game":"Team Fortress","app_id":440,"player_count":0,"max_players":24,"Bots":0,"server_type":"Dedicated","server_os":"Linux","password":true,"vac":true,"version":"7961495","steam_id":85568392924485349,"keywords":["cp","nocrits","nodmgspread","uncletopia"],"game_id":440,"stv_port":27016,"stv_name":"Uncletopia | São Paulo | 2 | Community | STV","players":null},{"server_id":7,"name":"Uncletopia | Seattle | 1 | All Maps","name_short":"sea-1","host":"sea-1.us.uncletopia.com","port":27015,"enabled":true,"region":"us-west","cc":"us","latitude":47.608013,"longitude":-122.33517,"reserved":0,"last_update":"0001-01-01T00:00:00Z","name_a2s":"Uncletopia | Seattle | 1 | All Maps","protocol":17,"map":"pl_frontier_final","folder":"tf","game":"Team Fortress","app_id":440,"player_count":24,"max_players":24,"Bots":0,"server_type":"Dedicated","server_os":"Linux","password":true,"vac":true,"version":"7961495","steam_id":85568392924469997,"keywords":["nocrits","nodmgspread","payload","uncletopia"],"game_id":440,"stv_port":27016,"stv_name":"Uncletopia | Seattle | 1 | All Maps | STV","players":[{"user_id":90,"name":"Flyingmeadow","steam_id":76561198144687723,"connected_time":4616000000000,"state":"active","ping":133},{"user_id":123,"name":"Nostic","steam_id":76561199508767541,"connected_time":1969000000000,"state":"active","ping":73},{"user_id":129,"name":"jokisilent","steam_id":76561198075458936,"connected_time":1688000000000,"state":"active","ping":54},{"user_id":128,"name":"grif","steam_id":76561198272333800,"connected_time":1716000000000,"state":"active","ping":89},{"user_id":138,"name":"Mel","steam_id":76561198086844531,"connected_time":1435000000000,"state":"active","ping":106},{"user_id":131,"name":"Hiro","steam_id":76561198103601761,"connected_time":1606000000000,"state":"active","ping":106},{"user_id":149,"name":"FedSmoker","steam_id":76561198255854081,"connected_time":527000000000,"state":"active","ping":51},{"user_id":132,"name":"holylemongod","steam_id":76561199202749989,"connected_time":1598000000000,"state":"active","ping":112},{"user_id":154,"name":"gloobern","steam_id":76561198341190679,"connected_time":72000000000,"state":"active","ping":37},{"user_id":114,"name":"AirMan121","steam_id":76561198042951349,"connected_time":2667000000000,"state":"active","ping":65},{"user_id":116,"name":"Salazarr","steam_id":76561198843609516,"connected_time":2484000000000,"state":"active","ping":122},{"user_id":117,"name":"fwoov","steam_id":76561198129166260,"connected_time":2483000000000,"state":"active","ping":77},{"user_id":145,"name":"Ulrich Stern","steam_id":76561198101739682,"connected_time":884000000000,"state":"active","ping":106},{"user_id":139,"name":"Atom","steam_id":76561198144379370,"connected_time":1410000000000,"state":"active","ping":104},{"user_id":98,"name":"owl","steam_id":76561198088403016,"connected_time":4061000000000,"state":"active","ping":151},{"user_id":153,"name":"YourFriendJessie *REAL*","steam_id":76561198176883097,"connected_time":230000000000,"state":"active","ping":116},{"user_id":108,"name":"Raizen","steam_id":76561199092445367,"connected_time":3358000000000,"state":"active","ping":102},{"user_id":137,"name":"mashed soft warm soup in a can.","steam_id":76561198171368297,"connected_time":1468000000000,"state":"active","ping":103},{"user_id":142,"name":"80proof","steam_id":76561198076695816,"connected_time":1317000000000,"state":"active","ping":114},{"user_id":121,"name":"Scorpianswag","steam_id":76561198260651036,"connected_time":2180000000000,"state":"active","ping":65},{"user_id":140,"name":"Disco Inferno","steam_id":76561198063398791,"connected_time":1389000000000,"state":"active","ping":183},{"user_id":156,"name":"Oktayey","steam_id":76561198143213426,"connected_time":29000000000,"state":"spawning","ping":96},{"user_id":155,"name":"uncle pill","steam_id":76561199489628991,"connected_time":60000000000,"state":"active","ping":74},{"user_id":40,"name":"logan's gun","steam_id":76561198798667624,"connected_time":8678000000000,"state":"active","ping":44}]},{"server_id":119,"name":"Uncletopia | Seattle | 2 | All Maps","name_short":"sea-2","host":"sea-1.us.uncletopia.com","port":27025,"enabled":true,"region":"us-west","cc":"us","latitude":47.608013,"longitude":-122.33517,"reserved":0,"last_update":"0001-01-01T00:00:00Z","name_a2s":"Uncletopia | Seattle | 2 | All Maps","protocol":17,"map":"koth_lakeside_final","folder":"tf","game":"Team Fortress","app_id":440,"player_count":0,"max_players":24,"Bots":0,"server_type":"Dedicated","server_os":"Linux","password":true,"vac":true,"version":"7961495","steam_id":85568392924469998,"keywords":["cp","nocrits","nodmgspread","uncletopia"],"game_id":440,"stv_port":27026,"stv_name":"Uncletopia | Seattle | 2 | All Maps | STV","players":null},{"server_id":406,"name":"Uncletopia | Seattle | 3 | Stopwatch","name_short":"sea-3","host":"sea-1.us.uncletopia.com","port":27035,"enabled":true,"region":"us-west","cc":"us","latitude":47.608013,"longitude":-122.33517,"reserved":0,"last_update":"0001-01-01T00:00:00Z","name_a2s":"Uncletopia | Seattle | 3 | Stopwatch","protocol":17,"map":"cp_gullywash_final1","folder":"tf","game":"Team Fortress","app_id":440,"player_count":0,"max_players":24,"Bots":0,"server_type":"Dedicated","server_os":"Linux","password":true,"vac":true,"version":"7961495","steam_id":85568392924515217,"keywords":["cp","nocrits","nodmgspread","uncletopia"],"game_id":440,"stv_port":27036,"stv_name":"Uncletopia | Seattle | 3 | Stopwatch | STV","players":null},{"server_id":17,"name":"Uncletopia | San Francisco | 1 | All Maps","name_short":"sfo-1","host":"sfo-1.us.uncletopia.com","port":27015,"enabled":true,"region":"us-west","cc":"us","latitude":37.77397,"longitude":-122.4313,"reserved":0,"last_update":"0001-01-01T00:00:00Z","name_a2s":"Uncletopia | San Francisco | 1 | All Maps","protocol":17,"map":"koth_highpass","folder":"tf","game":"Team Fortress","app_id":440,"player_count":0,"max_players":24,"Bots":0,"server_type":"Dedicated","server_os":"Linux","password":true,"vac":true,"version":"7961495","steam_id":85568392924469999,"keywords":["cp","nocrits","nodmgspread","uncletopia"],"game_id":440,"stv_port":27016,"stv_name":"Uncletopia | San Francisco | 1 | All Maps | STV","players":null},{"server_id":18,"name":"Uncletopia | San Francisco | 2 | All Maps","name_short":"sfo-2","host":"sfo-1.us.uncletopia.com","port":27025,"enabled":true,"region":"us-west","cc":"us","latitude":37.77397,"longitude":-122.4313,"reserved":0,"last_update":"0001-01-01T00:00:00Z","name_a2s":"Uncletopia | San Francisco | 2 | All Maps","protocol":17,"map":"cp_freight_final1","folder":"tf","game":"Team Fortress","app_id":440,"player_count":0,"max_players":24,"Bots":0,"server_type":"Dedicated","server_os":"Linux","password":true,"vac":true,"version":"7961495","steam_id":85568392924470000,"keywords":["cp","nocrits","nodmgspread","uncletopia"],"game_id":440,"stv_port":27026,"stv_name":"Uncletopia | San Francisco | 2 | All Maps | STV","players":null},{"server_id":19,"name":"Uncletopia | San Francisco | 3 | Stopwatch","name_short":"sfo-3","host":"sfo-1.us.uncletopia.com","port":27035,"enabled":true,"region":"us-west","cc":"us","latitude":37.77397,"longitude":-122.4313,"reserved":0,"last_update":"0001-01-01T00:00:00Z","name_a2s":"Uncletopia | San Francisco | 3 | Stopwatch","protocol":17,"map":"workshop/koth_product_final.ugc454272353","folder":"tf","game":"Team Fortress","app_id":440,"player_count":0,"max_players":24,"Bots":0,"server_type":"Dedicated","server_os":"Linux","password":true,"vac":true,"version":"7961495","steam_id":85568392924742824,"keywords":["cp","nocrits","nodmgspread","uncletopia"],"game_id":440,"stv_port":27036,"stv_name":"Uncletopia | San Francisco | 3 | Stopwatch | STV","players":null},{"server_id":20,"name":"Uncletopia | San Francisco | 4 | Community","name_short":"sfo-4","host":"sfo-1.us.uncletopia.com","port":27045,"enabled":true,"region":"us-west","cc":"us","latitude":37.77397,"longitude":-122.4313,"reserved":0,"last_update":"0001-01-01T00:00:00Z","name_a2s":"Uncletopia | San Francisco | 4 | Community","protocol":17,"map":"workshop/pl_cactuscanyon_redux_final2.ugc2579644293","folder":"tf","game":"Team Fortress","app_id":440,"player_count":0,"max_players":24,"Bots":0,"server_type":"Dedicated","server_os":"Linux","password":true,"vac":true,"version":"7961495","steam_id":85568392924742826,"keywords":["nocrits","nodmgspread","payload","uncletopia"],"game_id":440,"stv_port":27046,"stv_name":"Uncletopia | San Francisco | 4 | Community | STV","players":null},{"server_id":141,"name":"Uncletopia | Sydney | 1 | All Maps","name_short":"syd-1","host":"syd-1.au.uncletopia.com","port":27015,"enabled":true,"region":"au","cc":"au","latitude":-33.865143,"longitude":151.2099,"reserved":0,"last_update":"0001-01-01T00:00:00Z","name_a2s":"Uncletopia | Sydney | 1 | All Maps","protocol":17,"map":"koth_viaduct","folder":"tf","game":"Team Fortress","app_id":440,"player_count":0,"max_players":24,"Bots":0,"server_type":"Dedicated","server_os":"Linux","password":true,"vac":true,"version":"7961495","steam_id":85568392924470001,"keywords":["cp","nocrits","nodmgspread","uncletopia"],"game_id":440,"stv_port":27016,"stv_name":"Uncletopia | Sydney | 1 | All Maps | STV","players":null},{"server_id":123,"name":"Uncletopia | Sydney | 2 | All Maps","name_short":"syd-2","host":"syd-1.au.uncletopia.com","port":27025,"enabled":true,"region":"au","cc":"au","latitude":-33.865143,"longitude":151.2099,"reserved":0,"last_update":"0001-01-01T00:00:00Z","name_a2s":"Uncletopia | Sydney | 2 | All Maps","protocol":17,"map":"cp_process_final","folder":"tf","game":"Team Fortress","app_id":440,"player_count":0,"max_players":24,"Bots":0,"server_type":"Dedicated","server_os":"Linux","password":true,"vac":true,"version":"7961495","steam_id":85568392924470002,"keywords":["cp","nocrits","nodmgspread","uncletopia"],"game_id":440,"stv_port":27026,"stv_name":"Uncletopia | Sydney | 2 | All Maps | STV","players":null},{"server_id":395,"name":"Uncletopia | Sydney | 3 | All Maps","name_short":"syd-3","host":"syd-1.au.uncletopia.com","port":27035,"enabled":true,"region":"au","cc":"au","latitude":-33.865143,"longitude":151.2099,"reserved":0,"last_update":"0001-01-01T00:00:00Z","name_a2s":"Uncletopia | Sydney | 3 | All Maps","protocol":17,"map":"cp_snakewater_final1","folder":"tf","game":"Team Fortress","app_id":440,"player_count":0,"max_players":24,"Bots":0,"server_type":"Dedicated","server_os":"Linux","password":true,"vac":true,"version":"7961495","steam_id":85568392925194467,"keywords":["cp","nocrits","nodmgspread","uncletopia"],"game_id":440,"stv_port":27036,"stv_name":"Uncletopia | Sydney | 3 | All Maps | STV","players":null},{"server_id":396,"name":"Uncletopia | Sydney | 4 | All Maps","name_short":"syd-4","host":"syd-1.au.uncletopia.com","port":27045,"enabled":true,"region":"au","cc":"au","latitude":-33.865143,"longitude":151.2099,"reserved":0,"last_update":"0001-01-01T00:00:00Z","name_a2s":"Uncletopia | Sydney | 4 | All Maps","protocol":17,"map":"koth_lakeside_final","folder":"tf","game":"Team Fortress","app_id":440,"player_count":0,"max_players":24,"Bots":0,"server_type":"Dedicated","server_os":"Linux","password":true,"vac":true,"version":"7961495","steam_id":85568392925397958,"keywords":["cp","nocrits","nodmgspread","uncletopia"],"game_id":440,"stv_port":27046,"stv_name":"Uncletopia | Sydney | 4 | All Maps | STV","players":null},{"server_id":58,"name":"Uncletopia | Sydney | 5 | Stopwatch","name_short":"syd-5","host":"syd-1.au.uncletopia.com","port":27055,"enabled":true,"region":"au","cc":"au","latitude":-33.865143,"longitude":151.2099,"reserved":0,"last_update":"0001-01-01T00:00:00Z","name_a2s":"Uncletopia | Sydney | 5 | Stopwatch","protocol":17,"map":"cp_snakewater_final1","folder":"tf","game":"Team Fortress","app_id":440,"player_count":0,"max_players":24,"Bots":0,"server_type":"Dedicated","server_os":"Linux","password":true,"vac":true,"version":"7961495","steam_id":85568392925397959,"keywords":["cp","nocrits","nodmgspread","uncletopia"],"game_id":440,"stv_port":27056,"stv_name":"Uncletopia | Sydney | 5 | Stopwatch | STV","players":null},{"server_id":59,"name":"Uncletopia | Sydney | 6 | Community","name_short":"syd-6","host":"syd-1.au.uncletopia.com","port":27065,"enabled":true,"region":"au","cc":"au","latitude":-33.865143,"longitude":151.2099,"reserved":0,"last_update":"0001-01-01T00:00:00Z","name_a2s":"Uncletopia | Sydney | 6 | Community","protocol":17,"map":"workshop/koth_trenchfoot_ab1.ugc731436616","folder":"tf","game":"Team Fortress","app_id":440,"player_count":0,"max_players":24,"Bots":0,"server_type":"Dedicated","server_os":"Linux","password":true,"vac":true,"version":"7961495","steam_id":85568392925397960,"keywords":["cp","nocrits","nodmgspread","uncletopia"],"game_id":440,"stv_port":27066,"stv_name":"Uncletopia | Sydney | 6 | Community | STV","players":null},{"server_id":49,"name":"Uncletopia | Warsaw | 1 | One Thousand Uncles","name_short":"waw-1","host":"waw-1.pl.uncletopia.com","port":27015,"enabled":true,"region":"eu","cc":"pl","latitude":52.2297,"longitude":21.017532,"reserved":0,"last_update":"0001-01-01T00:00:00Z","name_a2s":"Uncletopia | Warsaw | 1 | One Thousand Uncles","protocol":17,"map":"pl_pier","folder":"tf","game":"Team Fortress","app_id":440,"player_count":27,"max_players":32,"Bots":16,"server_type":"Dedicated","server_os":"Linux","password":true,"vac":true,"version":"7961495","steam_id":85568392925397850,"keywords":["alltalk","bots","danepve","increased_maxplayers","norespawntime","payload","uncletopia"],"game_id":440,"stv_port":0,"stv_name":"","players":[{"user_id":359,"name":"sniorridys","steam_id":76561198402798353,"connected_time":564000000000,"state":"active","ping":98},{"user_id":343,"name":"Vanes #savetf2","steam_id":76561198070099171,"connected_time":1335000000000,"state":"active","ping":93},{"user_id":363,"name":"nigngll","steam_id":76561199084680369,"connected_time":134000000000,"state":"active","ping":37},{"user_id":362,"name":"adv6","steam_id":76561198029789989,"connected_time":199000000000,"state":"active","ping":73},{"user_id":345,"name":"MrDUB","steam_id":76561199131642284,"connected_time":1292000000000,"state":"active","ping":80},{"user_id":302,"name":"Smykson","steam_id":76561198214228224,"connected_time":2285000000000,"state":"active","ping":52},{"user_id":356,"name":"loveylo","steam_id":76561198300592801,"connected_time":1013000000000,"state":"active","ping":86},{"user_id":297,"name":"Jeaki","steam_id":76561199501994037,"connected_time":2603000000000,"state":"active","ping":62},{"user_id":303,"name":"kopacki","steam_id":76561198935650306,"connected_time":2263000000000,"state":"active","ping":60},{"user_id":282,"name":"Jared","steam_id":76561198020432651,"connected_time":4099000000000,"state":"active","ping":148},{"user_id":357,"name":"Noyesnogo","steam_id":76561199117087235,"connected_time":994000000000,"state":"active","ping":101}]},{"server_id":50,"name":"Uncletopia | Warsaw | 2 | One Thousand Uncles","name_short":"waw-2","host":"waw-1.pl.uncletopia.com","port":27025,"enabled":true,"region":"eu","cc":"pl","latitude":52.2297,"longitude":21.017532,"reserved":0,"last_update":"0001-01-01T00:00:00Z","name_a2s":"Uncletopia | Warsaw | 2 | One Thousand Uncles","protocol":17,"map":"cp_egypt_final","folder":"tf","game":"Team Fortress","app_id":440,"player_count":22,"max_players":32,"Bots":16,"server_type":"Dedicated","server_os":"Linux","password":true,"vac":true,"version":"7961495","steam_id":85568392925397851,"keywords":["alltalk","bots","cp","danepve","increased_maxplayers","norespawntime","uncletopia"],"game_id":440,"stv_port":0,"stv_name":"","players":[{"user_id":169,"name":"irtaminu","steam_id":76561198388297030,"connected_time":180000000000,"state":"active","ping":134},{"user_id":172,"name":"Memelover 34","steam_id":76561198328921052,"connected_time":53000000000,"state":"active","ping":80},{"user_id":171,"name":"MasterNaglis","steam_id":76561198348834177,"connected_time":162000000000,"state":"active","ping":74},{"user_id":159,"name":"Kotlet schabowy","steam_id":76561198048983509,"connected_time":1625000000000,"state":"active","ping":42},{"user_id":162,"name":"Kotlin","steam_id":76561198443331716,"connected_time":1531000000000,"state":"active","ping":72},{"user_id":164,"name":"luckyastroman","steam_id":76561199027500574,"connected_time":1477000000000,"state":"active","ping":42}]},{"server_id":51,"name":"Uncletopia | Warsaw | 3 | All Maps","name_short":"waw-3","host":"waw-1.pl.uncletopia.com","port":27035,"enabled":true,"region":"eu","cc":"pl","latitude":52.2297,"longitude":21.017532,"reserved":0,"last_update":"0001-01-01T00:00:00Z","name_a2s":"Uncletopia | Warsaw | 3 | All Maps","protocol":17,"map":"cp_dustbowl","folder":"tf","game":"Team Fortress","app_id":440,"player_count":0,"max_players":24,"Bots":0,"server_type":"Dedicated","server_os":"Linux","password":true,"vac":true,"version":"7961495","steam_id":85568392925397852,"keywords":["cp","nocrits","nodmgspread","uncletopia"],"game_id":440,"stv_port":27036,"stv_name":"Uncletopia | Warsaw | 3 | All Maps | STV","players":null},{"server_id":52,"name":"Uncletopia | Warsaw | 4 | All Maps","name_short":"waw-4","host":"waw-1.pl.uncletopia.com","port":27045,"enabled":true,"region":"eu","cc":"pl","latitude":52.2297,"longitude":21.017532,"reserved":0,"last_update":"0001-01-01T00:00:00Z","name_a2s":"Uncletopia | Warsaw | 4 | All Maps","protocol":17,"map":"koth_highpass","folder":"tf","game":"Team Fortress","app_id":440,"player_count":0,"max_players":24,"Bots":0,"server_type":"Dedicated","server_os":"Linux","password":true,"vac":true,"version":"7961495","steam_id":85568392925397853,"keywords":["cp","nocrits","nodmgspread","uncletopia"],"game_id":440,"stv_port":27046,"stv_name":"Uncletopia | Warsaw | 4 | All Maps | STV","players":null},{"server_id":53,"name":"Uncletopia | Warsaw | 5 | Stopwatch","name_short":"waw-5","host":"waw-1.pl.uncletopia.com","port":27055,"enabled":true,"region":"eu","cc":"pl","latitude":52.2297,"longitude":21.017532,"reserved":0,"last_update":"0001-01-01T00:00:00Z","name_a2s":"Uncletopia | Warsaw | 5 | Stopwatch","protocol":17,"map":"workshop/koth_ashville_final.ugc2130459942","folder":"tf","game":"Team Fortress","app_id":440,"player_count":0,"max_players":24,"Bots":0,"server_type":"Dedicated","server_os":"Linux","password":true,"vac":true,"version":"7961495","steam_id":85568392925397854,"keywords":["cp","nocrits","nodmgspread","uncletopia"],"game_id":440,"stv_port":27056,"stv_name":"Uncletopia | Warsaw | 5 | Stopwatch | STV","players":null},{"server_id":54,"name":"Uncletopia | Warsaw | 6 | Community","name_short":"waw-6","host":"waw-1.pl.uncletopia.com","port":27065,"enabled":true,"region":"eu","cc":"pl","latitude":52.2297,"longitude":21.017532,"reserved":0,"last_update":"0001-01-01T00:00:00Z","name_a2s":"Uncletopia | Warsaw | 6 | Community","protocol":17,"map":"workshop/cp_coilblaze_rc7.ugc1272700588","folder":"tf","game":"Team Fortress","app_id":440,"player_count":0,"max_players":24,"Bots":0,"server_type":"Dedicated","server_os":"Linux","password":true,"vac":true,"version":"7961495","steam_id":85568392925397856,"keywords":["cp","nocrits","nodmgspread","uncletopia"],"game_id":440,"stv_port":27066,"stv_name":"Uncletopia | Warsaw | 6 | Community | STV","players":null}]}