{"status":true,"message":"","result":[{"server_id":9,"name":"Uncletopia | Atlanta | 1 | All Maps","name_short":"atl-1","host":"atl-1.us.uncletopia.com","port":27015,"enabled":true,"region":"us-east","cc":"us","latitude":33.753746,"longitude":-84.38633,"reserved":0,"last_update":"0001-01-01T00:00:00Z","name_a2s":"Uncletopia | Atlanta | 1 | All Maps","protocol":17,"map":"koth_highpass","folder":"tf","game":"Team Fortress","app_id":440,"player_count":24,"max_players":24,"Bots":0,"server_type":"Dedicated","server_os":"Linux","password":true,"vac":true,"version":"7961495","steam_id":85568392924469982,"keywords":["cp","nocrits","nodmgspread","uncletopia"],"game_id":440,"stv_port":27016,"stv_name":"Uncletopia | Atlanta | 1 | All Maps | STV","players":[{"user_id":498,"name":"epiczlolz","steam_id":76561198208369443,"connected_time":16000000000,"state":"spawning","ping":26},{"user_id":477,"name":"olivia","steam_id":76561198288130849,"connected_time":950000000000,"state":"active","ping":82},{"user_id":470,"name":"lu","steam_id":76561198080731872,"connected_time":1219000000000,"state":"active","ping":72},{"user_id":478,"name":"dingus deluxe","steam_id":76561198834355366,"connected_time":922000000000,"state":"active","ping":69},{"user_id":494,"name":"lexi","steam_id":76561198176299759,"connected_time":186000000000,"state":"active","ping":88},{"user_id":472,"name":"Hertz","steam_id":76561198310927351,"connected_time":1177000000000,"state":"active","ping":134},{"user_id":491,"name":"Oddball","steam_id":76561198040440984,"connected_time":200000000000,"state":"active","ping":86},{"user_id":492,"name":"The Hose on Upward","steam_id":76561197965092192,"connected_time":196000000000,"state":"active","ping":90},{"user_id":469,"name":"MONKE","steam_id":76561199211345801,"connected_time":1236000000000,"state":"active","ping":55},{"user_id":473,"name":"Sultan","steam_id":76561198447852406,"connected_time":1175000000000,"state":"active","ping":82},{"user_id":487,"name":"eish","steam_id":76561198089463603,"connected_time":523000000000,"state":"active","ping":120},{"user_id":495,"name":"feleven","steam_id":76561198853721046,"connected_time":179000000000,"state":"active","ping":71},{"user_id":488,"name":"Erchius","steam_id":76561198256892300,"connected_time":520000000000,"state":"active","ping":65},{"user_id":467,"name":"ATL1 | cola","steam_id":76561198374390458,"connected_time":1242000000000,"state":"active","ping":63},{"user_id":460,"name":"A_Malebolgia","steam_id":76561198097722818,"connected_time":2182000000000,"state":"active","ping":91},{"user_id":481,"name":"insectoid","steam_id":76561198122677314,"connected_time":827000000000,"state":"active","ping":49},{"user_id":489,"name":"Shame","steam_id":76561198100490994,"connected_time":448000000000,"state":"active","ping":60},{"user_id":496,"name":"ncc_42","steam_id":76561198066377700,"connected_time":177000000000,"state":"active","ping":55},{"user_id":475,"name":"Johnny Lawrence #JohnnyMaxxing","steam_id":76561199367141671,"connected_time":1027000000000,"state":"active","ping":73},{"user_id":497,"name":"Therapy Goth","steam_id":76561198048448497,"connected_time":148000000000,"state":"active","ping":72},{"user_id":468,"name":"bruh","steam_id":76561198305505479,"connected_time":1241000000000,"state":"active","ping":59},{"user_id":482,"name":"A/funny/dream","steam_id":76561198354481597,"connected_time":827000000000,"state":"active","ping":55},{"user_id":459,"name":"chaffy","steam_id":76561198021754567,"connected_time":2473000000000,"state":"active","ping":41},{"user_id":476,"name":"Just PYE","steam_id":76561199439622967,"connected_time":993000000000,"state":"active","ping":76}]},{"server_id":104,"name":"Uncletopia | Atlanta | 2 | All Maps","name_short":"atl-2","host":"atl-1.us.uncletopia.com","port":27025,"enabled":true,"region":"us-east","cc":"us","latitude":33.753746,"longitude":-84.38633,"reserved":0,"last_update":"0001-01-01T00:00:00Z","name_a2s":"Uncletopia | Atlanta | 2 | All Maps","protocol":17,"map":"cp_snakewater_final1","folder":"tf","game":"Team Fortress","app_id":440,"player_count":24,"max_players":24,"Bots":0,"server_type":"Dedicated","server_os":"Linux","password":true,"vac":true,"version":"7961495","steam_id":85568392924469983,"keywords":["cp","nocrits","nodmgspread","uncletopia"],"game_id":440,"stv_port":27026,"stv_name":"Uncletopia | Atlanta | 2 | All Maps | STV","players":[{"user_id":221,"name":"Krabby","steam_id":76561198038002264,"connected_time":1110000000000,"state":"active","ping":82},{"user_id":169,"name":"Gungus Dingaling","steam_id":76561198018270898,"connected_time":4453000000000,"state":"active","ping":71},{"user_id":222,"name":"deegel_g0d","steam_id":76561198404428205,"connected_time":1108000000000,"state":"active","ping":54},{"user_id":228,"name":"SEGNO","steam_id":76561198102780113,"connected_time":964000000000,"state":"active","ping":75},{"user_id":233,"name":"Arcelite","steam_id":76561198007089716,"connected_time":254000000000,"state":"active","ping":67},{"user_id":225,"name":"BungelBuhgurBegalBooperTheIII'r","steam_id":76561197996495100,"connected_time":1093000000000,"state":"active","ping":97},{"user_id":196,"name":"Monkey Mode","steam_id":76561197961267543,"connected_time":2790000000000,"state":"active","ping":60},{"user_id":219,"name":"U ω U","steam_id":76561198118802562,"connected_time":1714000000000,"state":"active","ping":123},{"user_id":203,"name":"Megatronn","steam_id":76561198796716496,"connected_time":2494000000000,"state":"active","ping":56},{"user_id":217,"name":"a Hippobottomus","steam_id":76561198126853441,"connected_time":1745000000000,"state":"active","ping":63},{"user_id":207,"name":"He rolls his own","steam_id":76561198058162684,"connected_time":2054000000000,"state":"active","ping":77},{"user_id":224,"name":"Hobo Shanker","steam_id":76561198001785187,"connected_time":1097000000000,"state":"active","ping":80},{"user_id":141,"name":"metalfan666","steam_id":76561198386344068,"connected_time":6783000000000,"state":"active","ping":75},{"user_id":230,"name":"Electroid","steam_id":76561199092263960,"connected_time":879000000000,"state":"active","ping":59},{"user_id":235,"name":"Vorpas Jabwak","steam_id":76561198112186064,"connected_time":90000000000,"state":"active","ping":94},{"user_id":218,"name":"Portal2Player","steam_id":76561198062870114,"connected_time":1743000000000,"state":"active","ping":80},{"user_id":215,"name":"Classy Crow","steam_id":76561198208586049,"connected_time":1834000000000,"state":"active","ping":126},{"user_id":206,"name":"da pwo","steam_id":76561198963115673,"connected_time":2082000000000,"state":"active","ping":75},{"user_id":182,"name":"confield","steam_id":76561198004322265,"connected_time":3810000000000,"state":"active","ping":52},{"user_id":211,"name":"AcexPak","steam_id":76561199379459604,"connected_time":1992000000000,"state":"active","ping":97},{"user_id":232,"name":"kira","steam_id":76561198277979851,"connected_time":771000000000,"state":"active","ping":64},{"user_id":214,"name":"-π- BakaD","steam_id":76561197960559169,"connected_time":1900000000000,"state":"active","ping":50},{"user_id":160,"name":"the pizza","steam_id":76561198221331476,"connected_time":5202000000000,"state":"active","ping":99},{"user_id":227,"name":"moe","steam_id":76561198929586245,"connected_time":1084000000000,"state":"active","ping":84}]},{"server_id":400,"name":"Uncletopia | Atlanta | 3 | Stopwatch","name_short":"atl-3","host":"atl-1.us.uncletopia.com","port":27035,"enabled":true,"region":"us-east","cc":"us","latitude":33.753746,"longitude":-84.38633,"reserved":0,"last_update":"0001-01-01T00:00:00Z","name_a2s":"Uncletopia | Atlanta | 3 | Stopwatch","protocol":17,"map":"workshop/koth_product_final.ugc454272353","folder":"tf","game":"Team Fortress","app_id":440,"player_count":0,"max_players":24,"Bots":0,"server_type":"Dedicated","server_os":"Linux","password":true,"vac":true,"version":"7961495","steam_id":85568392924515187,"keywords":["cp","nocrits","nodmgspread","uncletopia"],"game_id":440,"stv_port":27036,"stv_name":"Uncletopia | Atlanta | 3 | Stopwatch | STV","players":null},{"server_id":401,"name":"Uncletopia | Atlanta | 4 | Community","name_short":"atl-4","host":"atl-1.us.uncletopia.com","port":27045,"enabled":true,"region":"us-east","cc":"us","latitude":33.753746,"longitude":-84.38633,"reserved":0,"last_update":"0001-01-01T00:00:00Z","name_a2s":"Uncletopia | Atlanta | 4 | Community","protocol":17,"map":"workshop/pl_emerge_rc2.ugc888027758","folder":"tf","game":"Team Fortress","app_id":440,"player_count":0,"max_players":24,"Bots":0,"server_type":"Dedicated","server_os":"Linux","password":true,"vac":true,"version":"7961495","steam_id":85568392924515188,"keywords":["nocrits","nodmgspread","payload","uncletopia"],"game_id":440,"stv_port":27046,"stv_name":"Uncletopia | Atlanta | 4 | Community | STV","players":null},{"server_id":2,"name":"Uncletopia | Chicago | 1 | All Maps","name_short":"chi-1","host":"chi-1.us.uncletopia.com","port":27015,"enabled":true,"region":"us-central","cc":"us","latitude":41.881832,"longitude":-87.62318,"reserved":0,"last_update":"0001-01-01T00:00:00Z","name_a2s":"Uncletopia | Chicago | 1 | All Maps","protocol":17,"map":"pl_badwater","folder":"tf","game":"Team Fortress","app_id":440,"player_count":24,"max_players":24,"Bots":0,"server_type":"Dedicated","server_os":"Linux","password":true,"vac":true,"version":"7961495","steam_id":85568392924469984,"keywords":["nocrits","nodmgspread","payload","uncletopia"],"game_id":440,"stv_port":27016,"stv_name":"Uncletopia | Chicago | 1 | All Maps | STV","players":[{"user_id":365,"name":"Wahooka","steam_id":76561197962240925,"connected_time":830000000000,"state":"active","ping":59},{"user_id":366,"name":"Lia_Rein","steam_id":76561198151569597,"connected_time":828000000000,"state":"active","ping":142},{"user_id":331,"name":"Yam Jazzy Jim","steam_id":76561198000788950,"connected_time":3293000000000,"state":"active","ping":68},{"user_id":364,"name":"Word To Your Mothership","steam_id":76561198034329138,"connected_time":899000000000,"state":"active","ping":103},{"user_id":363,"name":"lampin","steam_id":76561197964367078,"connected_time":900000000000,"state":"active","ping":56},{"user_id":352,"name":"Letters","steam_id":76561198035508148,"connected_time":1716000000000,"state":"active","ping":67},{"user_id":372,"name":"fried rice","steam_id":76561198928939100,"connected_time":391000000000,"state":"active","ping":76},{"user_id":315,"name":"HumFreY","steam_id":76561198076639682,"connected_time":4209000000000,"state":"active","ping":70},{"user_id":355,"name":"Kazmirl","steam_id":76561198116008410,"connected_time":1566000000000,"state":"active","ping":105},{"user_id":360,"name":"noho hank","steam_id":76561198046650995,"connected_time":1273000000000,"state":"active","ping":83},{"user_id":367,"name":"yer_nerd","steam_id":76561199435454093,"connected_time":824000000000,"state":"active","ping":81},{"user_id":342,"name":"SweetPeaches69","steam_id":76561198908187710,"connected_time":2775000000000,"state":"active","ping":80},{"user_id":373,"name":"Hexadecatrack","steam_id":76561198044480181,"connected_time":356000000000,"state":"active","ping":50},{"user_id":290,"name":"qory","steam_id":76561198152064890,"connected_time":5878000000000,"state":"active","ping":60},{"user_id":371,"name":"iUseDvorak","steam_id":76561198064439037,"connected_time":613000000000,"state":"active","ping":61},{"user_id":340,"name":"grey","steam_id":76561198050618142,"connected_time":2780000000000,"state":"active","ping":90},{"user_id":370,"name":"Nekomancer","steam_id":76561198063957846,"connected_time":627000000000,"state":"active","ping":60},{"user_id":338,"name":"Stacks63bs","steam_id":76561198067797130,"connected_time":2948000000000,"state":"active","ping":86},{"user_id":356,"name":"Dogma","steam_id":76561198879961615,"connected_time":1549000000000,"state":"active","ping":68},{"user_id":302,"name":"beesechurger™","steam_id":76561198867219032,"connected_time":4930000000000,"state":"active","ping":55},{"user_id":358,"name":"i need a beer","steam_id":76561198031400151,"connected_time":1471000000000,"state":"active","ping":59},{"user_id":354,"name":"bologna forklift 2012","steam_id":76561198199061206,"connected_time":1646000000000,"state":"active","ping":43},{"user_id":329,"name":"Greaseball","steam_id":76561198240220178,"connected_time":3437000000000,"state":"active","ping":72},{"user_id":375,"name":"A skill issue","steam_id":76561198246701796,"connected_time":68000000000,"state":"spawning","ping":78}]},{"server_id":106,"name":"Uncletopia | Chicago | 2 | All Maps","name_short":"chi-2","host":"chi-1.us.uncletopia.com","port":27025,"enabled":true,"region":"us-central","cc":"us","latitude":41.881832,"longitude":-87.62318,"reserved":0,"last_update":"0001-01-01T00:00:00Z","name_a2s":"Uncletopia | Chicago | 2 | All Maps","protocol":17,"map":"pl_badwater","folder":"tf","game":"Team Fortress","app_id":440,"player_count":23,"max_players":24,"Bots":0,"server_type":"Dedicated","server_os":"Linux","password":true,"vac":true,"version":"7961495","steam_id":85568392924469985,"keywords":["nocrits","nodmgspread","payload","uncletopia"],"game_id":440,"stv_port":27026,"stv_name":"Uncletopia | Chicago | 2 | All Maps | STV","players":[{"user_id":26,"name":"Baby gaming","steam_id":76561198867319323,"connected_time":2016000000000,"state":"active","ping":57},{"user_id":27,"name":"thetroupegang","steam_id":76561198340510098,"connected_time":1937000000000,"state":"active","ping":70},{"user_id":30,"name":"menonamed","steam_id":76561198199564382,"connected_time":1049000000000,"state":"active","ping":66},{"user_id":31,"name":"MikeLovesRabbit","steam_id":76561197997742625,"connected_time":1009000000000,"state":"active","ping":62},{"user_id":41,"name":"serro","steam_id":76561198059057024,"connected_time":682000000000,"state":"active","ping":69},{"user_id":44,"name":"c64guy","steam_id":76561198023022744,"connected_time":612000000000,"state":"active","ping":57},{"user_id":61,"name":"Jokerz","steam_id":76561199453766677,"connected_time":85000000000,"state":"active","ping":71},{"user_id":36,"name":"acarrillo2008","steam_id":76561199232976375,"connected_time":734000000000,"state":"active","ping":93},{"user_id":37,"name":"B1N4RY","steam_id":76561198101117144,"connected_time":722000000000,"state":"active","ping":65},{"user_id":50,"name":"Donkski","steam_id":76561198406895347,"connected_time":396000000000,"state":"active","ping":74},{"user_id":51,"name":"FatSweatyBlackMan","steam_id":76561199020244051,"connected_time":388000000000,"state":"active","ping":98},{"user_id":49,"name":"x_x","steam_id":76561198112457732,"connected_time":435000000000,"state":"active","ping":65},{"user_id":42,"name":"I Must Frag","steam_id":76561198909415646,"connected_time":662000000000,"state":"active","ping":74},{"user_id":46,"name":"Perfume Department","steam_id":76561198128299594,"connected_time":490000000000,"state":"active","ping":98},{"user_id":47,"name":"Remember Buscemi","steam_id":76561198141832292,"connected_time":476000000000,"state":"active","ping":70},{"user_id":48,"name":"Walmart Employee","steam_id":76561198840373909,"connected_time":454000000000,"state":"active","ping":94},{"user_id":52,"name":"i should go","steam_id":76561198194614289,"connected_time":370000000000,"state":"active","ping":55},{"user_id":53,"name":"Karrot","steam_id":76561198058970903,"connected_time":357000000000,"state":"active","ping":58},{"user_id":54,"name":"FOOL","steam_id":76561198370866973,"connected_time":356000000000,"state":"active","ping":111},{"user_id":55,"name":"[12V] Marv","steam_id":76561198158638384,"connected_time":355000000000,"state":"active","ping":62},{"user_id":56,"name":"the rat gets the cheese","steam_id":76561199077027954,"connected_time":352000000000,"state":"active","ping":59},{"user_id":60,"name":"Tockbird","steam_id":76561199437964594,"connected_time":255000000000,"state":"active","ping":154},{"user_id":59,"name":"Scout that only uses shove","steam_id":76561198373692962,"connected_time":317000000000,"state":"active","ping":50}]},{"server_id":402,"name":"Uncletopia | Chicago | 3 | All Maps","name_short":"chi-3","host":"chi-1.us.uncletopia.com","port":27035,"enabled":true,"region":"us-central","cc":"us","latitude":41.881832,"longitude":-87.62318,"reserved":0,"last_update":"0001-01-01T00:00:00Z","name_a2s":"Uncletopia | Chicago | 3 | All Maps","protocol":17,"map":"pl_snowycoast","folder":"tf","game":"Team Fortress","app_id":440,"player_count":24,"max_players":24,"Bots":0,"server_type":"Dedicated","server_os":"Linux","password":true,"vac":true,"version":"7961495","steam_id":85568392924515191,"keywords":["nocrits","nodmgspread","payload","uncletopia"],"game_id":440,"stv_port":27036,"stv_name":"Uncletopia | Chicago | 3 | All Maps | STV","players":[{"user_id":213,"name":"Eager99","steam_id":76561198975382876,"connected_time":236000000000,"state":"active","ping":95},{"user_id":208,"name":"vanta","steam_id":76561198084317504,"connected_time":1061000000000,"state":"active","ping":47},{"user_id":196,"name":"✧･ﾟhooligan!!","steam_id":76561198874149130,"connected_time":1899000000000,"state":"active","ping":69},{"user_id":204,"name":"Cooldogjoe","steam_id":76561198105543698,"connected_time":1438000000000,"state":"active","ping":61},{"user_id":195,"name":"Rein","steam_id":76561198300340427,"connected_time":1911000000000,"state":"active","ping":60},{"user_id":212,"name":"Rukks","steam_id":76561197993918954,"connected_time":485000000000,"state":"active","ping":85},{"user_id":176,"name":"two sentient corn cobs kissing","steam_id":76561198238842076,"connected_time":3633000000000,"state":"active","ping":73},{"user_id":186,"name":"Epha","steam_id":76561198079379951,"connected_time":3144000000000,"state":"active","ping":60},{"user_id":200,"name":"Beef Wellington","steam_id":76561198049837377,"connected_time":1526000000000,"state":"active","ping":43},{"user_id":197,"name":"B.","steam_id":76561198040445907,"connected_time":1890000000000,"state":"active","ping":72},{"user_id":202,"name":"thrompo","steam_id":76561197996845059,"connected_time":1498000000000,"state":"active","ping":64},{"user_id":210,"name":"Hashmere","steam_id":76561198002797253,"connected_time":852000000000,"state":"active","ping":86},{"user_id":205,"name":"SIN K4RMA","steam_id":76561198869287223,"connected_time":1397000000000,"state":"active","ping":86},{"user_id":159,"name":"Blaze","steam_id":76561198043797702,"connected_time":4115000000000,"state":"active","ping":68},{"user_id":209,"name":"hyazzz","steam_id":76561199100342013,"connected_time":1022000000000,"state":"active","ping":90},{"user_id":189,"name":"The Don","steam_id":76561198322125657,"connected_time":3076000000000,"state":"active","ping":110},{"user_id":214,"name":"mkl","steam_id":76561197986401685,"connected_time":220000000000,"state":"active","ping":89},{"user_id":190,"name":"pipikopf","steam_id":76561198064196489,"connected_time":3046000000000,"state":"active","ping":88},{"user_id":172,"name":"MMAD","steam_id":76561198026446420,"connected_time":3790000000000,"state":"active","ping":84},{"user_id":138,"name":"la goblina","steam_id":76561198094225038,"connected_time":5305000000000,"state":"active","ping":48},{"user_id":188,"name":"lordstinkdemon666","steam_id":76561198073914311,"connected_time":3112000000000,"state":"active","ping":100},{"user_id":211,"name":"maS","steam_id":76561198033846407,"connected_time":488000000000,"state":"active","ping":58},{"user_id":152,"name":"TheGrassMan (He/Him)","steam_id":76561198118984048,"connected_time":4719000000000,"state":"active","ping":68},{"user_id":207,"name":"Adam (Cursed Confetti Creature)","steam_id":76561198317690197,"connected_time":1094000000000,"state":"active","ping":48}]},{"server_id":403,"name":"Uncletopia | Chicago | 4 | All Maps","name_short":"chi-4","host":"chi-1.us.uncletopia.com","port":27045,"enabled":true,"region":"us-central","cc":"us","latitude":41.881832,"longitude":-87.62318,"reserved":0,"last_update":"0001-01-01T00:00:00Z","name_a2s":"Uncletopia | Chicago | 4 | All Maps","protocol":17,"map":"pl_snowycoast","folder":"tf","game":"Team Fortress","app_id":440,"player_count":24,"max_players":24,"Bots":0,"server_type":"Dedicated","server_os":"Linux","password":true,"vac":true,"version":"7961495","steam_id":85568392924515193,"keywords":["nocrits","nodmgspread","payload","uncletopia"],"game_id":440,"stv_port":27046,"stv_name":"Uncletopia | Chicago | 4 | All Maps | STV","players":[{"user_id":295,"name":"Cogenheimer","steam_id":76561198146321550,"connected_time":2976000000000,"state":"active","ping":93},{"user_id":243,"name":"Sunshine","steam_id":76561198885528098,"connected_time":6772000000000,"state":"active","ping":71},{"user_id":296,"name":"Julio Quantez","steam_id":76561198216600608,"connected_time":2956000000000,"state":"active","ping":77},{"user_id":297,"name":"Crombun","steam_id":76561198031559642,"connected_time":2941000000000,"state":"active","ping":89},{"user_id":311,"name":"★Deebo★","steam_id":76561198060081522,"connected_time":2520000000000,"state":"active","ping":81},{"user_id":298,"name":"IsleBound","steam_id":76561198278451717,"connected_time":2928000000000,"state":"active","ping":63},{"user_id":299,"name":"Walka","steam_id":76561198074325951,"connected_time":2876000000000,"state":"active","ping":81},{"user_id":289,"name":"creamgravy573","steam_id":76561198093308746,"connected_time":3346000000000,"state":"active","ping":77},{"user_id":310,"name":"Valentime!","steam_id":76561198093806229,"connected_time":2555000000000,"state":"active","ping":50},{"user_id":321,"name":"Jamal27 -iwnl-","steam_id":76561198068654532,"connected_time":1744000000000,"state":"active","ping":75},{"user_id":335,"name":"Kek","steam_id":76561198067689989,"connected_time":763000000000,"state":"active","ping":60},{"user_id":325,"name":"Julius Caper","steam_id":76561199190216106,"connected_time":1366000000000,"state":"active","ping":74},{"user_id":280,"name":"EpochSpruce","steam_id":76561198067653839,"connected_time":3705000000000,"state":"active","ping":70},{"user_id":344,"name":"Thot Patrol","steam_id":76561198026003193,"connected_time":24000000000,"state":"active","ping":84},{"user_id":332,"name":"stankboxers #savetf2","steam_id":76561198058609582,"connected_time":993000000000,"state":"active","ping":80},{"user_id":341,"name":"HasheM","steam_id":76561198090308879,"connected_time":318000000000,"state":"active","ping":136},{"user_id":301,"name":"jello","steam_id":76561199274158922,"connected_time":2796000000000,"state":"active","ping":113},{"user_id":319,"name":"Hero Smasher","steam_id":76561198150681669,"connected_time":1823000000000,"state":"active","ping":95},{"user_id":343,"name":"motherofdragons96","steam_id":76561198864779097,"connected_time":71000000000,"state":"spawning","ping":110},{"user_id":337,"name":"Cyberwhale","steam_id":76561198086305971,"connected_time":483000000000,"state":"active","ping":131},{"user_id":338,"name":"love","steam_id":76561198206177593,"connected_time":444000000000,"state":"active","ping":104},{"user_id":326,"name":"Gotta Move That Gear Up","steam_id":76561197993467034,"connected_time":1348000000000,"state":"active","ping":59},{"user_id":342,"name":"king sir glorious","steam_id":76561198115676070,"connected_time":148000000000,"state":"active","ping":111},{"user_id":308,"name":"Amtyk","steam_id":76561197979130554,"connected_time":2711000000000,"state":"active","ping":62}]},{"server_id":36,"name":"Uncletopia | Chicago | 5 | All Maps","name_short":"chi-5","host":"chi-2.us.uncletopia.com","port":27015,"enabled":true,"region":"us-central","cc":"us","latitude":41.881832,"longitude":-87.62318,"reserved":0,"last_update":"0001-01-01T00:00:00Z","name_a2s":"Uncletopia | Chicago | 5 | All Maps","protocol":17,"map":"koth_viaduct","folder":"tf","game":"Team Fortress","app_id":440,"player_count":0,"max_players":24,"Bots":0,"server_type":"Dedicated","server_os":"Linux","password":true,"vac":true,"version":"7961495","steam_id":85568392924866362,"keywords":["cp","nocrits","nodmgspread","uncletopia"],"game_id":440,"stv_port":27016,"stv_name":"Uncletopia | Chicago | 5 | All Maps | STV","players":null},{"server_id":37,"name":"Uncletopia | Chicago | 6 | All Maps","name_short":"chi-6","host":"chi-2.us.uncletopia.com","port":27025,"enabled":true,"region":"us-central","cc":"us","latitude":41.881832,"longitude":-87.62318,"reserved":0,"last_update":"0001-01-01T00:00:00Z","name_a2s":"Uncletopia | Chicago | 6 | All Maps","protocol":17,"map":"pl_goldrush","folder":"tf","game":"Team Fortress","app_id":440,"player_count":23,"max_players":24,"Bots":0,"server_type":"Dedicated","server_os":"Linux","password":true,"vac":true,"version":"7961495","steam_id":85568392924866363,"keywords":["nocrits","nodmgspread","payload","uncletopia"],"game_id":440,"stv_port":27026,"stv_name":"Uncletopia | Chicago | 6 | All Maps | STV","players":[{"user_id":124,"name":"OddSlaush","steam_id":76561198043898488,"connected_time":3751000000000,"state":"active","ping":99},{"user_id":199,"name":"Black_chestnut","steam_id":76561198155524915,"connected_time":197000000000,"state":"active","ping":87},{"user_id":188,"name":"the.land.of.avalon","steam_id":76561198245431668,"connected_time":1033000000000,"state":"active","ping":59},{"user_id":189,"name":"itsPanzerPanda","steam_id":76561199441946346,"connected_time":694000000000,"state":"active","ping":55},{"user_id":171,"name":"Chemzo","steam_id":76561199092858118,"connected_time":1904000000000,"state":"active","ping":59},{"user_id":172,"name":"Pixelated Pussy","steam_id":76561198002511088,"connected_time":1894000000000,"state":"active","ping":114},{"user_id":169,"name":"Mr.Bones","steam_id":76561198205170595,"connected_time":1932000000000,"state":"active","ping":95},{"user_id":178,"name":"PK","steam_id":76561198368722500,"connected_time":1418000000000,"state":"active","ping":85},{"user_id":156,"name":"Ojen","steam_id":76561197998414482,"connected_time":2343000000000,"state":"active","ping":60},{"user_id":186,"name":"GuyGoom","steam_id":76561198254522178,"connected_time":1116000000000,"state":"active","ping":59},{"user_id":160,"name":"Hamhog","steam_id":76561198353967566,"connected_time":2142000000000,"state":"active","ping":84},{"user_id":177,"name":"Mcmuffin124","steam_id":76561198077883022,"connected_time":1453000000000,"state":"active","ping":79},{"user_id":161,"name":"Eyesak1316","steam_id":76561199091309029,"connected_time":2131000000000,"state":"active","ping":85},{"user_id":190,"name":"gooch_masta","steam_id":76561198151578423,"connected_time":535000000000,"state":"active","ping":68},{"user_id":195,"name":"Gunkpump","steam_id":76561197975794806,"connected_time":305000000000,"state":"active","ping":89},{"user_id":197,"name":"Steel Tombstone","steam_id":76561199160542103,"connected_time":212000000000,"state":"active","ping":53},{"user_id":183,"name":"The_Epic_Conclusion","steam_id":76561198084250179,"connected_time":1292000000000,"state":"active","ping":74},{"user_id":198,"name":"Tokey","steam_id":76561198825943127,"connected_time":208000000000,"state":"active","ping":94},{"user_id":141,"name":"Top Frog","steam_id":76561198072793446,"connected_time":3136000000000,"state":"active","ping":78},{"user_id":137,"name":"Spy on cart","steam_id":76561198025466913,"connected_time":3437000000000,"state":"active","ping":101},{"user_id":194,"name":"VikingsEdit","steam_id":76561199090100417,"connected_time":364000000000,"state":"active","ping":84},{"user_id":166,"name":"BoOBY_GRABER@gmail.com","steam_id":76561198082293009,"connected_time":2073000000000,"state":"active","ping":80},{"user_id":200,"name":"Dr.BendyBones","steam_id":76561198048846641,"connected_time":117000000000,"state":"active","ping":77}]},{"server_id":38,"name":"Uncletopia | Chicago | 7 | Stopwatch","name_short":"chi-7","host":"chi-2.us.uncletopia.com","port":27035,"enabled":true,"region":"us-central","cc":"us","latitude":41.881832,"longitude":-87.62318,"reserved":0,"last_update":"0001-01-01T00:00:00Z","name_a2s":"Uncletopia | Chicago | 7 | Stopwatch","protocol":17,"map":"pl_badwater","folder":"tf","game":"Team Fortress","app_id":440,"player_count":0,"max_players":24,"Bots":0,"server_type":"Dedicated","server_os":"Linux","password":true,"vac":true,"version":"7961495","steam_id":85568392924866364,"keywords":["nocrits","nodmgspread","payload","uncletopia"],"game_id":440,"stv_port":27036,"stv_name":"Uncletopia | Chicago | 7 | Stopwatch | STV","players":null},{"server_id":39,"name":"Uncletopia | Chicago | 8 | Community","name_short":"chi-8","host":"chi-2.us.uncletopia.com","port":27045,"enabled":true,"region":"us-central","cc":"us","latitude":41.881832,"longitude":-87.62318,"reserved":0,"last_update":"0001-01-01T00:00:00Z","name_a2s":"Uncletopia | Chicago | 8 | Community","protocol":17,"map":"workshop/pl_cashworks_final1.ugc2904065412","folder":"tf","game":"Team Fortress","app_id":440,"player_count":0,"max_players":24,"Bots":0,"server_type":"Dedicated","server_os":"Linux","password":true,"vac":true,"version":"7961495","steam_id":85568392924866365,"keywords":["nocrits","nodmgspread","payload","uncletopia"],"game_id":440,"stv_port":27046,"stv_name":"Uncletopia | Chicago | 8 | Community | STV","players":null},{"server_id":8,"name":"Uncletopia | Dallas | 1 | All Maps","name_short":"dal-1","host":"dal-1.us.uncletopia.com","port":27015,"enabled":true,"region":"us-central","cc":"us","latitude":32.779167,"longitude":-96.80889,"reserved":0,"last_update":"0001-01-01T00:00:00Z","name_a2s":"Uncletopia | Dallas | 1 | All Maps","protocol":17,"map":"cp_sunshine","folder":"tf","game":"Team Fortress","app_id":440,"player_count":23,"max_players":24,"Bots":0,"server_type":"Dedicated","server_os":"Linux","password":true,"vac":true,"version":"7961495","steam_id":85568392924469986,"keywords":["cp","nocrits","nodmgspread","uncletopia"],"game_id":440,"stv_port":27016,"stv_name":"Uncletopia | Dallas | 1 | All Maps | STV","players":[{"user_id":69,"name":"Dragon Mommy from Caelid","steam_id":76561198338424715,"connected_time":4585000000000,"state":"active","ping":83},{"user_id":79,"name":"Thunder","steam_id":76561198097721532,"connected_time":3649000000000,"state":"active","ping":77},{"user_id":98,"name":"Ahkmid the Emoji Turban Guy","steam_id":76561198142599650,"connected_time":2048000000000,"state":"active","ping":78},{"user_id":107,"name":"Legit_Jaxer","steam_id":76561198172234053,"connected_time":1435000000000,"state":"active","ping":108},{"user_id":121,"name":"Easey","steam_id":76561198230316868,"connected_time":148000000000,"state":"active","ping":61},{"user_id":112,"name":"Frank Fortain","steam_id":76561198953613972,"connected_time":1252000000000,"state":"active","ping":46},{"user_id":117,"name":"Pancho","steam_id":76561198155847264,"connected_time":725000000000,"state":"active","ping":58},{"user_id":104,"name":"Karma","steam_id":76561198320530905,"connected_time":1452000000000,"state":"active","ping":48},{"user_id":120,"name":"neet","steam_id":76561197968115168,"connected_time":321000000000,"state":"active","ping":72},{"user_id":26,"name":"Jimmy Cumstains","steam_id":76561198044086931,"connected_time":6246000000000,"state":"active","ping":98},{"user_id":109,"name":"cq","steam_id":76561198029337542,"connected_time":1387000000000,"state":"active","ping":64},{"user_id":115,"name":"Jim the Fish","steam_id":76561199135784419,"connected_time":834000000000,"state":"active","ping":112},{"user_id":28,"name":"Grassman (Cc)","steam_id":76561198026488532,"connected_time":6212000000000,"state":"active","ping":87},{"user_id":119,"name":"FanaticSalt","steam_id":76561199380123059,"connected_time":360000000000,"state":"active","ping":46},{"user_id":123,"name":"Hot Milk + Big Slappies","steam_id":76561197988989149,"connected_time":10000000000,"state":"spawning","ping":59},{"user_id":92,"name":"Kim Jong Un stan","steam_id":76561199139182003,"connected_time":2720000000000,"state":"active","ping":79},{"user_id":95,"name":"Caught a Thundah","steam_id":76561198054495572,"connected_time":2453000000000,"state":"active","ping":56},{"user_id":91,"name":"Talented","steam_id":76561198800259660,"connected_time":2966000000000,"state":"active","ping":69},{"user_id":93,"name":"CherryPieRed2023","steam_id":76561198998007496,"connected_time":2596000000000,"state":"active","ping":107},{"user_id":66,"name":"Rat God","steam_id":76561198066161598,"connected_time":4996000000000,"state":"active","ping":84},{"user_id":71,"name":"ThatOnePersonCalledCaine","steam_id":76561198089836391,"connected_time":4072000000000,"state":"active","ping":85},{"user_id":94,"name":"Imrgrim","steam_id":76561198135866481,"connected_time":2546000000000,"state":"active","ping":66},{"user_id":65,"name":"Kantamoe","steam_id":76561198046661611,"connected_time":5073000000000,"state":"active","ping":83}]},{"server_id":108,"name":"Uncletopia | Dallas | 2 | All Maps","name_short":"dal-2","host":"dal-1.us.uncletopia.com","port":27025,"enabled":true,"region":"us-central","cc":"us","latitude":32.779167,"longitude":-96.80889,"reserved":0,"last_update":"0001-01-01T00:00:00Z","name_a2s":"Uncletopia | Dallas | 2 | All Maps","protocol":17,"map":"pl_barnblitz","folder":"tf","game":"Team Fortress","app_id":440,"player_count":24,"max_players":24,"Bots":0,"server_type":"Dedicated","server_os":"Linux","password":true,"vac":true,"version":"7961495","steam_id":85568392924469988,"keywords":["nocrits","nodmgspread","payload","uncletopia"],"game_id":440,"stv_port":27026,"stv_name":"Uncletopia | Dallas | 2 | All Maps | STV","players":[{"user_id":198,"name":"Squirrel","steam_id":76561198010044046,"connected_time":1451000000000,"state":"active","ping":84},{"user_id":208,"name":"Brandino!","steam_id":76561198000446932,"connected_time":1077000000000,"state":"active","ping":107},{"user_id":209,"name":"Absurdly Obese Cat","steam_id":76561198073202543,"connected_time":1076000000000,"state":"active","ping":53},{"user_id":210,"name":"ihave80hp","steam_id":76561199251621911,"connected_time":1065000000000,"state":"active","ping":72},{"user_id":216,"name":"Kenny[Goblin]","steam_id":76561199005805984,"connected_time":816000000000,"state":"active","ping":44},{"user_id":211,"name":"Jack Horner in a F-16","steam_id":76561198062438923,"connected_time":1024000000000,"state":"active","ping":58},{"user_id":203,"name":"captain red","steam_id":76561198191587983,"connected_time":1103000000000,"state":"active","ping":71},{"user_id":212,"name":"somewhat silly","steam_id":76561198010269150,"connected_time":987000000000,"state":"active","ping":99},{"user_id":192,"name":"kyrgyzstan3","steam_id":76561198207940136,"connected_time":2350000000000,"state":"active","ping":55},{"user_id":218,"name":"Cutcleaner","steam_id":76561199000925667,"connected_time":598000000000,"state":"active","ping":99},{"user_id":164,"name":"Yopi","steam_id":76561198004298898,"connected_time":3723000000000,"state":"active","ping":86},{"user_id":213,"name":"rickyrickyricky","steam_id":76561198041765918,"connected_time":931000000000,"state":"active","ping":81},{"user_id":205,"name":"Dinosaur","steam_id":76561199079626189,"connected_time":1098000000000,"state":"active","ping":72},{"user_id":220,"name":"Shaqdaddylong","steam_id":76561198987222560,"connected_time":304000000000,"state":"active","ping":70},{"user_id":196,"name":"linus theift tip","steam_id":76561199009102678,"connected_time":2285000000000,"state":"active","ping":72},{"user_id":136,"name":"SkadooshPlayz","steam_id":76561198310986662,"connected_time":5054000000000,"state":"active","ping":99},{"user_id":167,"name":"Shipmunk","steam_id":76561198063062670,"connected_time":3552000000000,"state":"active","ping":82},{"user_id":156,"name":"Contract/Acheivement helper","steam_id":76561199230325479,"connected_time":4417000000000,"state":"active","ping":86},{"user_id":185,"name":"artichoke","steam_id":76561198980994364,"connected_time":2490000000000,"state":"active","ping":93},{"user_id":201,"name":"antoniov00gaming","steam_id":76561198364632073,"connected_time":1333000000000,"state":"active","ping":94},{"user_id":219,"name":"abolish the federal reserve","steam_id":76561198047796437,"connected_time":566000000000,"state":"active","ping":92},{"user_id":182,"name":"trash beast","steam_id":76561198015792736,"connected_time":2590000000000,"state":"active","ping":77},{"user_id":217,"name":"Trigger","steam_id":76561198220120368,"connected_time":717000000000,"state":"active","ping":45},{"user_id":221,"name":"Mick","steam_id":76561198972619900,"connected_time":56000000000,"state":"active","ping":53}]},{"server_id":404,"name":"Uncletopia | Dallas | 3 | All Maps","name_short":"dal-3","host":"dal-1.us.uncletopia.com","port":27035,"enabled":true,"region":"us-central","cc":"us","latitude":32.779167,"longitude":-96.80889,"reserved":0,"last_update":"0001-01-01T00:00:00Z","name_a2s":"Uncletopia | Dallas | 3 | All Maps","protocol":17,"map":"ctf_2fort","folder":"tf","game":"Team Fortress","app_id":440,"player_count":23,"max_players":24,"Bots":0,"server_type":"Dedicated","server_os":"Linux","password":true,"vac":true,"version":"7961495","steam_id":85568392924515219,"keywords":["ctf","nocrits","nodmgspread","uncletopia"],"game_id":440,"stv_port":27036,"stv_name":"Uncletopia | Dallas | 3 | All Maps | STV","players":[{"user_id":441,"name":"Killer-Of-Night","steam_id":76561198054038830,"connected_time":4749000000000,"state":"active","ping":106},{"user_id":509,"name":"wajanta","steam_id":76561199040280852,"connected_time":238000000000,"state":"active","ping":62},{"user_id":452,"name":"AXELORDX","steam_id":76561198136639581,"connected_time":3230000000000,"state":"active","ping":60},{"user_id":514,"name":"Silly Shark","steam_id":76561198130714378,"connected_time":102000000000,"state":"active","ping":114},{"user_id":495,"name":"Playing TF2 with a Controller","steam_id":76561199051362337,"connected_time":1010000000000,"state":"active","ping":69},{"user_id":486,"name":"viln","steam_id":76561198073391796,"connected_time":1199000000000,"state":"active","ping":75},{"user_id":503,"name":"NeoWolf","steam_id":76561198144759784,"connected_time":661000000000,"state":"active","ping":100},{"user_id":456,"name":"Ockulus","steam_id":76561199069638460,"connected_time":3103000000000,"state":"active","ping":84},{"user_id":496,"name":"Badgino56","steam_id":76561198146547214,"connected_time":877000000000,"state":"active","ping":125},{"user_id":508,"name":"Exidy","steam_id":76561198036216584,"connected_time":360000000000,"state":"active","ping":96},{"user_id":497,"name":"Taskrabbits","steam_id":76561198366682546,"connected_time":836000000000,"state":"active","ping":113},{"user_id":510,"name":"Elias","steam_id":76561198106431732,"connected_time":203000000000,"state":"active","ping":69},{"user_id":460,"name":"HeabSaysNo","steam_id":76561198041983433,"connected_time":2953000000000,"state":"active","ping":70},{"user_id":511,"name":"Torlikoff","steam_id":76561198125846438,"connected_time":194000000000,"state":"active","ping":73},{"user_id":462,"name":"Lord_Dabbatron","steam_id":76561199058480985,"connected_time":2902000000000,"state":"active","ping":56},{"user_id":515,"name":"BobRossDaMobBoss","steam_id":76561198799262066,"connected_time":94000000000,"state":"active","ping":101},{"user_id":472,"name":"✨ Rarity ✨","steam_id":76561199172206856,"connected_time":2606000000000,"state":"active","ping":60},{"user_id":513,"name":"Jefferton","steam_id":76561198406216568,"connected_time":134000000000,"state":"active","ping":72},{"user_id":465,"name":"astrobob911","steam_id":76561199099110654,"connected_time":2851000000000,"state":"active","ping":102},{"user_id":499,"name":"Obama Nood","steam_id":76561198301526239,"connected_time":829000000000,"state":"active","ping":80},{"user_id":507,"name":"TheBrocklobster","steam_id":76561198039682984,"connected_time":451000000000,"state":"active","ping":89},{"user_id":468,"name":"gerf.","steam_id":76561198811706201,"connected_time":2773000000000,"state":"active","ping":63},{"user_id":491,"name":"Mexican Muselk","steam_id":76561199289676387,"connected_time":1161000000000,"state":"active","ping":64}]},{"server_id":405,"name":"Uncletopia | Dallas | 4 | Community","name_short":"dal-4","host":"dal-1.us.uncletopia.com","port":27045,"enabled":true,"region":"us-central","cc":"us","latitude":32.779167,"longitude":-96.80889,"reserved":0,"last_update":"0001-01-01T00:00:00Z","name_a2s":"Uncletopia | Dallas | 4 | Community","protocol":17,"map":"workshop/cp_caldera_rc3.ugc2834196889","folder":"tf","game":"Team Fortress","app_id":440,"player_count":0,"max_players":24,"Bots":0,"server_type":"Dedicated","server_os":"Linux","password":true,"vac":true,"version":"7961495","steam_id":85568392924515220,"keywords":["cp","nocrits","nodmgspread","uncletopia"],"game_id":440,"stv_port":27046,"stv_name":"Uncletopia | Dallas | 4 | Community | STV","players":null},{"server_id":5,"name":"Uncletopia | Frankfurt | 1 | All Maps","name_short":"frk-1","host":"frk-1.de.uncletopia.com","port":27015,"enabled":true,"region":"eu","cc":"de","latitude":50.110924,"longitude":8.682127,"reserved":0,"last_update":"0001-01-01T00:00:00Z","name_a2s":"Uncletopia | Frankfurt | 1 | All Maps","protocol":17,"map":"pl_borneo","folder":"tf","game":"Team Fortress","app_id":440,"player_count":19,"max_players":24,"Bots":0,"server_type":"Dedicated","server_os":"Linux","password":true,"vac":true,"version":"7961495","steam_id":85568392924469989,"keywords":["nocrits","nodmgspread","payload","uncletopia"],"game_id":440,"stv_port":27016,"stv_name":"Uncletopia | Frankfurt | 1 | All Maps | STV","players":[{"user_id":770,"name":"CatInTheFestiveHat","steam_id":76561198096468920,"connected_time":1795000000000,"state":"active","ping":45},{"user_id":748,"name":"SNEAKY TURTLE","steam_id":76561198172177650,"connected_time":3851000000000,"state":"active","ping":75},{"user_id":759,"name":"henrique_best","steam_id":76561199317304919,"connected_time":2831000000000,"state":"active","ping":78},{"user_id":777,"name":"Kaibz","steam_id":76561197975012611,"connected_time":1230000000000,"state":"active","ping":41},{"user_id":732,"name":"LOBZIK","steam_id":76561198114830120,"connected_time":4799000000000,"state":"active","ping":77},{"user_id":746,"name":"r^f nyanezt","steam_id":76561198253734265,"connected_time":3908000000000,"state":"active","ping":88},{"user_id":772,"name":"Skip ♥","steam_id":76561198197425385,"connected_time":1739000000000,"state":"active","ping":61},{"user_id":761,"name":"bilgobaggings","steam_id":76561198041520751,"connected_time":2811000000000,"state":"active","ping":56},{"user_id":696,"name":"r^f shrrrrrrekkkkk","steam_id":76561198347241576,"connected_time":7086000000000,"state":"active","ping":92},{"user_id":779,"name":"TOKOZACKO","steam_id":76561198125163526,"connected_time":639000000000,"state":"active","ping":71},{"user_id":763,"name":"Sabour","steam_id":76561197963965445,"connected_time":2806000000000,"state":"active","ping":54},{"user_id":775,"name":"Yelowchy","steam_id":76561198199416121,"connected_time":1641000000000,"state":"active","ping":61},{"user_id":764,"name":"kingdead4","steam_id":76561198079576655,"connected_time":2804000000000,"state":"active","ping":61},{"user_id":765,"name":"Arthur","steam_id":76561198066109166,"connected_time":2787000000000,"state":"active","ping":71},{"user_id":780,"name":"Scout","steam_id":76561198992898803,"connected_time":75000000000,"state":"active","ping":62},{"user_id":737,"name":"Snowmotion","steam_id":76561198075022454,"connected_time":4693000000000,"state":"active","ping":59},{"user_id":754,"name":"jjkun786","steam_id":76561199438517484,"connected_time":3690000000000,"state":"spawning","ping":92},{"user_id":750,"name":"F2P Challenge","steam_id":76561199498773639,"connected_time":3835000000000,"state":"active","ping":69},{"user_id":776,"name":"Necator","steam_id":76561198094006970,"connected_time":1604000000000,"state":"active","ping":65}]},{"server_id":110,"name":"Uncletopia | Frankfurt | 2 | All Maps","name_short":"frk-2","host":"frk-1.de.uncletopia.com","port":27025,"enabled":true,"region":"eu","cc":"de","latitude":50.110924,"longitude":8.682127,"reserved":0,"last_update":"0001-01-01T00:00:00Z","name_a2s":"Uncletopia | Frankfurt | 2 | All Maps","protocol":17,"map":"pl_barnblitz","folder":"tf","game":"Team Fortress","app_id":440,"player_count":0,"max_players":24,"Bots":0,"server_type":"Dedicated","server_os":"Linux","password":true,"vac":true,"version":"7961495","steam_id":85568392924469990,"keywords":["nocrits","nodmgspread","payload","uncletopia"],"game_id":440,"stv_port":27026,"stv_name":"Uncletopia | Frankfurt | 2 | All Maps | STV","players":null},{"server_id":308,"name":"Uncletopia | Frankfurt | 3 | All Maps","name_short":"frk-3","host":"frk-1.de.uncletopia.com","port":27035,"enabled":true,"region":"eu","cc":"de","latitude":50.110924,"longitude":8.682127,"reserved":0,"last_update":"0001-01-01T00:00:00Z","name_a2s":"Uncletopia | Frankfurt | 3 | All Maps","protocol":17,"map":"pl_borneo","folder":"tf","game":"Team Fortress","app_id":440,"player_count":24,"max_players":24,"Bots":0,"server_type":"Dedicated","server_os":"Linux","password":true,"vac":true,"version":"7961495","steam_id":85568392924504274,"keywords":["nocrits","nodmgspread","payload","uncletopia"],"game_id":440,"stv_port":27036,"stv_name":"Uncletopia | Frankfurt | 3 | All Maps | STV","players":[{"user_id":338,"name":"Sosig","steam_id":76561199012155377,"connected_time":1933000000000,"state":"active","ping":43},{"user_id":349,"name":"FlipFlop the Clown","steam_id":76561198042388446,"connected_time":1401000000000,"state":"active","ping":68},{"user_id":339,"name":"Lao","steam_id":76561198004528684,"connected_time":1916000000000,"state":"active","ping":76},{"user_id":344,"name":"selzic ★","steam_id":76561198068100717,"connected_time":1734000000000,"state":"active","ping":61},{"user_id":350,"name":"Jouppi","steam_id":76561198063725468,"connected_time":846000000000,"state":"active","ping":97},{"user_id":340,"name":"Vito","steam_id":76561198103978102,"connected_time":1895000000000,"state":"active","ping":80},{"user_id":289,"name":"Swagmaster","steam_id":76561198045828392,"connected_time":6404000000000,"state":"active","ping":55},{"user_id":353,"name":"Visphiric","steam_id":76561198071938027,"connected_time":721000000000,"state":"active","ping":56},{"user_id":354,"name":"Jonesy.exe","steam_id":76561198008519634,"connected_time":614000000000,"state":"active","ping":51},{"user_id":254,"name":"Skarp","steam_id":76561198034398376,"connected_time":9319000000000,"state":"active","ping":50},{"user_id":342,"name":"filthy","steam_id":76561198089069719,"connected_time":1773000000000,"state":"active","ping":60},{"user_id":302,"name":"Беляш-eбляш","steam_id":76561198122946306,"connected_time":5944000000000,"state":"active","ping":74},{"user_id":348,"name":"ja","steam_id":76561199228540618,"connected_time":1505000000000,"state":"active","ping":67},{"user_id":308,"name":"Vitun vittu","steam_id":76561198110679463,"connected_time":5836000000000,"state":"active","ping":77},{"user_id":330,"name":"Cosmic Gamer","steam_id":76561198027357981,"connected_time":3546000000000,"state":"active","ping":92},{"user_id":355,"name":"boo_thefeared","steam_id":76561198127967685,"connected_time":242000000000,"state":"active","ping":66},{"user_id":309,"name":"sui","steam_id":76561198185348855,"connected_time":5825000000000,"state":"active","ping":54},{"user_id":346,"name":"\u003e\u003c\u003e","steam_id":76561198152392309,"connected_time":1712000000000,"state":"active","ping":45},{"user_id":322,"name":"Real (Real)","steam_id":76561198323425034,"connected_time":4365000000000,"state":"active","ping":74},{"user_id":323,"name":"Grog the caveman","steam_id":76561199040975062,"connected_time":4355000000000,"state":"active","ping":66},{"user_id":319,"name":"Suetolog","steam_id":76561199053090212,"connected_time":4807000000000,"state":"active","ping":52},{"user_id":287,"name":"Gorgeous George","steam_id":76561198144256544,"connected_time":6595000000000,"state":"active","ping":60},{"user_id":267,"name":"Lyncurion","steam_id":76561199260022725,"connected_time":8017000000000,"state":"active","ping":75},{"user_id":337,"name":"Duke Fishlord","steam_id":76561198079928327,"connected_time":2593000000000,"state":"active","ping":62}]},{"server_id":309,"name":"Uncletopia | Frankfurt | 4 | All Maps","name_short":"frk-4","host":"frk-1.de.uncletopia.com","port":27045,"enabled":true,"region":"eu","cc":"de","latitude":50.110924,"longitude":8.682127,"reserved":0,"last_update":"0001-01-01T00:00:00Z","name_a2s":"Uncletopia | Frankfurt | 4 | All Maps","protocol":17,"map":"cp_process_final","folder":"tf","game":"Team Fortress","app_id":440,"player_count":0,"max_players":24,"Bots":0,"server_type":"Dedicated","server_os":"Linux","password":true,"vac":true,"version":"7961495","steam_id":85568392924504275,"keywords":["cp","nocrits","nodmgspread","uncletopia"],"game_id":440,"stv_port":27046,"stv_name":"Uncletopia | Frankfurt | 4 | All Maps | STV","players":null},{"server_id":310,"name":"Uncletopia | Frankfurt | 5 | All Maps","name_short":"frk-5","host":"frk-1.de.uncletopia.com","port":27055,"enabled":true,"region":"eu","cc":"de","latitude":50.110924,"longitude":8.682127,"reserved":0,"last_update":"0001-01-01T00:00:00Z","name_a2s":"Uncletopia | Frankfurt | 5 | All Maps","protocol":17,"map":"cp_process_final","folder":"tf","game":"Team Fortress","app_id":440,"player_count":0,"max_players":24,"Bots":0,"server_type":"Dedicated","server_os":"Linux","password":true,"vac":true,"version":"7961495","steam_id":85568392924504277,"keywords":["cp","nocrits","nodmgspread","uncletopia"],"game_id":440,"stv_port":27056,"stv_name":"Uncletopia | Frankfurt | 5 | All Maps | STV","players":null},{"server_id":311,"name":"Uncletopia | Frankfurt | 6 | All Maps","name_short":"frk-6","host":"frk-1.de.uncletopia.com","port":27065,"enabled":true,"region":"eu","cc":"de","latitude":50.110924,"longitude":8.682127,"reserved":0,"last_update":"0001-01-01T00:00:00Z","name_a2s":"Uncletopia | Frankfurt | 6 | All Maps","protocol":17,"map":"cp_snakewater_final1","folder":"tf","game":"Team Fortress","app_id":440,"player_count":18,"max_players":24,"Bots":0,"server_type":"Dedicated","server_os":"Linux","password":true,"vac":true,"version":"7961495","steam_id":85568392924504278,"keywords":["cp","nocrits","nodmgspread","uncletopia"],"game_id":440,"stv_port":27066,"stv_name":"Uncletopia | Frankfurt | 6 | All Maps | STV","players":[{"user_id":251,"name":"Zamorocian","steam_id":76561198076604017,"connected_time":6787000000000,"state":"active","ping":57},{"user_id":342,"name":"SeaKane","steam_id":76561198165453318,"connected_time":180000000000,"state":"active","ping":58},{"user_id":340,"name":"XenBad","steam_id":76561197990719842,"connected_time":483000000000,"state":"active","ping":56},{"user_id":315,"name":"Toseína","steam_id":76561198107652375,"connected_time":1806000000000,"state":"active","ping":49},{"user_id":335,"name":"BlindluK","steam_id":76561198082916526,"connected_time":797000000000,"state":"active","ping":64},{"user_id":308,"name":"Lucky Number 13","steam_id":76561198043951279,"connected_time":2474000000000,"state":"active","ping":101},{"user_id":272,"name":"skam","steam_id":76561198393181352,"connected_time":4554000000000,"state":"active","ping":75},{"user_id":344,"name":"shniper","steam_id":76561199023476841,"connected_time":58000000000,"state":"active","ping":158},{"user_id":323,"name":"Prawo Jazdy","steam_id":76561198121589024,"connected_time":1596000000000,"state":"active","ping":64},{"user_id":341,"name":"Killer Fish from San Diego","steam_id":76561198209223023,"connected_time":198000000000,"state":"active","ping":66},{"user_id":326,"name":"flip flop man(Lee)","steam_id":76561198374860339,"connected_time":1524000000000,"state":"active","ping":54},{"user_id":304,"name":"Stefman","steam_id":76561199025104038,"connected_time":2588000000000,"state":"active","ping":45},{"user_id":286,"name":"Grb.","steam_id":76561198067950470,"connected_time":3468000000000,"state":"active","ping":58},{"user_id":303,"name":"Clydios","steam_id":76561198332311225,"connected_time":2604000000000,"state":"active","ping":74},{"user_id":331,"name":"КРАФТАФАК","steam_id":76561198842992506,"connected_time":1040000000000,"state":"active","ping":87},{"user_id":333,"name":"tapeworms!","steam_id":76561198069649097,"connected_time":999000000000,"state":"active","ping":75},{"user_id":330,"name":"METhOphetamine","steam_id":76561198068216224,"connected_time":1316000000000,"state":"active","ping":55},{"user_id":321,"name":"Hazo","steam_id":76561198137686270,"connected_time":1635000000000,"state":"active","ping":76}]},{"server_id":23,"name":"Uncletopia | Frankfurt | 7 | Stopwatch","name_short":"frk-7","host":"frk-1.de.uncletopia.com","port":27075,"enabled":true,"region":"eu","cc":"de","latitude":50.110924,"longitude":8.682127,"reserved":0,"last_update":"0001-01-01T00:00:00Z","name_a2s":"Uncletopia | Frankfurt | 7 | Stopwatch","protocol":17,"map":"koth_lakeside_final","folder":"tf","game":"Team Fortress","app_id":440,"player_count":0,"max_players":24,"Bots":0,"server_type":"Dedicated","server_os":"Linux","password":true,"vac":true,"version":"7961495","steam_id":85568392924742827,"keywords":["cp","nocrits","nodmgspread","uncletopia"],"game_id":440,"stv_port":27076,"stv_name":"Uncletopia | Frankfurt | 7 | Stopwatch | STV","players":null},{"server_id":24,"name":"Uncletopia | Frankfurt | 8 | Community","name_short":"frk-8","host":"frk-1.de.uncletopia.com","port":27085,"enabled":true,"region":"eu","cc":"de","latitude":50.110924,"longitude":8.682127,"reserved":0,"last_update":"0001-01-01T00:00:00Z","name_a2s":"Uncletopia | Frankfurt | 8 | Community","protocol":17,"map":"workshop/koth_kemptown_rc1.ugc767410655","folder":"tf","game":"Team Fortress","app_id":440,"player_count":0,"max_players":24,"Bots":0,"server_type":"Dedicated","server_os":"Linux","password":true,"vac":true,"version":"7961495","steam_id":85568392924742828,"keywords":["cp","nocrits","nodmgspread","uncletopia"],"game_id":440,"stv_port":27086,"stv_name":"Uncletopia | Frankfurt | 8 | Community | STV","players":null},{"server_id":202,"name":"Uncletopia | Hong Kong | 1 | All Maps","name_short":"hgk-1","host":"hgk-1.hk.uncletopia.com","port":27015,"enabled":true,"region":"asia","cc":"hk","latitude":22.302711,"longitude":114.177216,"reserved":0,"last_update":"0001-01-01T00:00:00Z","name_a2s":"Uncletopia | Hong Kong | 1 | All Maps","protocol":17,"map":"pl_frontier_final","folder":"tf","game":"Team Fortress","app_id":440,"player_count":0,"max_players":24,"Bots":0,"server_type":"Dedicated","server_os":"Linux","password":true,"vac":true,"version":"7961495","steam_id":85568392924494504,"keywords":["nocrits","nodmgspread","payload","uncletopia"],"game_id":440,"stv_port":27016,"stv_name":"Uncletopia | Hong Kong | 1 | All Maps | STV","players":null},{"server_id":1,"name":"Uncletopia | Los Angeles | 1 | All Maps","name_short":"lax-1","host":"lax-1.us.uncletopia.com","port":27015,"enabled":true,"region":"us-west","cc":"us","latitude":33.94279,"longitude":-118.41004,"reserved":0,"last_update":"0001-01-01T00:00:00Z","name_a2s":"Uncletopia | Los Angeles | 1 | All Maps","protocol":17,"map":"pl_swiftwater_final1","folder":"tf","game":"Team Fortress","app_id":440,"player_count":0,"max_players":24,"Bots":0,"server_type":"Dedicated","server_os":"Linux","password":true,"vac":true,"version":"7961495","steam_id":85568392924469991,"keywords":["nocrits","nodmgspread","payload","uncletopia"],"game_id":440,"stv_port":27016,"stv_name":"Uncletopia | Los Angeles | 1 | All Maps | STV","players":null},{"server_id":112,"name":"Uncletopia | Los Angeles | 2 | All Maps","name_short":"lax-2","host":"lax-1.us.uncletopia.com","port":27025,"enabled":true,"region":"us-west","cc":"us","latitude":33.94279,"longitude":-118.41004,"reserved":0,"last_update":"0001-01-01T00:00:00Z","name_a2s":"Uncletopia | Los Angeles | 2 | All Maps","protocol":17,"map":"pl_snowycoast","folder":"tf","game":"Team Fortress","app_id":440,"player_count":0,"max_players":24,"Bots":0,"server_type":"Dedicated","server_os":"Linux","password":true,"vac":true,"version":"7961495","steam_id":85568392924469992,"keywords":["nocrits","nodmgspread","payload","uncletopia"],"game_id":440,"stv_port":27026,"stv_name":"Uncletopia | Los Angeles | 2 | All Maps | STV","players":null},{"server_id":324,"name":"Uncletopia | Los Angeles | 3 | All Maps","name_short":"lax-3","host":"lax-1.us.uncletopia.com","port":27035,"enabled":true,"region":"us-west","cc":"us","latitude":33.94279,"longitude":-118.41004,"reserved":0,"last_update":"0001-01-01T00:00:00Z","name_a2s":"Uncletopia | Los Angeles | 3 | All Maps","protocol":17,"map":"koth_cascade","folder":"tf","game":"Team Fortress","app_id":440,"player_count":0,"max_players":24,"Bots":0,"server_type":"Dedicated","server_os":"Linux","password":true,"vac":true,"version":"7961495","steam_id":85568392924510198,"keywords":["cp","nocrits","nodmgspread","uncletopia"],"game_id":440,"stv_port":27036,"stv_name":"Uncletopia | Los Angeles | 3 | All Maps | STV","players":null},{"server_id":25,"name":"Uncletopia | Los Angeles | 4 | Stopwatch","name_short":"lax-4","host":"lax-1.us.uncletopia.com","port":27045,"enabled":true,"region":"us-west","cc":"us","latitude":33.94279,"longitude":-118.41004,"reserved":0,"last_update":"0001-01-01T00:00:00Z","name_a2s":"Uncletopia | Los Angeles | 4 | Stopwatch","protocol":17,"map":"pl_barnblitz","folder":"tf","game":"Team Fortress","app_id":440,"player_count":0,"max_players":24,"Bots":0,"server_type":"Dedicated","server_os":"Linux","password":true,"vac":true,"version":"7961495","steam_id":85568392924510199,"keywords":["nocrits","nodmgspread","payload","uncletopia"],"game_id":440,"stv_port":27046,"stv_name":"Uncletopia | Los Angeles | 4 | Stopwatch | STV","players":null},{"server_id":11,"name":"Uncletopia | London | 1 | All Maps","name_short":"lon-1","host":"lon-1.uk.uncletopia.com","port":27015,"enabled":true,"region":"eu","cc":"gb","latitude":51.509865,"longitude":-0.118092,"reserved":0,"last_update":"0001-01-01T00:00:00Z","name_a2s":"Uncletopia | London | 1 | All Maps","protocol":17,"map":"pl_barnblitz","folder":"tf","game":"Team Fortress","app_id":440,"player_count":23,"max_players":24,"Bots":0,"server_type":"Dedicated","server_os":"Linux","password":true,"vac":true,"version":"7961495","steam_id":85568392924367362,"keywords":["nocrits","nodmgspread","payload","uncletopia"],"game_id":440,"stv_port":27016,"stv_name":"Uncletopia | London | 1 | All Maps | STV","players":[{"user_id":789,"name":"KnugenIV","steam_id":76561198127091993,"connected_time":1160000000000,"state":"active","ping":57},{"user_id":784,"name":"rummy","steam_id":76561197997573379,"connected_time":2206000000000,"state":"active","ping":43},{"user_id":808,"name":"stink","steam_id":76561198099318923,"connected_time":35000000000,"state":"active","ping":148},{"user_id":809,"name":"Scottish Resistance","steam_id":76561198071360214,"connected_time":12000000000,"state":"spawning","ping":93},{"user_id":800,"name":"Dizzy","steam_id":76561198010192462,"connected_time":562000000000,"state":"active","ping":55},{"user_id":793,"name":"Pats (Gifted items Collector)","steam_id":76561198418538887,"connected_time":975000000000,"state":"active","ping":79},{"user_id":778,"name":"shooer!","steam_id":76561198110531281,"connected_time":3269000000000,"state":"active","ping":73},{"user_id":802,"name":"Omyskull","steam_id":76561198131711758,"connected_time":426000000000,"state":"active","ping":67},{"user_id":804,"name":"zen","steam_id":76561198358006442,"connected_time":136000000000,"state":"active","ping":74},{"user_id":794,"name":"LionKing","steam_id":76561198023399545,"connected_time":948000000000,"state":"active","ping":57},{"user_id":773,"name":"SKY_","steam_id":76561198080980508,"connected_time":3491000000000,"state":"active","ping":68},{"user_id":704,"name":"Purps","steam_id":76561198053886680,"connected_time":9463000000000,"state":"active","ping":43},{"user_id":733,"name":"BreadBubbles","steam_id":76561198174332826,"connected_time":6168000000000,"state":"active","ping":55},{"user_id":796,"name":"beckler","steam_id":76561198029266963,"connected_time":860000000000,"state":"active","ping":47},{"user_id":785,"name":"Slifer, The Hunter","steam_id":76561198062255803,"connected_time":2002000000000,"state":"active","ping":66},{"user_id":799,"name":"sel","steam_id":76561198049891411,"connected_time":758000000000,"state":"active","ping":44},{"user_id":805,"name":"JulianND","steam_id":76561198074083306,"connected_time":113000000000,"state":"active","ping":61},{"user_id":806,"name":"ScapeGoat","steam_id":76561198137868829,"connected_time":112000000000,"state":"active","ping":56},{"user_id":779,"name":"A Succulent Chinese Meal","steam_id":76561198069472440,"connected_time":3224000000000,"state":"active","ping":66},{"user_id":798,"name":"Vexion","steam_id":76561198355319335,"connected_time":844000000000,"state":"active","ping":158},{"user_id":787,"name":"GoblinGaming","steam_id":76561198360395476,"connected_time":1284000000000,"state":"active","ping":30},{"user_id":801,"name":"sora","steam_id":76561198096547662,"connected_time":561000000000,"state":"active","ping":54},{"user_id":770,"name":"teddy","steam_id":76561198007436837,"connected_time":3506000000000,"state":"active","ping":30}]},{"server_id":114,"name":"Uncletopia | London | 2 | All Maps","name_short":"lon-2","host":"lon-1.uk.uncletopia.com","port":27025,"enabled":true,"region":"eu","cc":"gb","latitude":51.509865,"longitude":-0.118092,"reserved":0,"last_update":"0001-01-01T00:00:00Z","name_a2s":"Uncletopia | London | 2 | All Maps","protocol":17,"map":"koth_highpass","folder":"tf","game":"Team Fortress","app_id":440,"player_count":0,"max_players":24,"Bots":0,"server_type":"Dedicated","server_os":"Linux","password":true,"vac":true,"version":"7961495","steam_id":85568392924470941,"keywords":["cp","nocrits","nodmgspread","uncletopia"],"game_id":440,"stv_port":27026,"stv_name":"Uncletopia | London | 2 | All Maps | STV","players":null},{"server_id":320,"name":"Uncletopia | London | 3 | All Maps","name_short":"lon-3","host":"lon-1.uk.uncletopia.com","port":27035,"enabled":true,"region":"eu","cc":"gb","latitude":51.509865,"longitude":-0.118092,"reserved":0,"last_update":"0001-01-01T00:00:00Z","name_a2s":"Uncletopia | London | 3 | All Maps","protocol":17,"map":"pl_pier","folder":"tf","game":"Team Fortress","app_id":440,"player_count":5,"max_players":24,"Bots":0,"server_type":"Dedicated","server_os":"Linux","password":true,"vac":true,"version":"7961495","steam_id":85568392924510192,"keywords":["nocrits","nodmgspread","payload","uncletopia"],"game_id":440,"stv_port":27036,"stv_name":"Uncletopia | London | 3 | All Maps | STV","players":[{"user_id":548,"name":"Pancholín","steam_id":76561198262777640,"connected_time":1293000000000,"state":"active","ping":65},{"user_id":549,"name":"A_GingerIdiot","steam_id":76561198313306026,"connected_time":850000000000,"state":"active","ping":39},{"user_id":550,"name":"devil","steam_id":76561198444424053,"connected_time":354000000000,"state":"active","ping":76},{"user_id":551,"name":"oragejuice","steam_id":76561198207988191,"connected_time":339000000000,"state":"active","ping":68},{"user_id":552,"name":"The Cr#@ture","steam_id":76561199087480628,"connected_time":185000000000,"state":"active","ping":177}]},{"server_id":321,"name":"Uncletopia | London | 4 | All Maps","name_short":"lon-4","host":"lon-1.uk.uncletopia.com","port":27045,"enabled":true,"region":"eu","cc":"gb","latitude":51.509865,"longitude":-0.118092,"reserved":0,"last_update":"0001-01-01T00:00:00Z","name_a2s":"Uncletopia | London | 4 | All Maps","protocol":17,"map":"pl_barnblitz","folder":"tf","game":"Team Fortress","app_id":440,"player_count":24,"max_players":24,"Bots":0,"server_type":"Dedicated","server_os":"Linux","password":true,"vac":true,"version":"7961495","steam_id":85568392924510193,"keywords":["nocrits","nodmgspread","payload","uncletopia"],"game_id":440,"stv_port":27046,"stv_name":"Uncletopia | London | 4 | All Maps | STV","players":[{"user_id":493,"name":"benjels big day","steam_id":76561198025970709,"connected_time":222000000000,"state":"active","ping":61},{"user_id":487,"name":"BlitzGryphon","steam_id":76561198394354224,"connected_time":980000000000,"state":"active","ping":37},{"user_id":476,"name":"shenanigan","steam_id":76561198043452925,"connected_time":1874000000000,"state":"active","ping":94},{"user_id":478,"name":"Heisenburger","steam_id":76561199098248458,"connected_time":1275000000000,"state":"active","ping":98},{"user_id":472,"name":"is it your crocodile?","steam_id":76561198346638308,"connected_time":2434000000000,"state":"active","ping":55},{"user_id":490,"name":"Knösta","steam_id":76561198143422139,"connected_time":703000000000,"state":"active","ping":115},{"user_id":477,"name":"Wobblyboyz","steam_id":76561198289356209,"connected_time":1644000000000,"state":"active","ping":60},{"user_id":481,"name":"Kaestal","steam_id":76561198033174157,"connected_time":1246000000000,"state":"active","ping":153},{"user_id":441,"name":"thomas.jensen96","steam_id":76561198798803845,"connected_time":3966000000000,"state":"active","ping":45},{"user_id":445,"name":"Agro | KritzKast","steam_id":76561197970498549,"connected_time":3848000000000,"state":"active","ping":43},{"user_id":440,"name":"bigmouth strikes again","steam_id":76561198307037169,"connected_time":4018000000000,"state":"active","ping":46},{"user_id":494,"name":"HardScope Henry","steam_id":76561198846784757,"connected_time":120000000000,"state":"active","ping":56},{"user_id":464,"name":"אבא","steam_id":76561198184360615,"connected_time":2686000000000,"state":"active","ping":104},{"user_id":462,"name":"DrHappiness","steam_id":76561198132854516,"connected_time":3123000000000,"state":"active","ping":35},{"user_id":484,"name":"Joe","steam_id":76561198061717026,"connected_time":1141000000000,"state":"active","ping":42},{"user_id":470,"name":"stun","steam_id":76561198276681691,"connected_time":2504000000000,"state":"active","ping":49},{"user_id":443,"name":"lawn","steam_id":76561198001243486,"connected_time":3894000000000,"state":"active","ping":42},{"user_id":483,"name":"fudo myoo","steam_id":76561198456258164,"connected_time":1163000000000,"state":"active","ping":140},{"user_id":479,"name":"Mat-Shades","steam_id":76561198013998031,"connected_time":1267000000000,"state":"active","ping":160},{"user_id":449,"name":"Endi","steam_id":76561198914938199,"connected_time":3683000000000,"state":"active","ping":102},{"user_id":492,"name":"why hello there","steam_id":76561198047271252,"connected_time":448000000000,"state":"active","ping":60},{"user_id":486,"name":"cansado","steam_id":76561198003898089,"connected_time":1001000000000,"state":"active","ping":76},{"user_id":473,"name":"meistjr","steam_id":76561198077240093,"connected_time":2397000000000,"state":"active","ping":55},{"user_id":489,"name":"Frawg","steam_id":76561198951162196,"connected_time":758000000000,"state":"active","ping":118}]},{"server_id":21,"name":"Uncletopia | London | 5 | All Maps","name_short":"lon-5","host":"lon-1.uk.uncletopia.com","port":27055,"enabled":true,"region":"eu","cc":"gb","latitude":51.509865,"longitude":-0.118092,"reserved":0,"last_update":"0001-01-01T00:00:00Z","name_a2s":"Uncletopia | London | 5 | All Maps","protocol":17,"map":"koth_lakeside_final","folder":"tf","game":"Team Fortress","app_id":440,"player_count":0,"max_players":24,"Bots":0,"server_type":"Dedicated","server_os":"Linux","password":true,"vac":true,"version":"7961495","steam_id":85568392924742829,"keywords":["cp","nocrits","nodmgspread","uncletopia"],"game_id":440,"stv_port":27056,"stv_name":"Uncletopia | London | 5 | All Maps | STV","players":null},{"server_id":22,"name":"Uncletopia | London | 6 | All Maps","name_short":"lon-6","host":"lon-1.uk.uncletopia.com","port":27065,"enabled":true,"region":"eu","cc":"gb","latitude":51.509865,"longitude":-0.118092,"reserved":0,"last_update":"0001-01-01T00:00:00Z","name_a2s":"Uncletopia | London | 6 | All Maps","protocol":17,"map":"pl_borneo","folder":"tf","game":"Team Fortress","app_id":440,"player_count":16,"max_players":24,"Bots":0,"server_type":"Dedicated","server_os":"Linux","password":true,"vac":true,"version":"7961495","steam_id":85568392924742830,"keywords":["nocrits","nodmgspread","payload","uncletopia"],"game_id":440,"stv_port":27066,"stv_name":"Uncletopia | London | 6 | All Maps | STV","players":[{"user_id":531,"name":"Spaguetti","steam_id":76561198002913092,"connected_time":1311000000000,"state":"active","ping":83},{"user_id":540,"name":"AlejandritoXDS","steam_id":76561199147041246,"connected_time":931000000000,"state":"active","ping":200},{"user_id":557,"name":"Prototype M.A.K","steam_id":76561198416932796,"connected_time":102000000000,"state":"active","ping":73},{"user_id":558,"name":"Hannü","steam_id":76561197969886128,"connected_time":51000000000,"state":"active","ping":55},{"user_id":546,"name":"Pultow","steam_id":76561198023438448,"connected_time":432000000000,"state":"active","ping":87},{"user_id":559,"name":"High Fructose Porn Syrup","steam_id":76561197998825323,"connected_time":13000000000,"state":"active","ping":63},{"user_id":548,"name":"Jeffacakes","steam_id":76561198280101970,"connected_time":255000000000,"state":"active","ping":61},{"user_id":492,"name":"Vivid","steam_id":76561198346546144,"connected_time":4546000000000,"state":"active","ping":47},{"user_id":534,"name":"[HOL] Solringen","steam_id":76561198003584681,"connected_time":1257000000000,"state":"active","ping":69},{"user_id":480,"name":"It's a me Malario","steam_id":76561198176546013,"connected_time":5073000000000,"state":"active","ping":44},{"user_id":552,"name":"Cute Cow","steam_id":76561198047691462,"connected_time":234000000000,"state":"active","ping":65},{"user_id":553,"name":"SneaK","steam_id":76561198280344773,"connected_time":224000000000,"state":"active","ping":90},{"user_id":554,"name":"монолит","steam_id":76561198066755808,"connected_time":178000000000,"state":"active","ping":68},{"user_id":555,"name":"Average Chinese Man","steam_id":76561199076883472,"connected_time":160000000000,"state":"active","ping":72},{"user_id":504,"name":"Gelato","steam_id":76561198282596343,"connected_time":3378000000000,"state":"active","ping":43},{"user_id":533,"name":"Feelsbadman","steam_id":76561198002461001,"connected_time":1265000000000,"state":"active","ping":84}]},{"server_id":40,"name":"Uncletopia | London | 7 | Stopwatch","name_short":"lon-7","host":"lon-1.uk.uncletopia.com","port":27075,"enabled":true,"region":"eu","cc":"gb","latitude":51.509865,"longitude":-0.118092,"reserved":0,"last_update":"0001-01-01T00:00:00Z","name_a2s":"Uncletopia | London | 7 | Stopwatch","protocol":17,"map":"workshop/koth_product_final.ugc454272353","folder":"tf","game":"Team Fortress","app_id":440,"player_count":0,"max_players":24,"Bots":0,"server_type":"Dedicated","server_os":"Linux","password":true,"vac":true,"version":"7961495","steam_id":85568392924964314,"keywords":["cp","nocrits","nodmgspread","uncletopia"],"game_id":440,"stv_port":27076,"stv_name":"Uncletopia | London | 7 | Stopwatch | STV","players":null},{"server_id":41,"name":"Uncletopia | London | 8 | Community","name_short":"lon-8","host":"lon-1.uk.uncletopia.com","port":27085,"enabled":true,"region":"eu","cc":"gb","latitude":51.509865,"longitude":-0.118092,"reserved":0,"last_update":"0001-01-01T00:00:00Z","name_a2s":"Uncletopia | London | 8 | Community","protocol":17,"map":"workshop/koth_kemptown_rc1.ugc767410655","folder":"tf","game":"Team Fortress","app_id":440,"player_count":0,"max_players":24,"Bots":0,"server_type":"Dedicated","server_os":"Linux","password":true,"vac":true,"version":"7961495","steam_id":85568392924964315,"keywords":["cp","nocrits","nodmgspread","uncletopia"],"game_id":440,"stv_port":27086,"stv_name":"Uncletopia | London | 8 | Community | STV","players":null},{"server_id":300,"name":"Uncletopia | Montréal | 1 | One Thousand Uncles","name_short":"mtl-1","host":"mtl-1.ca.uncletopia.com","port":27015,"enabled":true,"region":"us-east","cc":"ca","latitude":45.50889,"longitude":-73.56167,"reserved":0,"last_update":"0001-01-01T00:00:00Z","name_a2s":"","protocol":0,"map":"","folder":"","game":"","app_id":0,"player_count":0,"max_players":0,"Bots":0,"server_type":"","server_os":"","password":false,"vac":false,"version":"","steam_id":0,"keywords":null,"game_id":0,"stv_port":0,"stv_name":"","players":null},{"server_id":301,"name":"Uncletopia | Montréal | 2 | One Thousand Uncles","name_short":"mtl-2","host":"mtl-1.ca.uncletopia.com","port":27025,"enabled":true,"region":"us-east","cc":"ca","latitude":45.50889,"longitude":-73.56167,"reserved":0,"last_update":"0001-01-01T00:00:00Z","name_a2s":"","protocol":0,"map":"","folder":"","game":"","app_id":0,"player_count":3,"max_players":0,"Bots":0,"server_type":"","server_os":"","password":false,"vac":false,"version":"","steam_id":0,"keywords":null,"game_id":0,"stv_port":0,"stv_name":"","players":[{"user_id":2,"name":"Willi the Gifter of Chaos","steam_id":76561198066508251,"connected_time":5676000000000,"state":"active","ping":53},{"user_id":35,"name":"pan","steam_id":76561199019732036,"connected_time":2576000000000,"state":"active","ping":51},{"user_id":36,"name":"Rhutebeer","steam_id":76561198018302761,"connected_time":1687000000000,"state":"active","ping":104}]},{"server_id":302,"name":"Uncletopia | Montréal | 3 | One Thousand Uncles","name_short":"mtl-3","host":"mtl-1.ca.uncletopia.com","port":27035,"enabled":true,"region":"us-east","cc":"ca","latitude":45.50889,"longitude":-73.56167,"reserved":0,"last_update":"0001-01-01T00:00:00Z","name_a2s":"","protocol":0,"map":"","folder":"","game":"","app_id":0,"player_count":0,"max_players":0,"Bots":0,"server_type":"","server_os":"","password":false,"vac":false,"version":"","steam_id":0,"keywords":null,"game_id":0,"stv_port":0,"stv_name":"","players":null},{"server_id":13,"name":"Uncletopia | New York City | 1 | All Maps","name_short":"nyc-1","host":"nyc-1.us.uncletopia.com","port":27015,"enabled":true,"region":"us-east","cc":"us","latitude":40.73061,"longitude":-73.93524,"reserved":0,"last_update":"0001-01-01T00:00:00Z","name_a2s":"Uncletopia | New York City | 1 | All Maps","protocol":17,"map":"cp_sunshine","folder":"tf","game":"Team Fortress","app_id":440,"player_count":24,"max_players":24,"Bots":0,"server_type":"Dedicated","server_os":"Linux","password":true,"vac":true,"version":"7961495","steam_id":85568392924469993,"keywords":["cp","nocrits","nodmgspread","uncletopia"],"game_id":440,"stv_port":27016,"stv_name":"Uncletopia | New York City | 1 | All Maps | STV","players":[{"user_id":200,"name":"Nerrrd_","steam_id":76561198870129960,"connected_time":571000000000,"state":"active","ping":41},{"user_id":199,"name":"David Blaine","steam_id":76561198980560578,"connected_time":582000000000,"state":"active","ping":70},{"user_id":46,"name":"FrosbeeChill","steam_id":76561198182510862,"connected_time":11046000000000,"state":"active","ping":55},{"user_id":136,"name":"Hi, I'm Jesus","steam_id":76561198015327152,"connected_time":3640000000000,"state":"active","ping":43},{"user_id":203,"name":"Wyan","steam_id":76561198321309566,"connected_time":530000000000,"state":"active","ping":74},{"user_id":207,"name":"EpitapH","steam_id":76561198211642559,"connected_time":123000000000,"state":"active","ping":70},{"user_id":206,"name":"Madeline","steam_id":76561199088573055,"connected_time":323000000000,"state":"active","ping":97},{"user_id":162,"name":"the sludge","steam_id":76561198268816354,"connected_time":2946000000000,"state":"active","ping":67},{"user_id":182,"name":"Chin (SFM Comms Open)","steam_id":76561198953123833,"connected_time":2035000000000,"state":"active","ping":145},{"user_id":196,"name":"you forgot the sauce","steam_id":76561198387016713,"connected_time":956000000000,"state":"active","ping":56},{"user_id":170,"name":"Rated_C","steam_id":76561199226478414,"connected_time":2761000000000,"state":"active","ping":86},{"user_id":164,"name":"Lemon Soda","steam_id":76561198140208761,"connected_time":2867000000000,"state":"active","ping":59},{"user_id":179,"name":"FemboyNero","steam_id":76561198449565973,"connected_time":2149000000000,"state":"active","ping":71},{"user_id":194,"name":"willow","steam_id":76561198276866938,"connected_time":1188000000000,"state":"active","ping":59},{"user_id":167,"name":"your moms car","steam_id":76561199389283507,"connected_time":2850000000000,"state":"active","ping":73},{"user_id":205,"name":"Maniac Hat","steam_id":76561199082942851,"connected_time":363000000000,"state":"active","ping":76},{"user_id":185,"name":"Brick","steam_id":76561198401918732,"connected_time":1880000000000,"state":"active","ping":75},{"user_id":197,"name":"MochaPunk","steam_id":76561198139613126,"connected_time":732000000000,"state":"active","ping":59},{"user_id":202,"name":"breathingtrees","steam_id":76561198118931690,"connected_time":564000000000,"state":"active","ping":53},{"user_id":204,"name":"GibbusGod","steam_id":76561199232436690,"connected_time":515000000000,"state":"active","ping":70},{"user_id":209,"name":"lalman","steam_id":76561198196605887,"connected_time":1000000000,"state":"spawning","ping":30},{"user_id":193,"name":"Dareu","steam_id":76561198081781710,"connected_time":1228000000000,"state":"active","ping":45},{"user_id":180,"name":"I'm gonna eat you","steam_id":76561198073769916,"connected_time":2147000000000,"state":"active","ping":118},{"user_id":74,"name":"Fly_Johnson","steam_id":76561198882285873,"connected_time":9867000000000,"state":"active","ping":46}]},{"server_id":14,"name":"Uncletopia | New York City | 2 | All Maps","name_short":"nyc-2","host":"nyc-1.us.uncletopia.com","port":27025,"enabled":true,"region":"us-east","cc":"us","latitude":40.73061,"longitude":-73.93524,"reserved":0,"last_update":"0001-01-01T00:00:00Z","name_a2s":"Uncletopia | New York City | 2 | All Maps","protocol":17,"map":"cp_snakewater_final1","folder":"tf","game":"Team Fortress","app_id":440,"player_count":24,"max_players":24,"Bots":0,"server_type":"Dedicated","server_os":"Linux","password":true,"vac":true,"version":"7961495","steam_id":85568392924469994,"keywords":["cp","nocrits","nodmgspread","uncletopia"],"game_id":440,"stv_port":27026,"stv_name":"Uncletopia | New York City | 2 | All Maps | STV","players":[{"user_id":280,"name":"Kartyac","steam_id":76561197991069005,"connected_time":1792000000000,"state":"active","ping":68},{"user_id":285,"name":"MLWeegee","steam_id":76561198096399823,"connected_time":1337000000000,"state":"active","ping":46},{"user_id":228,"name":"Carson","steam_id":76561198076771071,"connected_time":5463000000000,"state":"active","ping":67},{"user_id":262,"name":"astron","steam_id":76561198058546328,"connected_time":2354000000000,"state":"active","ping":67},{"user_id":300,"name":"fear_the-penguins","steam_id":76561199013292217,"connected_time":454000000000,"state":"active","ping":56},{"user_id":263,"name":"ryan","steam_id":76561198113269869,"connected_time":2338000000000,"state":"active","ping":173},{"user_id":264,"name":"bones!?!?","steam_id":76561198084646266,"connected_time":2335000000000,"state":"active","ping":98},{"user_id":302,"name":"132 mensa","steam_id":76561197961263312,"connected_time":234000000000,"state":"active","ping":49},{"user_id":286,"name":"Arthur SSJ2","steam_id":76561198043678479,"connected_time":1322000000000,"state":"active","ping":74},{"user_id":288,"name":"Rd2l EST Sunday Champion","steam_id":76561198214059091,"connected_time":1194000000000,"state":"active","ping":57},{"user_id":268,"name":"pinkissocool {f2p}","steam_id":76561198989599828,"connected_time":2061000000000,"state":"active","ping":44},{"user_id":290,"name":"AttentionDeficitDad","steam_id":76561199093919121,"connected_time":1050000000000,"state":"active","ping":82},{"user_id":301,"name":"frig","steam_id":76561198436177465,"connected_time":307000000000,"state":"active","ping":51},{"user_id":227,"name":"kiwiichie ₍ᐢᐢ₎","steam_id":76561198315449521,"connected_time":6193000000000,"state":"active","ping":85},{"user_id":295,"name":"Puff n Pass","steam_id":76561199145480787,"connected_time":565000000000,"state":"active","ping":91},{"user_id":296,"name":"NoobsSlayer","steam_id":76561199102765122,"connected_time":535000000000,"state":"active","ping":141},{"user_id":273,"name":"EmeraldCola","steam_id":76561198066663687,"connected_time":1913000000000,"state":"active","ping":57},{"user_id":287,"name":"Ginger Jesus","steam_id":76561198052386458,"connected_time":1288000000000,"state":"active","ping":47},{"user_id":289,"name":"flare","steam_id":76561198048623485,"connected_time":1053000000000,"state":"active","ping":46},{"user_id":304,"name":"TonesMcGroans","steam_id":76561197996691606,"connected_time":112000000000,"state":"active","ping":80},{"user_id":303,"name":"Wilhelmktx","steam_id":76561198158102295,"connected_time":230000000000,"state":"active","ping":87},{"user_id":297,"name":"El Sin Cabeza","steam_id":76561198411585363,"connected_time":524000000000,"state":"active","ping":161},{"user_id":279,"name":"AllMightyLoaf","steam_id":76561198093057217,"connected_time":1799000000000,"state":"active","ping":68},{"user_id":298,"name":"jhoelpauro","steam_id":76561199154879299,"connected_time":522000000000,"state":"active","ping":159}]},{"server_id":15,"name":"Uncletopia | New York City | 3 | Stopwatch","name_short":"nyc-3","host":"nyc-1.us.uncletopia.com","port":27035,"enabled":true,"region":"us-east","cc":"us","latitude":40.73061,"longitude":-73.93524,"reserved":0,"last_update":"0001-01-01T00:00:00Z","name_a2s":"Uncletopia | New York City | 3 | Stopwatch","protocol":17,"map":"workshop/pl_barnblitz_pro7.ugc582280235","folder":"tf","game":"Team Fortress","app_id":440,"player_count":0,"max_players":24,"Bots":0,"server_type":"Dedicated","server_os":"Linux","password":true,"vac":true,"version":"7961495","steam_id":85568392924742820,"keywords":["nocrits","nodmgspread","payload","uncletopia"],"game_id":440,"stv_port":27036,"stv_name":"Uncletopia | New York City | 3 | Stopwatch | STV","players":null},{"server_id":16,"name":"Uncletopia | New York City | 4 | Community","name_short":"nyc-4","host":"nyc-1.us.uncletopia.com","port":27045,"enabled":true,"region":"us-east","cc":"us","latitude":40.73061,"longitude":-73.93524,"reserved":0,"last_update":"0001-01-01T00:00:00Z","name_a2s":"Uncletopia | New York City | 4 | Community","protocol":17,"map":"workshop/koth_ramjam_rc1.ugc459778887","folder":"tf","game":"Team Fortress","app_id":440,"player_count":0,"max_players":24,"Bots":0,"server_type":"Dedicated","server_os":"Linux","password":true,"vac":true,"version":"7961495","steam_id":85568392924742821,"keywords":["cp","nocrits","nodmgspread","uncletopia"],"game_id":440,"stv_port":27046,"stv_name":"Uncletopia | New York City | 4 | Community | STV","players":null},{"server_id":142,"name":"Uncletopia | São Paulo | 1 | All Maps","name_short":"sao-1","host":"sao-1.br.uncletopia.com","port":27015,"enabled":true,"region":"sa","cc":"br","latitude":-23.533773,"longitude":-46.62529,"reserved":0,"last_update":"0001-01-01T00:00:00Z","name_a2s":"Uncletopia | São Paulo | 1 | All Maps","protocol":17,"map":"koth_highpass","folder":"tf","game":"Team Fortress","app_id":440,"player_count":0,"max_players":24,"Bots":0,"server_type":"Dedicated","server_os":"Linux","password":true,"vac":true,"version":"7961495","steam_id":85568392924469996,"keywords":["cp","nocrits","nodmgspread","uncletopia"],"game_id":440,"stv_port":27016,"stv_name":"Uncletopia | São Paulo | 1 | All Maps | STV","players":null},{"server_id":143,"name":"Uncletopia | São Paulo | 2 | Community","name_short":"sao-2","host":"sao-2.br.uncletopia.com","port":27015,"enabled":true,"region":"sa","cc":"br","latitude":-23.533773,"longitude":-46.62529,"reserved":0,"last_update":"0001-01-01T00:00:00Z","name_a2s":"Uncletopia | São Paulo | 2 | Community","protocol":17,"map":"workshop/cp_sulfur_rc2.ugc619869471","folder":"tf","game":"Team Fortress","app_id":440,"player_count":0,"max_players":24,"Bots":0,"server_type":"Dedicated","server_os":"Linux","password":true,"vac":true,"version":"7961495","steam_id":85568392924485349,"keywords":["cp","nocrits","nodmgspread","uncletopia"],"game_id":440,"stv_port":27016,"stv_name":"Uncletopia | São Paulo | 2 | Community | STV","players":null},{"server_id":7,"name":"Uncletopia | Seattle | 1 | All Maps","name_short":"sea-1","host":"sea-1.us.uncletopia.com","port":27015,"enabled":true,"region":"us-west","cc":"us","latitude":47.608013,"longitude":-122.33517,"reserved":0,"last_update":"0001-01-01T00:00:00Z","name_a2s":"Uncletopia | Seattle | 1 | All Maps","protocol":17,"map":"pl_upward","folder":"tf","game":"Team Fortress","app_id":440,"player_count":24,"max_players":24,"Bots":0,"server_type":"Dedicated","server_os":"Linux","password":true,"vac":true,"version":"7961495","steam_id":85568392924469997,"keywords":["nocrits","nodmgspread","payload","uncletopia"],"game_id":440,"stv_port":27016,"stv_name":"Uncletopia | Seattle | 1 | All Maps | STV","players":[{"user_id":565,"name":"MacchuPeachu","steam_id":76561199093242587,"connected_time":4953000000000,"state":"active","ping":63},{"user_id":546,"name":"Dongus","steam_id":76561197979056451,"connected_time":5636000000000,"state":"active","ping":58},{"user_id":607,"name":"Meso","steam_id":76561199088153190,"connected_time":1997000000000,"state":"active","ping":57},{"user_id":573,"name":"sadlaxx","steam_id":76561198061354919,"connected_time":4377000000000,"state":"active","ping":74},{"user_id":613,"name":"tophawkyy","steam_id":76561199075934685,"connected_time":1278000000000,"state":"active","ping":83},{"user_id":618,"name":"Dextersbrain","steam_id":76561198011831579,"connected_time":926000000000,"state":"active","ping":61},{"user_id":575,"name":"Peppy","steam_id":76561198866629645,"connected_time":3986000000000,"state":"active","ping":60},{"user_id":620,"name":"I am Thaco","steam_id":76561197992956852,"connected_time":722000000000,"state":"active","ping":80},{"user_id":578,"name":"Punished Jeff #NeverSimpAgain","steam_id":76561198304252584,"connected_time":3531000000000,"state":"active","ping":71},{"user_id":609,"name":"Rev","steam_id":76561199060355036,"connected_time":1970000000000,"state":"active","ping":41},{"user_id":600,"name":"Human Resources Manager","steam_id":76561198066386411,"connected_time":2392000000000,"state":"active","ping":76},{"user_id":606,"name":"hamletespacial","steam_id":76561199084414649,"connected_time":2169000000000,"state":"active","ping":120},{"user_id":581,"name":"DaddyGalaxy","steam_id":76561198139697796,"connected_time":3480000000000,"state":"active","ping":55},{"user_id":610,"name":"Mr. Carfox","steam_id":76561198041664428,"connected_time":1962000000000,"state":"active","ping":61},{"user_id":548,"name":"Mer","steam_id":76561198192171041,"connected_time":5632000000000,"state":"active","ping":152},{"user_id":623,"name":"MayKay","steam_id":76561199016092265,"connected_time":65000000000,"state":"active","ping":83},{"user_id":552,"name":"Set","steam_id":76561198063949642,"connected_time":5601000000000,"state":"active","ping":44},{"user_id":598,"name":"RedlineRush","steam_id":76561198122437356,"connected_time":2561000000000,"state":"active","ping":51},{"user_id":616,"name":"fishtank.live","steam_id":76561198280085840,"connected_time":1089000000000,"state":"active","ping":89},{"user_id":614,"name":"Klone","steam_id":76561198854485605,"connected_time":1206000000000,"state":"active","ping":111},{"user_id":597,"name":"Tapler","steam_id":76561198338119327,"connected_time":2925000000000,"state":"active","ping":43},{"user_id":617,"name":"Nom Skirrett","steam_id":76561198014600788,"connected_time":942000000000,"state":"active","ping":62},{"user_id":622,"name":"Cloud4084","steam_id":76561199447681715,"connected_time":427000000000,"state":"active","ping":80},{"user_id":601,"name":"cielael","steam_id":76561198043971956,"connected_time":2389000000000,"state":"active","ping":75}]},{"server_id":119,"name":"Uncletopia | Seattle | 2 | All Maps","name_short":"sea-2","host":"sea-1.us.uncletopia.com","port":27025,"enabled":true,"region":"us-west","cc":"us","latitude":47.608013,"longitude":-122.33517,"reserved":0,"last_update":"0001-01-01T00:00:00Z","name_a2s":"Uncletopia | Seattle | 2 | All Maps","protocol":17,"map":"koth_cascade","folder":"tf","game":"Team Fortress","app_id":440,"player_count":4,"max_players":24,"Bots":0,"server_type":"Dedicated","server_os":"Linux","password":true,"vac":true,"version":"7961495","steam_id":85568392924469998,"keywords":["cp","nocrits","nodmgspread","uncletopia"],"game_id":440,"stv_port":27026,"stv_name":"Uncletopia | Seattle | 2 | All Maps | STV","players":[{"user_id":17,"name":"FidelGuevara","steam_id":76561198368296171,"connected_time":880000000000,"state":"active","ping":85},{"user_id":18,"name":"ScottishGaming","steam_id":76561199076884445,"connected_time":756000000000,"state":"active","ping":70},{"user_id":21,"name":"DaBigA","steam_id":76561198326492538,"connected_time":76000000000,"state":"active","ping":45},{"user_id":20,"name":"artemisjackson2","steam_id":76561199094686268,"connected_time":484000000000,"state":"active","ping":98}]},{"server_id":406,"name":"Uncletopia | Seattle | 3 | Stopwatch","name_short":"sea-3","host":"sea-1.us.uncletopia.com","port":27035,"enabled":true,"region":"us-west","cc":"us","latitude":47.608013,"longitude":-122.33517,"reserved":0,"last_update":"0001-01-01T00:00:00Z","name_a2s":"Uncletopia | Seattle | 3 | Stopwatch","protocol":17,"map":"pl_pier","folder":"tf","game":"Team Fortress","app_id":440,"player_count":0,"max_players":24,"Bots":0,"server_type":"Dedicated","server_os":"Linux","password":true,"vac":true,"version":"7961495","steam_id":85568392924515217,"keywords":["nocrits","nodmgspread","payload","uncletopia"],"game_id":440,"stv_port":27036,"stv_name":"Uncletopia | Seattle | 3 | Stopwatch | STV","players":null},{"server_id":17,"name":"Uncletopia | San Francisco | 1 | All Maps","name_short":"sfo-1","host":"sfo-1.us.uncletopia.com","port":27015,"enabled":true,"region":"us-west","cc":"us","latitude":37.77397,"longitude":-122.4313,"reserved":0,"last_update":"0001-01-01T00:00:00Z","name_a2s":"Uncletopia | San Francisco | 1 | All Maps","protocol":17,"map":"koth_highpass","folder":"tf","game":"Team Fortress","app_id":440,"player_count":6,"max_players":24,"Bots":0,"server_type":"Dedicated","server_os":"Linux","password":true,"vac":true,"version":"7961495","steam_id":85568392924469999,"keywords":["cp","nocrits","nodmgspread","uncletopia"],"game_id":440,"stv_port":27016,"stv_name":"Uncletopia | San Francisco | 1 | All Maps | STV","players":[{"user_id":12,"name":"Arkán","steam_id":76561198205702933,"connected_time":2191000000000,"state":"active","ping":48},{"user_id":15,"name":"Zeebop","steam_id":76561198148332988,"connected_time":1144000000000,"state":"active","ping":114},{"user_id":16,"name":"midijamshred","steam_id":76561197999416403,"connected_time":759000000000,"state":"active","ping":102},{"user_id":17,"name":"1000 Ping","steam_id":76561198098330939,"connected_time":711000000000,"state":"active","ping":72},{"user_id":18,"name":"Thequirka","steam_id":76561198968058652,"connected_time":401000000000,"state":"active","ping":62},{"user_id":20,"name":"gulch","steam_id":76561199227946025,"connected_time":104000000000,"state":"active","ping":93}]},{"server_id":18,"name":"Uncletopia | San Francisco | 2 | All Maps","name_short":"sfo-2","host":"sfo-1.us.uncletopia.com","port":27025,"enabled":true,"region":"us-west","cc":"us","latitude":37.77397,"longitude":-122.4313,"reserved":0,"last_update":"0001-01-01T00:00:00Z","name_a2s":"Uncletopia | San Francisco | 2 | All Maps","protocol":17,"map":"koth_highpass","folder":"tf","game":"Team Fortress","app_id":440,"player_count":4,"max_players":24,"Bots":0,"server_type":"Dedicated","server_os":"Linux","password":true,"vac":true,"version":"7961495","steam_id":85568392924470000,"keywords":["cp","nocrits","nodmgspread","uncletopia"],"game_id":440,"stv_port":27026,"stv_name":"Uncletopia | San Francisco | 2 | All Maps | STV","players":[{"user_id":23,"name":"Sul Gutmun","steam_id":76561198308817394,"connected_time":1351000000000,"state":"active","ping":105},{"user_id":24,"name":"cool beans","steam_id":76561198321591685,"connected_time":1337000000000,"state":"active","ping":85},{"user_id":25,"name":"Dr,Dan64","steam_id":76561199013363718,"connected_time":1326000000000,"state":"active","ping":98},{"user_id":26,"name":"Manfred von Richthofen","steam_id":76561198881106202,"connected_time":572000000000,"state":"active","ping":92}]},{"server_id":19,"name":"Uncletopia | San Francisco | 3 | Stopwatch","name_short":"sfo-3","host":"sfo-1.us.uncletopia.com","port":27035,"enabled":true,"region":"us-west","cc":"us","latitude":37.77397,"longitude":-122.4313,"reserved":0,"last_update":"0001-01-01T00:00:00Z","name_a2s":"Uncletopia | San Francisco | 3 | Stopwatch","protocol":17,"map":"pl_pier","folder":"tf","game":"Team Fortress","app_id":440,"player_count":0,"max_players":24,"Bots":0,"server_type":"Dedicated","server_os":"Linux","password":true,"vac":true,"version":"7961495","steam_id":85568392924742824,"keywords":["nocrits","nodmgspread","payload","uncletopia"],"game_id":440,"stv_port":27036,"stv_name":"Uncletopia | San Francisco | 3 | Stopwatch | STV","players":null},{"server_id":20,"name":"Uncletopia | San Francisco | 4 | Community","name_short":"sfo-4","host":"sfo-1.us.uncletopia.com","port":27045,"enabled":true,"region":"us-west","cc":"us","latitude":37.77397,"longitude":-122.4313,"reserved":0,"last_update":"0001-01-01T00:00:00Z","name_a2s":"Uncletopia | San Francisco | 4 | Community","protocol":17,"map":"pl_pier","folder":"tf","game":"Team Fortress","app_id":440,"player_count":0,"max_players":24,"Bots":0,"server_type":"Dedicated","server_os":"Linux","password":true,"vac":true,"version":"7961495","steam_id":85568392924742826,"keywords":["nocrits","nodmgspread","payload","uncletopia"],"game_id":440,"stv_port":27046,"stv_name":"Uncletopia | San Francisco | 4 | Community | STV","players":null},{"server_id":141,"name":"Uncletopia | Sydney | 1 | All Maps","name_short":"syd-1","host":"syd-1.au.uncletopia.com","port":27015,"enabled":true,"region":"au","cc":"au","latitude":-33.865143,"longitude":151.2099,"reserved":0,"last_update":"0001-01-01T00:00:00Z","name_a2s":"Uncletopia | Sydney | 1 | All Maps","protocol":17,"map":"koth_viaduct","folder":"tf","game":"Team Fortress","app_id":440,"player_count":0,"max_players":24,"Bots":0,"server_type":"Dedicated","server_os":"Linux","password":true,"vac":true,"version":"7961495","steam_id":85568392924470001,"keywords":["cp","nocrits","nodmgspread","uncletopia"],"game_id":440,"stv_port":27016,"stv_name":"Uncletopia | Sydney | 1 | All Maps | STV","players":null},{"server_id":123,"name":"Uncletopia | Sydney | 2 | All Maps","name_short":"syd-2","host":"syd-1.au.uncletopia.com","port":27025,"enabled":true,"region":"au","cc":"au","latitude":-33.865143,"longitude":151.2099,"reserved":0,"last_update":"0001-01-01T00:00:00Z","name_a2s":"Uncletopia | Sydney | 2 | All Maps","protocol":17,"map":"koth_lakeside_final","folder":"tf","game":"Team Fortress","app_id":440,"player_count":0,"max_players":24,"Bots":0,"server_type":"Dedicated","server_os":"Linux","password":true,"vac":true,"version":"7961495","steam_id":85568392924470002,"keywords":["cp","nocrits","nodmgspread","uncletopia"],"game_id":440,"stv_port":27026,"stv_name":"Uncletopia | Sydney | 2 | All Maps | STV","players":null},{"server_id":395,"name":"Uncletopia | Sydney | 3 | All Maps","name_short":"syd-3","host":"syd-1.au.uncletopia.com","port":27035,"enabled":true,"region":"au","cc":"au","latitude":-33.865143,"longitude":151.2099,"reserved":0,"last_update":"0001-01-01T00:00:00Z","name_a2s":"Uncletopia | Sydney | 3 | All Maps","protocol":17,"map":"pl_frontier_final","folder":"tf","game":"Team Fortress","app_id":440,"player_count":0,"max_players":24,"Bots":0,"server_type":"Dedicated","server_os":"Linux","password":true,"vac":true,"version":"7961495","steam_id":85568392925194467,"keywords":["nocrits","nodmgspread","payload","uncletopia"],"game_id":440,"stv_port":27036,"stv_name":"Uncletopia | Sydney | 3 | All Maps | STV","players":null},{"server_id":396,"name":"Uncletopia | Sydney | 4 | All Maps","name_short":"syd-4","host":"syd-1.au.uncletopia.com","port":27045,"enabled":true,"region":"au","cc":"au","latitude":-33.865143,"longitude":151.2099,"reserved":0,"last_update":"0001-01-01T00:00:00Z","name_a2s":"Uncletopia | Sydney | 4 | All Maps","protocol":17,"map":"cp_process_final","folder":"tf","game":"Team Fortress","app_id":440,"player_count":0,"max_players":24,"Bots":0,"server_type":"Dedicated","server_os":"Linux","password":true,"vac":true,"version":"7961495","steam_id":85568392925397958,"keywords":["cp","nocrits","nodmgspread","uncletopia"],"game_id":440,"stv_port":27046,"stv_name":"Uncletopia | Sydney | 4 | All Maps | STV","players":null},{"server_id":58,"name":"Uncletopia | Sydney | 5 | Stopwatch","name_short":"syd-5","host":"syd-1.au.uncletopia.com","port":27055,"enabled":true,"region":"au","cc":"au","latitude":-33.865143,"longitude":151.2099,"reserved":0,"last_update":"0001-01-01T00:00:00Z","name_a2s":"Uncletopia | Sydney | 5 | Stopwatch","protocol":17,"map":"pl_frontier_final","folder":"tf","game":"Team Fortress","app_id":440,"player_count":0,"max_players":24,"Bots":0,"server_type":"Dedicated","server_os":"Linux","password":true,"vac":true,"version":"7961495","steam_id":85568392925397959,"keywords":["nocrits","nodmgspread","payload","uncletopia"],"game_id":440,"stv_port":27056,"stv_name":"Uncletopia | Sydney | 5 | Stopwatch | STV","players":null},{"server_id":59,"name":"Uncletopia | Sydney | 6 | Community","name_short":"syd-6","host":"syd-1.au.uncletopia.com","port":27065,"enabled":true,"region":"au","cc":"au","latitude":-33.865143,"longitude":151.2099,"reserved":0,"last_update":"0001-01-01T00:00:00Z","name_a2s":"Uncletopia | Sydney | 6 | Community","protocol":17,"map":"cp_sunshine","folder":"tf","game":"Team Fortress","app_id":440,"player_count":0,"max_players":24,"Bots":0,"server_type":"Dedicated","server_os":"Linux","password":true,"vac":true,"version":"7961495","steam_id":85568392925397960,"keywords":["cp","nocrits","nodmgspread","uncletopia"],"game_id":440,"stv_port":27066,"stv_name":"Uncletopia | Sydney | 6 | Community | STV","players":null},{"server_id":49,"name":"Uncletopia | Warsaw | 1 | One Thousand Uncles","name_short":"waw-1","host":"waw-1.pl.uncletopia.com","port":27015,"enabled":true,"region":"eu","cc":"pl","latitude":52.2297,"longitude":21.017532,"reserved":0,"last_update":"0001-01-01T00:00:00Z","name_a2s":"Uncletopia | Warsaw | 1 | One Thousand Uncles","protocol":17,"map":"pl_goldrush","folder":"tf","game":"Team Fortress","app_id":440,"player_count":19,"max_players":32,"Bots":16,"server_type":"Dedicated","server_os":"Linux","password":true,"vac":true,"version":"7961495","steam_id":85568392925397850,"keywords":["alltalk","bots","danepve","increased_maxplayers","nocrits","norespawntime","payload","uncletopia"],"game_id":440,"stv_port":0,"stv_name":"","players":[{"user_id":638,"name":"LizardMilk_19","steam_id":76561199435002235,"connected_time":298000000000,"state":"active","ping":264},{"user_id":621,"name":"tyroksi :D","steam_id":76561198103875245,"connected_time":5111000000000,"state":"active","ping":105},{"user_id":633,"name":"tralalaOuiOui","steam_id":76561197963471507,"connected_time":2797000000000,"state":"active","ping":65}]},{"server_id":50,"name":"Uncletopia | Warsaw | 2 | One Thousand Uncles","name_short":"waw-2","host":"waw-1.pl.uncletopia.com","port":27025,"enabled":true,"region":"eu","cc":"pl","latitude":52.2297,"longitude":21.017532,"reserved":0,"last_update":"0001-01-01T00:00:00Z","name_a2s":"Uncletopia | Warsaw | 2 | One Thousand Uncles","protocol":17,"map":"cp_egypt_final","folder":"tf","game":"Team Fortress","app_id":440,"player_count":0,"max_players":32,"Bots":0,"server_type":"Dedicated","server_os":"Linux","password":true,"vac":true,"version":"7961495","steam_id":85568392925397851,"keywords":["alltalk","cp","danepve","increased_maxplayers","nocrits","norespawntime","uncletopia"],"game_id":440,"stv_port":0,"stv_name":"","players":null},{"server_id":51,"name":"Uncletopia | Warsaw | 3 | All Maps","name_short":"waw-3","host":"waw-1.pl.uncletopia.com","port":27035,"enabled":true,"region":"eu","cc":"pl","latitude":52.2297,"longitude":21.017532,"reserved":0,"last_update":"0001-01-01T00:00:00Z","name_a2s":"Uncletopia | Warsaw | 3 | All Maps","protocol":17,"map":"cp_dustbowl","folder":"tf","game":"Team Fortress","app_id":440,"player_count":0,"max_players":24,"Bots":0,"server_type":"Dedicated","server_os":"Linux","password":true,"vac":true,"version":"7961495","steam_id":85568392925397852,"keywords":["cp","nocrits","nodmgspread","uncletopia"],"game_id":440,"stv_port":27036,"stv_name":"Uncletopia | Warsaw | 3 | All Maps | STV","players":null},{"server_id":52,"name":"Uncletopia | Warsaw | 4 | All Maps","name_short":"waw-4","host":"waw-1.pl.uncletopia.com","port":27045,"enabled":true,"region":"eu","cc":"pl","latitude":52.2297,"longitude":21.017532,"reserved":0,"last_update":"0001-01-01T00:00:00Z","name_a2s":"Uncletopia | Warsaw | 4 | All Maps","protocol":17,"map":"cp_coldfront","folder":"tf","game":"Team Fortress","app_id":440,"player_count":0,"max_players":24,"Bots":0,"server_type":"Dedicated","server_os":"Linux","password":true,"vac":true,"version":"7961495","steam_id":85568392925397853,"keywords":["cp","nocrits","nodmgspread","uncletopia"],"game_id":440,"stv_port":27046,"stv_name":"Uncletopia | Warsaw | 4 | All Maps | STV","players":null},{"server_id":53,"name":"Uncletopia | Warsaw | 5 | Stopwatch","name_short":"waw-5","host":"waw-1.pl.uncletopia.com","port":27055,"enabled":true,"region":"eu","cc":"pl","latitude":52.2297,"longitude":21.017532,"reserved":0,"last_update":"0001-01-01T00:00:00Z","name_a2s":"Uncletopia | Warsaw | 5 | Stopwatch","protocol":17,"map":"workshop/pl_badwater_pro_v12.ugc2142942074","folder":"tf","game":"Team Fortress","app_id":440,"player_count":0,"max_players":24,"Bots":0,"server_type":"Dedicated","server_os":"Linux","password":true,"vac":true,"version":"7961495","steam_id":85568392925397854,"keywords":["nocrits","nodmgspread","payload","uncletopia"],"game_id":440,"stv_port":27056,"stv_name":"Uncletopia | Warsaw | 5 | Stopwatch | STV","players":null},{"server_id":54,"name":"Uncletopia | Warsaw | 6 | Community","name_short":"waw-6","host":"waw-1.pl.uncletopia.com","port":27065,"enabled":true,"region":"eu","cc":"pl","latitude":52.2297,"longitude":21.017532,"reserved":0,"last_update":"0001-01-01T00:00:00Z","name_a2s":"Uncletopia | Warsaw | 6 | Community","protocol":17,"map":"workshop/rd_asteroid_redux_b1.ugc2154902912","folder":"tf","game":"Team Fortress","app_id":440,"player_count":0,"max_players":24,"Bots":0,"server_type":"Dedicated","server_os":"Linux","password":true,"vac":true,"version":"7961495","steam_id":85568392925397856,"keywords":["beta","nocrits","nodmgspread","rd","uncletopia"],"game_id":440,"stv_port":27066,"stv_name":"Uncletopia | Warsaw | 6 | Community | STV","players":null}]}