{"status":true,"message":"","result":[{"server_id":9,"name":"Uncletopia | Atlanta | 1 | All Maps","name_short":"atl-1","host":"atl-1.us.uncletopia.com","port":27015,"enabled":true,"region":"us-east","cc":"us","latitude":33.753746,"longitude":-84.38633,"reserved":0,"last_update":"0001-01-01T00:00:00Z","name_a2s":"Uncletopia | Atlanta | 1 | All Maps","protocol":17,"map":"pl_upward","folder":"tf","game":"Team Fortress","app_id":440,"player_count":23,"max_players":24,"Bots":0,"server_type":"Dedicated","server_os":"Linux","password":true,"vac":true,"version":"7742253","steam_id":85568392924469982,"keywords":["nocrits","nodmgspread","payload","uncletopia"],"game_id":440,"stv_port":27016,"stv_name":"Uncletopia | Atlanta | 1 | All Maps | STV","players":[{"user_id":11,"name":"ATL1 | to4st","steam_id":76561198981009008,"connected_time":4333000000000,"state":"active","ping":65},{"user_id":12,"name":"Alkivo","steam_id":76561198315999766,"connected_time":3944000000000,"state":"active","ping":75},{"user_id":48,"name":"Mailer","steam_id":76561198062690074,"connected_time":1220000000000,"state":"active","ping":156},{"user_id":22,"name":"Yimi","steam_id":76561198097984345,"connected_time":2493000000000,"state":"active","ping":89},{"user_id":56,"name":"Do Moose go Moo?","steam_id":76561198073550620,"connected_time":328000000000,"state":"active","ping":62},{"user_id":30,"name":"SLEEPMODE","steam_id":76561198100942212,"connected_time":2184000000000,"state":"active","ping":60},{"user_id":45,"name":"QuanFromQuan","steam_id":76561198968008799,"connected_time":1609000000000,"state":"active","ping":83},{"user_id":19,"name":"blazzeh","steam_id":76561198053407069,"connected_time":2591000000000,"state":"active","ping":85},{"user_id":50,"name":"Paco","steam_id":76561198023504958,"connected_time":1159000000000,"state":"active","ping":53},{"user_id":27,"name":"asdf","steam_id":76561198039575197,"connected_time":2280000000000,"state":"active","ping":61},{"user_id":26,"name":"Baconiumo","steam_id":76561198966160534,"connected_time":2329000000000,"state":"active","ping":72},{"user_id":28,"name":"troshgad","steam_id":76561198052030002,"connected_time":2256000000000,"state":"active","ping":60},{"user_id":46,"name":"quality_ch3ck","steam_id":76561198361132101,"connected_time":1426000000000,"state":"active","ping":89},{"user_id":32,"name":"survivalist keeda","steam_id":76561198277979851,"connected_time":2147000000000,"state":"active","ping":65},{"user_id":33,"name":"ch","steam_id":76561198012566405,"connected_time":2134000000000,"state":"active","ping":79},{"user_id":54,"name":"Brown_Dream","steam_id":76561198975766145,"connected_time":506000000000,"state":"active","ping":66},{"user_id":35,"name":"1998 Volvo S70 T5","steam_id":76561198258615044,"connected_time":2092000000000,"state":"active","ping":77},{"user_id":36,"name":"_Lusty_","steam_id":76561198876948142,"connected_time":2024000000000,"state":"active","ping":73},{"user_id":52,"name":"bladeefan2003","steam_id":76561198413930183,"connected_time":969000000000,"state":"active","ping":60},{"user_id":58,"name":"ghostedghost","steam_id":76561198111410905,"connected_time":247000000000,"state":"active","ping":99},{"user_id":51,"name":"SKINGRAPH","steam_id":76561198082933650,"connected_time":1011000000000,"state":"active","ping":79},{"user_id":41,"name":"Jeffenthropus","steam_id":76561198134204248,"connected_time":1891000000000,"state":"active","ping":76},{"user_id":43,"name":"DuckMann","steam_id":76561198197058638,"connected_time":1727000000000,"state":"active","ping":61}]},{"server_id":400,"name":"Uncletopia | Atlanta | 3 | Stopwatch Beta","name_short":"atl-3","host":"atl-1.us.uncletopia.com","port":27035,"enabled":true,"region":"us-east","cc":"us","latitude":33.753746,"longitude":-84.38633,"reserved":0,"last_update":"0001-01-01T00:00:00Z","name_a2s":"Uncletopia | Atlanta | 3 | Stopwatch Beta","protocol":17,"map":"pl_pier","folder":"tf","game":"Team Fortress","app_id":440,"player_count":0,"max_players":24,"Bots":0,"server_type":"Dedicated","server_os":"Linux","password":true,"vac":true,"version":"7742253","steam_id":85568392924515187,"keywords":["nocrits","nodmgspread","payload","uncletopia"],"game_id":440,"stv_port":27036,"stv_name":"Uncletopia | Atlanta | 3 | Stopwatch Beta | STV","players":null},{"server_id":401,"name":"Uncletopia | Atlanta | 4 | No Payload","name_short":"atl-4","host":"atl-1.us.uncletopia.com","port":27045,"enabled":true,"region":"us-east","cc":"us","latitude":33.753746,"longitude":-84.38633,"reserved":0,"last_update":"0001-01-01T00:00:00Z","name_a2s":"Uncletopia | Atlanta | 4 | No Payload","protocol":17,"map":"pl_pier","folder":"tf","game":"Team Fortress","app_id":440,"player_count":0,"max_players":24,"Bots":0,"server_type":"Dedicated","server_os":"Linux","password":true,"vac":true,"version":"7723704","steam_id":85568392924515188,"keywords":["nocrits","nodmgspread","payload","uncletopia"],"game_id":440,"stv_port":27046,"stv_name":"Uncletopia | Atlanta | 4 | No Payload | STV","players":null},{"server_id":2,"name":"Uncletopia | Chicago | 1 | All Maps","name_short":"chi-1","host":"chi-1.us.uncletopia.com","port":27015,"enabled":true,"region":"us-central","cc":"us","latitude":41.881832,"longitude":-87.62318,"reserved":0,"last_update":"0001-01-01T00:00:00Z","name_a2s":"Uncletopia | Chicago | 1 | All Maps","protocol":17,"map":"pl_borneo","folder":"tf","game":"Team Fortress","app_id":440,"player_count":24,"max_players":24,"Bots":0,"server_type":"Dedicated","server_os":"Linux","password":true,"vac":true,"version":"7742253","steam_id":85568392924469984,"keywords":["nocrits","nodmgspread","payload","uncletopia"],"game_id":440,"stv_port":27016,"stv_name":"Uncletopia | Chicago | 1 | All Maps | STV","players":[{"user_id":78,"name":"Pixler544","steam_id":76561198240575132,"connected_time":941000000000,"state":"active","ping":75},{"user_id":53,"name":"Dipper","steam_id":76561198012093479,"connected_time":3013000000000,"state":"active","ping":129},{"user_id":66,"name":"nicolas the mercenary","steam_id":76561199077641644,"connected_time":1916000000000,"state":"active","ping":56},{"user_id":14,"name":"beta central","steam_id":76561198301876831,"connected_time":5181000000000,"state":"active","ping":60},{"user_id":74,"name":"Censing Auto, The Challenger","steam_id":76561198060926681,"connected_time":988000000000,"state":"active","ping":58},{"user_id":94,"name":"rubb3r","steam_id":76561198096874230,"connected_time":35000000000,"state":"spawning","ping":71},{"user_id":95,"name":"\u003cNULL\u003e","steam_id":76561198079489150,"connected_time":4000000000,"state":"spawning","ping":79},{"user_id":65,"name":"robert","steam_id":76561198001196512,"connected_time":1937000000000,"state":"active","ping":52},{"user_id":84,"name":"vk-AA-","steam_id":76561199049865601,"connected_time":723000000000,"state":"active","ping":63},{"user_id":23,"name":"Jones Brand Soda","steam_id":76561198049553885,"connected_time":4281000000000,"state":"active","ping":109},{"user_id":77,"name":"Atomaisa","steam_id":76561198385697720,"connected_time":948000000000,"state":"active","ping":60},{"user_id":88,"name":"GuyGoom","steam_id":76561198254522178,"connected_time":343000000000,"state":"active","ping":50},{"user_id":91,"name":"Squatchamo","steam_id":76561198012968239,"connected_time":187000000000,"state":"active","ping":76},{"user_id":85,"name":"Kinbo2487","steam_id":76561198184714198,"connected_time":711000000000,"state":"active","ping":70},{"user_id":81,"name":"16th","steam_id":76561197999694138,"connected_time":784000000000,"state":"active","ping":168},{"user_id":82,"name":"Wilhelmktx","steam_id":76561198158102295,"connected_time":780000000000,"state":"active","ping":81},{"user_id":46,"name":"PKBEAST_7","steam_id":76561198177136537,"connected_time":3259000000000,"state":"active","ping":80},{"user_id":93,"name":"Hobocop","steam_id":76561198076321907,"connected_time":88000000000,"state":"active","ping":80},{"user_id":70,"name":"TheNicksta","steam_id":76561198241988360,"connected_time":1659000000000,"state":"active","ping":76},{"user_id":73,"name":"no","steam_id":76561198248853140,"connected_time":1030000000000,"state":"active","ping":49},{"user_id":68,"name":"Chimpish","steam_id":76561199263493270,"connected_time":1848000000000,"state":"active","ping":87},{"user_id":92,"name":"ZBaldTop","steam_id":76561199396318132,"connected_time":134000000000,"state":"spawning","ping":98},{"user_id":71,"name":"MyBreadislost","steam_id":76561199036723184,"connected_time":1657000000000,"state":"active","ping":84},{"user_id":89,"name":"Eternal","steam_id":76561197990721868,"connected_time":235000000000,"state":"active","ping":75}]},{"server_id":106,"name":"Uncletopia | Chicago | 2 | All Maps","name_short":"chi-2","host":"chi-1.us.uncletopia.com","port":27025,"enabled":true,"region":"us-central","cc":"us","latitude":41.881832,"longitude":-87.62318,"reserved":0,"last_update":"0001-01-01T00:00:00Z","name_a2s":"Uncletopia | Chicago | 2 | All Maps","protocol":17,"map":"koth_cascade","folder":"tf","game":"Team Fortress","app_id":440,"player_count":0,"max_players":24,"Bots":0,"server_type":"Dedicated","server_os":"Linux","password":true,"vac":true,"version":"7742253","steam_id":85568392924469985,"keywords":["cp","nocrits","nodmgspread","uncletopia"],"game_id":440,"stv_port":27026,"stv_name":"Uncletopia | Chicago | 2 | All Maps | STV","players":null},{"server_id":402,"name":"Uncletopia | Chicago | 3 | All Maps","name_short":"chi-3","host":"chi-1.us.uncletopia.com","port":27035,"enabled":true,"region":"us-central","cc":"us","latitude":41.881832,"longitude":-87.62318,"reserved":0,"last_update":"0001-01-01T00:00:00Z","name_a2s":"Uncletopia | Chicago | 3 | All Maps","protocol":17,"map":"koth_viaduct","folder":"tf","game":"Team Fortress","app_id":440,"player_count":0,"max_players":24,"Bots":0,"server_type":"Dedicated","server_os":"Linux","password":true,"vac":true,"version":"7742253","steam_id":85568392924515191,"keywords":["cp","nocrits","nodmgspread","uncletopia"],"game_id":440,"stv_port":27036,"stv_name":"Uncletopia | Chicago | 3 | All Maps | STV","players":null},{"server_id":403,"name":"Uncletopia | Chicago | 4 | All Maps","name_short":"chi-4","host":"chi-1.us.uncletopia.com","port":27045,"enabled":true,"region":"us-central","cc":"us","latitude":41.881832,"longitude":-87.62318,"reserved":0,"last_update":"0001-01-01T00:00:00Z","name_a2s":"Uncletopia | Chicago | 4 | All Maps","protocol":17,"map":"cp_mountainlab","folder":"tf","game":"Team Fortress","app_id":440,"player_count":0,"max_players":24,"Bots":0,"server_type":"Dedicated","server_os":"Linux","password":true,"vac":true,"version":"7742253","steam_id":85568392924515193,"keywords":["cp","nocrits","nodmgspread","uncletopia"],"game_id":440,"stv_port":27046,"stv_name":"Uncletopia | Chicago | 4 | All Maps | STV","players":null},{"server_id":36,"name":"Uncletopia | Chicago | 5 | All Maps","name_short":"chi-5","host":"chi-2.us.uncletopia.com","port":27015,"enabled":true,"region":"us-central","cc":"us","latitude":41.881832,"longitude":-87.62318,"reserved":0,"last_update":"0001-01-01T00:00:00Z","name_a2s":"Uncletopia | Chicago | 5 | All Maps","protocol":17,"map":"pl_borneo","folder":"tf","game":"Team Fortress","app_id":440,"player_count":0,"max_players":24,"Bots":0,"server_type":"Dedicated","server_os":"Linux","password":true,"vac":true,"version":"7742253","steam_id":85568392924866362,"keywords":["nocrits","nodmgspread","payload","uncletopia"],"game_id":440,"stv_port":27016,"stv_name":"Uncletopia | Chicago | 5 | All Maps | STV","players":null},{"server_id":37,"name":"Uncletopia | Chicago | 6 | All Maps","name_short":"chi-6","host":"chi-2.us.uncletopia.com","port":27025,"enabled":true,"region":"us-central","cc":"us","latitude":41.881832,"longitude":-87.62318,"reserved":0,"last_update":"0001-01-01T00:00:00Z","name_a2s":"Uncletopia | Chicago | 6 | All Maps","protocol":17,"map":"cp_sunshine","folder":"tf","game":"Team Fortress","app_id":440,"player_count":0,"max_players":24,"Bots":0,"server_type":"Dedicated","server_os":"Linux","password":true,"vac":true,"version":"7742253","steam_id":85568392924866363,"keywords":["cp","nocrits","nodmgspread","uncletopia"],"game_id":440,"stv_port":27026,"stv_name":"Uncletopia | Chicago | 6 | All Maps | STV","players":null},{"server_id":38,"name":"Uncletopia | Chicago | 7 | Stopwatch Beta","name_short":"chi-7","host":"chi-2.us.uncletopia.com","port":27035,"enabled":true,"region":"us-central","cc":"us","latitude":41.881832,"longitude":-87.62318,"reserved":0,"last_update":"0001-01-01T00:00:00Z","name_a2s":"Uncletopia | Chicago | 7 | Stopwatch Beta","protocol":17,"map":"koth_lakeside_final","folder":"tf","game":"Team Fortress","app_id":440,"player_count":0,"max_players":24,"Bots":0,"server_type":"Dedicated","server_os":"Linux","password":true,"vac":true,"version":"7742253","steam_id":85568392924866364,"keywords":["cp","nocrits","nodmgspread","uncletopia"],"game_id":440,"stv_port":27036,"stv_name":"Uncletopia | Chicago | 7 | Stopwatch Beta | STV","players":null},{"server_id":39,"name":"Uncletopia | Chicago | 8 | Community","name_short":"chi-8","host":"chi-2.us.uncletopia.com","port":27045,"enabled":true,"region":"us-central","cc":"us","latitude":41.881832,"longitude":-87.62318,"reserved":0,"last_update":"0001-01-01T00:00:00Z","name_a2s":"Uncletopia | Chicago | 8 | Community","protocol":17,"map":"koth_lakeside_final","folder":"tf","game":"Team Fortress","app_id":440,"player_count":0,"max_players":24,"Bots":0,"server_type":"Dedicated","server_os":"Linux","password":true,"vac":true,"version":"7742253","steam_id":85568392924866365,"keywords":["cp","nocrits","nodmgspread","uncletopia"],"game_id":440,"stv_port":27046,"stv_name":"Uncletopia | Chicago | 8 | Community | STV","players":null},{"server_id":8,"name":"Uncletopia | Dallas | 1 | All Maps","name_short":"dal-1","host":"dal-1.us.uncletopia.com","port":27015,"enabled":true,"region":"us-central","cc":"us","latitude":32.779167,"longitude":-96.80889,"reserved":0,"last_update":"0001-01-01T00:00:00Z","name_a2s":"Uncletopia | Dallas | 1 | All Maps","protocol":17,"map":"cp_process_final","folder":"tf","game":"Team Fortress","app_id":440,"player_count":0,"max_players":24,"Bots":0,"server_type":"Dedicated","server_os":"Linux","password":true,"vac":true,"version":"7742253","steam_id":85568392924469986,"keywords":["cp","nocrits","nodmgspread","uncletopia"],"game_id":440,"stv_port":27016,"stv_name":"Uncletopia | Dallas | 1 | All Maps | STV","players":null},{"server_id":108,"name":"Uncletopia | Dallas | 2 | All Maps","name_short":"dal-2","host":"dal-1.us.uncletopia.com","port":27025,"enabled":true,"region":"us-central","cc":"us","latitude":32.779167,"longitude":-96.80889,"reserved":0,"last_update":"0001-01-01T00:00:00Z","name_a2s":"Uncletopia | Dallas | 2 | All Maps","protocol":17,"map":"pl_upward","folder":"tf","game":"Team Fortress","app_id":440,"player_count":0,"max_players":24,"Bots":0,"server_type":"Dedicated","server_os":"Linux","password":true,"vac":true,"version":"7742253","steam_id":85568392924469988,"keywords":["nocrits","nodmgspread","payload","uncletopia"],"game_id":440,"stv_port":27026,"stv_name":"Uncletopia | Dallas | 2 | All Maps | STV","players":null},{"server_id":5,"name":"Uncletopia | Frankfurt | 1 | All Maps","name_short":"frk-1","host":"frk-1.de.uncletopia.com","port":27015,"enabled":true,"region":"eu","cc":"de","latitude":50.110924,"longitude":8.682127,"reserved":0,"last_update":"0001-01-01T00:00:00Z","name_a2s":"Uncletopia | Frankfurt | 1 | All Maps","protocol":17,"map":"pl_snowycoast","folder":"tf","game":"Team Fortress","app_id":440,"player_count":23,"max_players":24,"Bots":0,"server_type":"Dedicated","server_os":"Linux","password":true,"vac":true,"version":"7742253","steam_id":85568392924469989,"keywords":["nocrits","nodmgspread","payload","uncletopia"],"game_id":440,"stv_port":27016,"stv_name":"Uncletopia | Frankfurt | 1 | All Maps | STV","players":[{"user_id":461,"name":"Daan77","steam_id":76561198129940468,"connected_time":1157000000000,"state":"active","ping":71},{"user_id":458,"name":"[Insert Oneshot refrence here]","steam_id":76561198951206047,"connected_time":1175000000000,"state":"active","ping":85},{"user_id":474,"name":"CampMaster49","steam_id":76561198353096926,"connected_time":811000000000,"state":"active","ping":88},{"user_id":463,"name":"many thanks","steam_id":76561198089003514,"connected_time":1147000000000,"state":"active","ping":45},{"user_id":467,"name":"Dan","steam_id":76561198314800357,"connected_time":1080000000000,"state":"active","ping":109},{"user_id":460,"name":"heisenburger","steam_id":76561199113824680,"connected_time":1173000000000,"state":"active","ping":61},{"user_id":455,"name":"v0rt3x","steam_id":76561198034695233,"connected_time":1469000000000,"state":"active","ping":54},{"user_id":408,"name":"Mal ‚òÖ","steam_id":76561198262337669,"connected_time":4668000000000,"state":"active","ping":66},{"user_id":464,"name":"light brandon","steam_id":76561198272804994,"connected_time":1143000000000,"state":"active","ping":75},{"user_id":466,"name":"p!ke","steam_id":76561198416081952,"connected_time":1106000000000,"state":"active","ping":59},{"user_id":475,"name":"imthegerman","steam_id":76561198053401077,"connected_time":712000000000,"state":"active","ping":99},{"user_id":468,"name":"Sneaky boi","steam_id":76561199195985387,"connected_time":1069000000000,"state":"active","ping":80},{"user_id":469,"name":"walluu","steam_id":76561198121830870,"connected_time":1059000000000,"state":"active","ping":73},{"user_id":451,"name":"UCC bock","steam_id":76561198971554341,"connected_time":2145000000000,"state":"active","ping":52},{"user_id":470,"name":"Newax","steam_id":76561198020758511,"connected_time":1052000000000,"state":"active","ping":68},{"user_id":471,"name":"your opinion \u003c my shit after a ","steam_id":76561198152620745,"connected_time":1037000000000,"state":"active","ping":66},{"user_id":477,"name":"Gordon Birdman","steam_id":76561198013382324,"connected_time":388000000000,"state":"active","ping":80},{"user_id":427,"name":"Poeka","steam_id":76561198031180960,"connected_time":3698000000000,"state":"active","ping":62},{"user_id":430,"name":"Smoking Sax","steam_id":76561199057726100,"connected_time":3616000000000,"state":"active","ping":71},{"user_id":447,"name":"Andeeh","steam_id":76561198072810527,"connected_time":2415000000000,"state":"active","ping":54},{"user_id":476,"name":"SimplePig","steam_id":76561198071862153,"connected_time":424000000000,"state":"active","ping":104},{"user_id":473,"name":"zak","steam_id":76561197998895428,"connected_time":975000000000,"state":"active","ping":53},{"user_id":452,"name":"Era Walk","steam_id":76561198170081058,"connected_time":2065000000000,"state":"active","ping":117}]},{"server_id":110,"name":"Uncletopia | Frankfurt | 2 | All Maps","name_short":"frk-2","host":"frk-1.de.uncletopia.com","port":27025,"enabled":true,"region":"eu","cc":"de","latitude":50.110924,"longitude":8.682127,"reserved":0,"last_update":"0001-01-01T00:00:00Z","name_a2s":"Uncletopia | Frankfurt | 2 | All Maps","protocol":17,"map":"pl_badwater","folder":"tf","game":"Team Fortress","app_id":440,"player_count":24,"max_players":24,"Bots":0,"server_type":"Dedicated","server_os":"Linux","password":true,"vac":true,"version":"7742253","steam_id":85568392924469990,"keywords":["nocrits","nodmgspread","payload","uncletopia"],"game_id":440,"stv_port":27026,"stv_name":"Uncletopia | Frankfurt | 2 | All Maps | STV","players":[{"user_id":360,"name":"Barry","steam_id":76561198351154533,"connected_time":183000000000,"state":"active","ping":69},{"user_id":333,"name":"Jesus","steam_id":76561198119288049,"connected_time":1482000000000,"state":"active","ping":57},{"user_id":357,"name":"Bumblebee","steam_id":76561198033551105,"connected_time":683000000000,"state":"active","ping":53},{"user_id":359,"name":"‚ù§BezLyapchik‚ù§","steam_id":76561199447261771,"connected_time":198000000000,"state":"active","ping":96},{"user_id":338,"name":"V8 √§nk√§t√∂","steam_id":76561198261320184,"connected_time":1124000000000,"state":"active","ping":93},{"user_id":330,"name":"Malphite","steam_id":76561198073313660,"connected_time":1527000000000,"state":"active","ping":61},{"user_id":264,"name":"Sleetler","steam_id":76561198021646640,"connected_time":6495000000000,"state":"active","ping":61},{"user_id":358,"name":"„ÉÜ„Ç§„É´„Çπ","steam_id":76561198022403271,"connected_time":562000000000,"state":"active","ping":45},{"user_id":355,"name":"aaron","steam_id":76561198090143282,"connected_time":779000000000,"state":"active","ping":59},{"user_id":241,"name":"Rose-Marie","steam_id":76561198055611092,"connected_time":7248000000000,"state":"active","ping":58},{"user_id":329,"name":"shrrrrrrekkkkk","steam_id":76561198347241576,"connected_time":1736000000000,"state":"active","ping":60},{"user_id":339,"name":"BORGETENNISCLUB","steam_id":76561198049343723,"connected_time":1121000000000,"state":"active","ping":63},{"user_id":332,"name":"d4cz","steam_id":76561199067358414,"connected_time":1500000000000,"state":"active","ping":65},{"user_id":362,"name":"RobN","steam_id":76561198165919115,"connected_time":151000000000,"state":"active","ping":61},{"user_id":342,"name":"Frederik Van Jylland","steam_id":76561198049812519,"connected_time":1053000000000,"state":"active","ping":62},{"user_id":354,"name":"CaWaKes","steam_id":76561199276868938,"connected_time":799000000000,"state":"active","ping":106},{"user_id":336,"name":"3igen3ggy","steam_id":76561197989548015,"connected_time":1179000000000,"state":"active","ping":61},{"user_id":346,"name":"Noob_with_source","steam_id":76561198870362103,"connected_time":867000000000,"state":"active","ping":60},{"user_id":347,"name":"Jorge","steam_id":76561198267317192,"connected_time":867000000000,"state":"active","ping":94},{"user_id":348,"name":"Landsknecht","steam_id":76561199293036742,"connected_time":863000000000,"state":"active","ping":54},{"user_id":303,"name":"ivanmixo","steam_id":76561198160213989,"connected_time":2906000000000,"state":"active","ping":65},{"user_id":363,"name":"Bell","steam_id":76561199454586928,"connected_time":0,"state":"spawning","ping":33},{"user_id":352,"name":"Kaishakunin","steam_id":76561198028123874,"connected_time":808000000000,"state":"active","ping":96},{"user_id":353,"name":"Joe Blazey","steam_id":76561198931658649,"connected_time":805000000000,"state":"active","ping":94}]},{"server_id":308,"name":"Uncletopia | Frankfurt | 3 | All Maps","name_short":"frk-3","host":"frk-1.de.uncletopia.com","port":27035,"enabled":true,"region":"eu","cc":"de","latitude":50.110924,"longitude":8.682127,"reserved":0,"last_update":"0001-01-01T00:00:00Z","name_a2s":"Uncletopia | Frankfurt | 3 | All Maps","protocol":17,"map":"cp_steel","folder":"tf","game":"Team Fortress","app_id":440,"player_count":22,"max_players":24,"Bots":0,"server_type":"Dedicated","server_os":"Linux","password":true,"vac":true,"version":"7742253","steam_id":85568392924504274,"keywords":["cp","nocrits","nodmgspread","uncletopia"],"game_id":440,"stv_port":27036,"stv_name":"Uncletopia | Frankfurt | 3 | All Maps | STV","players":[{"user_id":232,"name":"ambatukam","steam_id":76561198175433731,"connected_time":1718000000000,"state":"active","ping":60},{"user_id":219,"name":"Huskehh  ‰π°","steam_id":76561198132155482,"connected_time":2611000000000,"state":"active","ping":69},{"user_id":266,"name":"kpn","steam_id":76561198063512694,"connected_time":136000000000,"state":"active","ping":64},{"user_id":245,"name":"hungry little man","steam_id":76561199229110612,"connected_time":1063000000000,"state":"active","ping":66},{"user_id":260,"name":"FreeAndrewTate","steam_id":76561198377533237,"connected_time":301000000000,"state":"active","ping":69},{"user_id":215,"name":"aspect","steam_id":76561198315032412,"connected_time":3035000000000,"state":"active","ping":59},{"user_id":261,"name":"Fisherman James","steam_id":76561198004502230,"connected_time":266000000000,"state":"active","ping":60},{"user_id":263,"name":"Chill Spirit","steam_id":76561198845001725,"connected_time":230000000000,"state":"active","ping":45},{"user_id":250,"name":"MtnDew","steam_id":76561199100059743,"connected_time":795000000000,"state":"active","ping":126},{"user_id":220,"name":"Exelow","steam_id":76561198366738762,"connected_time":2583000000000,"state":"active","ping":60},{"user_id":226,"name":"BlackBird","steam_id":76561198093229816,"connected_time":2379000000000,"state":"active","ping":89},{"user_id":254,"name":"Cocoa","steam_id":76561198078438879,"connected_time":400000000000,"state":"active","ping":58},{"user_id":264,"name":"Fengerros","steam_id":76561199008363999,"connected_time":186000000000,"state":"active","ping":68},{"user_id":267,"name":"Slooshie","steam_id":76561198008749909,"connected_time":32000000000,"state":"active","ping":63},{"user_id":184,"name":"NotFionn","steam_id":76561198890525176,"connected_time":4515000000000,"state":"active","ping":77},{"user_id":251,"name":"W*","steam_id":76561197972244657,"connected_time":770000000000,"state":"active","ping":58},{"user_id":253,"name":"doctor","steam_id":76561198059199945,"connected_time":466000000000,"state":"active","ping":86},{"user_id":255,"name":"Cheyaoshi","steam_id":76561198141121996,"connected_time":393000000000,"state":"active","ping":55},{"user_id":211,"name":"Chinese censorship Bureau","steam_id":76561198397898616,"connected_time":3551000000000,"state":"active","ping":49},{"user_id":256,"name":"Welder","steam_id":76561198355300561,"connected_time":385000000000,"state":"active","ping":73},{"user_id":257,"name":"Lignis","steam_id":76561198363052240,"connected_time":384000000000,"state":"active","ping":69},{"user_id":247,"name":"Amon Gus","steam_id":76561199094540960,"connected_time":957000000000,"state":"active","ping":61}]},{"server_id":309,"name":"Uncletopia | Frankfurt | 4 | All Maps","name_short":"frk-4","host":"frk-1.de.uncletopia.com","port":27045,"enabled":true,"region":"eu","cc":"de","latitude":50.110924,"longitude":8.682127,"reserved":0,"last_update":"0001-01-01T00:00:00Z","name_a2s":"Uncletopia | Frankfurt | 4 | All Maps","protocol":17,"map":"pl_upward","folder":"tf","game":"Team Fortress","app_id":440,"player_count":23,"max_players":24,"Bots":0,"server_type":"Dedicated","server_os":"Linux","password":true,"vac":true,"version":"7742253","steam_id":85568392924504275,"keywords":["nocrits","nodmgspread","payload","uncletopia"],"game_id":440,"stv_port":27046,"stv_name":"Uncletopia | Frankfurt | 4 | All Maps | STV","players":[{"user_id":332,"name":"purplecan","steam_id":76561199208283508,"connected_time":461000000000,"state":"active","ping":58},{"user_id":305,"name":"XiuXiuforLife","steam_id":76561199060683386,"connected_time":3497000000000,"state":"active","ping":60},{"user_id":333,"name":"stompie","steam_id":76561198797834851,"connected_time":453000000000,"state":"active","ping":45},{"user_id":303,"name":"quakeworm","steam_id":76561198036730191,"connected_time":3523000000000,"state":"active","ping":58},{"user_id":299,"name":"Michamya","steam_id":76561198116338844,"connected_time":4132000000000,"state":"active","ping":58},{"user_id":338,"name":"Hanƒ±mSever23","steam_id":76561198142124751,"connected_time":402000000000,"state":"active","ping":117},{"user_id":323,"name":"Homosapien","steam_id":76561197972035953,"connected_time":1729000000000,"state":"active","ping":45},{"user_id":315,"name":"bad at gaem","steam_id":76561198072373587,"connected_time":2047000000000,"state":"active","ping":52},{"user_id":330,"name":"tictak211","steam_id":76561198128091924,"connected_time":709000000000,"state":"active","ping":68},{"user_id":275,"name":"Frazzle","steam_id":76561198262577951,"connected_time":5614000000000,"state":"active","ping":72},{"user_id":335,"name":"swallowed 10 pennies please hel","steam_id":76561198055816412,"connected_time":429000000000,"state":"active","ping":61},{"user_id":329,"name":"Michael Jesus","steam_id":76561198060895626,"connected_time":1200000000000,"state":"active","ping":70},{"user_id":321,"name":"Bones","steam_id":76561198065081225,"connected_time":1782000000000,"state":"active","ping":60},{"user_id":336,"name":"Fiendish Beandish","steam_id":76561198095237028,"connected_time":425000000000,"state":"active","ping":60},{"user_id":298,"name":"Dolcelatte","steam_id":76561198038501770,"connected_time":4193000000000,"state":"active","ping":49},{"user_id":318,"name":"Blo","steam_id":76561198161651469,"connected_time":1996000000000,"state":"active","ping":54},{"user_id":324,"name":"Salih","steam_id":76561198287934839,"connected_time":1619000000000,"state":"active","ping":59},{"user_id":337,"name":"Û†Ä°Û†Ä°","steam_id":76561198015585266,"connected_time":422000000000,"state":"active","ping":75},{"user_id":300,"name":"Blink","steam_id":76561198144033005,"connected_time":3958000000000,"state":"active","ping":60},{"user_id":317,"name":"E","steam_id":76561198166340115,"connected_time":2036000000000,"state":"active","ping":65},{"user_id":328,"name":"F1-M","steam_id":76561198198409875,"connected_time":1254000000000,"state":"active","ping":126},{"user_id":301,"name":"Doriian","steam_id":76561198071438810,"connected_time":3594000000000,"state":"active","ping":75},{"user_id":327,"name":"God¬¥s Cock","steam_id":76561198058947923,"connected_time":1279000000000,"state":"active","ping":55}]},{"server_id":310,"name":"Uncletopia | Frankfurt | 5 | All Maps","name_short":"frk-5","host":"frk-1.de.uncletopia.com","port":27055,"enabled":true,"region":"eu","cc":"de","latitude":50.110924,"longitude":8.682127,"reserved":0,"last_update":"0001-01-01T00:00:00Z","name_a2s":"Uncletopia | Frankfurt | 5 | All Maps","protocol":17,"map":"koth_highpass","folder":"tf","game":"Team Fortress","app_id":440,"player_count":24,"max_players":24,"Bots":0,"server_type":"Dedicated","server_os":"Linux","password":true,"vac":true,"version":"7742253","steam_id":85568392924504277,"keywords":["cp","nocrits","nodmgspread","uncletopia"],"game_id":440,"stv_port":27056,"stv_name":"Uncletopia | Frankfurt | 5 | All Maps | STV","players":[{"user_id":208,"name":"Home Debot","steam_id":76561199090136355,"connected_time":630000000000,"state":"active","ping":60},{"user_id":209,"name":"System","steam_id":76561199442503973,"connected_time":611000000000,"state":"active","ping":33},{"user_id":221,"name":"Stucent","steam_id":76561198147498713,"connected_time":284000000000,"state":"active","ping":51},{"user_id":202,"name":"Mr. Mundy","steam_id":76561198132008918,"connected_time":889000000000,"state":"active","ping":78},{"user_id":206,"name":"joona","steam_id":76561198156305446,"connected_time":653000000000,"state":"active","ping":113},{"user_id":207,"name":"Tarixxiv","steam_id":76561198084365415,"connected_time":652000000000,"state":"active","ping":81},{"user_id":201,"name":"Mogens Lightyear","steam_id":76561198024703004,"connected_time":1426000000000,"state":"active","ping":69},{"user_id":210,"name":"dissatisfaction","steam_id":76561198132004093,"connected_time":592000000000,"state":"active","ping":66},{"user_id":198,"name":"M. Hulot","steam_id":76561197994284798,"connected_time":1694000000000,"state":"active","ping":86},{"user_id":213,"name":"cuteacidUwU","steam_id":76561199257510555,"connected_time":402000000000,"state":"active","ping":55},{"user_id":205,"name":"Krof enjoyer","steam_id":76561199101777637,"connected_time":665000000000,"state":"active","ping":73},{"user_id":212,"name":"tekt","steam_id":76561198044554387,"connected_time":527000000000,"state":"active","ping":102},{"user_id":186,"name":"FrostEnte","steam_id":76561198355314113,"connected_time":2832000000000,"state":"active","ping":46},{"user_id":215,"name":"Abnormally stupid","steam_id":76561199364074118,"connected_time":365000000000,"state":"active","ping":63},{"user_id":216,"name":"orphan smeller","steam_id":76561198107876224,"connected_time":352000000000,"state":"active","ping":56},{"user_id":225,"name":"the boil","steam_id":76561199236080782,"connected_time":169000000000,"state":"active","ping":109},{"user_id":218,"name":"cat","steam_id":76561199403426930,"connected_time":347000000000,"state":"active","ping":61},{"user_id":227,"name":"typicalcrimson","steam_id":76561198295439747,"connected_time":45000000000,"state":"active","ping":68},{"user_id":220,"name":"Scipionemiliano","steam_id":76561198027646559,"connected_time":315000000000,"state":"active","ping":111},{"user_id":193,"name":"konchalo","steam_id":76561199294060021,"connected_time":1867000000000,"state":"active","ping":88},{"user_id":223,"name":"Ori","steam_id":76561198035220182,"connected_time":271000000000,"state":"active","ping":72},{"user_id":183,"name":"Gardvord","steam_id":76561198120715753,"connected_time":2969000000000,"state":"active","ping":79},{"user_id":224,"name":"Goon Spoons","steam_id":76561198116391675,"connected_time":237000000000,"state":"active","ping":77},{"user_id":192,"name":"Nick","steam_id":76561198036109469,"connected_time":1931000000000,"state":"active","ping":89}]},{"server_id":311,"name":"Uncletopia | Frankfurt | 6 | All Maps","name_short":"frk-6","host":"frk-1.de.uncletopia.com","port":27065,"enabled":true,"region":"eu","cc":"de","latitude":50.110924,"longitude":8.682127,"reserved":0,"last_update":"0001-01-01T00:00:00Z","name_a2s":"Uncletopia | Frankfurt | 6 | All Maps","protocol":17,"map":"koth_lakeside_final","folder":"tf","game":"Team Fortress","app_id":440,"player_count":0,"max_players":24,"Bots":0,"server_type":"Dedicated","server_os":"Linux","password":true,"vac":true,"version":"7742253","steam_id":85568392924504278,"keywords":["cp","nocrits","nodmgspread","uncletopia"],"game_id":440,"stv_port":27066,"stv_name":"Uncletopia | Frankfurt | 6 | All Maps | STV","players":null},{"server_id":23,"name":"Uncletopia | Frankfurt | 7 | Stopwatch Beta","name_short":"frk-7","host":"frk-1.de.uncletopia.com","port":27075,"enabled":true,"region":"eu","cc":"de","latitude":50.110924,"longitude":8.682127,"reserved":0,"last_update":"0001-01-01T00:00:00Z","name_a2s":"Uncletopia | Frankfurt | 7 | Stopwatch Beta","protocol":17,"map":"workshop/pl_badwater_pro_v12.ugc2142942074","folder":"tf","game":"Team Fortress","app_id":440,"player_count":0,"max_players":24,"Bots":0,"server_type":"Dedicated","server_os":"Linux","password":true,"vac":true,"version":"7742253","steam_id":85568392924742827,"keywords":["nocrits","nodmgspread","payload","uncletopia"],"game_id":440,"stv_port":27076,"stv_name":"Uncletopia | Frankfurt | 7 | Stopwatch Beta | STV","players":null},{"server_id":24,"name":"Uncletopia | Frankfurt | 8 | Community","name_short":"frk-8","host":"frk-1.de.uncletopia.com","port":27085,"enabled":true,"region":"eu","cc":"de","latitude":50.110924,"longitude":8.682127,"reserved":0,"last_update":"0001-01-01T00:00:00Z","name_a2s":"Uncletopia | Frankfurt | 8 | Community","protocol":17,"map":"workshop/pl_eruption_b9a.ugc2807898013","folder":"tf","game":"Team Fortress","app_id":440,"player_count":0,"max_players":24,"Bots":0,"server_type":"Dedicated","server_os":"Linux","password":true,"vac":true,"version":"7742253","steam_id":85568392924742828,"keywords":["nocrits","nodmgspread","payload","uncletopia"],"game_id":440,"stv_port":27086,"stv_name":"Uncletopia | Frankfurt | 8 | Community | STV","players":null},{"server_id":202,"name":"Uncletopia | Hong Kong | 1 | All Maps","name_short":"hgk-1","host":"hgk-1.hk.uncletopia.com","port":27015,"enabled":true,"region":"asia","cc":"hk","latitude":22.302711,"longitude":114.177216,"reserved":0,"last_update":"0001-01-01T00:00:00Z","name_a2s":"Uncletopia | Hong Kong | 1 | All Maps","protocol":17,"map":"pl_badwater","folder":"tf","game":"Team Fortress","app_id":440,"player_count":12,"max_players":24,"Bots":0,"server_type":"Dedicated","server_os":"Linux","password":true,"vac":true,"version":"7742253","steam_id":85568392924494504,"keywords":["nocrits","nodmgspread","payload","uncletopia"],"game_id":440,"stv_port":27016,"stv_name":"Uncletopia | Hong Kong | 1 | All Maps | STV","players":[{"user_id":883,"name":"c.na4","steam_id":76561198965889429,"connected_time":5209000000000,"state":"active","ping":90},{"user_id":894,"name":"Rain.","steam_id":76561198843129303,"connected_time":4647000000000,"state":"active","ping":58},{"user_id":924,"name":"Skyler White yo","steam_id":76561198895193247,"connected_time":1462000000000,"state":"active","ping":66},{"user_id":931,"name":"Kurtie","steam_id":76561198144737876,"connected_time":990000000000,"state":"active","ping":55},{"user_id":909,"name":"Nice","steam_id":76561199180653046,"connected_time":3339000000000,"state":"active","ping":126},{"user_id":888,"name":"Waltuh (CEO of Chicanery)","steam_id":76561199257300024,"connected_time":4918000000000,"state":"active","ping":76},{"user_id":914,"name":"Avg KFC Enjoyer","steam_id":76561198959978678,"connected_time":2666000000000,"state":"active","ping":78},{"user_id":890,"name":"Zacy","steam_id":76561198114841670,"connected_time":4885000000000,"state":"active","ping":61},{"user_id":921,"name":"ÊØç„ÅÆËÇâÂõ£Â≠ê","steam_id":76561198069561896,"connected_time":1870000000000,"state":"active","ping":30},{"user_id":927,"name":"Mars","steam_id":76561198846610729,"connected_time":1257000000000,"state":"active","ping":93},{"user_id":932,"name":"Pandemo","steam_id":76561198024666110,"connected_time":937000000000,"state":"active","ping":49},{"user_id":940,"name":"juan233","steam_id":76561198867566247,"connected_time":422000000000,"state":"active","ping":108}]},{"server_id":1,"name":"Uncletopia | Los Angeles | 1 | All Maps","name_short":"lax-1","host":"lax-1.us.uncletopia.com","port":27015,"enabled":true,"region":"us-west","cc":"us","latitude":33.94279,"longitude":-118.41004,"reserved":0,"last_update":"0001-01-01T00:00:00Z","name_a2s":"Uncletopia | Los Angeles | 1 | All Maps","protocol":17,"map":"cp_mountainlab","folder":"tf","game":"Team Fortress","app_id":440,"player_count":0,"max_players":24,"Bots":0,"server_type":"Dedicated","server_os":"Linux","password":true,"vac":true,"version":"7742253","steam_id":85568392924469991,"keywords":["cp","nocrits","nodmgspread","uncletopia"],"game_id":440,"stv_port":27016,"stv_name":"Uncletopia | Los Angeles | 1 | All Maps | STV","players":null},{"server_id":112,"name":"Uncletopia | Los Angeles | 2 | All Maps","name_short":"lax-2","host":"lax-1.us.uncletopia.com","port":27025,"enabled":true,"region":"us-west","cc":"us","latitude":33.94279,"longitude":-118.41004,"reserved":0,"last_update":"0001-01-01T00:00:00Z","name_a2s":"Uncletopia | Los Angeles | 2 | All Maps","protocol":17,"map":"pl_frontier_final","folder":"tf","game":"Team Fortress","app_id":440,"player_count":0,"max_players":24,"Bots":0,"server_type":"Dedicated","server_os":"Linux","password":true,"vac":true,"version":"7742253","steam_id":85568392924469992,"keywords":["nocrits","nodmgspread","payload","uncletopia"],"game_id":440,"stv_port":27026,"stv_name":"Uncletopia | Los Angeles | 2 | All Maps | STV","players":null},{"server_id":324,"name":"Uncletopia | Los Angeles | 3 | All Maps","name_short":"lax-3","host":"lax-1.us.uncletopia.com","port":27035,"enabled":true,"region":"us-west","cc":"us","latitude":33.94279,"longitude":-118.41004,"reserved":0,"last_update":"0001-01-01T00:00:00Z","name_a2s":"Uncletopia | Los Angeles | 3 | All Maps","protocol":17,"map":"cp_snakewater_final1","folder":"tf","game":"Team Fortress","app_id":440,"player_count":0,"max_players":24,"Bots":0,"server_type":"Dedicated","server_os":"Linux","password":true,"vac":true,"version":"7742253","steam_id":85568392924510198,"keywords":["cp","nocrits","nodmgspread","uncletopia"],"game_id":440,"stv_port":27036,"stv_name":"Uncletopia | Los Angeles | 3 | All Maps | STV","players":null},{"server_id":25,"name":"Uncletopia | Los Angeles | 4 | Stopwatch Beta","name_short":"lax-4","host":"lax-1.us.uncletopia.com","port":27045,"enabled":true,"region":"us-west","cc":"us","latitude":33.94279,"longitude":-118.41004,"reserved":0,"last_update":"0001-01-01T00:00:00Z","name_a2s":"Uncletopia | Los Angeles | 4 | Stopwatch Beta","protocol":17,"map":"cp_snakewater_final1","folder":"tf","game":"Team Fortress","app_id":440,"player_count":0,"max_players":24,"Bots":0,"server_type":"Dedicated","server_os":"Linux","password":true,"vac":true,"version":"7742253","steam_id":85568392924510199,"keywords":["cp","nocrits","nodmgspread","uncletopia"],"game_id":440,"stv_port":27046,"stv_name":"Uncletopia | Los Angeles | 4 | Stopwatch Beta | STV","players":null},{"server_id":11,"name":"Uncletopia | London | 1 | All Maps","name_short":"lon-1","host":"lon-1.uk.uncletopia.com","port":27015,"enabled":true,"region":"eu","cc":"gb","latitude":51.509865,"longitude":-0.118092,"reserved":0,"last_update":"0001-01-01T00:00:00Z","name_a2s":"Uncletopia | London | 1 | All Maps","protocol":17,"map":"pl_snowycoast","folder":"tf","game":"Team Fortress","app_id":440,"player_count":24,"max_players":24,"Bots":0,"server_type":"Dedicated","server_os":"Linux","password":true,"vac":true,"version":"7742253","steam_id":85568392924367362,"keywords":["nocrits","nodmgspread","payload","uncletopia"],"game_id":440,"stv_port":27016,"stv_name":"Uncletopia | London | 1 | All Maps | STV","players":[{"user_id":451,"name":"Cliff Barnes","steam_id":76561198032213783,"connected_time":2534000000000,"state":"active","ping":68},{"user_id":484,"name":"(())","steam_id":76561198103299625,"connected_time":157000000000,"state":"active","ping":44},{"user_id":485,"name":"man juice","steam_id":76561198126524735,"connected_time":151000000000,"state":"active","ping":82},{"user_id":447,"name":"Mr Prince","steam_id":76561199006591691,"connected_time":2596000000000,"state":"active","ping":52},{"user_id":387,"name":"Nemium","steam_id":76561198070757635,"connected_time":7320000000000,"state":"active","ping":70},{"user_id":452,"name":"xenia","steam_id":76561198062107879,"connected_time":2533000000000,"state":"active","ping":92},{"user_id":464,"name":"ciliorkun18","steam_id":76561198228942500,"connected_time":1580000000000,"state":"active","ping":89},{"user_id":479,"name":"Fred","steam_id":76561198107137362,"connected_time":864000000000,"state":"active","ping":47},{"user_id":469,"name":"Rismancze","steam_id":76561198280227362,"connected_time":1173000000000,"state":"active","ping":78},{"user_id":465,"name":"Grim the lemon","steam_id":76561199083433988,"connected_time":1225000000000,"state":"active","ping":50},{"user_id":481,"name":"ozzy","steam_id":76561198163023685,"connected_time":286000000000,"state":"active","ping":90},{"user_id":442,"name":"SubDragon","steam_id":76561199074530966,"connected_time":3756000000000,"state":"active","ping":122},{"user_id":413,"name":"Swayer","steam_id":76561198056192460,"connected_time":5944000000000,"state":"active","ping":61},{"user_id":473,"name":"profreshional cactus","steam_id":76561198837919828,"connected_time":1031000000000,"state":"active","ping":105},{"user_id":470,"name":"Abby","steam_id":76561198170528489,"connected_time":1169000000000,"state":"active","ping":56},{"user_id":486,"name":"banrab","steam_id":76561198083615367,"connected_time":5000000000,"state":"spawning","ping":55},{"user_id":478,"name":"Kahvi","steam_id":76561198723244199,"connected_time":906000000000,"state":"active","ping":74},{"user_id":476,"name":"Ruralchain","steam_id":76561198803915402,"connected_time":1025000000000,"state":"active","ping":52},{"user_id":483,"name":"Dingus","steam_id":76561198140514058,"connected_time":255000000000,"state":"active","ping":38},{"user_id":460,"name":"Spore","steam_id":76561198889433116,"connected_time":1953000000000,"state":"active","ping":81},{"user_id":419,"name":"Lord","steam_id":76561198024964817,"connected_time":5676000000000,"state":"active","ping":48},{"user_id":475,"name":"Dominus.","steam_id":76561199065917088,"connected_time":1030000000000,"state":"active","ping":63},{"user_id":428,"name":"starsync","steam_id":76561198176766595,"connected_time":5286000000000,"state":"active","ping":93},{"user_id":477,"name":"He/Him","steam_id":76561198126398022,"connected_time":1025000000000,"state":"active","ping":84}]},{"server_id":114,"name":"Uncletopia | London | 2 | All Maps","name_short":"lon-2","host":"lon-1.uk.uncletopia.com","port":27025,"enabled":true,"region":"eu","cc":"gb","latitude":51.509865,"longitude":-0.118092,"reserved":0,"last_update":"0001-01-01T00:00:00Z","name_a2s":"Uncletopia | London | 2 | All Maps","protocol":17,"map":"cp_dustbowl","folder":"tf","game":"Team Fortress","app_id":440,"player_count":23,"max_players":24,"Bots":0,"server_type":"Dedicated","server_os":"Linux","password":true,"vac":true,"version":"7742253","steam_id":85568392924470941,"keywords":["cp","nocrits","nodmgspread","uncletopia"],"game_id":440,"stv_port":27026,"stv_name":"Uncletopia | London | 2 | All Maps | STV","players":[{"user_id":413,"name":"Mannequin","steam_id":76561198128833974,"connected_time":1704000000000,"state":"active","ping":51},{"user_id":436,"name":"LemonLeCitron","steam_id":76561198215545267,"connected_time":1000000000,"state":"spawning","ping":41},{"user_id":430,"name":"Pluto","steam_id":76561198142221715,"connected_time":103000000000,"state":"active","ping":36},{"user_id":427,"name":"Jack","steam_id":76561198325505238,"connected_time":415000000000,"state":"active","ping":82},{"user_id":406,"name":"Dark_Prelate","steam_id":76561199065671442,"connected_time":1797000000000,"state":"active","ping":60},{"user_id":431,"name":"Tortes","steam_id":76561199049185884,"connected_time":102000000000,"state":"active","ping":101},{"user_id":429,"name":"Standingo","steam_id":76561198035642311,"connected_time":152000000000,"state":"active","ping":101},{"user_id":322,"name":"agent creep","steam_id":76561198059933595,"connected_time":8481000000000,"state":"active","ping":47},{"user_id":432,"name":"The Real Dirty Dan","steam_id":76561198075073104,"connected_time":100000000000,"state":"active","ping":76},{"user_id":380,"name":".quickfast.","steam_id":76561199438900919,"connected_time":3138000000000,"state":"active","ping":51},{"user_id":384,"name":"Redkiller","steam_id":76561199453655288,"connected_time":2792000000000,"state":"active","ping":124},{"user_id":391,"name":"Celdis","steam_id":76561198079741434,"connected_time":2507000000000,"state":"active","ping":60},{"user_id":424,"name":"Pug3344","steam_id":76561199235132410,"connected_time":915000000000,"state":"active","ping":52},{"user_id":433,"name":"XXDANTEFANXX","steam_id":76561198197910725,"connected_time":93000000000,"state":"active","ping":63},{"user_id":434,"name":"Jan005","steam_id":76561198410047633,"connected_time":78000000000,"state":"active","ping":45},{"user_id":403,"name":"Niako","steam_id":76561198078370703,"connected_time":1938000000000,"state":"active","ping":68},{"user_id":419,"name":"pumpkin spice go.ggez.ro","steam_id":76561198449957490,"connected_time":1121000000000,"state":"active","ping":79},{"user_id":425,"name":"Lil Top","steam_id":76561198168740408,"connected_time":855000000000,"state":"active","ping":43},{"user_id":435,"name":"êÇÉ","steam_id":76561198874987906,"connected_time":56000000000,"state":"active","ping":93},{"user_id":410,"name":"scantron","steam_id":76561199103959197,"connected_time":1767000000000,"state":"active","ping":92},{"user_id":390,"name":"cris","steam_id":76561198047662200,"connected_time":2688000000000,"state":"active","ping":47},{"user_id":374,"name":"agent weirdo","steam_id":76561198105707824,"connected_time":3609000000000,"state":"active","ping":108},{"user_id":412,"name":"Jonathan","steam_id":76561198087988880,"connected_time":1757000000000,"state":"active","ping":67}]},{"server_id":320,"name":"Uncletopia | London | 3 | All Maps","name_short":"lon-3","host":"lon-1.uk.uncletopia.com","port":27035,"enabled":true,"region":"eu","cc":"gb","latitude":51.509865,"longitude":-0.118092,"reserved":0,"last_update":"0001-01-01T00:00:00Z","name_a2s":"Uncletopia | London | 3 | All Maps","protocol":17,"map":"koth_harvest_final","folder":"tf","game":"Team Fortress","app_id":440,"player_count":24,"max_players":24,"Bots":0,"server_type":"Dedicated","server_os":"Linux","password":true,"vac":true,"version":"7742253","steam_id":85568392924510192,"keywords":["cp","nocrits","nodmgspread","uncletopia"],"game_id":440,"stv_port":27036,"stv_name":"Uncletopia | London | 3 | All Maps | STV","players":[{"user_id":199,"name":"cropping","steam_id":76561198026586456,"connected_time":3072000000000,"state":"active","ping":60},{"user_id":195,"name":"It hurts when i pee (real)","steam_id":76561198139404261,"connected_time":3331000000000,"state":"active","ping":39},{"user_id":209,"name":"Luuklin","steam_id":76561198093127283,"connected_time":1844000000000,"state":"active","ping":69},{"user_id":205,"name":"Keelan","steam_id":76561198013665543,"connected_time":1980000000000,"state":"active","ping":67},{"user_id":224,"name":"ev1lboyo","steam_id":76561199199499453,"connected_time":698000000000,"state":"active","ping":71},{"user_id":167,"name":"Saken","steam_id":76561198049075295,"connected_time":5190000000000,"state":"active","ping":61},{"user_id":194,"name":"Walking Vomit","steam_id":76561198071873301,"connected_time":3374000000000,"state":"active","ping":50},{"user_id":225,"name":"Memeham","steam_id":76561199069935467,"connected_time":587000000000,"state":"active","ping":53},{"user_id":221,"name":"Craig Crusade","steam_id":76561199225918086,"connected_time":1046000000000,"state":"active","ping":55},{"user_id":161,"name":"Fryden","steam_id":76561198208064564,"connected_time":5573000000000,"state":"active","ping":96},{"user_id":168,"name":"homestuck on main","steam_id":76561198820197253,"connected_time":5184000000000,"state":"active","ping":70},{"user_id":227,"name":"WILLBZERO","steam_id":76561198042252878,"connected_time":568000000000,"state":"active","ping":41},{"user_id":232,"name":"COFFEE","steam_id":76561198869355986,"connected_time":313000000000,"state":"active","ping":73},{"user_id":231,"name":"Joy","steam_id":76561198155314925,"connected_time":450000000000,"state":"active","ping":56},{"user_id":229,"name":"Talent","steam_id":76561198153880354,"connected_time":507000000000,"state":"active","ping":42},{"user_id":218,"name":"Adopted?","steam_id":76561198118667043,"connected_time":1498000000000,"state":"active","ping":46},{"user_id":152,"name":"Coac","steam_id":76561198085265740,"connected_time":5953000000000,"state":"active","ping":69},{"user_id":233,"name":"Sunshine Moon","steam_id":76561198022604491,"connected_time":264000000000,"state":"active","ping":54},{"user_id":185,"name":"lark","steam_id":76561198091724522,"connected_time":4572000000000,"state":"active","ping":57},{"user_id":220,"name":"Carrot","steam_id":76561198119340863,"connected_time":1096000000000,"state":"active","ping":33},{"user_id":191,"name":"SpaceGoat","steam_id":76561198091774304,"connected_time":4070000000000,"state":"active","ping":50},{"user_id":234,"name":"Kony 2012","steam_id":76561198003994592,"connected_time":43000000000,"state":"active","ping":50},{"user_id":214,"name":"OceanMan","steam_id":76561198391833371,"connected_time":1583000000000,"state":"active","ping":44},{"user_id":217,"name":"Maik","steam_id":76561198795607661,"connected_time":1540000000000,"state":"active","ping":61}]},{"server_id":321,"name":"Uncletopia | London | 4 | All Maps","name_short":"lon-4","host":"lon-1.uk.uncletopia.com","port":27045,"enabled":true,"region":"eu","cc":"gb","latitude":51.509865,"longitude":-0.118092,"reserved":0,"last_update":"0001-01-01T00:00:00Z","name_a2s":"Uncletopia | London | 4 | All Maps","protocol":17,"map":"koth_highpass","folder":"tf","game":"Team Fortress","app_id":440,"player_count":0,"max_players":24,"Bots":0,"server_type":"Dedicated","server_os":"Linux","password":true,"vac":true,"version":"7742253","steam_id":85568392924510193,"keywords":["cp","nocrits","nodmgspread","uncletopia"],"game_id":440,"stv_port":27046,"stv_name":"Uncletopia | London | 4 | All Maps | STV","players":null},{"server_id":21,"name":"Uncletopia | London | 5 | All Maps","name_short":"lon-5","host":"lon-1.uk.uncletopia.com","port":27055,"enabled":true,"region":"eu","cc":"gb","latitude":51.509865,"longitude":-0.118092,"reserved":0,"last_update":"0001-01-01T00:00:00Z","name_a2s":"Uncletopia | London | 5 | All Maps","protocol":17,"map":"koth_cascade","folder":"tf","game":"Team Fortress","app_id":440,"player_count":9,"max_players":24,"Bots":0,"server_type":"Dedicated","server_os":"Linux","password":true,"vac":true,"version":"7742253","steam_id":85568392924742829,"keywords":["cp","nocrits","nodmgspread","uncletopia"],"game_id":440,"stv_port":27056,"stv_name":"Uncletopia | London | 5 | All Maps | STV","players":[{"user_id":23,"name":"King Nugget","steam_id":76561198134037464,"connected_time":1358000000000,"state":"active","ping":57},{"user_id":33,"name":"Frazzles","steam_id":76561199228009586,"connected_time":360000000000,"state":"active","ping":50},{"user_id":34,"name":"Bunger My Beloved","steam_id":76561198373265675,"connected_time":275000000000,"state":"active","ping":82},{"user_id":35,"name":"martinkin08","steam_id":76561198385866688,"connected_time":196000000000,"state":"active","ping":74},{"user_id":31,"name":"Wayward Smile","steam_id":76561198058841506,"connected_time":690000000000,"state":"active","ping":45},{"user_id":25,"name":"Derpanium","steam_id":76561198072557804,"connected_time":1265000000000,"state":"active","ping":52},{"user_id":26,"name":"Efebic","steam_id":76561198067392958,"connected_time":1225000000000,"state":"active","ping":45},{"user_id":28,"name":"SaltBoy","steam_id":76561198112561381,"connected_time":1146000000000,"state":"active","ping":52},{"user_id":37,"name":"geese","steam_id":76561198944578383,"connected_time":81000000000,"state":"active","ping":81}]},{"server_id":22,"name":"Uncletopia | London | 6 | All Maps","name_short":"lon-6","host":"lon-1.uk.uncletopia.com","port":27065,"enabled":true,"region":"eu","cc":"gb","latitude":51.509865,"longitude":-0.118092,"reserved":0,"last_update":"0001-01-01T00:00:00Z","name_a2s":"Uncletopia | London | 6 | All Maps","protocol":17,"map":"cp_coldfront","folder":"tf","game":"Team Fortress","app_id":440,"player_count":24,"max_players":24,"Bots":0,"server_type":"Dedicated","server_os":"Linux","password":true,"vac":true,"version":"7742253","steam_id":85568392924742830,"keywords":["cp","nocrits","nodmgspread","uncletopia"],"game_id":440,"stv_port":27066,"stv_name":"Uncletopia | London | 6 | All Maps | STV","players":[{"user_id":132,"name":"Espa√±aa","steam_id":76561198879587832,"connected_time":844000000000,"state":"active","ping":78},{"user_id":153,"name":"Tibbs","steam_id":76561197987980406,"connected_time":214000000000,"state":"active","ping":63},{"user_id":146,"name":"[FP] Scewtch","steam_id":76561198120500488,"connected_time":657000000000,"state":"active","ping":51},{"user_id":150,"name":"MR.CRAB","steam_id":76561198329833659,"connected_time":415000000000,"state":"active","ping":77},{"user_id":134,"name":"Penis Contortionist","steam_id":76561198073663784,"connected_time":793000000000,"state":"active","ping":38},{"user_id":102,"name":"Pan Pan","steam_id":76561199074670515,"connected_time":2281000000000,"state":"active","ping":155},{"user_id":135,"name":"[FP] Shiken","steam_id":76561198257905663,"connected_time":789000000000,"state":"active","ping":61},{"user_id":151,"name":"Drdarlekzzz","steam_id":76561198160141785,"connected_time":378000000000,"state":"active","ping":43},{"user_id":104,"name":"d u k k i","steam_id":76561198071807437,"connected_time":2244000000000,"state":"active","ping":89},{"user_id":120,"name":"QuorglepleegJR","steam_id":76561198984658438,"connected_time":1812000000000,"state":"active","ping":44},{"user_id":145,"name":"My Name is Jeff XDDDDDD","steam_id":76561198163644527,"connected_time":666000000000,"state":"active","ping":44},{"user_id":155,"name":"[FP] Rune","steam_id":76561198030842879,"connected_time":111000000000,"state":"active","ping":44},{"user_id":154,"name":"GreenDaddy","steam_id":76561198169793046,"connected_time":206000000000,"state":"active","ping":62},{"user_id":147,"name":"KarlRanzeier","steam_id":76561198066281337,"connected_time":640000000000,"state":"active","ping":62},{"user_id":148,"name":"Grinch Gun","steam_id":76561198097789669,"connected_time":570000000000,"state":"active","ping":72},{"user_id":149,"name":"ophaso","steam_id":76561198322362986,"connected_time":557000000000,"state":"active","ping":60},{"user_id":144,"name":"Mallkiri","steam_id":76561198055914926,"connected_time":679000000000,"state":"active","ping":130},{"user_id":119,"name":"Dr Sex","steam_id":76561198029044617,"connected_time":1998000000000,"state":"active","ping":54},{"user_id":140,"name":"\u003c blank \u003e","steam_id":76561199177668753,"connected_time":749000000000,"state":"active","ping":36},{"user_id":112,"name":"Whallie","steam_id":76561198881117247,"connected_time":2165000000000,"state":"active","ping":78},{"user_id":141,"name":"LavenderJayJay","steam_id":76561198966667657,"connected_time":741000000000,"state":"active","ping":42},{"user_id":123,"name":"chearz narz roaping","steam_id":76561199062586342,"connected_time":1671000000000,"state":"active","ping":51},{"user_id":86,"name":"Flare","steam_id":76561198039098320,"connected_time":3749000000000,"state":"active","ping":54},{"user_id":152,"name":"Julez","steam_id":76561198045505082,"connected_time":362000000000,"state":"active","ping":75}]},{"server_id":40,"name":"Uncletopia | London | 7 | No Payload","name_short":"lon-7","host":"lon-1.uk.uncletopia.com","port":27075,"enabled":true,"region":"eu","cc":"gb","latitude":51.509865,"longitude":-0.118092,"reserved":0,"last_update":"0001-01-01T00:00:00Z","name_a2s":"Uncletopia | London | 7 | No Payload","protocol":17,"map":"koth_viaduct","folder":"tf","game":"Team Fortress","app_id":440,"player_count":0,"max_players":24,"Bots":0,"server_type":"Dedicated","server_os":"Linux","password":true,"vac":true,"version":"7742253","steam_id":85568392924964314,"keywords":["cp","nocrits","nodmgspread","uncletopia"],"game_id":440,"stv_port":27076,"stv_name":"Uncletopia | London | 7 | No Payload | STV","players":null},{"server_id":41,"name":"Uncletopia | London | 8 | Community","name_short":"lon-8","host":"lon-1.uk.uncletopia.com","port":27085,"enabled":true,"region":"eu","cc":"gb","latitude":51.509865,"longitude":-0.118092,"reserved":0,"last_update":"0001-01-01T00:00:00Z","name_a2s":"Uncletopia | London | 8 | Community","protocol":17,"map":"workshop/cp_sulfur_rc2.ugc619869471","folder":"tf","game":"Team Fortress","app_id":440,"player_count":0,"max_players":24,"Bots":0,"server_type":"Dedicated","server_os":"Linux","password":true,"vac":true,"version":"7742253","steam_id":85568392924964315,"keywords":["cp","nocrits","nodmgspread","uncletopia"],"game_id":440,"stv_port":27086,"stv_name":"Uncletopia | London | 8 | Community | STV","players":null},{"server_id":300,"name":"Uncletopia | Montr√©al | 1 | All Maps","name_short":"mtl-1","host":"mtl-1.ca.uncletopia.com","port":27015,"enabled":true,"region":"us-east","cc":"ca","latitude":45.50889,"longitude":-73.56167,"reserved":0,"last_update":"0001-01-01T00:00:00Z","name_a2s":"Uncletopia | Montr√©al | 1 | All Maps","protocol":17,"map":"pl_pier","folder":"tf","game":"Team Fortress","app_id":440,"player_count":0,"max_players":24,"Bots":0,"server_type":"Dedicated","server_os":"Linux","password":true,"vac":true,"version":"7742253","steam_id":85568392924500087,"keywords":["nocrits","nodmgspread","payload","uncletopia"],"game_id":440,"stv_port":27016,"stv_name":"Uncletopia | Montr√©al | 1 | All Maps | STV","players":null},{"server_id":301,"name":"Uncletopia | Montr√©al | 2 | All Maps","name_short":"mtl-2","host":"mtl-1.ca.uncletopia.com","port":27025,"enabled":true,"region":"us-east","cc":"ca","latitude":45.50889,"longitude":-73.56167,"reserved":0,"last_update":"0001-01-01T00:00:00Z","name_a2s":"Uncletopia | Montr√©al | 2 | All Maps","protocol":17,"map":"koth_highpass","folder":"tf","game":"Team Fortress","app_id":440,"player_count":0,"max_players":24,"Bots":0,"server_type":"Dedicated","server_os":"Linux","password":true,"vac":true,"version":"7742253","steam_id":85568392924500088,"keywords":["cp","nocrits","nodmgspread","uncletopia"],"game_id":440,"stv_port":27026,"stv_name":"Uncletopia | Montr√©al | 2 | All Maps | STV","players":null},{"server_id":302,"name":"Uncletopia | Montr√©al | 3 | All Maps","name_short":"mtl-3","host":"mtl-1.ca.uncletopia.com","port":27035,"enabled":true,"region":"us-east","cc":"ca","latitude":45.50889,"longitude":-73.56167,"reserved":0,"last_update":"0001-01-01T00:00:00Z","name_a2s":"Uncletopia | Montr√©al | 3 | All Maps","protocol":17,"map":"cp_mountainlab","folder":"tf","game":"Team Fortress","app_id":440,"player_count":0,"max_players":24,"Bots":0,"server_type":"Dedicated","server_os":"Linux","password":true,"vac":true,"version":"7742253","steam_id":85568392924500089,"keywords":["cp","nocrits","nodmgspread","uncletopia"],"game_id":440,"stv_port":27036,"stv_name":"Uncletopia | Montr√©al | 3 | All Maps | STV","players":null},{"server_id":303,"name":"Uncletopia | Montr√©al | 4 | No Payload","name_short":"mtl-4","host":"mtl-1.ca.uncletopia.com","port":27045,"enabled":true,"region":"us-east","cc":"ca","latitude":45.50889,"longitude":-73.56167,"reserved":0,"last_update":"0001-01-01T00:00:00Z","name_a2s":"Uncletopia | Montr√©al | 4 | No Payload","protocol":17,"map":"cp_snakewater_final1","folder":"tf","game":"Team Fortress","app_id":440,"player_count":0,"max_players":24,"Bots":0,"server_type":"Dedicated","server_os":"Linux","password":true,"vac":true,"version":"7742253","steam_id":85568392924500090,"keywords":["cp","nocrits","nodmgspread","uncletopia"],"game_id":440,"stv_port":27046,"stv_name":"Uncletopia | Montr√©al | 4 | No Payload | STV","players":null},{"server_id":13,"name":"Uncletopia | New York City | 1 | All Maps","name_short":"nyc-1","host":"nyc-1.us.uncletopia.com","port":27015,"enabled":true,"region":"us-east","cc":"us","latitude":40.73061,"longitude":-73.93524,"reserved":0,"last_update":"0001-01-01T00:00:00Z","name_a2s":"Uncletopia | New York City | 1 | All Maps","protocol":17,"map":"pl_frontier_final","folder":"tf","game":"Team Fortress","app_id":440,"player_count":16,"max_players":24,"Bots":0,"server_type":"Dedicated","server_os":"Linux","password":true,"vac":true,"version":"7742253","steam_id":85568392924469993,"keywords":["nocrits","nodmgspread","payload","uncletopia"],"game_id":440,"stv_port":27016,"stv_name":"Uncletopia | New York City | 1 | All Maps | STV","players":[{"user_id":142,"name":"Mcfighter2","steam_id":76561198168073956,"connected_time":2390000000000,"state":"active","ping":65},{"user_id":141,"name":"Loafus","steam_id":76561198154561111,"connected_time":2512000000000,"state":"active","ping":73},{"user_id":149,"name":"HE‚ÄôS IN THE GODDAMN WALLS","steam_id":76561198363267009,"connected_time":1997000000000,"state":"active","ping":77},{"user_id":111,"name":"hi","steam_id":76561198809577048,"connected_time":5281000000000,"state":"active","ping":109},{"user_id":165,"name":"Box","steam_id":76561198973425038,"connected_time":253000000000,"state":"active","ping":73},{"user_id":167,"name":"nalezinik","steam_id":76561198030026119,"connected_time":128000000000,"state":"active","ping":62},{"user_id":168,"name":"andersenkenneth1996","steam_id":76561198212710648,"connected_time":72000000000,"state":"active","ping":283},{"user_id":153,"name":"Yaztec","steam_id":76561198851003008,"connected_time":1119000000000,"state":"active","ping":143},{"user_id":160,"name":"splarvis","steam_id":76561198007792525,"connected_time":703000000000,"state":"active","ping":109},{"user_id":162,"name":"Amogus The Sussy Baka ‡∂û","steam_id":76561198008577961,"connected_time":477000000000,"state":"active","ping":74},{"user_id":124,"name":"LightBulbGlue #SaveTF2","steam_id":76561198329573529,"connected_time":4033000000000,"state":"active","ping":78},{"user_id":116,"name":"Maniaa","steam_id":76561198257140802,"connected_time":4886000000000,"state":"active","ping":44},{"user_id":72,"name":"ThatGuyFromClass","steam_id":76561198445601688,"connected_time":8332000000000,"state":"active","ping":63},{"user_id":147,"name":"THICC","steam_id":76561198273234133,"connected_time":2167000000000,"state":"active","ping":83},{"user_id":155,"name":"Bravo to Alpha","steam_id":76561198149821972,"connected_time":942000000000,"state":"active","ping":62},{"user_id":139,"name":"Dakota Sutcliffe","steam_id":76561198170660959,"connected_time":2886000000000,"state":"active","ping":76}]},{"server_id":14,"name":"Uncletopia | New York City | 2 | All Maps","name_short":"nyc-2","host":"nyc-1.us.uncletopia.com","port":27025,"enabled":true,"region":"us-east","cc":"us","latitude":40.73061,"longitude":-73.93524,"reserved":0,"last_update":"0001-01-01T00:00:00Z","name_a2s":"Uncletopia | New York City | 2 | All Maps","protocol":17,"map":"pl_badwater","folder":"tf","game":"Team Fortress","app_id":440,"player_count":24,"max_players":24,"Bots":0,"server_type":"Dedicated","server_os":"Linux","password":true,"vac":true,"version":"7742253","steam_id":85568392924469994,"keywords":["nocrits","nodmgspread","payload","uncletopia"],"game_id":440,"stv_port":27026,"stv_name":"Uncletopia | New York City | 2 | All Maps | STV","players":[{"user_id":119,"name":"ko4ake","steam_id":76561199231825575,"connected_time":645000000000,"state":"active","ping":155},{"user_id":92,"name":"Yayifications","steam_id":76561198066227208,"connected_time":1996000000000,"state":"active","ping":58},{"user_id":120,"name":"Zeenobae","steam_id":76561198042537808,"connected_time":574000000000,"state":"active","ping":70},{"user_id":89,"name":"Mogwr","steam_id":76561198124942972,"connected_time":2181000000000,"state":"active","ping":60},{"user_id":121,"name":"Kanye is my Biggest Fan","steam_id":76561198162363747,"connected_time":534000000000,"state":"active","ping":54},{"user_id":122,"name":"heartcey","steam_id":76561198101585918,"connected_time":503000000000,"state":"active","ping":54},{"user_id":123,"name":"Topinamburka","steam_id":76561198423184225,"connected_time":500000000000,"state":"active","ping":148},{"user_id":112,"name":"Futa Lover","steam_id":76561198056775795,"connected_time":1064000000000,"state":"active","ping":78},{"user_id":96,"name":"Nice21","steam_id":76561199427548141,"connected_time":1715000000000,"state":"active","ping":134},{"user_id":98,"name":"Clean","steam_id":76561198061224922,"connected_time":1643000000000,"state":"active","ping":83},{"user_id":55,"name":"funny","steam_id":76561198041026017,"connected_time":3854000000000,"state":"active","ping":48},{"user_id":124,"name":"lukethepumpkin","steam_id":76561198204158335,"connected_time":492000000000,"state":"active","ping":50},{"user_id":125,"name":"moodi catgirl","steam_id":76561198124028045,"connected_time":476000000000,"state":"active","ping":51},{"user_id":99,"name":"y6101176","steam_id":76561199435454093,"connected_time":1637000000000,"state":"active","ping":53},{"user_id":136,"name":"sasharudzik","steam_id":76561199126617781,"connected_time":154000000000,"state":"active","ping":78},{"user_id":104,"name":"paladin","steam_id":76561198044776381,"connected_time":1431000000000,"state":"active","ping":101},{"user_id":127,"name":"srv","steam_id":76561198026589960,"connected_time":361000000000,"state":"active","ping":67},{"user_id":135,"name":"Evil_Elephant","steam_id":76561199055338631,"connected_time":186000000000,"state":"active","ping":76},{"user_id":129,"name":"Cap N' Crunch","steam_id":76561198917309036,"connected_time":351000000000,"state":"active","ping":157},{"user_id":132,"name":"Arrythmia","steam_id":76561198093748123,"connected_time":287000000000,"state":"active","ping":112},{"user_id":106,"name":"DJJohnny59","steam_id":76561199032438138,"connected_time":1375000000000,"state":"active","ping":92},{"user_id":80,"name":"Rug","steam_id":76561198083438049,"connected_time":2801000000000,"state":"active","ping":93},{"user_id":133,"name":"Corbe","steam_id":76561198353893927,"connected_time":282000000000,"state":"active","ping":91},{"user_id":134,"name":"Wang of Wall St","steam_id":76561198047460598,"connected_time":265000000000,"state":"active","ping":55}]},{"server_id":15,"name":"Uncletopia | New York City | 3 | Stopwatch Beta","name_short":"nyc-3","host":"nyc-1.us.uncletopia.com","port":27035,"enabled":true,"region":"us-east","cc":"us","latitude":40.73061,"longitude":-73.93524,"reserved":0,"last_update":"0001-01-01T00:00:00Z","name_a2s":"Uncletopia | New York City | 3 | Stopwatch Beta","protocol":17,"map":"pl_pier","folder":"tf","game":"Team Fortress","app_id":440,"player_count":0,"max_players":24,"Bots":0,"server_type":"Dedicated","server_os":"Linux","password":true,"vac":true,"version":"7742253","steam_id":85568392924742820,"keywords":["nocrits","nodmgspread","payload","uncletopia"],"game_id":440,"stv_port":27036,"stv_name":"Uncletopia | New York City | 3 | Stopwatch Beta | STV","players":null},{"server_id":16,"name":"Uncletopia | New York City | 4 | Community","name_short":"nyc-4","host":"nyc-1.us.uncletopia.com","port":27045,"enabled":true,"region":"us-east","cc":"us","latitude":40.73061,"longitude":-73.93524,"reserved":0,"last_update":"0001-01-01T00:00:00Z","name_a2s":"Uncletopia | New York City | 4 | Community","protocol":17,"map":"koth_viaduct","folder":"tf","game":"Team Fortress","app_id":440,"player_count":0,"max_players":24,"Bots":0,"server_type":"Dedicated","server_os":"Linux","password":true,"vac":true,"version":"7742253","steam_id":85568392924742821,"keywords":["cp","nocrits","nodmgspread","uncletopia"],"game_id":440,"stv_port":27046,"stv_name":"Uncletopia | New York City | 4 | Community | STV","players":null},{"server_id":142,"name":"Uncletopia | S√£o Paulo | 1 | All Maps","name_short":"sao-1","host":"sao-1.br.uncletopia.com","port":27015,"enabled":true,"region":"sa","cc":"br","latitude":-23.533773,"longitude":-46.62529,"reserved":0,"last_update":"0001-01-01T00:00:00Z","name_a2s":"Uncletopia | S√£o Paulo | 1 | All Maps","protocol":17,"map":"koth_viaduct","folder":"tf","game":"Team Fortress","app_id":440,"player_count":0,"max_players":24,"Bots":0,"server_type":"Dedicated","server_os":"Linux","password":true,"vac":true,"version":"7742253","steam_id":85568392924469996,"keywords":["cp","nocrits","nodmgspread","uncletopia"],"game_id":440,"stv_port":27016,"stv_name":"Uncletopia | S√£o Paulo | 1 | All Maps | STV","players":null},{"server_id":143,"name":"Uncletopia | S√£o Paulo | 2 | All Maps","name_short":"sao-2","host":"sao-2.br.uncletopia.com","port":27015,"enabled":true,"region":"sa","cc":"br","latitude":-23.533773,"longitude":-46.62529,"reserved":0,"last_update":"0001-01-01T00:00:00Z","name_a2s":"Uncletopia | S√£o Paulo | 2 | All Maps","protocol":17,"map":"koth_viaduct","folder":"tf","game":"Team Fortress","app_id":440,"player_count":0,"max_players":24,"Bots":0,"server_type":"Dedicated","server_os":"Linux","password":true,"vac":true,"version":"7742253","steam_id":85568392924485349,"keywords":["cp","nocrits","nodmgspread","uncletopia"],"game_id":440,"stv_port":27016,"stv_name":"Uncletopia | S√£o Paulo | 2 | All Maps | STV","players":null},{"server_id":7,"name":"Uncletopia | Seattle | 1 | All Maps","name_short":"sea-1","host":"sea-1.us.uncletopia.com","port":27015,"enabled":true,"region":"us-west","cc":"us","latitude":47.608013,"longitude":-122.33517,"reserved":0,"last_update":"0001-01-01T00:00:00Z","name_a2s":"Uncletopia | Seattle | 1 | All Maps","protocol":17,"map":"pl_borneo","folder":"tf","game":"Team Fortress","app_id":440,"player_count":23,"max_players":24,"Bots":0,"server_type":"Dedicated","server_os":"Linux","password":true,"vac":true,"version":"7742253","steam_id":85568392924469997,"keywords":["nocrits","nodmgspread","payload","uncletopia"],"game_id":440,"stv_port":27016,"stv_name":"Uncletopia | Seattle | 1 | All Maps | STV","players":[{"user_id":59,"name":"SuperJagops","steam_id":76561198034689716,"connected_time":5297000000000,"state":"active","ping":116},{"user_id":100,"name":"ella guru","steam_id":76561198287124402,"connected_time":1467000000000,"state":"active","ping":122},{"user_id":105,"name":"max poop retention","steam_id":76561199050461421,"connected_time":755000000000,"state":"active","ping":95},{"user_id":71,"name":"C papi","steam_id":76561198027779564,"connected_time":4581000000000,"state":"active","ping":105},{"user_id":57,"name":"Delacroix","steam_id":76561198842964669,"connected_time":5331000000000,"state":"active","ping":113},{"user_id":8,"name":"jon","steam_id":76561198065314212,"connected_time":8231000000000,"state":"active","ping":54},{"user_id":85,"name":"Yukihana","steam_id":76561198348354629,"connected_time":2380000000000,"state":"active","ping":66},{"user_id":113,"name":"help","steam_id":76561199056338917,"connected_time":428000000000,"state":"active","ping":108},{"user_id":83,"name":"daemon","steam_id":76561198001541433,"connected_time":2405000000000,"state":"active","ping":105},{"user_id":12,"name":"Soap Man","steam_id":76561198000490235,"connected_time":8201000000000,"state":"active","ping":64},{"user_id":119,"name":"Isopentyl Ethanoate","steam_id":76561198116389072,"connected_time":57000000000,"state":"active","ping":63},{"user_id":87,"name":"The Great Eagle Scourge of 1822","steam_id":76561198325086209,"connected_time":2247000000000,"state":"active","ping":85},{"user_id":109,"name":"Ulrich Stern","steam_id":76561198101739682,"connected_time":594000000000,"state":"active","ping":108},{"user_id":101,"name":"McDumDum","steam_id":76561198040738807,"connected_time":1317000000000,"state":"active","ping":113},{"user_id":95,"name":"JoyousCypress","steam_id":76561198072564004,"connected_time":1822000000000,"state":"active","ping":160},{"user_id":118,"name":"Midgeotto","steam_id":76561198885495596,"connected_time":194000000000,"state":"active","ping":139},{"user_id":96,"name":"J3SUS","steam_id":76561198368965383,"connected_time":1798000000000,"state":"active","ping":88},{"user_id":76,"name":"not shouleil","steam_id":76561198970370243,"connected_time":3726000000000,"state":"active","ping":106},{"user_id":110,"name":"amagicowl","steam_id":76561199060487814,"connected_time":553000000000,"state":"active","ping":58},{"user_id":114,"name":"RileyNiko","steam_id":76561198162093639,"connected_time":394000000000,"state":"active","ping":120},{"user_id":103,"name":"demolondon the thrice","steam_id":76561198936116083,"connected_time":927000000000,"state":"active","ping":61},{"user_id":115,"name":"Whizzo the Clown","steam_id":76561197995910627,"connected_time":394000000000,"state":"active","ping":135},{"user_id":84,"name":"t.tv/ibbKitty ‚àë:3","steam_id":76561198110858518,"connected_time":2405000000000,"state":"active","ping":107}]},{"server_id":119,"name":"Uncletopia | Seattle | 2 | All Maps","name_short":"sea-2","host":"sea-1.us.uncletopia.com","port":27025,"enabled":true,"region":"us-west","cc":"us","latitude":47.608013,"longitude":-122.33517,"reserved":0,"last_update":"0001-01-01T00:00:00Z","name_a2s":"Uncletopia | Seattle | 2 | All Maps","protocol":17,"map":"cp_sunshine","folder":"tf","game":"Team Fortress","app_id":440,"player_count":0,"max_players":24,"Bots":0,"server_type":"Dedicated","server_os":"Linux","password":true,"vac":true,"version":"7742253","steam_id":85568392924469998,"keywords":["cp","nocrits","nodmgspread","uncletopia"],"game_id":440,"stv_port":27026,"stv_name":"Uncletopia | Seattle | 2 | All Maps | STV","players":null},{"server_id":406,"name":"Uncletopia | Seattle | 3 | Stopwatch Beta","name_short":"sea-3","host":"sea-1.us.uncletopia.com","port":27035,"enabled":true,"region":"us-west","cc":"us","latitude":47.608013,"longitude":-122.33517,"reserved":0,"last_update":"0001-01-01T00:00:00Z","name_a2s":"Uncletopia | Seattle | 3 | Stopwatch Beta","protocol":17,"map":"cp_altitude","folder":"tf","game":"Team Fortress","app_id":440,"player_count":0,"max_players":24,"Bots":0,"server_type":"Dedicated","server_os":"Linux","password":true,"vac":true,"version":"7742253","steam_id":85568392924515217,"keywords":["cp","nocrits","nodmgspread","uncletopia"],"game_id":440,"stv_port":27036,"stv_name":"Uncletopia | Seattle | 3 | Stopwatch Beta | STV","players":null},{"server_id":17,"name":"Uncletopia | San Francisco | 1 | All Maps","name_short":"sfo-1","host":"sfo-1.us.uncletopia.com","port":27015,"enabled":true,"region":"us-west","cc":"us","latitude":37.77397,"longitude":-122.4313,"reserved":0,"last_update":"0001-01-01T00:00:00Z","name_a2s":"Uncletopia | San Francisco | 1 | All Maps","protocol":17,"map":"pl_snowycoast","folder":"tf","game":"Team Fortress","app_id":440,"player_count":0,"max_players":24,"Bots":0,"server_type":"Dedicated","server_os":"Linux","password":true,"vac":true,"version":"7742253","steam_id":85568392924469999,"keywords":["nocrits","nodmgspread","payload","uncletopia"],"game_id":440,"stv_port":27016,"stv_name":"Uncletopia | San Francisco | 1 | All Maps | STV","players":null},{"server_id":18,"name":"Uncletopia | San Francisco | 2 | All Maps","name_short":"sfo-2","host":"sfo-1.us.uncletopia.com","port":27025,"enabled":true,"region":"us-west","cc":"us","latitude":37.77397,"longitude":-122.4313,"reserved":0,"last_update":"0001-01-01T00:00:00Z","name_a2s":"Uncletopia | San Francisco | 2 | All Maps","protocol":17,"map":"cp_altitude","folder":"tf","game":"Team Fortress","app_id":440,"player_count":0,"max_players":24,"Bots":0,"server_type":"Dedicated","server_os":"Linux","password":true,"vac":true,"version":"7742253","steam_id":85568392924470000,"keywords":["cp","nocrits","nodmgspread","uncletopia"],"game_id":440,"stv_port":27026,"stv_name":"Uncletopia | San Francisco | 2 | All Maps | STV","players":null},{"server_id":19,"name":"Uncletopia | San Francisco | 3 | Stopwatch Beta","name_short":"sfo-3","host":"sfo-1.us.uncletopia.com","port":27035,"enabled":true,"region":"us-west","cc":"us","latitude":37.77397,"longitude":-122.4313,"reserved":0,"last_update":"0001-01-01T00:00:00Z","name_a2s":"Uncletopia | San Francisco | 3 | Stopwatch Beta","protocol":17,"map":"cp_snakewater_final1","folder":"tf","game":"Team Fortress","app_id":440,"player_count":0,"max_players":24,"Bots":0,"server_type":"Dedicated","server_os":"Linux","password":true,"vac":true,"version":"7742253","steam_id":85568392924742824,"keywords":["cp","nocrits","nodmgspread","uncletopia"],"game_id":440,"stv_port":27036,"stv_name":"Uncletopia | San Francisco | 3 | Stopwatch Beta | STV","players":null},{"server_id":20,"name":"Uncletopia | San Francisco | 4 | Community","name_short":"sfo-4","host":"sfo-1.us.uncletopia.com","port":27045,"enabled":true,"region":"us-west","cc":"us","latitude":37.77397,"longitude":-122.4313,"reserved":0,"last_update":"0001-01-01T00:00:00Z","name_a2s":"Uncletopia | San Francisco | 4 | Community","protocol":17,"map":"cp_dustbowl","folder":"tf","game":"Team Fortress","app_id":440,"player_count":0,"max_players":24,"Bots":0,"server_type":"Dedicated","server_os":"Linux","password":true,"vac":true,"version":"7742253","steam_id":85568392924742826,"keywords":["cp","nocrits","nodmgspread","uncletopia"],"game_id":440,"stv_port":27046,"stv_name":"Uncletopia | San Francisco | 4 | Community | STV","players":null},{"server_id":141,"name":"Uncletopia | Sydney | 1 | All Maps","name_short":"syd-1","host":"syd-1.au.uncletopia.com","port":27015,"enabled":true,"region":"au","cc":"au","latitude":-33.865143,"longitude":151.2099,"reserved":0,"last_update":"0001-01-01T00:00:00Z","name_a2s":"Uncletopia | Sydney | 1 | All Maps","protocol":17,"map":"koth_highpass","folder":"tf","game":"Team Fortress","app_id":440,"player_count":0,"max_players":24,"Bots":0,"server_type":"Dedicated","server_os":"Linux","password":true,"vac":true,"version":"7742253","steam_id":85568392924470001,"keywords":["cp","nocrits","nodmgspread","uncletopia"],"game_id":440,"stv_port":27016,"stv_name":"Uncletopia | Sydney | 1 | All Maps | STV","players":null},{"server_id":123,"name":"Uncletopia | Sydney | 2 | All Maps","name_short":"syd-2","host":"syd-1.au.uncletopia.com","port":27025,"enabled":true,"region":"au","cc":"au","latitude":-33.865143,"longitude":151.2099,"reserved":0,"last_update":"0001-01-01T00:00:00Z","name_a2s":"Uncletopia | Sydney | 2 | All Maps","protocol":17,"map":"koth_lakeside_final","folder":"tf","game":"Team Fortress","app_id":440,"player_count":0,"max_players":24,"Bots":0,"server_type":"Dedicated","server_os":"Linux","password":true,"vac":true,"version":"7742253","steam_id":85568392924470002,"keywords":["cp","nocrits","nodmgspread","uncletopia"],"game_id":440,"stv_port":27026,"stv_name":"Uncletopia | Sydney | 2 | All Maps | STV","players":null},{"server_id":395,"name":"Uncletopia | Sydney | 3 | All Maps","name_short":"syd-3","host":"syd-1.au.uncletopia.com","port":27035,"enabled":true,"region":"au","cc":"au","latitude":-33.865143,"longitude":151.2099,"reserved":0,"last_update":"0001-01-01T00:00:00Z","name_a2s":"Uncletopia | Sydney | 3 | All Maps","protocol":17,"map":"koth_highpass","folder":"tf","game":"Team Fortress","app_id":440,"player_count":0,"max_players":24,"Bots":0,"server_type":"Dedicated","server_os":"Linux","password":true,"vac":true,"version":"7742253","steam_id":85568392925194467,"keywords":["cp","nocrits","nodmgspread","uncletopia"],"game_id":440,"stv_port":27036,"stv_name":"Uncletopia | Sydney | 3 | All Maps | STV","players":null},{"server_id":396,"name":"Uncletopia | Sydney | 4 | All Maps","name_short":"syd-4","host":"syd-1.au.uncletopia.com","port":27045,"enabled":true,"region":"au","cc":"au","latitude":-33.865143,"longitude":151.2099,"reserved":0,"last_update":"0001-01-01T00:00:00Z","name_a2s":"Uncletopia | Sydney | 4 | All Maps","protocol":17,"map":"koth_lakeside_final","folder":"tf","game":"Team Fortress","app_id":440,"player_count":0,"max_players":24,"Bots":0,"server_type":"Dedicated","server_os":"Linux","password":true,"vac":true,"version":"7742253","steam_id":85568392925397958,"keywords":["cp","nocrits","nodmgspread","uncletopia"],"game_id":440,"stv_port":27046,"stv_name":"Uncletopia | Sydney | 4 | All Maps | STV","players":null},{"server_id":58,"name":"Uncletopia | Sydney | 5 | Stopwatch Beta","name_short":"syd-5","host":"syd-1.au.uncletopia.com","port":27055,"enabled":true,"region":"au","cc":"au","latitude":-33.865143,"longitude":151.2099,"reserved":0,"last_update":"0001-01-01T00:00:00Z","name_a2s":"Uncletopia | Sydney | 5 | Stopwatch Beta","protocol":17,"map":"workshop/koth_ashville_final.ugc2130459942","folder":"tf","game":"Team Fortress","app_id":440,"player_count":0,"max_players":24,"Bots":0,"server_type":"Dedicated","server_os":"Linux","password":true,"vac":true,"version":"7742253","steam_id":85568392925397959,"keywords":["cp","nocrits","nodmgspread","uncletopia"],"game_id":440,"stv_port":27056,"stv_name":"Uncletopia | Sydney | 5 | Stopwatch Beta | STV","players":null},{"server_id":59,"name":"Uncletopia | Sydney | 6 | Community","name_short":"syd-6","host":"syd-1.au.uncletopia.com","port":27065,"enabled":true,"region":"au","cc":"au","latitude":-33.865143,"longitude":151.2099,"reserved":0,"last_update":"0001-01-01T00:00:00Z","name_a2s":"Uncletopia | Sydney | 6 | Community","protocol":17,"map":"workshop/koth_slaughter_rc1.ugc1712845210","folder":"tf","game":"Team Fortress","app_id":440,"player_count":0,"max_players":24,"Bots":0,"server_type":"Dedicated","server_os":"Linux","password":true,"vac":true,"version":"7742253","steam_id":85568392925397960,"keywords":["cp","nocrits","nodmgspread","uncletopia"],"game_id":440,"stv_port":27066,"stv_name":"Uncletopia | Sydney | 6 | Community | STV","players":null},{"server_id":49,"name":"Uncletopia | Warsaw | 1 | All Maps","name_short":"waw-1","host":"waw-1.pl.uncletopia.com","port":27015,"enabled":true,"region":"eu","cc":"pl","latitude":52.2297,"longitude":21.017532,"reserved":0,"last_update":"0001-01-01T00:00:00Z","name_a2s":"","protocol":0,"map":"","folder":"","game":"","app_id":0,"player_count":0,"max_players":0,"Bots":0,"server_type":"","server_os":"","password":false,"vac":false,"version":"","steam_id":0,"keywords":null,"game_id":0,"stv_port":0,"stv_name":"","players":null},{"server_id":50,"name":"Uncletopia | Warsaw | 2 | All Maps","name_short":"waw-2","host":"waw-1.pl.uncletopia.com","port":27025,"enabled":true,"region":"eu","cc":"pl","latitude":52.2297,"longitude":21.017532,"reserved":0,"last_update":"0001-01-01T00:00:00Z","name_a2s":"Uncletopia | Warsaw | 2 | All Maps","protocol":17,"map":"cp_dustbowl","folder":"tf","game":"Team Fortress","app_id":440,"player_count":13,"max_players":24,"Bots":0,"server_type":"Dedicated","server_os":"Linux","password":true,"vac":true,"version":"7742253","steam_id":85568392925397851,"keywords":["cp","nocrits","nodmgspread","uncletopia"],"game_id":440,"stv_port":27026,"stv_name":"Uncletopia | Warsaw | 2 | All Maps | STV","players":[{"user_id":17,"name":"‚ôãFireShark224‚ôã","steam_id":76561199124513042,"connected_time":2196000000000,"state":"active","ping":78},{"user_id":11,"name":"engineergaming","steam_id":76561199423207269,"connected_time":3076000000000,"state":"active","ping":48},{"user_id":22,"name":"dj2156","steam_id":76561199156698557,"connected_time":1604000000000,"state":"active","ping":78},{"user_id":27,"name":"skill issue detector","steam_id":76561198018056171,"connected_time":1351000000000,"state":"active","ping":89},{"user_id":45,"name":"PEDRO AMIGOS","steam_id":76561198133530053,"connected_time":3000000000,"state":"spawning","ping":58},{"user_id":26,"name":"desoo","steam_id":76561198052878585,"connected_time":1425000000000,"state":"active","ping":127},{"user_id":36,"name":"baro.ricky","steam_id":76561198172204039,"connected_time":548000000000,"state":"active","ping":92},{"user_id":24,"name":"Feelin' Supersonic","steam_id":76561198005738407,"connected_time":1550000000000,"state":"active","ping":85},{"user_id":29,"name":"daanvanliempt05","steam_id":76561198355398948,"connected_time":1214000000000,"state":"active","ping":64},{"user_id":43,"name":"jakov inwestowaƒá","steam_id":76561198052282542,"connected_time":100000000000,"state":"active","ping":55},{"user_id":42,"name":"no 1","steam_id":76561198972248362,"connected_time":156000000000,"state":"active","ping":97},{"user_id":39,"name":"Kose","steam_id":76561199006456055,"connected_time":421000000000,"state":"active","ping":42},{"user_id":41,"name":"Vonk","steam_id":76561199080400526,"connected_time":347000000000,"state":"active","ping":108}]},{"server_id":51,"name":"Uncletopia | Warsaw | 3 | All Maps","name_short":"waw-3","host":"waw-1.pl.uncletopia.com","port":27035,"enabled":true,"region":"eu","cc":"pl","latitude":52.2297,"longitude":21.017532,"reserved":0,"last_update":"0001-01-01T00:00:00Z","name_a2s":"Uncletopia | Warsaw | 3 | All Maps","protocol":17,"map":"ctf_snowfall_final","folder":"tf","game":"Team Fortress","app_id":440,"player_count":0,"max_players":24,"Bots":0,"server_type":"Dedicated","server_os":"Linux","password":true,"vac":true,"version":"7742253","steam_id":85568392925397852,"keywords":["ctf","nocrits","nodmgspread","uncletopia"],"game_id":440,"stv_port":27036,"stv_name":"Uncletopia | Warsaw | 3 | All Maps | STV","players":null},{"server_id":52,"name":"Uncletopia | Warsaw | 4 | All Maps","name_short":"waw-4","host":"waw-1.pl.uncletopia.com","port":27045,"enabled":true,"region":"eu","cc":"pl","latitude":52.2297,"longitude":21.017532,"reserved":0,"last_update":"0001-01-01T00:00:00Z","name_a2s":"Uncletopia | Warsaw | 4 | All Maps","protocol":17,"map":"pl_borneo","folder":"tf","game":"Team Fortress","app_id":440,"player_count":0,"max_players":24,"Bots":0,"server_type":"Dedicated","server_os":"Linux","password":true,"vac":true,"version":"7742253","steam_id":85568392925397853,"keywords":["nocrits","nodmgspread","payload","uncletopia"],"game_id":440,"stv_port":27046,"stv_name":"Uncletopia | Warsaw | 4 | All Maps | STV","players":null},{"server_id":53,"name":"Uncletopia | Warsaw | 5 | Stopwatch Beta","name_short":"waw-5","host":"waw-1.pl.uncletopia.com","port":27055,"enabled":true,"region":"eu","cc":"pl","latitude":52.2297,"longitude":21.017532,"reserved":0,"last_update":"0001-01-01T00:00:00Z","name_a2s":"Uncletopia | Warsaw | 5 | Stopwatch Beta","protocol":17,"map":"pl_swiftwater_final1","folder":"tf","game":"Team Fortress","app_id":440,"player_count":0,"max_players":24,"Bots":0,"server_type":"Dedicated","server_os":"Linux","password":true,"vac":true,"version":"7742253","steam_id":85568392925397854,"keywords":["nocrits","nodmgspread","payload","uncletopia"],"game_id":440,"stv_port":27056,"stv_name":"Uncletopia | Warsaw | 5 | Stopwatch Beta | STV","players":null},{"server_id":54,"name":"Uncletopia | Warsaw | 6 | Community","name_short":"waw-6","host":"waw-1.pl.uncletopia.com","port":27065,"enabled":true,"region":"eu","cc":"pl","latitude":52.2297,"longitude":21.017532,"reserved":0,"last_update":"0001-01-01T00:00:00Z","name_a2s":"Uncletopia | Warsaw | 6 | Community","protocol":17,"map":"koth_highpass","folder":"tf","game":"Team Fortress","app_id":440,"player_count":0,"max_players":24,"Bots":0,"server_type":"Dedicated","server_os":"Linux","password":true,"vac":true,"version":"7742253","steam_id":85568392925397856,"keywords":["cp","nocrits","nodmgspread","uncletopia"],"game_id":440,"stv_port":27066,"stv_name":"Uncletopia | Warsaw | 6 | Community | STV","players":null}]}