{"status":true,"message":"","result":[{"server_id":9,"name":"Uncletopia | Atlanta | 1 | All Maps","name_short":"atl-1","host":"atl-1.us.uncletopia.com","port":27015,"enabled":true,"region":"us-east","cc":"us","latitude":33.753746,"longitude":-84.38633,"reserved":0,"last_update":"0001-01-01T00:00:00Z","name_a2s":"Uncletopia | Atlanta | 1 | All Maps","protocol":17,"map":"cp_mossrock","folder":"tf","game":"Team Fortress","app_id":440,"player_count":24,"max_players":24,"Bots":0,"server_type":"Dedicated","server_os":"Linux","password":true,"vac":true,"version":"7961495","steam_id":85568392924469982,"keywords":["cp","nocrits","nodmgspread","uncletopia"],"game_id":440,"stv_port":27016,"stv_name":"Uncletopia | Atlanta | 1 | All Maps | STV","players":null},{"server_id":104,"name":"Uncletopia | Atlanta | 2 | All Maps","name_short":"atl-2","host":"atl-1.us.uncletopia.com","port":27025,"enabled":true,"region":"us-east","cc":"us","latitude":33.753746,"longitude":-84.38633,"reserved":0,"last_update":"0001-01-01T00:00:00Z","name_a2s":"Uncletopia | Atlanta | 2 | All Maps","protocol":17,"map":"koth_viaduct","folder":"tf","game":"Team Fortress","app_id":440,"player_count":2,"max_players":24,"Bots":0,"server_type":"Dedicated","server_os":"Linux","password":true,"vac":true,"version":"7961495","steam_id":85568392924469983,"keywords":["cp","nocrits","nodmgspread","uncletopia"],"game_id":440,"stv_port":27026,"stv_name":"Uncletopia | Atlanta | 2 | All Maps | STV","players":null},{"server_id":400,"name":"Uncletopia | Atlanta | 3 | Stopwatch","name_short":"atl-3","host":"atl-1.us.uncletopia.com","port":27035,"enabled":true,"region":"us-east","cc":"us","latitude":33.753746,"longitude":-84.38633,"reserved":0,"last_update":"0001-01-01T00:00:00Z","name_a2s":"Uncletopia | Atlanta | 3 | Stopwatch","protocol":17,"map":"pl_summercoast_rc8e","folder":"tf","game":"Team Fortress","app_id":440,"player_count":0,"max_players":24,"Bots":0,"server_type":"Dedicated","server_os":"Linux","password":true,"vac":true,"version":"7961495","steam_id":85568392924515187,"keywords":["nocrits","nodmgspread","payload","uncletopia"],"game_id":440,"stv_port":27036,"stv_name":"Uncletopia | Atlanta | 3 | Stopwatch | STV","players":null},{"server_id":401,"name":"Uncletopia | Atlanta | 4 | Community","name_short":"atl-4","host":"atl-1.us.uncletopia.com","port":27045,"enabled":true,"region":"us-east","cc":"us","latitude":33.753746,"longitude":-84.38633,"reserved":0,"last_update":"0001-01-01T00:00:00Z","name_a2s":"Uncletopia | Atlanta | 4 | Community","protocol":17,"map":"cp_propaganda_b18","folder":"tf","game":"Team Fortress","app_id":440,"player_count":2,"max_players":24,"Bots":0,"server_type":"Dedicated","server_os":"Linux","password":true,"vac":true,"version":"7961495","steam_id":85568392924515188,"keywords":["cp","nocrits","nodmgspread","uncletopia"],"game_id":440,"stv_port":27046,"stv_name":"Uncletopia | Atlanta | 4 | Community | STV","players":null},{"server_id":2,"name":"Uncletopia | Chicago | 1 | All Maps","name_short":"chi-1","host":"chi-1.us.uncletopia.com","port":27015,"enabled":true,"region":"us-central","cc":"us","latitude":41.881832,"longitude":-87.62318,"reserved":0,"last_update":"0001-01-01T00:00:00Z","name_a2s":"Uncletopia | Chicago | 1 | All Maps","protocol":17,"map":"pl_barnblitz","folder":"tf","game":"Team Fortress","app_id":440,"player_count":24,"max_players":24,"Bots":0,"server_type":"Dedicated","server_os":"Linux","password":true,"vac":true,"version":"7961495","steam_id":85568392924469984,"keywords":["nocrits","nodmgspread","payload","uncletopia"],"game_id":440,"stv_port":27016,"stv_name":"Uncletopia | Chicago | 1 | All Maps | STV","players":[{"user_id":132,"name":"rudy","steam_id":76561198088712799,"connected_time":3754000000000,"state":"active","ping":77},{"user_id":190,"name":"III","steam_id":76561198976434426,"connected_time":297000000000,"state":"active","ping":58},{"user_id":129,"name":"12345","steam_id":76561198046948758,"connected_time":3974000000000,"state":"active","ping":62},{"user_id":189,"name":"ralph","steam_id":76561198984121915,"connected_time":303000000000,"state":"active","ping":68},{"user_id":133,"name":"Comradical","steam_id":76561197990808285,"connected_time":3582000000000,"state":"active","ping":75},{"user_id":162,"name":"Balsamicpork","steam_id":76561197995358472,"connected_time":2093000000000,"state":"active","ping":63},{"user_id":154,"name":"Lyathan","steam_id":76561198062773218,"connected_time":3021000000000,"state":"active","ping":64},{"user_id":172,"name":"Ceige LFT","steam_id":76561198068538473,"connected_time":1101000000000,"state":"active","ping":75},{"user_id":187,"name":"↪Pousm↩","steam_id":76561198272377335,"connected_time":318000000000,"state":"active","ping":107},{"user_id":194,"name":"juanjoesc","steam_id":76561198186368430,"connected_time":130000000000,"state":"active","ping":141},{"user_id":185,"name":"SandHanitizer","steam_id":76561198234676500,"connected_time":330000000000,"state":"active","ping":78},{"user_id":178,"name":"snooopay","steam_id":76561198132873984,"connected_time":592000000000,"state":"active","ping":68},{"user_id":159,"name":"fish ●","steam_id":76561198999217575,"connected_time":2155000000000,"state":"active","ping":69},{"user_id":186,"name":"debin","steam_id":76561198070711217,"connected_time":322000000000,"state":"active","ping":48},{"user_id":188,"name":"Ashes!","steam_id":76561197998475441,"connected_time":307000000000,"state":"active","ping":92},{"user_id":144,"name":"Try Gardening","steam_id":76561198120311340,"connected_time":3280000000000,"state":"active","ping":49},{"user_id":173,"name":"Keegs","steam_id":76561198346917831,"connected_time":1094000000000,"state":"active","ping":54},{"user_id":171,"name":"beta central","steam_id":76561198301876831,"connected_time":1119000000000,"state":"active","ping":59},{"user_id":164,"name":"celestia ludenberg","steam_id":76561199196437823,"connected_time":2054000000000,"state":"active","ping":116},{"user_id":147,"name":"❄︎SHIT PISSER JULIANNE❄","steam_id":76561198061955351,"connected_time":3251000000000,"state":"active","ping":58},{"user_id":156,"name":"Serene Salamander","steam_id":76561198001094770,"connected_time":2250000000000,"state":"active","ping":117},{"user_id":191,"name":"Fluffeline","steam_id":76561198352909489,"connected_time":297000000000,"state":"active","ping":146},{"user_id":177,"name":"Rainy Day Roger","steam_id":76561198101783759,"connected_time":766000000000,"state":"active","ping":107},{"user_id":151,"name":"Hunt0rb","steam_id":76561198120527608,"connected_time":3219000000000,"state":"active","ping":67}]},{"server_id":106,"name":"Uncletopia | Chicago | 2 | All Maps","name_short":"chi-2","host":"chi-1.us.uncletopia.com","port":27025,"enabled":true,"region":"us-central","cc":"us","latitude":41.881832,"longitude":-87.62318,"reserved":0,"last_update":"0001-01-01T00:00:00Z","name_a2s":"Uncletopia | Chicago | 2 | All Maps","protocol":17,"map":"koth_lakeside_final","folder":"tf","game":"Team Fortress","app_id":440,"player_count":0,"max_players":24,"Bots":0,"server_type":"Dedicated","server_os":"Linux","password":true,"vac":true,"version":"7961495","steam_id":85568392924469985,"keywords":["cp","nocrits","nodmgspread","uncletopia"],"game_id":440,"stv_port":27026,"stv_name":"Uncletopia | Chicago | 2 | All Maps | STV","players":null},{"server_id":402,"name":"Uncletopia | Chicago | 3 | All Maps","name_short":"chi-3","host":"chi-1.us.uncletopia.com","port":27035,"enabled":true,"region":"us-central","cc":"us","latitude":41.881832,"longitude":-87.62318,"reserved":0,"last_update":"0001-01-01T00:00:00Z","name_a2s":"Uncletopia | Chicago | 3 | All Maps","protocol":17,"map":"cp_dustbowl","folder":"tf","game":"Team Fortress","app_id":440,"player_count":0,"max_players":24,"Bots":0,"server_type":"Dedicated","server_os":"Linux","password":true,"vac":true,"version":"7961495","steam_id":85568392924515191,"keywords":["cp","nocrits","nodmgspread","uncletopia"],"game_id":440,"stv_port":27036,"stv_name":"Uncletopia | Chicago | 3 | All Maps | STV","players":null},{"server_id":403,"name":"Uncletopia | Chicago | 4 | All Maps","name_short":"chi-4","host":"chi-1.us.uncletopia.com","port":27045,"enabled":true,"region":"us-central","cc":"us","latitude":41.881832,"longitude":-87.62318,"reserved":0,"last_update":"0001-01-01T00:00:00Z","name_a2s":"Uncletopia | Chicago | 4 | All Maps","protocol":17,"map":"cp_sunshine","folder":"tf","game":"Team Fortress","app_id":440,"player_count":24,"max_players":24,"Bots":0,"server_type":"Dedicated","server_os":"Linux","password":true,"vac":true,"version":"7961495","steam_id":85568392924515193,"keywords":["cp","nocrits","nodmgspread","uncletopia"],"game_id":440,"stv_port":27046,"stv_name":"Uncletopia | Chicago | 4 | All Maps | STV","players":[{"user_id":266,"name":"ZeeKThe3rd","steam_id":76561198190156546,"connected_time":2642000000000,"state":"active","ping":90},{"user_id":307,"name":"Olitude","steam_id":76561199238964574,"connected_time":164000000000,"state":"active","ping":64},{"user_id":305,"name":"Socialist Warrior","steam_id":76561198085664421,"connected_time":436000000000,"state":"active","ping":52},{"user_id":284,"name":"jonpall","steam_id":76561198284054020,"connected_time":1307000000000,"state":"active","ping":101},{"user_id":296,"name":"dippidy","steam_id":76561198044219900,"connected_time":919000000000,"state":"active","ping":75},{"user_id":285,"name":"apcsmoore","steam_id":76561199124727793,"connected_time":1192000000000,"state":"active","ping":82},{"user_id":297,"name":"ඞ","steam_id":76561199365672047,"connected_time":840000000000,"state":"active","ping":82},{"user_id":274,"name":"Chevlanae","steam_id":76561198038180603,"connected_time":2248000000000,"state":"active","ping":60},{"user_id":298,"name":"zuma deluxe","steam_id":76561198059041027,"connected_time":835000000000,"state":"active","ping":103},{"user_id":303,"name":"BLØRG","steam_id":76561198036126673,"connected_time":693000000000,"state":"active","ping":78},{"user_id":299,"name":"Nathan","steam_id":76561199132214008,"connected_time":769000000000,"state":"active","ping":130},{"user_id":270,"name":"Window Licker #pride","steam_id":76561198386717007,"connected_time":2414000000000,"state":"active","ping":58},{"user_id":301,"name":"MALWARE9000","steam_id":76561198065238093,"connected_time":735000000000,"state":"active","ping":87},{"user_id":279,"name":"LumaDooma | LFT","steam_id":76561198076875817,"connected_time":1531000000000,"state":"active","ping":60},{"user_id":283,"name":"BLOW MY SPEAKERS UP","steam_id":76561198138221795,"connected_time":1337000000000,"state":"active","ping":74},{"user_id":302,"name":"Sentry Gun Main Man","steam_id":76561198327938247,"connected_time":734000000000,"state":"active","ping":86},{"user_id":293,"name":"Dynaben","steam_id":76561198046529673,"connected_time":1088000000000,"state":"active","ping":74},{"user_id":261,"name":"Khaicchi ♥","steam_id":76561198104454754,"connected_time":3181000000000,"state":"active","ping":169},{"user_id":300,"name":"Milkmur","steam_id":76561198210043821,"connected_time":766000000000,"state":"active","ping":69},{"user_id":290,"name":"Gary Budussy","steam_id":76561197969793969,"connected_time":1132000000000,"state":"active","ping":67},{"user_id":291,"name":"Chicken Nugget","steam_id":76561198152437646,"connected_time":1128000000000,"state":"active","ping":65},{"user_id":294,"name":"sentry turret","steam_id":76561198327057433,"connected_time":1070000000000,"state":"active","ping":89},{"user_id":308,"name":"BigBubble42","steam_id":76561198136286123,"connected_time":155000000000,"state":"active","ping":51},{"user_id":281,"name":"triple_range_merge","steam_id":76561198991225026,"connected_time":1419000000000,"state":"active","ping":68}]},{"server_id":36,"name":"Uncletopia | Chicago | 5 | All Maps","name_short":"chi-5","host":"chi-2.us.uncletopia.com","port":27015,"enabled":true,"region":"us-central","cc":"us","latitude":41.881832,"longitude":-87.62318,"reserved":0,"last_update":"0001-01-01T00:00:00Z","name_a2s":"Uncletopia | Chicago | 5 | All Maps","protocol":17,"map":"cp_mountainlab","folder":"tf","game":"Team Fortress","app_id":440,"player_count":0,"max_players":24,"Bots":0,"server_type":"Dedicated","server_os":"Linux","password":true,"vac":true,"version":"7961495","steam_id":85568392924866362,"keywords":["cp","nocrits","nodmgspread","uncletopia"],"game_id":440,"stv_port":27016,"stv_name":"Uncletopia | Chicago | 5 | All Maps | STV","players":null},{"server_id":37,"name":"Uncletopia | Chicago | 6 | All Maps","name_short":"chi-6","host":"chi-2.us.uncletopia.com","port":27025,"enabled":true,"region":"us-central","cc":"us","latitude":41.881832,"longitude":-87.62318,"reserved":0,"last_update":"0001-01-01T00:00:00Z","name_a2s":"Uncletopia | Chicago | 6 | All Maps","protocol":17,"map":"pl_frontier_final","folder":"tf","game":"Team Fortress","app_id":440,"player_count":0,"max_players":24,"Bots":0,"server_type":"Dedicated","server_os":"Linux","password":true,"vac":true,"version":"7961495","steam_id":85568392924866363,"keywords":["nocrits","nodmgspread","payload","uncletopia"],"game_id":440,"stv_port":27026,"stv_name":"Uncletopia | Chicago | 6 | All Maps | STV","players":null},{"server_id":38,"name":"Uncletopia | Chicago | 7 | Stopwatch","name_short":"chi-7","host":"chi-2.us.uncletopia.com","port":27035,"enabled":true,"region":"us-central","cc":"us","latitude":41.881832,"longitude":-87.62318,"reserved":0,"last_update":"0001-01-01T00:00:00Z","name_a2s":"Uncletopia | Chicago | 7 | Stopwatch","protocol":17,"map":"koth_highpass","folder":"tf","game":"Team Fortress","app_id":440,"player_count":0,"max_players":24,"Bots":0,"server_type":"Dedicated","server_os":"Linux","password":true,"vac":true,"version":"7961495","steam_id":85568392924866364,"keywords":["cp","nocrits","nodmgspread","uncletopia"],"game_id":440,"stv_port":27036,"stv_name":"Uncletopia | Chicago | 7 | Stopwatch | STV","players":null},{"server_id":39,"name":"Uncletopia | Chicago | 8 | Community","name_short":"chi-8","host":"chi-2.us.uncletopia.com","port":27045,"enabled":true,"region":"us-central","cc":"us","latitude":41.881832,"longitude":-87.62318,"reserved":0,"last_update":"0001-01-01T00:00:00Z","name_a2s":"Uncletopia | Chicago | 8 | Community","protocol":17,"map":"workshop/pl_emerge_rc2.ugc888027758","folder":"tf","game":"Team Fortress","app_id":440,"player_count":0,"max_players":24,"Bots":0,"server_type":"Dedicated","server_os":"Linux","password":true,"vac":true,"version":"7961495","steam_id":85568392924866365,"keywords":["nocrits","nodmgspread","payload","uncletopia"],"game_id":440,"stv_port":27046,"stv_name":"Uncletopia | Chicago | 8 | Community | STV","players":null},{"server_id":8,"name":"Uncletopia | Dallas | 1 | All Maps","name_short":"dal-1","host":"dal-1.us.uncletopia.com","port":27015,"enabled":true,"region":"us-central","cc":"us","latitude":32.779167,"longitude":-96.80889,"reserved":0,"last_update":"0001-01-01T00:00:00Z","name_a2s":"Uncletopia | Dallas | 1 | All Maps","protocol":17,"map":"pl_pier","folder":"tf","game":"Team Fortress","app_id":440,"player_count":23,"max_players":24,"Bots":0,"server_type":"Dedicated","server_os":"Linux","password":true,"vac":true,"version":"7961495","steam_id":85568392924469986,"keywords":["nocrits","nodmgspread","payload","uncletopia"],"game_id":440,"stv_port":27016,"stv_name":"Uncletopia | Dallas | 1 | All Maps | STV","players":[{"user_id":102,"name":"Kc","steam_id":76561198210734407,"connected_time":37000000000,"state":"active","ping":62},{"user_id":87,"name":"Yam Jazzy Jim","steam_id":76561198000788950,"connected_time":2390000000000,"state":"active","ping":75},{"user_id":97,"name":"Boingo","steam_id":76561199086931535,"connected_time":871000000000,"state":"active","ping":49},{"user_id":74,"name":"Crossing Jupiter","steam_id":76561198030126031,"connected_time":3278000000000,"state":"active","ping":66},{"user_id":95,"name":"M1C4A3L","steam_id":76561198009980085,"connected_time":1440000000000,"state":"active","ping":66},{"user_id":93,"name":"Dongus","steam_id":76561197979056451,"connected_time":1910000000000,"state":"active","ping":90},{"user_id":94,"name":"Sunshine On Me","steam_id":76561198042570322,"connected_time":1763000000000,"state":"active","ping":75},{"user_id":91,"name":"Kasimir","steam_id":76561198013840333,"connected_time":2017000000000,"state":"active","ping":65},{"user_id":101,"name":"Levi","steam_id":76561198089832776,"connected_time":53000000000,"state":"active","ping":58},{"user_id":77,"name":"Hazeyboi","steam_id":76561198130687838,"connected_time":3226000000000,"state":"active","ping":62},{"user_id":83,"name":"Boot Mcstink","steam_id":76561199226873917,"connected_time":2867000000000,"state":"active","ping":92},{"user_id":50,"name":"Kirby.exe","steam_id":76561198242714582,"connected_time":4816000000000,"state":"active","ping":70},{"user_id":86,"name":"Neptune˖⁺｡˚⋆˙♥","steam_id":76561199054203198,"connected_time":2581000000000,"state":"active","ping":84},{"user_id":92,"name":"snail2646","steam_id":76561198061411251,"connected_time":1994000000000,"state":"active","ping":80},{"user_id":82,"name":"Takitos013","steam_id":76561198802426576,"connected_time":2948000000000,"state":"active","ping":119},{"user_id":99,"name":"BLOCKHEAD","steam_id":76561198808224331,"connected_time":846000000000,"state":"active","ping":97},{"user_id":98,"name":"DMM","steam_id":76561198065426171,"connected_time":865000000000,"state":"active","ping":57},{"user_id":96,"name":"monkey squirts","steam_id":76561197983101644,"connected_time":887000000000,"state":"active","ping":75},{"user_id":58,"name":"Buswolley","steam_id":76561197995205571,"connected_time":4484000000000,"state":"active","ping":90},{"user_id":100,"name":"atomic clarence","steam_id":76561198156538484,"connected_time":248000000000,"state":"active","ping":84},{"user_id":88,"name":"GX thedittoguy","steam_id":76561199013129784,"connected_time":2065000000000,"state":"active","ping":48},{"user_id":34,"name":"DerpyNate","steam_id":76561198100249037,"connected_time":6841000000000,"state":"active","ping":66},{"user_id":38,"name":"(1)derpynate","steam_id":76561198111528473,"connected_time":6696000000000,"state":"active","ping":91}]},{"server_id":108,"name":"Uncletopia | Dallas | 2 | All Maps","name_short":"dal-2","host":"dal-1.us.uncletopia.com","port":27025,"enabled":true,"region":"us-central","cc":"us","latitude":32.779167,"longitude":-96.80889,"reserved":0,"last_update":"0001-01-01T00:00:00Z","name_a2s":"Uncletopia | Dallas | 2 | All Maps","protocol":17,"map":"pl_barnblitz","folder":"tf","game":"Team Fortress","app_id":440,"player_count":23,"max_players":24,"Bots":0,"server_type":"Dedicated","server_os":"Linux","password":true,"vac":true,"version":"7961495","steam_id":85568392924469988,"keywords":["nocrits","nodmgspread","payload","uncletopia"],"game_id":440,"stv_port":27026,"stv_name":"Uncletopia | Dallas | 2 | All Maps | STV","players":[{"user_id":490,"name":"Rat Bastard","steam_id":76561198153443658,"connected_time":1948000000000,"state":"active","ping":82},{"user_id":513,"name":"Avocol","steam_id":76561198974806341,"connected_time":43000000000,"state":"spawning","ping":104},{"user_id":497,"name":"trobin120","steam_id":76561199122420273,"connected_time":1530000000000,"state":"active","ping":78},{"user_id":498,"name":"Candy Sparkles","steam_id":76561198126871264,"connected_time":1522000000000,"state":"active","ping":102},{"user_id":508,"name":"Vorpas Jabwak","steam_id":76561198112186064,"connected_time":394000000000,"state":"active","ping":69},{"user_id":480,"name":"DylanGuy","steam_id":76561198800767851,"connected_time":2522000000000,"state":"active","ping":132},{"user_id":502,"name":"Mihalys","steam_id":76561198076645019,"connected_time":1329000000000,"state":"active","ping":39},{"user_id":481,"name":"shnowshner","steam_id":76561198066450438,"connected_time":2519000000000,"state":"active","ping":91},{"user_id":501,"name":"Garfield Expert","steam_id":76561198092452824,"connected_time":1340000000000,"state":"active","ping":127},{"user_id":509,"name":"Kanye Asada","steam_id":76561198186678831,"connected_time":334000000000,"state":"active","ping":76},{"user_id":487,"name":"aiko","steam_id":76561197970056960,"connected_time":2353000000000,"state":"active","ping":101},{"user_id":409,"name":"Dumpling","steam_id":76561198062763756,"connected_time":7951000000000,"state":"active","ping":75},{"user_id":484,"name":"inax","steam_id":76561198398677744,"connected_time":2478000000000,"state":"active","ping":119},{"user_id":478,"name":"dunker","steam_id":76561198066114874,"connected_time":2566000000000,"state":"active","ping":105},{"user_id":511,"name":"H2OBourne","steam_id":76561198396293109,"connected_time":154000000000,"state":"active","ping":58},{"user_id":514,"name":"Lilith","steam_id":76561198125102885,"connected_time":36000000000,"state":"active","ping":85},{"user_id":486,"name":"NormanVillage","steam_id":76561198330337371,"connected_time":2421000000000,"state":"active","ping":101},{"user_id":470,"name":"twizted","steam_id":76561197960407274,"connected_time":3167000000000,"state":"active","ping":123},{"user_id":510,"name":"5kPrime","steam_id":76561198039471915,"connected_time":321000000000,"state":"active","ping":87},{"user_id":476,"name":"NikoOS (NO SOUND)","steam_id":76561198180020521,"connected_time":2931000000000,"state":"spawning","ping":127},{"user_id":415,"name":"Abysa.","steam_id":76561198424398862,"connected_time":7773000000000,"state":"active","ping":306},{"user_id":460,"name":"Asfedia","steam_id":76561199386836351,"connected_time":3838000000000,"state":"active","ping":183},{"user_id":512,"name":"Anon","steam_id":76561198109740776,"connected_time":62000000000,"state":"active","ping":94}]},{"server_id":404,"name":"Uncletopia | Dallas | 3 | All Maps","name_short":"dal-3","host":"dal-1.us.uncletopia.com","port":27035,"enabled":true,"region":"us-central","cc":"us","latitude":32.779167,"longitude":-96.80889,"reserved":0,"last_update":"0001-01-01T00:00:00Z","name_a2s":"Uncletopia | Dallas | 3 | All Maps","protocol":17,"map":"pl_badwater","folder":"tf","game":"Team Fortress","app_id":440,"player_count":0,"max_players":24,"Bots":0,"server_type":"Dedicated","server_os":"Linux","password":true,"vac":true,"version":"7961495","steam_id":85568392924515219,"keywords":["nocrits","nodmgspread","payload","uncletopia"],"game_id":440,"stv_port":27036,"stv_name":"Uncletopia | Dallas | 3 | All Maps | STV","players":null},{"server_id":405,"name":"Uncletopia | Dallas | 4 | Community","name_short":"dal-4","host":"dal-1.us.uncletopia.com","port":27045,"enabled":true,"region":"us-central","cc":"us","latitude":32.779167,"longitude":-96.80889,"reserved":0,"last_update":"0001-01-01T00:00:00Z","name_a2s":"Uncletopia | Dallas | 4 | Community","protocol":17,"map":"pl_pier","folder":"tf","game":"Team Fortress","app_id":440,"player_count":0,"max_players":24,"Bots":0,"server_type":"Dedicated","server_os":"Linux","password":true,"vac":true,"version":"7961495","steam_id":85568392924515220,"keywords":["nocrits","nodmgspread","payload","uncletopia"],"game_id":440,"stv_port":27046,"stv_name":"Uncletopia | Dallas | 4 | Community | STV","players":null},{"server_id":5,"name":"Uncletopia | Frankfurt | 1 | All Maps","name_short":"frk-1","host":"frk-1.de.uncletopia.com","port":27015,"enabled":true,"region":"eu","cc":"de","latitude":50.110924,"longitude":8.682127,"reserved":0,"last_update":"0001-01-01T00:00:00Z","name_a2s":"Uncletopia | Frankfurt | 1 | All Maps","protocol":17,"map":"pl_barnblitz","folder":"tf","game":"Team Fortress","app_id":440,"player_count":24,"max_players":24,"Bots":0,"server_type":"Dedicated","server_os":"Linux","password":true,"vac":true,"version":"7961495","steam_id":85568392924469989,"keywords":["nocrits","nodmgspread","payload","uncletopia"],"game_id":440,"stv_port":27016,"stv_name":"Uncletopia | Frankfurt | 1 | All Maps | STV","players":[{"user_id":306,"name":"PixelVader","steam_id":76561198034195553,"connected_time":4493000000000,"state":"active","ping":43},{"user_id":344,"name":"w presser","steam_id":76561197994600818,"connected_time":857000000000,"state":"active","ping":46},{"user_id":345,"name":"hananamanna","steam_id":76561198006570285,"connected_time":819000000000,"state":"active","ping":108},{"user_id":323,"name":"Luuk","steam_id":76561198088266026,"connected_time":2746000000000,"state":"active","ping":55},{"user_id":287,"name":"Hexagon","steam_id":76561198151205758,"connected_time":5506000000000,"state":"active","ping":52},{"user_id":324,"name":"Sand","steam_id":76561198103761268,"connected_time":2626000000000,"state":"active","ping":51},{"user_id":341,"name":"hasky","steam_id":76561197986052798,"connected_time":1117000000000,"state":"active","ping":81},{"user_id":343,"name":"Snd","steam_id":76561198010816408,"connected_time":862000000000,"state":"active","ping":105},{"user_id":346,"name":"Meat Dragon","steam_id":76561198120319256,"connected_time":784000000000,"state":"active","ping":149},{"user_id":339,"name":"tony","steam_id":76561199382978934,"connected_time":1366000000000,"state":"active","ping":78},{"user_id":348,"name":"=OKB= P4NTH3R","steam_id":76561197999204603,"connected_time":672000000000,"state":"active","ping":58},{"user_id":347,"name":"Brrpstr","steam_id":76561198394221491,"connected_time":768000000000,"state":"active","ping":61},{"user_id":349,"name":"rets_","steam_id":76561198061551392,"connected_time":657000000000,"state":"active","ping":47},{"user_id":335,"name":"ouchie wouchies","steam_id":76561198105443986,"connected_time":1511000000000,"state":"active","ping":79},{"user_id":312,"name":"finbar","steam_id":76561198056812396,"connected_time":3898000000000,"state":"active","ping":75},{"user_id":325,"name":"FoOzTV","steam_id":76561197998636728,"connected_time":2448000000000,"state":"active","ping":71},{"user_id":289,"name":"High School Nudical","steam_id":76561198172120615,"connected_time":5391000000000,"state":"active","ping":119},{"user_id":340,"name":"Bob the Juicer","steam_id":76561198284932136,"connected_time":1191000000000,"state":"active","ping":84},{"user_id":332,"name":"Fu Manchu","steam_id":76561197995224539,"connected_time":1726000000000,"state":"active","ping":78},{"user_id":290,"name":"sokige","steam_id":76561198167112371,"connected_time":5391000000000,"state":"active","ping":97},{"user_id":350,"name":"Ziomek","steam_id":76561199131735098,"connected_time":624000000000,"state":"active","ping":80},{"user_id":351,"name":"Stupid Sexy Flanders #Save tf2","steam_id":76561198136311983,"connected_time":10000000000,"state":"spawning","ping":166},{"user_id":319,"name":"Frenk2.0","steam_id":76561198974256814,"connected_time":3679000000000,"state":"active","ping":79},{"user_id":328,"name":"Tree","steam_id":76561198054795379,"connected_time":2183000000000,"state":"active","ping":53}]},{"server_id":110,"name":"Uncletopia | Frankfurt | 2 | All Maps","name_short":"frk-2","host":"frk-1.de.uncletopia.com","port":27025,"enabled":true,"region":"eu","cc":"de","latitude":50.110924,"longitude":8.682127,"reserved":0,"last_update":"0001-01-01T00:00:00Z","name_a2s":"Uncletopia | Frankfurt | 2 | All Maps","protocol":17,"map":"pl_borneo","folder":"tf","game":"Team Fortress","app_id":440,"player_count":24,"max_players":24,"Bots":0,"server_type":"Dedicated","server_os":"Linux","password":true,"vac":true,"version":"7961495","steam_id":85568392924469990,"keywords":["nocrits","nodmgspread","payload","uncletopia"],"game_id":440,"stv_port":27026,"stv_name":"Uncletopia | Frankfurt | 2 | All Maps | STV","players":[{"user_id":347,"name":"Vitun vittu","steam_id":76561198110679463,"connected_time":1422000000000,"state":"active","ping":75},{"user_id":319,"name":"Juju Non","steam_id":76561199415989636,"connected_time":3085000000000,"state":"active","ping":90},{"user_id":361,"name":"Iron Sheik","steam_id":76561198069980923,"connected_time":1010000000000,"state":"active","ping":128},{"user_id":305,"name":"Egor Pomidor","steam_id":76561199175688390,"connected_time":3886000000000,"state":"active","ping":75},{"user_id":316,"name":"[Sheep] Tomco","steam_id":76561198388549261,"connected_time":3379000000000,"state":"active","ping":69},{"user_id":367,"name":"Gold","steam_id":76561198071111501,"connected_time":625000000000,"state":"active","ping":56},{"user_id":371,"name":"Finem Belli","steam_id":76561198227177976,"connected_time":84000000000,"state":"active","ping":45},{"user_id":289,"name":"Ω","steam_id":76561199088570961,"connected_time":4841000000000,"state":"active","ping":196},{"user_id":348,"name":"Seb, Comrade","steam_id":76561198040279587,"connected_time":1405000000000,"state":"active","ping":99},{"user_id":359,"name":"Ynss","steam_id":76561198021472798,"connected_time":1038000000000,"state":"active","ping":61},{"user_id":333,"name":"fawn","steam_id":76561198440195402,"connected_time":2120000000000,"state":"active","ping":58},{"user_id":370,"name":"TTV_SoundDeSpencer","steam_id":76561198053181786,"connected_time":415000000000,"state":"active","ping":57},{"user_id":363,"name":"TrollFace","steam_id":76561198799317717,"connected_time":830000000000,"state":"active","ping":110},{"user_id":355,"name":"Arsonist","steam_id":76561199087953833,"connected_time":1215000000000,"state":"active","ping":112},{"user_id":365,"name":"Kahvi","steam_id":76561198723244199,"connected_time":676000000000,"state":"active","ping":88},{"user_id":369,"name":"Cardamine","steam_id":76561198100619314,"connected_time":522000000000,"state":"active","ping":70},{"user_id":341,"name":"in space the raccoons liquify","steam_id":76561198031498341,"connected_time":1915000000000,"state":"active","ping":69},{"user_id":343,"name":"Gator","steam_id":76561198065624683,"connected_time":1792000000000,"state":"active","ping":91},{"user_id":366,"name":"Gugu gaga","steam_id":76561198161822358,"connected_time":650000000000,"state":"active","ping":56},{"user_id":354,"name":"moseley519","steam_id":76561198045485374,"connected_time":1237000000000,"state":"active","ping":57},{"user_id":356,"name":"Capitan Boba","steam_id":76561198058624532,"connected_time":1212000000000,"state":"active","ping":64},{"user_id":357,"name":"Pan Pan","steam_id":76561199074670515,"connected_time":1202000000000,"state":"active","ping":260},{"user_id":358,"name":"brad","steam_id":76561198097715734,"connected_time":1202000000000,"state":"active","ping":179},{"user_id":368,"name":"Tekky☻","steam_id":76561197990987315,"connected_time":551000000000,"state":"active","ping":57}]},{"server_id":308,"name":"Uncletopia | Frankfurt | 3 | All Maps","name_short":"frk-3","host":"frk-1.de.uncletopia.com","port":27035,"enabled":true,"region":"eu","cc":"de","latitude":50.110924,"longitude":8.682127,"reserved":0,"last_update":"0001-01-01T00:00:00Z","name_a2s":"Uncletopia | Frankfurt | 3 | All Maps","protocol":17,"map":"koth_harvest_final","folder":"tf","game":"Team Fortress","app_id":440,"player_count":24,"max_players":24,"Bots":0,"server_type":"Dedicated","server_os":"Linux","password":true,"vac":true,"version":"7961495","steam_id":85568392924504274,"keywords":["cp","nocrits","nodmgspread","uncletopia"],"game_id":440,"stv_port":27036,"stv_name":"Uncletopia | Frankfurt | 3 | All Maps | STV","players":[{"user_id":540,"name":"Pilaarius","steam_id":76561198120273212,"connected_time":1328000000000,"state":"active","ping":93},{"user_id":532,"name":"Fidacha","steam_id":76561198003060881,"connected_time":2003000000000,"state":"active","ping":58},{"user_id":542,"name":"$kelly","steam_id":76561198195270894,"connected_time":1308000000000,"state":"active","ping":72},{"user_id":549,"name":"Mr. Fox","steam_id":76561198803610709,"connected_time":739000000000,"state":"active","ping":121},{"user_id":554,"name":"Jucatron","steam_id":76561198044259577,"connected_time":84000000000,"state":"active","ping":86},{"user_id":486,"name":"Bajas","steam_id":76561198179339326,"connected_time":4632000000000,"state":"active","ping":77},{"user_id":546,"name":"demoman","steam_id":76561198046170435,"connected_time":834000000000,"state":"active","ping":57},{"user_id":555,"name":"Goblineer","steam_id":76561198442888935,"connected_time":81000000000,"state":"active","ping":72},{"user_id":531,"name":"Lord Philip","steam_id":76561198277097779,"connected_time":2022000000000,"state":"active","ping":75},{"user_id":538,"name":"Just Navlis (on the scoreboard)","steam_id":76561198090479609,"connected_time":1432000000000,"state":"active","ping":44},{"user_id":551,"name":"generic manga girl","steam_id":76561198031573426,"connected_time":597000000000,"state":"active","ping":70},{"user_id":395,"name":"f4f_cricket","steam_id":76561197985879993,"connected_time":10445000000000,"state":"active","ping":71},{"user_id":556,"name":"SantiTzePug","steam_id":76561199049615996,"connected_time":74000000000,"state":"active","ping":72},{"user_id":557,"name":"Bobo","steam_id":76561198052308399,"connected_time":0,"state":"spawning","ping":0},{"user_id":552,"name":"Bobirulez","steam_id":76561198009125458,"connected_time":92000000000,"state":"active","ping":75},{"user_id":543,"name":"smalldolmar","steam_id":76561198028041542,"connected_time":1297000000000,"state":"active","ping":71},{"user_id":539,"name":"uhudla","steam_id":76561198058012525,"connected_time":1425000000000,"state":"active","ping":52},{"user_id":541,"name":"Lyncurion","steam_id":76561199260022725,"connected_time":1324000000000,"state":"active","ping":72},{"user_id":548,"name":"Roof Rat","steam_id":76561198136475073,"connected_time":747000000000,"state":"active","ping":147},{"user_id":550,"name":"xavier","steam_id":76561198076494034,"connected_time":639000000000,"state":"active","ping":55},{"user_id":526,"name":"Landeyx","steam_id":76561198126640158,"connected_time":2548000000000,"state":"active","ping":77},{"user_id":534,"name":"Nozzo","steam_id":76561198012367783,"connected_time":1984000000000,"state":"active","ping":74},{"user_id":535,"name":"I am on the TF2 Scoreboard...","steam_id":76561198043850884,"connected_time":1827000000000,"state":"active","ping":68},{"user_id":537,"name":"disposablesuperbread","steam_id":76561199074703607,"connected_time":1475000000000,"state":"active","ping":69}]},{"server_id":309,"name":"Uncletopia | Frankfurt | 4 | All Maps","name_short":"frk-4","host":"frk-1.de.uncletopia.com","port":27045,"enabled":true,"region":"eu","cc":"de","latitude":50.110924,"longitude":8.682127,"reserved":0,"last_update":"0001-01-01T00:00:00Z","name_a2s":"Uncletopia | Frankfurt | 4 | All Maps","protocol":17,"map":"pl_frontier_final","folder":"tf","game":"Team Fortress","app_id":440,"player_count":24,"max_players":24,"Bots":0,"server_type":"Dedicated","server_os":"Linux","password":true,"vac":true,"version":"7961495","steam_id":85568392924504275,"keywords":["nocrits","nodmgspread","payload","uncletopia"],"game_id":440,"stv_port":27046,"stv_name":"Uncletopia | Frankfurt | 4 | All Maps | STV","players":[{"user_id":159,"name":"ÃNVS DRÃNVS","steam_id":76561198138733015,"connected_time":341000000000,"state":"active","ping":108},{"user_id":160,"name":"PrinzAnalFaust","steam_id":76561198136407626,"connected_time":88000000000,"state":"active","ping":66},{"user_id":161,"name":"3igen3ggy","steam_id":76561197989548015,"connected_time":82000000000,"state":"active","ping":66},{"user_id":117,"name":"GAJtheSPY","steam_id":76561198256080023,"connected_time":3099000000000,"state":"active","ping":68},{"user_id":108,"name":"mohemmedmokhter2005","steam_id":76561199197650506,"connected_time":3333000000000,"state":"active","ping":99},{"user_id":158,"name":"DeleteTrickster","steam_id":76561198397120242,"connected_time":440000000000,"state":"active","ping":70},{"user_id":145,"name":"lulu","steam_id":76561199147764133,"connected_time":1160000000000,"state":"active","ping":73},{"user_id":151,"name":"emkoç","steam_id":76561198846782346,"connected_time":975000000000,"state":"active","ping":106},{"user_id":91,"name":"Largo","steam_id":76561198844368927,"connected_time":5056000000000,"state":"active","ping":74},{"user_id":105,"name":"Accident","steam_id":76561198115160396,"connected_time":3844000000000,"state":"active","ping":69},{"user_id":110,"name":"envy728","steam_id":76561199076596597,"connected_time":3282000000000,"state":"active","ping":89},{"user_id":119,"name":"Stuid","steam_id":76561199427506542,"connected_time":2767000000000,"state":"active","ping":78},{"user_id":112,"name":"Megafrox","steam_id":76561199091818724,"connected_time":3244000000000,"state":"active","ping":100},{"user_id":152,"name":"piers morgan (black lesbian)","steam_id":76561199401283123,"connected_time":974000000000,"state":"active","ping":66},{"user_id":147,"name":"hhhhhh","steam_id":76561198031982574,"connected_time":1087000000000,"state":"active","ping":58},{"user_id":104,"name":"bilgobaggings","steam_id":76561198041520751,"connected_time":3854000000000,"state":"active","ping":58},{"user_id":114,"name":"kryhu","steam_id":76561198293327713,"connected_time":3231000000000,"state":"active","ping":63},{"user_id":120,"name":"Master Of Noob","steam_id":76561198217926783,"connected_time":2598000000000,"state":"active","ping":68},{"user_id":155,"name":"Mayor Wank from Wanker Town","steam_id":76561197998253588,"connected_time":882000000000,"state":"active","ping":51},{"user_id":156,"name":"Dark","steam_id":76561199162752036,"connected_time":643000000000,"state":"active","ping":75},{"user_id":162,"name":"zeppa114","steam_id":76561198065192734,"connected_time":8000000000,"state":"active","ping":59},{"user_id":143,"name":"Carol Olston","steam_id":76561198080257273,"connected_time":1415000000000,"state":"active","ping":56},{"user_id":131,"name":"FPFP","steam_id":76561198026073059,"connected_time":2146000000000,"state":"active","ping":74},{"user_id":150,"name":"Derkveder","steam_id":76561199205553813,"connected_time":1032000000000,"state":"active","ping":48}]},{"server_id":310,"name":"Uncletopia | Frankfurt | 5 | All Maps","name_short":"frk-5","host":"frk-1.de.uncletopia.com","port":27055,"enabled":true,"region":"eu","cc":"de","latitude":50.110924,"longitude":8.682127,"reserved":0,"last_update":"0001-01-01T00:00:00Z","name_a2s":"Uncletopia | Frankfurt | 5 | All Maps","protocol":17,"map":"pl_goldrush","folder":"tf","game":"Team Fortress","app_id":440,"player_count":24,"max_players":24,"Bots":0,"server_type":"Dedicated","server_os":"Linux","password":true,"vac":true,"version":"7961495","steam_id":85568392924504277,"keywords":["nocrits","nodmgspread","payload","uncletopia"],"game_id":440,"stv_port":27056,"stv_name":"Uncletopia | Frankfurt | 5 | All Maps | STV","players":[{"user_id":425,"name":"Archive","steam_id":76561198071255385,"connected_time":464000000000,"state":"active","ping":80},{"user_id":399,"name":"MargoulGetron","steam_id":76561198020551698,"connected_time":1840000000000,"state":"active","ping":62},{"user_id":382,"name":"Infinite Byakugan","steam_id":76561198841884465,"connected_time":2322000000000,"state":"active","ping":64},{"user_id":417,"name":"BasedCringe 7s1","steam_id":76561199074196833,"connected_time":957000000000,"state":"active","ping":100},{"user_id":386,"name":"Real (Real)","steam_id":76561198323425034,"connected_time":2096000000000,"state":"active","ping":76},{"user_id":388,"name":"neJ","steam_id":76561198003397488,"connected_time":2056000000000,"state":"active","ping":68},{"user_id":406,"name":"Stan Álvarez (Satan)","steam_id":76561198045538223,"connected_time":1654000000000,"state":"active","ping":58},{"user_id":383,"name":"I I","steam_id":76561199101935057,"connected_time":2312000000000,"state":"active","ping":96},{"user_id":343,"name":"Matbanan","steam_id":76561198228537672,"connected_time":4936000000000,"state":"active","ping":88},{"user_id":381,"name":"Daemon","steam_id":76561198007015109,"connected_time":2336000000000,"state":"active","ping":59},{"user_id":349,"name":"Teddy bear on steriods","steam_id":76561198303852438,"connected_time":4625000000000,"state":"active","ping":77},{"user_id":390,"name":"Soerlssoelssöen","steam_id":76561197993060585,"connected_time":2005000000000,"state":"active","ping":71},{"user_id":391,"name":"SalCrabber deluxe","steam_id":76561198275942961,"connected_time":2000000000000,"state":"active","ping":52},{"user_id":419,"name":"Ne","steam_id":76561198209179481,"connected_time":779000000000,"state":"active","ping":83},{"user_id":392,"name":"Maddox","steam_id":76561198026419869,"connected_time":1991000000000,"state":"active","ping":70},{"user_id":412,"name":"Schwitz","steam_id":76561198262034811,"connected_time":1470000000000,"state":"active","ping":75},{"user_id":413,"name":"123","steam_id":76561198084517952,"connected_time":1321000000000,"state":"active","ping":64},{"user_id":363,"name":"Just a baby","steam_id":76561198018660838,"connected_time":3944000000000,"state":"active","ping":164},{"user_id":423,"name":"LowRender3","steam_id":76561199491761622,"connected_time":571000000000,"state":"active","ping":96},{"user_id":371,"name":"Carrot","steam_id":76561198119340863,"connected_time":3196000000000,"state":"active","ping":51},{"user_id":52,"name":"else1","steam_id":76561197996558319,"connected_time":25647000000000,"state":"active","ping":76},{"user_id":426,"name":"David \"Crash\" Murphy","steam_id":76561198292845505,"connected_time":455000000000,"state":"active","ping":88},{"user_id":415,"name":"juni","steam_id":76561198036504214,"connected_time":1186000000000,"state":"active","ping":45},{"user_id":408,"name":"mindas","steam_id":76561198056839438,"connected_time":1623000000000,"state":"active","ping":64}]},{"server_id":311,"name":"Uncletopia | Frankfurt | 6 | All Maps","name_short":"frk-6","host":"frk-1.de.uncletopia.com","port":27065,"enabled":true,"region":"eu","cc":"de","latitude":50.110924,"longitude":8.682127,"reserved":0,"last_update":"0001-01-01T00:00:00Z","name_a2s":"Uncletopia | Frankfurt | 6 | All Maps","protocol":17,"map":"pl_swiftwater_final1","folder":"tf","game":"Team Fortress","app_id":440,"player_count":23,"max_players":24,"Bots":0,"server_type":"Dedicated","server_os":"Linux","password":true,"vac":true,"version":"7961495","steam_id":85568392924504278,"keywords":["nocrits","nodmgspread","payload","uncletopia"],"game_id":440,"stv_port":27066,"stv_name":"Uncletopia | Frankfurt | 6 | All Maps | STV","players":[{"user_id":379,"name":"DwarfInYou","steam_id":76561198966341795,"connected_time":1535000000000,"state":"active","ping":48},{"user_id":355,"name":"♬KℑUQî♬","steam_id":76561198285224042,"connected_time":2949000000000,"state":"active","ping":90},{"user_id":337,"name":"Lewylow","steam_id":76561198005425686,"connected_time":4254000000000,"state":"active","ping":69},{"user_id":383,"name":"i have an allergy to swords","steam_id":76561198148380643,"connected_time":1465000000000,"state":"active","ping":90},{"user_id":380,"name":"HLRaven","steam_id":76561198118543239,"connected_time":1507000000000,"state":"active","ping":86},{"user_id":400,"name":"ok","steam_id":76561198345276295,"connected_time":650000000000,"state":"active","ping":57},{"user_id":387,"name":"KlomboFan","steam_id":76561198108851389,"connected_time":1422000000000,"state":"active","ping":60},{"user_id":382,"name":"anBlaise","steam_id":76561198108148863,"connected_time":1479000000000,"state":"active","ping":75},{"user_id":397,"name":"Swift","steam_id":76561197998799889,"connected_time":998000000000,"state":"active","ping":60},{"user_id":406,"name":"BunkFunker","steam_id":76561198391432433,"connected_time":355000000000,"state":"active","ping":189},{"user_id":408,"name":"mama's lil pride and joy","steam_id":76561198051852765,"connected_time":149000000000,"state":"active","ping":60},{"user_id":409,"name":"Rob","steam_id":76561198234139612,"connected_time":135000000000,"state":"active","ping":77},{"user_id":385,"name":"Ink in veins","steam_id":76561199082262091,"connected_time":1423000000000,"state":"active","ping":79},{"user_id":370,"name":"uNem0_","steam_id":76561198836442412,"connected_time":2322000000000,"state":"active","ping":91},{"user_id":399,"name":"The Daniella","steam_id":76561198023075547,"connected_time":737000000000,"state":"active","ping":65},{"user_id":353,"name":"Sza","steam_id":76561198022132105,"connected_time":3422000000000,"state":"active","ping":58},{"user_id":407,"name":"Snarkface","steam_id":76561198104271173,"connected_time":271000000000,"state":"active","ping":85},{"user_id":394,"name":"♂ MGE ♂ PUPSIK ♂","steam_id":76561198308302932,"connected_time":1308000000000,"state":"active","ping":97},{"user_id":404,"name":"Aaron","steam_id":76561197990046953,"connected_time":593000000000,"state":"active","ping":75},{"user_id":389,"name":"Doritoshredder","steam_id":76561198826710752,"connected_time":1362000000000,"state":"active","ping":117},{"user_id":391,"name":"TidB","steam_id":76561198055342304,"connected_time":1354000000000,"state":"active","ping":59},{"user_id":395,"name":"bleuthoot","steam_id":76561198080591941,"connected_time":1293000000000,"state":"active","ping":48},{"user_id":405,"name":"Thors","steam_id":76561197968739075,"connected_time":581000000000,"state":"active","ping":49}]},{"server_id":23,"name":"Uncletopia | Frankfurt | 7 | Stopwatch","name_short":"frk-7","host":"frk-1.de.uncletopia.com","port":27075,"enabled":true,"region":"eu","cc":"de","latitude":50.110924,"longitude":8.682127,"reserved":0,"last_update":"0001-01-01T00:00:00Z","name_a2s":"Uncletopia | Frankfurt | 7 | Stopwatch","protocol":17,"map":"workshop/koth_product_final.ugc454272353","folder":"tf","game":"Team Fortress","app_id":440,"player_count":10,"max_players":24,"Bots":0,"server_type":"Dedicated","server_os":"Linux","password":true,"vac":true,"version":"7961495","steam_id":85568392924742827,"keywords":["cp","nocrits","nodmgspread","uncletopia"],"game_id":440,"stv_port":27076,"stv_name":"Uncletopia | Frankfurt | 7 | Stopwatch | STV","players":[{"user_id":153,"name":"Major","steam_id":76561198086483282,"connected_time":112000000000,"state":"active","ping":60},{"user_id":138,"name":"Bhast","steam_id":76561198071620021,"connected_time":1701000000000,"state":"active","ping":74},{"user_id":149,"name":"SaSSolino","steam_id":76561198011308018,"connected_time":936000000000,"state":"active","ping":45},{"user_id":145,"name":"dogot","steam_id":76561198880890519,"connected_time":1278000000000,"state":"active","ping":79},{"user_id":147,"name":"[P-roc] BadJacKS","steam_id":76561197972666377,"connected_time":1079000000000,"state":"active","ping":60},{"user_id":151,"name":"Domingo El Chapenze Alvarez","steam_id":76561198199094173,"connected_time":486000000000,"state":"active","ping":67},{"user_id":154,"name":"Kabajsa","steam_id":76561198111264439,"connected_time":57000000000,"state":"active","ping":84},{"user_id":155,"name":"Nithle","steam_id":76561198025372740,"connected_time":16000000000,"state":"active","ping":48},{"user_id":156,"name":"Grill","steam_id":76561198084040844,"connected_time":12000000000,"state":"spawning","ping":440},{"user_id":85,"name":"EEEEEH","steam_id":76561198126717413,"connected_time":3948000000000,"state":"active","ping":75}]},{"server_id":24,"name":"Uncletopia | Frankfurt | 8 | Community","name_short":"frk-8","host":"frk-1.de.uncletopia.com","port":27085,"enabled":true,"region":"eu","cc":"de","latitude":50.110924,"longitude":8.682127,"reserved":0,"last_update":"0001-01-01T00:00:00Z","name_a2s":"Uncletopia | Frankfurt | 8 | Community","protocol":17,"map":"workshop/pl_emerge_rc2.ugc888027758","folder":"tf","game":"Team Fortress","app_id":440,"player_count":0,"max_players":24,"Bots":0,"server_type":"Dedicated","server_os":"Linux","password":true,"vac":true,"version":"7961495","steam_id":85568392924742828,"keywords":["nocrits","nodmgspread","payload","uncletopia"],"game_id":440,"stv_port":27086,"stv_name":"Uncletopia | Frankfurt | 8 | Community | STV","players":null},{"server_id":202,"name":"Uncletopia | Hong Kong | 1 | All Maps","name_short":"hgk-1","host":"hgk-1.hk.uncletopia.com","port":27015,"enabled":true,"region":"asia","cc":"hk","latitude":22.302711,"longitude":114.177216,"reserved":0,"last_update":"0001-01-01T00:00:00Z","name_a2s":"Uncletopia | Hong Kong | 1 | All Maps","protocol":17,"map":"koth_highpass","folder":"tf","game":"Team Fortress","app_id":440,"player_count":0,"max_players":24,"Bots":0,"server_type":"Dedicated","server_os":"Linux","password":true,"vac":true,"version":"7961495","steam_id":85568392924494504,"keywords":["cp","nocrits","nodmgspread","uncletopia"],"game_id":440,"stv_port":27016,"stv_name":"Uncletopia | Hong Kong | 1 | All Maps | STV","players":null},{"server_id":1,"name":"Uncletopia | Los Angeles | 1 | All Maps","name_short":"lax-1","host":"lax-1.us.uncletopia.com","port":27015,"enabled":true,"region":"us-west","cc":"us","latitude":33.94279,"longitude":-118.41004,"reserved":0,"last_update":"0001-01-01T00:00:00Z","name_a2s":"Uncletopia | Los Angeles | 1 | All Maps","protocol":17,"map":"koth_highpass","folder":"tf","game":"Team Fortress","app_id":440,"player_count":0,"max_players":24,"Bots":0,"server_type":"Dedicated","server_os":"Linux","password":true,"vac":true,"version":"7961495","steam_id":85568392924469991,"keywords":["cp","nocrits","nodmgspread","uncletopia"],"game_id":440,"stv_port":27016,"stv_name":"Uncletopia | Los Angeles | 1 | All Maps | STV","players":null},{"server_id":112,"name":"Uncletopia | Los Angeles | 2 | All Maps","name_short":"lax-2","host":"lax-1.us.uncletopia.com","port":27025,"enabled":true,"region":"us-west","cc":"us","latitude":33.94279,"longitude":-118.41004,"reserved":0,"last_update":"0001-01-01T00:00:00Z","name_a2s":"Uncletopia | Los Angeles | 2 | All Maps","protocol":17,"map":"cp_steel","folder":"tf","game":"Team Fortress","app_id":440,"player_count":6,"max_players":24,"Bots":0,"server_type":"Dedicated","server_os":"Linux","password":true,"vac":true,"version":"7961495","steam_id":85568392924469992,"keywords":["cp","nocrits","nodmgspread","uncletopia"],"game_id":440,"stv_port":27026,"stv_name":"Uncletopia | Los Angeles | 2 | All Maps | STV","players":[{"user_id":7,"name":"Mom","steam_id":76561198207936000,"connected_time":1236000000000,"state":"active","ping":43},{"user_id":4,"name":"Birdman743","steam_id":76561198799636748,"connected_time":2581000000000,"state":"active","ping":82},{"user_id":10,"name":"FunnyGoomba","steam_id":76561198279865229,"connected_time":501000000000,"state":"active","ping":69},{"user_id":11,"name":"Gay Dementia","steam_id":76561199118096866,"connected_time":475000000000,"state":"active","ping":173},{"user_id":13,"name":"YellowSQUID","steam_id":76561198123259414,"connected_time":179000000000,"state":"active","ping":61},{"user_id":14,"name":"keffers","steam_id":76561198202338796,"connected_time":147000000000,"state":"active","ping":92}]},{"server_id":324,"name":"Uncletopia | Los Angeles | 3 | All Maps","name_short":"lax-3","host":"lax-1.us.uncletopia.com","port":27035,"enabled":true,"region":"us-west","cc":"us","latitude":33.94279,"longitude":-118.41004,"reserved":0,"last_update":"0001-01-01T00:00:00Z","name_a2s":"Uncletopia | Los Angeles | 3 | All Maps","protocol":17,"map":"pl_frontier_final","folder":"tf","game":"Team Fortress","app_id":440,"player_count":0,"max_players":24,"Bots":0,"server_type":"Dedicated","server_os":"Linux","password":true,"vac":true,"version":"7961495","steam_id":85568392924510198,"keywords":["nocrits","nodmgspread","payload","uncletopia"],"game_id":440,"stv_port":27036,"stv_name":"Uncletopia | Los Angeles | 3 | All Maps | STV","players":null},{"server_id":25,"name":"Uncletopia | Los Angeles | 4 | Stopwatch","name_short":"lax-4","host":"lax-1.us.uncletopia.com","port":27045,"enabled":true,"region":"us-west","cc":"us","latitude":33.94279,"longitude":-118.41004,"reserved":0,"last_update":"0001-01-01T00:00:00Z","name_a2s":"Uncletopia | Los Angeles | 4 | Stopwatch","protocol":17,"map":"pl_barnblitz","folder":"tf","game":"Team Fortress","app_id":440,"player_count":0,"max_players":24,"Bots":0,"server_type":"Dedicated","server_os":"Linux","password":true,"vac":true,"version":"7961495","steam_id":85568392924510199,"keywords":["nocrits","nodmgspread","payload","uncletopia"],"game_id":440,"stv_port":27046,"stv_name":"Uncletopia | Los Angeles | 4 | Stopwatch | STV","players":null},{"server_id":11,"name":"Uncletopia | London | 1 | All Maps","name_short":"lon-1","host":"lon-1.uk.uncletopia.com","port":27015,"enabled":true,"region":"eu","cc":"gb","latitude":51.509865,"longitude":-0.118092,"reserved":0,"last_update":"0001-01-01T00:00:00Z","name_a2s":"Uncletopia | London | 1 | All Maps","protocol":17,"map":"cp_mercenarypark","folder":"tf","game":"Team Fortress","app_id":440,"player_count":24,"max_players":24,"Bots":0,"server_type":"Dedicated","server_os":"Linux","password":true,"vac":true,"version":"7961495","steam_id":85568392924367362,"keywords":["cp","nocrits","nodmgspread","uncletopia"],"game_id":440,"stv_port":27016,"stv_name":"Uncletopia | London | 1 | All Maps | STV","players":[{"user_id":314,"name":"gibb (official)","steam_id":76561198074097655,"connected_time":8389000000000,"state":"active","ping":60},{"user_id":347,"name":"shooer!","steam_id":76561198110531281,"connected_time":6444000000000,"state":"active","ping":69},{"user_id":413,"name":"skill","steam_id":76561198106012909,"connected_time":1046000000000,"state":"active","ping":83},{"user_id":362,"name":"jaydan122330","steam_id":76561199089340800,"connected_time":5769000000000,"state":"active","ping":57},{"user_id":377,"name":"biohazard.pt","steam_id":76561198088367808,"connected_time":4236000000000,"state":"active","ping":67},{"user_id":422,"name":"Minimi","steam_id":76561198873850443,"connected_time":871000000000,"state":"active","ping":75},{"user_id":398,"name":"Qdarks","steam_id":76561198013391340,"connected_time":1597000000000,"state":"active","ping":169},{"user_id":395,"name":"⸸aura⸸","steam_id":76561198066258544,"connected_time":1677000000000,"state":"active","ping":62},{"user_id":378,"name":"Slifer the BIG SHOT","steam_id":76561198062255803,"connected_time":4077000000000,"state":"active","ping":68},{"user_id":423,"name":"robbie","steam_id":76561198798195287,"connected_time":868000000000,"state":"active","ping":47},{"user_id":363,"name":"GoblinGaming","steam_id":76561198360395476,"connected_time":5517000000000,"state":"active","ping":46},{"user_id":320,"name":"kaelan","steam_id":76561198001425310,"connected_time":8264000000000,"state":"active","ping":74},{"user_id":358,"name":"doctor sex","steam_id":76561198029044617,"connected_time":6075000000000,"state":"active","ping":50},{"user_id":391,"name":"trite","steam_id":76561197983765323,"connected_time":2272000000000,"state":"active","ping":50},{"user_id":372,"name":"My honest reaction","steam_id":76561198079277466,"connected_time":5150000000000,"state":"active","ping":71},{"user_id":300,"name":"Aven","steam_id":76561198974343597,"connected_time":8984000000000,"state":"active","ping":80},{"user_id":359,"name":"bug100","steam_id":76561198043601838,"connected_time":5917000000000,"state":"active","ping":74},{"user_id":355,"name":"Spanns","steam_id":76561197998349793,"connected_time":6133000000000,"state":"active","ping":66},{"user_id":392,"name":"flappi","steam_id":76561198072892783,"connected_time":2267000000000,"state":"active","ping":62},{"user_id":388,"name":"Vanilla Autismotron","steam_id":76561198278604277,"connected_time":2919000000000,"state":"active","ping":59},{"user_id":401,"name":"A Vegan","steam_id":76561198208606452,"connected_time":1433000000000,"state":"active","ping":72},{"user_id":371,"name":"helps me helps me why7 yuo no h","steam_id":76561198190583242,"connected_time":5242000000000,"state":"active","ping":76},{"user_id":376,"name":"Sinnamonsters","steam_id":76561198423422354,"connected_time":4291000000000,"state":"active","ping":139}]},{"server_id":114,"name":"Uncletopia | London | 2 | All Maps","name_short":"lon-2","host":"lon-1.uk.uncletopia.com","port":27025,"enabled":true,"region":"eu","cc":"gb","latitude":51.509865,"longitude":-0.118092,"reserved":0,"last_update":"0001-01-01T00:00:00Z","name_a2s":"Uncletopia | London | 2 | All Maps","protocol":17,"map":"pl_pier","folder":"tf","game":"Team Fortress","app_id":440,"player_count":24,"max_players":24,"Bots":0,"server_type":"Dedicated","server_os":"Linux","password":true,"vac":true,"version":"7961495","steam_id":85568392924470941,"keywords":["nocrits","nodmgspread","payload","uncletopia"],"game_id":440,"stv_port":27026,"stv_name":"Uncletopia | London | 2 | All Maps | STV","players":[{"user_id":449,"name":"how use bazooka tf2","steam_id":76561198436817109,"connected_time":2323000000000,"state":"active","ping":49},{"user_id":461,"name":"RayTrain","steam_id":76561198874299515,"connected_time":1371000000000,"state":"active","ping":65},{"user_id":481,"name":"I Love Filtered Water","steam_id":76561198016042113,"connected_time":30000000000,"state":"active","ping":90},{"user_id":458,"name":"Deformed Gollum","steam_id":76561198155563589,"connected_time":2069000000000,"state":"active","ping":51},{"user_id":457,"name":"Starach","steam_id":76561198084530972,"connected_time":2089000000000,"state":"active","ping":51},{"user_id":471,"name":"skilltissues","steam_id":76561198025828664,"connected_time":547000000000,"state":"active","ping":52},{"user_id":472,"name":"Dooting","steam_id":76561199069121777,"connected_time":546000000000,"state":"active","ping":86},{"user_id":468,"name":"cipherrephic","steam_id":76561198453630258,"connected_time":582000000000,"state":"active","ping":54},{"user_id":479,"name":"fl1p","steam_id":76561198148565659,"connected_time":70000000000,"state":"active","ping":75},{"user_id":475,"name":"Eric Catman","steam_id":76561198802117294,"connected_time":514000000000,"state":"active","ping":70},{"user_id":459,"name":"Level 1 Noob","steam_id":76561198088586340,"connected_time":2066000000000,"state":"active","ping":56},{"user_id":448,"name":"rat exturmenaitor","steam_id":76561199278252995,"connected_time":2330000000000,"state":"active","ping":65},{"user_id":462,"name":"Microwaved Burrito","steam_id":76561198055916647,"connected_time":1138000000000,"state":"active","ping":55},{"user_id":466,"name":"Zazou","steam_id":76561198028076362,"connected_time":819000000000,"state":"active","ping":53},{"user_id":482,"name":"VictoriaFae (She/Her)","steam_id":76561198093221218,"connected_time":9000000000,"state":"active","ping":90},{"user_id":427,"name":"The Engineer","steam_id":76561199437330739,"connected_time":5490000000000,"state":"active","ping":61},{"user_id":447,"name":"TMC","steam_id":76561198077956157,"connected_time":2358000000000,"state":"active","ping":45},{"user_id":476,"name":"Joe12000","steam_id":76561198160817969,"connected_time":513000000000,"state":"active","ping":76},{"user_id":465,"name":"Ar|es","steam_id":76561198819160313,"connected_time":868000000000,"state":"active","ping":94},{"user_id":455,"name":"Tristan","steam_id":76561198077428640,"connected_time":2204000000000,"state":"active","ping":52},{"user_id":477,"name":"Bronze Age Furvert","steam_id":76561198859118263,"connected_time":91000000000,"state":"active","ping":135},{"user_id":453,"name":"UltimateSlayer","steam_id":76561198384109309,"connected_time":2313000000000,"state":"active","ping":49},{"user_id":478,"name":"Jermafan37fan63","steam_id":76561199090694469,"connected_time":86000000000,"state":"active","ping":133},{"user_id":443,"name":"dick","steam_id":76561198047359132,"connected_time":3305000000000,"state":"active","ping":72}]},{"server_id":320,"name":"Uncletopia | London | 3 | All Maps","name_short":"lon-3","host":"lon-1.uk.uncletopia.com","port":27035,"enabled":true,"region":"eu","cc":"gb","latitude":51.509865,"longitude":-0.118092,"reserved":0,"last_update":"0001-01-01T00:00:00Z","name_a2s":"Uncletopia | London | 3 | All Maps","protocol":17,"map":"cp_mountainlab","folder":"tf","game":"Team Fortress","app_id":440,"player_count":0,"max_players":24,"Bots":0,"server_type":"Dedicated","server_os":"Linux","password":true,"vac":true,"version":"7961495","steam_id":85568392924510192,"keywords":["cp","nocrits","nodmgspread","uncletopia"],"game_id":440,"stv_port":27036,"stv_name":"Uncletopia | London | 3 | All Maps | STV","players":null},{"server_id":321,"name":"Uncletopia | London | 4 | All Maps","name_short":"lon-4","host":"lon-1.uk.uncletopia.com","port":27045,"enabled":true,"region":"eu","cc":"gb","latitude":51.509865,"longitude":-0.118092,"reserved":0,"last_update":"0001-01-01T00:00:00Z","name_a2s":"Uncletopia | London | 4 | All Maps","protocol":17,"map":"pl_badwater","folder":"tf","game":"Team Fortress","app_id":440,"player_count":24,"max_players":24,"Bots":0,"server_type":"Dedicated","server_os":"Linux","password":true,"vac":true,"version":"7961495","steam_id":85568392924510193,"keywords":["nocrits","nodmgspread","payload","uncletopia"],"game_id":440,"stv_port":27046,"stv_name":"Uncletopia | London | 4 | All Maps | STV","players":[{"user_id":232,"name":"Aster","steam_id":76561198448334921,"connected_time":242000000000,"state":"active","ping":56},{"user_id":228,"name":"MR.BOYKISSER","steam_id":76561198241894636,"connected_time":371000000000,"state":"active","ping":57},{"user_id":223,"name":"MANBOYBOYBOYMAN","steam_id":76561198097612561,"connected_time":397000000000,"state":"active","ping":63},{"user_id":217,"name":"stephenshields2020","steam_id":76561199063375137,"connected_time":667000000000,"state":"active","ping":71},{"user_id":211,"name":"LEGEND FUMO.","steam_id":76561198061033903,"connected_time":1210000000000,"state":"active","ping":53},{"user_id":74,"name":"lillunya ♡","steam_id":76561198330418866,"connected_time":12043000000000,"state":"active","ping":70},{"user_id":226,"name":"Avitz","steam_id":76561197986150359,"connected_time":383000000000,"state":"active","ping":45},{"user_id":168,"name":"Hercules","steam_id":76561198041164170,"connected_time":5001000000000,"state":"active","ping":60},{"user_id":207,"name":"xTheDarkLight","steam_id":76561198239128298,"connected_time":1456000000000,"state":"active","ping":60},{"user_id":213,"name":"Halibutterhands","steam_id":76561198160361979,"connected_time":944000000000,"state":"active","ping":103},{"user_id":170,"name":"Gentlemann Co.","steam_id":76561197997142921,"connected_time":4975000000000,"state":"active","ping":56},{"user_id":233,"name":"Sandvich","steam_id":76561199079493666,"connected_time":74000000000,"state":"active","ping":101},{"user_id":219,"name":"not my season","steam_id":76561198083588151,"connected_time":519000000000,"state":"active","ping":80},{"user_id":198,"name":"nappo","steam_id":76561198060105180,"connected_time":3250000000000,"state":"active","ping":65},{"user_id":188,"name":"caramel❤","steam_id":76561198819353867,"connected_time":4243000000000,"state":"active","ping":38},{"user_id":183,"name":"TreatFly","steam_id":76561198069707362,"connected_time":4663000000000,"state":"active","ping":55},{"user_id":225,"name":"Gubbly Bubbins","steam_id":76561198101451654,"connected_time":386000000000,"state":"active","ping":46},{"user_id":196,"name":"weaj","steam_id":76561198053628243,"connected_time":3393000000000,"state":"active","ping":44},{"user_id":214,"name":"Syd","steam_id":76561198020515027,"connected_time":935000000000,"state":"active","ping":68},{"user_id":209,"name":"Cpt_frost","steam_id":76561198218034817,"connected_time":1336000000000,"state":"active","ping":51},{"user_id":229,"name":"aRtaRt","steam_id":76561199051316171,"connected_time":339000000000,"state":"active","ping":68},{"user_id":227,"name":"the Grimm Lad","steam_id":76561198151908409,"connected_time":379000000000,"state":"active","ping":140},{"user_id":230,"name":"GUMBO","steam_id":76561198183949987,"connected_time":339000000000,"state":"active","ping":57},{"user_id":231,"name":"Krabs","steam_id":76561198161679477,"connected_time":328000000000,"state":"active","ping":41}]},{"server_id":21,"name":"Uncletopia | London | 5 | All Maps","name_short":"lon-5","host":"lon-1.uk.uncletopia.com","port":27055,"enabled":true,"region":"eu","cc":"gb","latitude":51.509865,"longitude":-0.118092,"reserved":0,"last_update":"0001-01-01T00:00:00Z","name_a2s":"Uncletopia | London | 5 | All Maps","protocol":17,"map":"pl_pier","folder":"tf","game":"Team Fortress","app_id":440,"player_count":24,"max_players":24,"Bots":0,"server_type":"Dedicated","server_os":"Linux","password":true,"vac":true,"version":"7961495","steam_id":85568392924742829,"keywords":["nocrits","nodmgspread","payload","uncletopia"],"game_id":440,"stv_port":27056,"stv_name":"Uncletopia | London | 5 | All Maps | STV","players":[{"user_id":735,"name":"CreepyYellowDuck","steam_id":76561198000479387,"connected_time":945000000000,"state":"active","ping":35},{"user_id":701,"name":"Ferrariracer5f1","steam_id":76561199229815098,"connected_time":2172000000000,"state":"active","ping":55},{"user_id":736,"name":"Cosmetic brain","steam_id":76561198055936410,"connected_time":944000000000,"state":"active","ping":75},{"user_id":749,"name":"SaltyCupcakes","steam_id":76561198256386417,"connected_time":382000000000,"state":"active","ping":44},{"user_id":748,"name":"Commissioner","steam_id":76561197998134129,"connected_time":395000000000,"state":"active","ping":144},{"user_id":746,"name":"DJThunderHeart","steam_id":76561198274197575,"connected_time":419000000000,"state":"active","ping":118},{"user_id":743,"name":"akakez","steam_id":76561198095432821,"connected_time":439000000000,"state":"active","ping":113},{"user_id":753,"name":"Tri-","steam_id":76561198133524794,"connected_time":238000000000,"state":"active","ping":44},{"user_id":698,"name":"randem_","steam_id":76561198338793755,"connected_time":2214000000000,"state":"active","ping":39},{"user_id":751,"name":"DeftlyDyl","steam_id":76561198098986187,"connected_time":261000000000,"state":"active","ping":100},{"user_id":744,"name":"hawkblob","steam_id":76561198803720565,"connected_time":436000000000,"state":"active","ping":69},{"user_id":699,"name":"ExtraFlames","steam_id":76561199136146246,"connected_time":2210000000000,"state":"active","ping":58},{"user_id":719,"name":"Phinton","steam_id":76561198014690842,"connected_time":1836000000000,"state":"active","ping":62},{"user_id":745,"name":"Grillem Dafoe","steam_id":76561198306874574,"connected_time":424000000000,"state":"active","ping":72},{"user_id":703,"name":"Kummerspeck","steam_id":76561198151952677,"connected_time":2126000000000,"state":"active","ping":52},{"user_id":733,"name":"Lorents","steam_id":76561198796919618,"connected_time":1177000000000,"state":"active","ping":65},{"user_id":738,"name":"silicon based life form","steam_id":76561199127121346,"connected_time":938000000000,"state":"active","ping":53},{"user_id":747,"name":"Dr. Funkenstein","steam_id":76561197977816210,"connected_time":414000000000,"state":"active","ping":54},{"user_id":721,"name":"Armix","steam_id":76561198079373642,"connected_time":1680000000000,"state":"active","ping":80},{"user_id":752,"name":"Birch","steam_id":76561197998712822,"connected_time":256000000000,"state":"active","ping":45},{"user_id":711,"name":"Urfangonultasadana","steam_id":76561199389286151,"connected_time":2042000000000,"state":"active","ping":91},{"user_id":740,"name":"Someone","steam_id":76561199030195879,"connected_time":706000000000,"state":"active","ping":51},{"user_id":754,"name":"Max","steam_id":76561198080956366,"connected_time":99000000000,"state":"active","ping":84},{"user_id":723,"name":"Ullr","steam_id":76561198140547483,"connected_time":1451000000000,"state":"active","ping":42}]},{"server_id":22,"name":"Uncletopia | London | 6 | All Maps","name_short":"lon-6","host":"lon-1.uk.uncletopia.com","port":27065,"enabled":true,"region":"eu","cc":"gb","latitude":51.509865,"longitude":-0.118092,"reserved":0,"last_update":"0001-01-01T00:00:00Z","name_a2s":"Uncletopia | London | 6 | All Maps","protocol":17,"map":"pl_upward","folder":"tf","game":"Team Fortress","app_id":440,"player_count":25,"max_players":24,"Bots":0,"server_type":"Dedicated","server_os":"Linux","password":true,"vac":true,"version":"7961495","steam_id":85568392924742830,"keywords":["nocrits","nodmgspread","payload","uncletopia"],"game_id":440,"stv_port":27066,"stv_name":"Uncletopia | London | 6 | All Maps | STV","players":[{"user_id":264,"name":"JamesPepega","steam_id":76561198019156154,"connected_time":1828000000000,"state":"active","ping":83},{"user_id":227,"name":"Plep","steam_id":76561198840259819,"connected_time":4943000000000,"state":"active","ping":59},{"user_id":290,"name":"mingsh'allah","steam_id":76561198254011269,"connected_time":593000000000,"state":"active","ping":77},{"user_id":279,"name":"Toxion","steam_id":76561198063399328,"connected_time":1222000000000,"state":"active","ping":63},{"user_id":256,"name":"Kernel Panic","steam_id":76561198215811047,"connected_time":3206000000000,"state":"active","ping":43},{"user_id":292,"name":"Dan Dan the Furious","steam_id":76561198091032527,"connected_time":373000000000,"state":"active","ping":54},{"user_id":295,"name":"Sandshee","steam_id":76561198088574666,"connected_time":48000000000,"state":"spawning","ping":44},{"user_id":251,"name":"Dark","steam_id":76561198209594571,"connected_time":3534000000000,"state":"active","ping":57},{"user_id":219,"name":"pepper","steam_id":76561198059782462,"connected_time":5374000000000,"state":"active","ping":61},{"user_id":297,"name":"alpha","steam_id":76561198250491640,"connected_time":32000000000,"state":"active","ping":46},{"user_id":298,"name":"Explosive Poptart","steam_id":76561198023918830,"connected_time":12000000000,"state":"spawning","ping":44},{"user_id":265,"name":"KhorneBread ︻デ 一","steam_id":76561198097069958,"connected_time":1827000000000,"state":"active","ping":140},{"user_id":284,"name":"Vloeibaarzeep","steam_id":76561198018361028,"connected_time":940000000000,"state":"active","ping":51},{"user_id":243,"name":"Houlles","steam_id":76561198095277383,"connected_time":3653000000000,"state":"active","ping":56},{"user_id":266,"name":"Michael","steam_id":76561198003146906,"connected_time":1827000000000,"state":"active","ping":44},{"user_id":287,"name":"JamOnBread","steam_id":76561199232257212,"connected_time":806000000000,"state":"active","ping":55},{"user_id":296,"name":"Javier dorsaless","steam_id":76561198179324075,"connected_time":40000000000,"state":"active","ping":65},{"user_id":262,"name":"yavaş","steam_id":76561198170334258,"connected_time":2130000000000,"state":"active","ping":68},{"user_id":285,"name":"Fatmagic Mukbang ASMR","steam_id":76561198063492110,"connected_time":895000000000,"state":"active","ping":85},{"user_id":246,"name":"RLCrazyCat3","steam_id":76561197983757878,"connected_time":3619000000000,"state":"active","ping":64},{"user_id":277,"name":"SuperLario1706","steam_id":76561198101358860,"connected_time":1445000000000,"state":"active","ping":69},{"user_id":293,"name":"znunney","steam_id":76561199438501613,"connected_time":65000000000,"state":"active","ping":58},{"user_id":288,"name":"14 ants","steam_id":76561198036119802,"connected_time":805000000000,"state":"active","ping":48},{"user_id":294,"name":"solo queue because i hate mysel","steam_id":76561198272009140,"connected_time":61000000000,"state":"active","ping":33},{"user_id":299,"name":"Nenny","steam_id":76561198072638167,"connected_time":12000000000,"state":"active","ping":372}]},{"server_id":40,"name":"Uncletopia | London | 7 | Stopwatch","name_short":"lon-7","host":"lon-1.uk.uncletopia.com","port":27075,"enabled":true,"region":"eu","cc":"gb","latitude":51.509865,"longitude":-0.118092,"reserved":0,"last_update":"0001-01-01T00:00:00Z","name_a2s":"Uncletopia | London | 7 | Stopwatch","protocol":17,"map":"workshop/koth_clearcut_b15.ugc2107050255","folder":"tf","game":"Team Fortress","app_id":440,"player_count":0,"max_players":24,"Bots":0,"server_type":"Dedicated","server_os":"Linux","password":true,"vac":true,"version":"7961495","steam_id":85568392924964314,"keywords":["cp","nocrits","nodmgspread","uncletopia"],"game_id":440,"stv_port":27076,"stv_name":"Uncletopia | London | 7 | Stopwatch | STV","players":null},{"server_id":41,"name":"Uncletopia | London | 8 | Community","name_short":"lon-8","host":"lon-1.uk.uncletopia.com","port":27085,"enabled":true,"region":"eu","cc":"gb","latitude":51.509865,"longitude":-0.118092,"reserved":0,"last_update":"0001-01-01T00:00:00Z","name_a2s":"Uncletopia | London | 8 | Community","protocol":17,"map":"workshop/koth_slaughter_rc1.ugc1712845210","folder":"tf","game":"Team Fortress","app_id":440,"player_count":0,"max_players":24,"Bots":0,"server_type":"Dedicated","server_os":"Linux","password":true,"vac":true,"version":"7961495","steam_id":85568392924964315,"keywords":["cp","nocrits","nodmgspread","uncletopia"],"game_id":440,"stv_port":27086,"stv_name":"Uncletopia | London | 8 | Community | STV","players":null},{"server_id":300,"name":"Uncletopia | Montréal | 1 | One Thousand Uncles","name_short":"mtl-1","host":"mtl-1.ca.uncletopia.com","port":27015,"enabled":true,"region":"us-east","cc":"ca","latitude":45.50889,"longitude":-73.56167,"reserved":0,"last_update":"0001-01-01T00:00:00Z","name_a2s":"","protocol":0,"map":"","folder":"","game":"","app_id":0,"player_count":0,"max_players":0,"Bots":0,"server_type":"","server_os":"","password":false,"vac":false,"version":"","steam_id":0,"keywords":null,"game_id":0,"stv_port":0,"stv_name":"","players":null},{"server_id":301,"name":"Uncletopia | Montréal | 2 | One Thousand Uncles","name_short":"mtl-2","host":"mtl-1.ca.uncletopia.com","port":27025,"enabled":true,"region":"us-east","cc":"ca","latitude":45.50889,"longitude":-73.56167,"reserved":0,"last_update":"0001-01-01T00:00:00Z","name_a2s":"","protocol":0,"map":"","folder":"","game":"","app_id":0,"player_count":0,"max_players":0,"Bots":0,"server_type":"","server_os":"","password":false,"vac":false,"version":"","steam_id":0,"keywords":null,"game_id":0,"stv_port":0,"stv_name":"","players":null},{"server_id":302,"name":"Uncletopia | Montréal | 3 | One Thousand Uncles","name_short":"mtl-3","host":"mtl-1.ca.uncletopia.com","port":27035,"enabled":true,"region":"us-east","cc":"ca","latitude":45.50889,"longitude":-73.56167,"reserved":0,"last_update":"0001-01-01T00:00:00Z","name_a2s":"","protocol":0,"map":"","folder":"","game":"","app_id":0,"player_count":0,"max_players":0,"Bots":0,"server_type":"","server_os":"","password":false,"vac":false,"version":"","steam_id":0,"keywords":null,"game_id":0,"stv_port":0,"stv_name":"","players":null},{"server_id":13,"name":"Uncletopia | New York City | 1 | All Maps","name_short":"nyc-1","host":"nyc-1.us.uncletopia.com","port":27015,"enabled":true,"region":"us-east","cc":"us","latitude":40.73061,"longitude":-73.93524,"reserved":0,"last_update":"0001-01-01T00:00:00Z","name_a2s":"Uncletopia | New York City | 1 | All Maps","protocol":17,"map":"pl_barnblitz","folder":"tf","game":"Team Fortress","app_id":440,"player_count":24,"max_players":24,"Bots":0,"server_type":"Dedicated","server_os":"Linux","password":true,"vac":true,"version":"7961495","steam_id":85568392924469993,"keywords":["nocrits","nodmgspread","payload","uncletopia"],"game_id":440,"stv_port":27016,"stv_name":"Uncletopia | New York City | 1 | All Maps | STV","players":[{"user_id":88,"name":"MechaSixVII","steam_id":76561198014927379,"connected_time":96000000000,"state":"active","ping":72},{"user_id":85,"name":"Unholy","steam_id":76561198058312481,"connected_time":261000000000,"state":"active","ping":54},{"user_id":71,"name":"Charlotte","steam_id":76561198194975870,"connected_time":909000000000,"state":"active","ping":60},{"user_id":81,"name":"concrete_car","steam_id":76561198388207363,"connected_time":665000000000,"state":"active","ping":71},{"user_id":28,"name":"BlazingWaters","steam_id":76561198136322660,"connected_time":4501000000000,"state":"active","ping":83},{"user_id":83,"name":"Patchy","steam_id":76561198008112883,"connected_time":651000000000,"state":"active","ping":68},{"user_id":86,"name":"Taco","steam_id":76561198158621392,"connected_time":230000000000,"state":"active","ping":71},{"user_id":70,"name":"󠁳 ⁧fortnite56k","steam_id":76561198404564240,"connected_time":1075000000000,"state":"active","ping":46},{"user_id":69,"name":"TacoMan","steam_id":76561198049405741,"connected_time":1121000000000,"state":"active","ping":84},{"user_id":76,"name":"A Puppy","steam_id":76561198828184456,"connected_time":692000000000,"state":"active","ping":45},{"user_id":75,"name":"2020 RX 350","steam_id":76561199123332348,"connected_time":697000000000,"state":"active","ping":63},{"user_id":60,"name":"Googol","steam_id":76561198015967429,"connected_time":2264000000000,"state":"active","ping":107},{"user_id":74,"name":"Plasmoklo","steam_id":76561199071571167,"connected_time":710000000000,"state":"active","ping":71},{"user_id":79,"name":"Chris","steam_id":76561198044278802,"connected_time":687000000000,"state":"active","ping":41},{"user_id":63,"name":"Radioman","steam_id":76561198093673203,"connected_time":2232000000000,"state":"active","ping":76},{"user_id":65,"name":"Gibs Degrossi","steam_id":76561198066152609,"connected_time":1878000000000,"state":"active","ping":71},{"user_id":44,"name":"John Fortnite","steam_id":76561198076608253,"connected_time":3770000000000,"state":"active","ping":55},{"user_id":73,"name":"M4TT","steam_id":76561198118496274,"connected_time":834000000000,"state":"active","ping":56},{"user_id":35,"name":"MontellWilliams","steam_id":76561198172143015,"connected_time":4240000000000,"state":"active","ping":41},{"user_id":84,"name":"Zozbieta","steam_id":76561198010336265,"connected_time":627000000000,"state":"active","ping":95},{"user_id":58,"name":"Discourse","steam_id":76561198984286678,"connected_time":2293000000000,"state":"active","ping":72},{"user_id":51,"name":"Dan","steam_id":76561199236719411,"connected_time":2981000000000,"state":"active","ping":87},{"user_id":87,"name":"Jesus Christ","steam_id":76561198124789046,"connected_time":127000000000,"state":"active","ping":82},{"user_id":59,"name":"take me back to 2016","steam_id":76561198829285363,"connected_time":2293000000000,"state":"active","ping":127}]},{"server_id":14,"name":"Uncletopia | New York City | 2 | All Maps","name_short":"nyc-2","host":"nyc-1.us.uncletopia.com","port":27025,"enabled":true,"region":"us-east","cc":"us","latitude":40.73061,"longitude":-73.93524,"reserved":0,"last_update":"0001-01-01T00:00:00Z","name_a2s":"Uncletopia | New York City | 2 | All Maps","protocol":17,"map":"pl_barnblitz","folder":"tf","game":"Team Fortress","app_id":440,"player_count":0,"max_players":24,"Bots":0,"server_type":"Dedicated","server_os":"Linux","password":true,"vac":true,"version":"7961495","steam_id":85568392924469994,"keywords":["nocrits","nodmgspread","payload","uncletopia"],"game_id":440,"stv_port":27026,"stv_name":"Uncletopia | New York City | 2 | All Maps | STV","players":null},{"server_id":15,"name":"Uncletopia | New York City | 3 | Stopwatch","name_short":"nyc-3","host":"nyc-1.us.uncletopia.com","port":27035,"enabled":true,"region":"us-east","cc":"us","latitude":40.73061,"longitude":-73.93524,"reserved":0,"last_update":"0001-01-01T00:00:00Z","name_a2s":"Uncletopia | New York City | 3 | Stopwatch","protocol":17,"map":"koth_lakeside_final","folder":"tf","game":"Team Fortress","app_id":440,"player_count":0,"max_players":24,"Bots":0,"server_type":"Dedicated","server_os":"Linux","password":true,"vac":true,"version":"7961495","steam_id":85568392924742820,"keywords":["cp","nocrits","nodmgspread","uncletopia"],"game_id":440,"stv_port":27036,"stv_name":"Uncletopia | New York City | 3 | Stopwatch | STV","players":null},{"server_id":16,"name":"Uncletopia | New York City | 4 | Community","name_short":"nyc-4","host":"nyc-1.us.uncletopia.com","port":27045,"enabled":true,"region":"us-east","cc":"us","latitude":40.73061,"longitude":-73.93524,"reserved":0,"last_update":"0001-01-01T00:00:00Z","name_a2s":"Uncletopia | New York City | 4 | Community","protocol":17,"map":"cp_altitude","folder":"tf","game":"Team Fortress","app_id":440,"player_count":0,"max_players":24,"Bots":0,"server_type":"Dedicated","server_os":"Linux","password":true,"vac":true,"version":"7961495","steam_id":85568392924742821,"keywords":["cp","nocrits","nodmgspread","uncletopia"],"game_id":440,"stv_port":27046,"stv_name":"Uncletopia | New York City | 4 | Community | STV","players":null},{"server_id":142,"name":"Uncletopia | São Paulo | 1 | All Maps","name_short":"sao-1","host":"sao-1.br.uncletopia.com","port":27015,"enabled":true,"region":"sa","cc":"br","latitude":-23.533773,"longitude":-46.62529,"reserved":0,"last_update":"0001-01-01T00:00:00Z","name_a2s":"Uncletopia | São Paulo | 1 | All Maps","protocol":17,"map":"koth_highpass","folder":"tf","game":"Team Fortress","app_id":440,"player_count":0,"max_players":24,"Bots":0,"server_type":"Dedicated","server_os":"Linux","password":true,"vac":true,"version":"7961495","steam_id":85568392924469996,"keywords":["cp","nocrits","nodmgspread","uncletopia"],"game_id":440,"stv_port":27016,"stv_name":"Uncletopia | São Paulo | 1 | All Maps | STV","players":null},{"server_id":143,"name":"Uncletopia | São Paulo | 2 | Community","name_short":"sao-2","host":"sao-2.br.uncletopia.com","port":27015,"enabled":true,"region":"sa","cc":"br","latitude":-23.533773,"longitude":-46.62529,"reserved":0,"last_update":"0001-01-01T00:00:00Z","name_a2s":"Uncletopia | São Paulo | 2 | Community","protocol":17,"map":"pl_badwater","folder":"tf","game":"Team Fortress","app_id":440,"player_count":2,"max_players":24,"Bots":0,"server_type":"Dedicated","server_os":"Linux","password":true,"vac":true,"version":"7961495","steam_id":85568392924485349,"keywords":["nocrits","nodmgspread","payload","uncletopia"],"game_id":440,"stv_port":27016,"stv_name":"Uncletopia | São Paulo | 2 | Community | STV","players":[{"user_id":3,"name":"GaRy scary skeleton","steam_id":76561198909121151,"connected_time":437000000000,"state":"active","ping":65},{"user_id":4,"name":"agustinevil4","steam_id":76561198428712001,"connected_time":429000000000,"state":"active","ping":102}]},{"server_id":7,"name":"Uncletopia | Seattle | 1 | All Maps","name_short":"sea-1","host":"sea-1.us.uncletopia.com","port":27015,"enabled":true,"region":"us-west","cc":"us","latitude":47.608013,"longitude":-122.33517,"reserved":0,"last_update":"0001-01-01T00:00:00Z","name_a2s":"Uncletopia | Seattle | 1 | All Maps","protocol":17,"map":"pl_thundermountain","folder":"tf","game":"Team Fortress","app_id":440,"player_count":23,"max_players":24,"Bots":0,"server_type":"Dedicated","server_os":"Linux","password":true,"vac":true,"version":"7961495","steam_id":85568392924469997,"keywords":["nocrits","nodmgspread","payload","uncletopia"],"game_id":440,"stv_port":27016,"stv_name":"Uncletopia | Seattle | 1 | All Maps | STV","players":[{"user_id":201,"name":"Crabohydrate","steam_id":76561198157019155,"connected_time":1184000000000,"state":"active","ping":52},{"user_id":160,"name":"TheCowledWiz","steam_id":76561198016735868,"connected_time":4223000000000,"state":"active","ping":46},{"user_id":171,"name":"spiderland","steam_id":76561198335992132,"connected_time":3578000000000,"state":"active","ping":43},{"user_id":134,"name":"Brain damage squirrel","steam_id":76561198846344452,"connected_time":6312000000000,"state":"active","ping":63},{"user_id":209,"name":"trackpad gaming | f2p","steam_id":76561198840414371,"connected_time":123000000000,"state":"active","ping":52},{"user_id":187,"name":"Pneumo.","steam_id":76561197987911883,"connected_time":2421000000000,"state":"active","ping":58},{"user_id":204,"name":"WM1 PYRO","steam_id":76561198045893896,"connected_time":963000000000,"state":"active","ping":90},{"user_id":206,"name":"zinnk","steam_id":76561198092081825,"connected_time":423000000000,"state":"active","ping":59},{"user_id":192,"name":"nile","steam_id":76561197980035714,"connected_time":1599000000000,"state":"active","ping":60},{"user_id":182,"name":"Nom Skirrett","steam_id":76561198014600788,"connected_time":2551000000000,"state":"active","ping":60},{"user_id":198,"name":"wendigo","steam_id":76561197994528974,"connected_time":1208000000000,"state":"active","ping":83},{"user_id":174,"name":"imasheep","steam_id":76561198210322871,"connected_time":3283000000000,"state":"active","ping":76},{"user_id":176,"name":"Synergy","steam_id":76561198098630198,"connected_time":3198000000000,"state":"active","ping":45},{"user_id":107,"name":"you just got dyked on","steam_id":76561198018977723,"connected_time":9555000000000,"state":"active","ping":47},{"user_id":203,"name":"Meso","steam_id":76561199088153190,"connected_time":1138000000000,"state":"active","ping":59},{"user_id":175,"name":"Geesemans","steam_id":76561199478892816,"connected_time":3213000000000,"state":"active","ping":99},{"user_id":205,"name":"Daz","steam_id":76561198041431938,"connected_time":591000000000,"state":"active","ping":53},{"user_id":210,"name":"MrYadaization","steam_id":76561198050770818,"connected_time":16000000000,"state":"active","ping":49},{"user_id":90,"name":"Wheaty","steam_id":76561198003553412,"connected_time":10426000000000,"state":"active","ping":58},{"user_id":194,"name":"Vincent Van Bro","steam_id":76561197966919802,"connected_time":1462000000000,"state":"active","ping":46},{"user_id":197,"name":"PJROCK101","steam_id":76561198070616561,"connected_time":1351000000000,"state":"active","ping":51},{"user_id":177,"name":"K2f","steam_id":76561198049600563,"connected_time":3167000000000,"state":"active","ping":70},{"user_id":199,"name":"mik-","steam_id":76561198380722433,"connected_time":1208000000000,"state":"active","ping":85}]},{"server_id":119,"name":"Uncletopia | Seattle | 2 | All Maps","name_short":"sea-2","host":"sea-1.us.uncletopia.com","port":27025,"enabled":true,"region":"us-west","cc":"us","latitude":47.608013,"longitude":-122.33517,"reserved":0,"last_update":"0001-01-01T00:00:00Z","name_a2s":"Uncletopia | Seattle | 2 | All Maps","protocol":17,"map":"koth_cascade","folder":"tf","game":"Team Fortress","app_id":440,"player_count":0,"max_players":24,"Bots":0,"server_type":"Dedicated","server_os":"Linux","password":true,"vac":true,"version":"7961495","steam_id":85568392924469998,"keywords":["cp","nocrits","nodmgspread","uncletopia"],"game_id":440,"stv_port":27026,"stv_name":"Uncletopia | Seattle | 2 | All Maps | STV","players":null},{"server_id":406,"name":"Uncletopia | Seattle | 3 | Stopwatch","name_short":"sea-3","host":"sea-1.us.uncletopia.com","port":27035,"enabled":true,"region":"us-west","cc":"us","latitude":47.608013,"longitude":-122.33517,"reserved":0,"last_update":"0001-01-01T00:00:00Z","name_a2s":"Uncletopia | Seattle | 3 | Stopwatch","protocol":17,"map":"workshop/koth_product_final.ugc454272353","folder":"tf","game":"Team Fortress","app_id":440,"player_count":0,"max_players":24,"Bots":0,"server_type":"Dedicated","server_os":"Linux","password":true,"vac":true,"version":"7961495","steam_id":85568392924515217,"keywords":["cp","nocrits","nodmgspread","uncletopia"],"game_id":440,"stv_port":27036,"stv_name":"Uncletopia | Seattle | 3 | Stopwatch | STV","players":null},{"server_id":17,"name":"Uncletopia | San Francisco | 1 | All Maps","name_short":"sfo-1","host":"sfo-1.us.uncletopia.com","port":27015,"enabled":true,"region":"us-west","cc":"us","latitude":37.77397,"longitude":-122.4313,"reserved":0,"last_update":"0001-01-01T00:00:00Z","name_a2s":"Uncletopia | San Francisco | 1 | All Maps","protocol":17,"map":"koth_cascade","folder":"tf","game":"Team Fortress","app_id":440,"player_count":0,"max_players":24,"Bots":0,"server_type":"Dedicated","server_os":"Linux","password":true,"vac":true,"version":"7961495","steam_id":85568392924469999,"keywords":["cp","nocrits","nodmgspread","uncletopia"],"game_id":440,"stv_port":27016,"stv_name":"Uncletopia | San Francisco | 1 | All Maps | STV","players":null},{"server_id":18,"name":"Uncletopia | San Francisco | 2 | All Maps","name_short":"sfo-2","host":"sfo-1.us.uncletopia.com","port":27025,"enabled":true,"region":"us-west","cc":"us","latitude":37.77397,"longitude":-122.4313,"reserved":0,"last_update":"0001-01-01T00:00:00Z","name_a2s":"Uncletopia | San Francisco | 2 | All Maps","protocol":17,"map":"pl_frontier_final","folder":"tf","game":"Team Fortress","app_id":440,"player_count":0,"max_players":24,"Bots":0,"server_type":"Dedicated","server_os":"Linux","password":true,"vac":true,"version":"7961495","steam_id":85568392924470000,"keywords":["nocrits","nodmgspread","payload","uncletopia"],"game_id":440,"stv_port":27026,"stv_name":"Uncletopia | San Francisco | 2 | All Maps | STV","players":null},{"server_id":19,"name":"Uncletopia | San Francisco | 3 | Stopwatch","name_short":"sfo-3","host":"sfo-1.us.uncletopia.com","port":27035,"enabled":true,"region":"us-west","cc":"us","latitude":37.77397,"longitude":-122.4313,"reserved":0,"last_update":"0001-01-01T00:00:00Z","name_a2s":"Uncletopia | San Francisco | 3 | Stopwatch","protocol":17,"map":"workshop/pl_vigil_rc10.ugc1266210012","folder":"tf","game":"Team Fortress","app_id":440,"player_count":0,"max_players":24,"Bots":0,"server_type":"Dedicated","server_os":"Linux","password":true,"vac":true,"version":"7961495","steam_id":85568392924742824,"keywords":["nocrits","nodmgspread","payload","uncletopia"],"game_id":440,"stv_port":27036,"stv_name":"Uncletopia | San Francisco | 3 | Stopwatch | STV","players":null},{"server_id":20,"name":"Uncletopia | San Francisco | 4 | Community","name_short":"sfo-4","host":"sfo-1.us.uncletopia.com","port":27045,"enabled":true,"region":"us-west","cc":"us","latitude":37.77397,"longitude":-122.4313,"reserved":0,"last_update":"0001-01-01T00:00:00Z","name_a2s":"Uncletopia | San Francisco | 4 | Community","protocol":17,"map":"pl_pier","folder":"tf","game":"Team Fortress","app_id":440,"player_count":0,"max_players":24,"Bots":0,"server_type":"Dedicated","server_os":"Linux","password":true,"vac":true,"version":"7961495","steam_id":85568392924742826,"keywords":["nocrits","nodmgspread","payload","uncletopia"],"game_id":440,"stv_port":27046,"stv_name":"Uncletopia | San Francisco | 4 | Community | STV","players":null},{"server_id":141,"name":"Uncletopia | Sydney | 1 | All Maps","name_short":"syd-1","host":"syd-1.au.uncletopia.com","port":27015,"enabled":true,"region":"au","cc":"au","latitude":-33.865143,"longitude":151.2099,"reserved":0,"last_update":"0001-01-01T00:00:00Z","name_a2s":"Uncletopia | Sydney | 1 | All Maps","protocol":17,"map":"plr_hightower","folder":"tf","game":"Team Fortress","app_id":440,"player_count":0,"max_players":24,"Bots":0,"server_type":"Dedicated","server_os":"Linux","password":true,"vac":true,"version":"7961495","steam_id":85568392924470001,"keywords":["nocrits","nodmgspread","payload","uncletopia"],"game_id":440,"stv_port":27016,"stv_name":"Uncletopia | Sydney | 1 | All Maps | STV","players":null},{"server_id":123,"name":"Uncletopia | Sydney | 2 | All Maps","name_short":"syd-2","host":"syd-1.au.uncletopia.com","port":27025,"enabled":true,"region":"au","cc":"au","latitude":-33.865143,"longitude":151.2099,"reserved":0,"last_update":"0001-01-01T00:00:00Z","name_a2s":"Uncletopia | Sydney | 2 | All Maps","protocol":17,"map":"pl_upward","folder":"tf","game":"Team Fortress","app_id":440,"player_count":0,"max_players":24,"Bots":0,"server_type":"Dedicated","server_os":"Linux","password":true,"vac":true,"version":"7961495","steam_id":85568392924470002,"keywords":["nocrits","nodmgspread","payload","uncletopia"],"game_id":440,"stv_port":27026,"stv_name":"Uncletopia | Sydney | 2 | All Maps | STV","players":null},{"server_id":395,"name":"Uncletopia | Sydney | 3 | All Maps","name_short":"syd-3","host":"syd-1.au.uncletopia.com","port":27035,"enabled":true,"region":"au","cc":"au","latitude":-33.865143,"longitude":151.2099,"reserved":0,"last_update":"0001-01-01T00:00:00Z","name_a2s":"Uncletopia | Sydney | 3 | All Maps","protocol":17,"map":"cp_process_final","folder":"tf","game":"Team Fortress","app_id":440,"player_count":0,"max_players":24,"Bots":0,"server_type":"Dedicated","server_os":"Linux","password":true,"vac":true,"version":"7961495","steam_id":85568392925194467,"keywords":["cp","nocrits","nodmgspread","uncletopia"],"game_id":440,"stv_port":27036,"stv_name":"Uncletopia | Sydney | 3 | All Maps | STV","players":null},{"server_id":396,"name":"Uncletopia | Sydney | 4 | All Maps","name_short":"syd-4","host":"syd-1.au.uncletopia.com","port":27045,"enabled":true,"region":"au","cc":"au","latitude":-33.865143,"longitude":151.2099,"reserved":0,"last_update":"0001-01-01T00:00:00Z","name_a2s":"Uncletopia | Sydney | 4 | All Maps","protocol":17,"map":"plr_bananabay","folder":"tf","game":"Team Fortress","app_id":440,"player_count":0,"max_players":24,"Bots":0,"server_type":"Dedicated","server_os":"Linux","password":true,"vac":true,"version":"7961495","steam_id":85568392925397958,"keywords":["nocrits","nodmgspread","payload","uncletopia"],"game_id":440,"stv_port":27046,"stv_name":"Uncletopia | Sydney | 4 | All Maps | STV","players":null},{"server_id":58,"name":"Uncletopia | Sydney | 5 | Stopwatch","name_short":"syd-5","host":"syd-1.au.uncletopia.com","port":27055,"enabled":true,"region":"au","cc":"au","latitude":-33.865143,"longitude":151.2099,"reserved":0,"last_update":"0001-01-01T00:00:00Z","name_a2s":"Uncletopia | Sydney | 5 | Stopwatch","protocol":17,"map":"workshop/koth_bagel_rc6.ugc2514036946","folder":"tf","game":"Team Fortress","app_id":440,"player_count":0,"max_players":24,"Bots":0,"server_type":"Dedicated","server_os":"Linux","password":true,"vac":true,"version":"7961495","steam_id":85568392925397959,"keywords":["cp","nocrits","nodmgspread","uncletopia"],"game_id":440,"stv_port":27056,"stv_name":"Uncletopia | Sydney | 5 | Stopwatch | STV","players":null},{"server_id":59,"name":"Uncletopia | Sydney | 6 | Community","name_short":"syd-6","host":"syd-1.au.uncletopia.com","port":27065,"enabled":true,"region":"au","cc":"au","latitude":-33.865143,"longitude":151.2099,"reserved":0,"last_update":"0001-01-01T00:00:00Z","name_a2s":"Uncletopia | Sydney | 6 | Community","protocol":17,"map":"workshop/koth_kemptown_rc1.ugc767410655","folder":"tf","game":"Team Fortress","app_id":440,"player_count":0,"max_players":24,"Bots":0,"server_type":"Dedicated","server_os":"Linux","password":true,"vac":true,"version":"7961495","steam_id":85568392925397960,"keywords":["cp","nocrits","nodmgspread","uncletopia"],"game_id":440,"stv_port":27066,"stv_name":"Uncletopia | Sydney | 6 | Community | STV","players":null},{"server_id":49,"name":"Uncletopia | Warsaw | 1 | One Thousand Uncles","name_short":"waw-1","host":"waw-1.pl.uncletopia.com","port":27015,"enabled":true,"region":"eu","cc":"pl","latitude":52.2297,"longitude":21.017532,"reserved":0,"last_update":"0001-01-01T00:00:00Z","name_a2s":"Uncletopia | Warsaw | 1 | One Thousand Uncles","protocol":17,"map":"pl_goldrush","folder":"tf","game":"Team Fortress","app_id":440,"player_count":17,"max_players":32,"Bots":16,"server_type":"Dedicated","server_os":"Linux","password":true,"vac":true,"version":"7961495","steam_id":85568392925397850,"keywords":["alltalk","bots","danepve","increased_maxplayers","nocrits","norespawntime","payload","uncletopia"],"game_id":440,"stv_port":0,"stv_name":"","players":[{"user_id":236,"name":"Tikal_Maya","steam_id":76561198057960747,"connected_time":1338000000000,"state":"active","ping":68}]},{"server_id":50,"name":"Uncletopia | Warsaw | 2 | One Thousand Uncles","name_short":"waw-2","host":"waw-1.pl.uncletopia.com","port":27025,"enabled":true,"region":"eu","cc":"pl","latitude":52.2297,"longitude":21.017532,"reserved":0,"last_update":"0001-01-01T00:00:00Z","name_a2s":"Uncletopia | Warsaw | 2 | One Thousand Uncles","protocol":17,"map":"pl_goldrush","folder":"tf","game":"Team Fortress","app_id":440,"player_count":30,"max_players":32,"Bots":16,"server_type":"Dedicated","server_os":"Linux","password":true,"vac":true,"version":"7961495","steam_id":85568392925397851,"keywords":["alltalk","bots","danepve","increased_maxplayers","nocrits","norespawntime","payload","uncletopia"],"game_id":440,"stv_port":0,"stv_name":"","players":[{"user_id":616,"name":"antondstepanenko","steam_id":76561198966147466,"connected_time":453000000000,"state":"active","ping":78},{"user_id":529,"name":"sphere","steam_id":76561197971059842,"connected_time":4354000000000,"state":"active","ping":71},{"user_id":624,"name":"Ryman","steam_id":76561198360538549,"connected_time":85000000000,"state":"active","ping":180},{"user_id":627,"name":"titi3820","steam_id":76561199201199218,"connected_time":39000000000,"state":"spawning","ping":76},{"user_id":455,"name":"adv6","steam_id":76561198029789989,"connected_time":7592000000000,"state":"active","ping":73},{"user_id":618,"name":"la rose des sables","steam_id":76561198131362325,"connected_time":277000000000,"state":"active","ping":74},{"user_id":555,"name":"Majami","steam_id":76561198054365738,"connected_time":2412000000000,"state":"active","ping":75},{"user_id":533,"name":"Diamhair","steam_id":76561198109020178,"connected_time":4028000000000,"state":"active","ping":84},{"user_id":573,"name":"nobleevolved","steam_id":76561199240626135,"connected_time":2289000000000,"state":"active","ping":83},{"user_id":622,"name":"FirePhoenyx","steam_id":76561198055701001,"connected_time":103000000000,"state":"active","ping":71},{"user_id":623,"name":"Baby Peanut","steam_id":76561198352261145,"connected_time":89000000000,"state":"active","ping":189},{"user_id":595,"name":"Dennis Reynolds","steam_id":76561197960371259,"connected_time":834000000000,"state":"active","ping":164},{"user_id":586,"name":"dude m8","steam_id":76561198155649280,"connected_time":1123000000000,"state":"active","ping":76},{"user_id":596,"name":"dank pank","steam_id":76561198995052713,"connected_time":805000000000,"state":"active","ping":59}]},{"server_id":51,"name":"Uncletopia | Warsaw | 3 | All Maps","name_short":"waw-3","host":"waw-1.pl.uncletopia.com","port":27035,"enabled":true,"region":"eu","cc":"pl","latitude":52.2297,"longitude":21.017532,"reserved":0,"last_update":"0001-01-01T00:00:00Z","name_a2s":"Uncletopia | Warsaw | 3 | All Maps","protocol":17,"map":"pl_badwater","folder":"tf","game":"Team Fortress","app_id":440,"player_count":24,"max_players":24,"Bots":0,"server_type":"Dedicated","server_os":"Linux","password":true,"vac":true,"version":"7961495","steam_id":85568392925397852,"keywords":["nocrits","nodmgspread","payload","uncletopia"],"game_id":440,"stv_port":27036,"stv_name":"Uncletopia | Warsaw | 3 | All Maps | STV","players":[{"user_id":23,"name":"Ursyn","steam_id":76561198287800213,"connected_time":2926000000000,"state":"active","ping":54},{"user_id":34,"name":"TheRock","steam_id":76561198386889558,"connected_time":1372000000000,"state":"active","ping":60},{"user_id":25,"name":"Guthlaf","steam_id":76561198153564078,"connected_time":2917000000000,"state":"active","ping":50},{"user_id":26,"name":"Laryssa","steam_id":76561198271084076,"connected_time":2916000000000,"state":"active","ping":45},{"user_id":32,"name":"Worms","steam_id":76561198040442214,"connected_time":1771000000000,"state":"active","ping":82},{"user_id":28,"name":"Hrabia","steam_id":76561198164608139,"connected_time":2898000000000,"state":"active","ping":44},{"user_id":29,"name":"SIGSTACKFAULT","steam_id":76561198055203857,"connected_time":2166000000000,"state":"active","ping":172},{"user_id":35,"name":"TOLIC ENGINEER","steam_id":76561198985562801,"connected_time":1282000000000,"state":"active","ping":154},{"user_id":36,"name":"Justi","steam_id":76561199068407599,"connected_time":1217000000000,"state":"active","ping":170},{"user_id":33,"name":"MrTheMarkoman","steam_id":76561198049902374,"connected_time":1741000000000,"state":"active","ping":84},{"user_id":56,"name":"tensh1","steam_id":76561198282471866,"connected_time":300000000000,"state":"active","ping":113},{"user_id":38,"name":"God's Hungriest PitBull","steam_id":76561198069518492,"connected_time":1053000000000,"state":"active","ping":97},{"user_id":55,"name":"dragonos451","steam_id":76561198041146385,"connected_time":321000000000,"state":"active","ping":75},{"user_id":44,"name":"Keira","steam_id":76561198330870400,"connected_time":637000000000,"state":"active","ping":55},{"user_id":57,"name":"perrito","steam_id":76561198797228029,"connected_time":262000000000,"state":"active","ping":72},{"user_id":58,"name":"Koko","steam_id":76561198160358848,"connected_time":84000000000,"state":"active","ping":44},{"user_id":46,"name":"Папаша","steam_id":76561198950820678,"connected_time":539000000000,"state":"active","ping":79},{"user_id":47,"name":"roltsi","steam_id":76561198014337231,"connected_time":513000000000,"state":"active","ping":90},{"user_id":48,"name":"Nolemai","steam_id":76561198012618182,"connected_time":506000000000,"state":"active","ping":85},{"user_id":49,"name":"idenburg","steam_id":76561198063574956,"connected_time":498000000000,"state":"active","ping":82},{"user_id":59,"name":"TIMAXS IMPOTENT","steam_id":76561198070506349,"connected_time":80000000000,"state":"active","ping":59},{"user_id":51,"name":"s8nschoice","steam_id":76561198176658659,"connected_time":491000000000,"state":"active","ping":151},{"user_id":52,"name":"Theonyn","steam_id":76561198078240992,"connected_time":485000000000,"state":"active","ping":97},{"user_id":54,"name":"ДИНОЗАВР","steam_id":76561198054281705,"connected_time":429000000000,"state":"active","ping":98}]},{"server_id":52,"name":"Uncletopia | Warsaw | 4 | All Maps","name_short":"waw-4","host":"waw-1.pl.uncletopia.com","port":27045,"enabled":true,"region":"eu","cc":"pl","latitude":52.2297,"longitude":21.017532,"reserved":0,"last_update":"0001-01-01T00:00:00Z","name_a2s":"Uncletopia | Warsaw | 4 | All Maps","protocol":17,"map":"pl_pier","folder":"tf","game":"Team Fortress","app_id":440,"player_count":20,"max_players":24,"Bots":0,"server_type":"Dedicated","server_os":"Linux","password":true,"vac":true,"version":"7961495","steam_id":85568392925397853,"keywords":["nocrits","nodmgspread","payload","uncletopia"],"game_id":440,"stv_port":27046,"stv_name":"Uncletopia | Warsaw | 4 | All Maps | STV","players":[{"user_id":17,"name":"Cikula","steam_id":76561198324384778,"connected_time":7502000000000,"state":"active","ping":61},{"user_id":118,"name":"pajakala","steam_id":76561198271641525,"connected_time":1616000000000,"state":"active","ping":48},{"user_id":129,"name":"󠁳⁧⁧ Kruthal","steam_id":76561198245726582,"connected_time":636000000000,"state":"active","ping":48},{"user_id":120,"name":"radu","steam_id":76561198067346802,"connected_time":1537000000000,"state":"active","ping":86},{"user_id":130,"name":"Volodya","steam_id":76561198124484658,"connected_time":593000000000,"state":"active","ping":105},{"user_id":114,"name":"UltraCaustic","steam_id":76561198843328797,"connected_time":1653000000000,"state":"active","ping":55},{"user_id":115,"name":"eLoeL","steam_id":76561198275528938,"connected_time":1642000000000,"state":"active","ping":60},{"user_id":67,"name":"ᴋᴜᴀʀᴛ","steam_id":76561199212930778,"connected_time":4659000000000,"state":"active","ping":46},{"user_id":123,"name":"KENZO","steam_id":76561197993520279,"connected_time":1244000000000,"state":"active","ping":65},{"user_id":131,"name":"cuddles","steam_id":76561198805181599,"connected_time":564000000000,"state":"active","ping":88},{"user_id":55,"name":"ScampSixteen","steam_id":76561198021771000,"connected_time":5417000000000,"state":"active","ping":70},{"user_id":108,"name":"Riky95","steam_id":76561198095289436,"connected_time":1925000000000,"state":"active","ping":60},{"user_id":100,"name":"Soulman25 (FIN)","steam_id":76561198103611974,"connected_time":2697000000000,"state":"active","ping":103},{"user_id":122,"name":"Stinktastic Nornia","steam_id":76561198040509712,"connected_time":1295000000000,"state":"active","ping":77},{"user_id":116,"name":"Wesnicak CZ","steam_id":76561198124483688,"connected_time":1632000000000,"state":"active","ping":51},{"user_id":88,"name":"zinzyk","steam_id":76561198128011822,"connected_time":3470000000000,"state":"active","ping":60},{"user_id":121,"name":"Egtu","steam_id":76561198013757235,"connected_time":1452000000000,"state":"active","ping":44},{"user_id":124,"name":"grimbus","steam_id":76561198140431949,"connected_time":1235000000000,"state":"active","ping":67},{"user_id":127,"name":"Bubsy 3D","steam_id":76561197988942314,"connected_time":938000000000,"state":"active","ping":59},{"user_id":80,"name":"Kaziocalvice","steam_id":76561198146425583,"connected_time":4130000000000,"state":"active","ping":86}]},{"server_id":53,"name":"Uncletopia | Warsaw | 5 | Stopwatch","name_short":"waw-5","host":"waw-1.pl.uncletopia.com","port":27055,"enabled":true,"region":"eu","cc":"pl","latitude":52.2297,"longitude":21.017532,"reserved":0,"last_update":"0001-01-01T00:00:00Z","name_a2s":"Uncletopia | Warsaw | 5 | Stopwatch","protocol":17,"map":"workshop/koth_product_final.ugc454272353","folder":"tf","game":"Team Fortress","app_id":440,"player_count":0,"max_players":24,"Bots":0,"server_type":"Dedicated","server_os":"Linux","password":true,"vac":true,"version":"7961495","steam_id":85568392925397854,"keywords":["cp","nocrits","nodmgspread","uncletopia"],"game_id":440,"stv_port":27056,"stv_name":"Uncletopia | Warsaw | 5 | Stopwatch | STV","players":null},{"server_id":54,"name":"Uncletopia | Warsaw | 6 | Community","name_short":"waw-6","host":"waw-1.pl.uncletopia.com","port":27065,"enabled":true,"region":"eu","cc":"pl","latitude":52.2297,"longitude":21.017532,"reserved":0,"last_update":"0001-01-01T00:00:00Z","name_a2s":"Uncletopia | Warsaw | 6 | Community","protocol":17,"map":"workshop/cp_glacier_rc6.ugc2905735376","folder":"tf","game":"Team Fortress","app_id":440,"player_count":5,"max_players":24,"Bots":0,"server_type":"Dedicated","server_os":"Linux","password":true,"vac":true,"version":"7961495","steam_id":85568392925397856,"keywords":["cp","nocrits","nodmgspread","uncletopia"],"game_id":440,"stv_port":27066,"stv_name":"Uncletopia | Warsaw | 6 | Community | STV","players":[{"user_id":29,"name":"Silverstorm","steam_id":76561198118175267,"connected_time":559000000000,"state":"active","ping":73},{"user_id":23,"name":"TSx* Osa__PL","steam_id":76561198027016799,"connected_time":1223000000000,"state":"active","ping":44},{"user_id":16,"name":"TSx* Naxer","steam_id":76561198011986779,"connected_time":1685000000000,"state":"active","ping":45},{"user_id":20,"name":"TSx* {Demon-Angel}","steam_id":76561198151486463,"connected_time":1403000000000,"state":"active","ping":44},{"user_id":21,"name":"TSx* Dante","steam_id":76561198139309331,"connected_time":1394000000000,"state":"active","ping":42}]}]}