{"status":true,"message":"","result":[{"server_id":9,"name":"Uncletopia | Atlanta | 1 | All Maps","name_short":"atl-1","host":"atl-1.us.uncletopia.com","port":27015,"enabled":true,"region":"us-east","cc":"us","latitude":33.753746,"longitude":-84.38633,"reserved":0,"last_update":"0001-01-01T00:00:00Z","name_a2s":"Uncletopia | Atlanta | 1 | All Maps","protocol":17,"map":"pl_pier","folder":"tf","game":"Team Fortress","app_id":440,"player_count":23,"max_players":24,"Bots":0,"server_type":"Dedicated","server_os":"Linux","password":true,"vac":true,"version":"7757534","steam_id":85568392924469982,"keywords":["nocrits","nodmgspread","payload","uncletopia"],"game_id":440,"stv_port":27016,"stv_name":"Uncletopia | Atlanta | 1 | All Maps | STV","players":[{"user_id":80,"name":".superjeuse","steam_id":76561198077652094,"connected_time":262000000000,"state":"active","ping":90},{"user_id":87,"name":"LitlToast","steam_id":76561198353473171,"connected_time":214000000000,"state":"active","ping":67},{"user_id":82,"name":"sad_hours","steam_id":76561199069031952,"connected_time":255000000000,"state":"active","ping":81},{"user_id":78,"name":"SackOfPotatoes","steam_id":76561198799020069,"connected_time":682000000000,"state":"active","ping":72},{"user_id":86,"name":"Proto","steam_id":76561198053602795,"connected_time":245000000000,"state":"active","ping":87},{"user_id":77,"name":"Expendez","steam_id":76561198049484556,"connected_time":706000000000,"state":"active","ping":83},{"user_id":75,"name":"Rain","steam_id":76561198074827140,"connected_time":865000000000,"state":"active","ping":90},{"user_id":88,"name":"Fleetway","steam_id":76561198392105594,"connected_time":205000000000,"state":"active","ping":78},{"user_id":83,"name":"Dewgong (real)","steam_id":76561198045999391,"connected_time":253000000000,"state":"active","ping":78},{"user_id":58,"name":"DyÄ“us PÉ™tá¸—r","steam_id":76561198069735882,"connected_time":1584000000000,"state":"active","ping":47},{"user_id":85,"name":"Torips","steam_id":76561198251665862,"connected_time":250000000000,"state":"connecting","ping":147},{"user_id":42,"name":"Tempus Fugit - Memento Mori","steam_id":76561198047672832,"connected_time":2447000000000,"state":"active","ping":55},{"user_id":52,"name":"Temmie500","steam_id":76561199067942631,"connected_time":1833000000000,"state":"active","ping":96},{"user_id":29,"name":"Novaâ™¥","steam_id":76561198436555608,"connected_time":3022000000000,"state":"active","ping":91},{"user_id":30,"name":"Osrio","steam_id":76561198083428069,"connected_time":3015000000000,"state":"active","ping":89},{"user_id":31,"name":"Twattat","steam_id":76561198074563850,"connected_time":2989000000000,"state":"active","ping":70},{"user_id":64,"name":"Potato Person","steam_id":76561198010373482,"connected_time":1394000000000,"state":"active","ping":72},{"user_id":89,"name":"Sleepy Duck","steam_id":76561198079457788,"connected_time":128000000000,"state":"active","ping":133},{"user_id":90,"name":"the bogus","steam_id":76561198323053875,"connected_time":89000000000,"state":"active","ping":78},{"user_id":67,"name":"IamLightning","steam_id":76561198193881559,"connected_time":1186000000000,"state":"active","ping":56},{"user_id":92,"name":"Ashes!","steam_id":76561197998475441,"connected_time":68000000000,"state":"active","ping":189},{"user_id":46,"name":"indi","steam_id":76561198045917538,"connected_time":2092000000000,"state":"active","ping":73},{"user_id":40,"name":"Tony Rigatoni","steam_id":76561198040602075,"connected_time":2713000000000,"state":"active","ping":91}]},{"server_id":104,"name":"Uncletopia | Atlanta | 2 | All Maps","name_short":"atl-2","host":"atl-1.us.uncletopia.com","port":27025,"enabled":true,"region":"us-east","cc":"us","latitude":33.753746,"longitude":-84.38633,"reserved":0,"last_update":"0001-01-01T00:00:00Z","name_a2s":"Uncletopia | Atlanta | 2 | All Maps","protocol":17,"map":"cp_dustbowl","folder":"tf","game":"Team Fortress","app_id":440,"player_count":0,"max_players":24,"Bots":0,"server_type":"Dedicated","server_os":"Linux","password":true,"vac":true,"version":"7757534","steam_id":85568392924469983,"keywords":["cp","nocrits","nodmgspread","uncletopia"],"game_id":440,"stv_port":27026,"stv_name":"Uncletopia | Atlanta | 2 | All Maps | STV","players":null},{"server_id":400,"name":"Uncletopia | Atlanta | 3 | Community","name_short":"atl-3","host":"atl-1.us.uncletopia.com","port":27035,"enabled":true,"region":"us-east","cc":"us","latitude":33.753746,"longitude":-84.38633,"reserved":0,"last_update":"0001-01-01T00:00:00Z","name_a2s":"Uncletopia | Atlanta | 3 | Community","protocol":17,"map":"workshop/pl_badwater_pro_v12.ugc2142942074","folder":"tf","game":"Team Fortress","app_id":440,"player_count":10,"max_players":24,"Bots":0,"server_type":"Dedicated","server_os":"Linux","password":true,"vac":true,"version":"7757534","steam_id":85568392924515187,"keywords":["nocrits","nodmgspread","payload","uncletopia"],"game_id":440,"stv_port":27036,"stv_name":"Uncletopia | Atlanta | 3 | Community | STV","players":[{"user_id":23,"name":"PzVIIIMaus","steam_id":76561198346559365,"connected_time":307000000000,"state":"active","ping":61},{"user_id":5,"name":"ligma certified sussy balls 201","steam_id":76561197979090955,"connected_time":4224000000000,"state":"active","ping":51},{"user_id":14,"name":"William Wallace","steam_id":76561199343316814,"connected_time":1672000000000,"state":"active","ping":55},{"user_id":22,"name":"avantime","steam_id":76561199203175541,"connected_time":391000000000,"state":"active","ping":109},{"user_id":15,"name":"mari_","steam_id":76561198137855741,"connected_time":1456000000000,"state":"active","ping":68},{"user_id":24,"name":"tanmamba","steam_id":76561198046936380,"connected_time":123000000000,"state":"active","ping":80},{"user_id":25,"name":"bobletoob","steam_id":76561199184464900,"connected_time":70000000000,"state":"active","ping":104},{"user_id":26,"name":"KaiDuck4348","steam_id":76561199060186538,"connected_time":63000000000,"state":"active","ping":70},{"user_id":20,"name":"Degenerate","steam_id":76561198079416360,"connected_time":774000000000,"state":"active","ping":68},{"user_id":27,"name":"Derply","steam_id":76561198871211642,"connected_time":53000000000,"state":"active","ping":109}]},{"server_id":401,"name":"Uncletopia | Atlanta | 4 | No Payload","name_short":"atl-4","host":"atl-1.us.uncletopia.com","port":27045,"enabled":true,"region":"us-east","cc":"us","latitude":33.753746,"longitude":-84.38633,"reserved":0,"last_update":"0001-01-01T00:00:00Z","name_a2s":"","protocol":0,"map":"","folder":"","game":"","app_id":0,"player_count":0,"max_players":0,"Bots":0,"server_type":"","server_os":"","password":false,"vac":false,"version":"","steam_id":0,"keywords":null,"game_id":0,"stv_port":0,"stv_name":"","players":null},{"server_id":2,"name":"Uncletopia | Chicago | 1 | All Maps","name_short":"chi-1","host":"chi-1.us.uncletopia.com","port":27015,"enabled":true,"region":"us-central","cc":"us","latitude":41.881832,"longitude":-87.62318,"reserved":0,"last_update":"0001-01-01T00:00:00Z","name_a2s":"Uncletopia | Chicago | 1 | All Maps","protocol":17,"map":"cp_mountainlab","folder":"tf","game":"Team Fortress","app_id":440,"player_count":17,"max_players":24,"Bots":0,"server_type":"Dedicated","server_os":"Linux","password":true,"vac":true,"version":"7757534","steam_id":85568392924469984,"keywords":["cp","nocrits","nodmgspread","uncletopia"],"game_id":440,"stv_port":27016,"stv_name":"Uncletopia | Chicago | 1 | All Maps | STV","players":[{"user_id":98,"name":"Peter Popoff","steam_id":76561198027171160,"connected_time":770000000000,"state":"active","ping":42},{"user_id":99,"name":"ItzzDibly","steam_id":76561197970733021,"connected_time":722000000000,"state":"active","ping":36},{"user_id":15,"name":"CJspellsfish","steam_id":76561198277342368,"connected_time":6303000000000,"state":"active","ping":72},{"user_id":64,"name":"qwerg","steam_id":76561198107191794,"connected_time":3464000000000,"state":"active","ping":71},{"user_id":101,"name":"Noobly","steam_id":76561199066018888,"connected_time":132000000000,"state":"active","ping":43},{"user_id":20,"name":"tone","steam_id":76561198006505587,"connected_time":6049000000000,"state":"active","ping":76},{"user_id":102,"name":"Doffy","steam_id":76561198307816360,"connected_time":89000000000,"state":"active","ping":90},{"user_id":100,"name":"Ltn. What's-his-Nuts","steam_id":76561198133834262,"connected_time":685000000000,"state":"active","ping":56},{"user_id":67,"name":"three cats in a tenchcoat","steam_id":76561199267535506,"connected_time":3449000000000,"state":"active","ping":71},{"user_id":62,"name":"Aramane has NO chill","steam_id":76561197970034459,"connected_time":3569000000000,"state":"active","ping":63},{"user_id":95,"name":"The Hamburglar","steam_id":76561198193943858,"connected_time":819000000000,"state":"active","ping":61},{"user_id":68,"name":"Doom Cart","steam_id":76561198158543955,"connected_time":3432000000000,"state":"active","ping":46},{"user_id":80,"name":"Kars","steam_id":76561198845612670,"connected_time":2091000000000,"state":"active","ping":95},{"user_id":88,"name":"HEâ€™S IN THE GODDAMN WALLS","steam_id":76561198363267009,"connected_time":1299000000000,"state":"active","ping":63},{"user_id":45,"name":"catface","steam_id":76561198096347625,"connected_time":4986000000000,"state":"active","ping":85},{"user_id":86,"name":"cokersworld","steam_id":76561198039731344,"connected_time":1906000000000,"state":"active","ping":286},{"user_id":96,"name":"silliest guy","steam_id":76561198066566813,"connected_time":814000000000,"state":"active","ping":149}]},{"server_id":106,"name":"Uncletopia | Chicago | 2 | All Maps","name_short":"chi-2","host":"chi-1.us.uncletopia.com","port":27025,"enabled":true,"region":"us-central","cc":"us","latitude":41.881832,"longitude":-87.62318,"reserved":0,"last_update":"0001-01-01T00:00:00Z","name_a2s":"Uncletopia | Chicago | 2 | All Maps","protocol":17,"map":"pl_frontier_final","folder":"tf","game":"Team Fortress","app_id":440,"player_count":24,"max_players":24,"Bots":0,"server_type":"Dedicated","server_os":"Linux","password":true,"vac":true,"version":"7757534","steam_id":85568392924469985,"keywords":["nocrits","nodmgspread","payload","uncletopia"],"game_id":440,"stv_port":27026,"stv_name":"Uncletopia | Chicago | 2 | All Maps | STV","players":[{"user_id":163,"name":"Mr. Tickle","steam_id":76561198126684647,"connected_time":526000000000,"state":"active","ping":59},{"user_id":138,"name":"teaspinator","steam_id":76561199069748074,"connected_time":3539000000000,"state":"active","ping":48},{"user_id":121,"name":"Hotdog Goblin","steam_id":76561198004133638,"connected_time":4866000000000,"state":"active","ping":96},{"user_id":162,"name":"fug","steam_id":76561198337692867,"connected_time":754000000000,"state":"active","ping":66},{"user_id":164,"name":"TUNDRA","steam_id":76561198154290754,"connected_time":508000000000,"state":"active","ping":65},{"user_id":102,"name":"jema","steam_id":76561198276513608,"connected_time":6584000000000,"state":"active","ping":165},{"user_id":152,"name":"rhymes_with_garden","steam_id":76561198307828116,"connected_time":2036000000000,"state":"active","ping":58},{"user_id":168,"name":"RyInc","steam_id":76561198874261643,"connected_time":403000000000,"state":"active","ping":46},{"user_id":133,"name":"Mister","steam_id":76561198097164652,"connected_time":3605000000000,"state":"active","ping":76},{"user_id":148,"name":"Ichthyology Enthusiast","steam_id":76561198854662187,"connected_time":2645000000000,"state":"active","ping":59},{"user_id":160,"name":"vv","steam_id":76561198134813102,"connected_time":959000000000,"state":"active","ping":59},{"user_id":127,"name":"An Offended","steam_id":76561198162461585,"connected_time":3918000000000,"state":"active","ping":115},{"user_id":171,"name":"TheRkey","steam_id":76561198989187114,"connected_time":1000000000,"state":"spawning","ping":43},{"user_id":169,"name":"Flooph_","steam_id":76561199213806498,"connected_time":343000000000,"state":"active","ping":63},{"user_id":149,"name":"DRLdestroyer","steam_id":76561198085803893,"connected_time":2615000000000,"state":"active","ping":64},{"user_id":106,"name":"creepycrawler","steam_id":76561198352016831,"connected_time":6214000000000,"state":"active","ping":60},{"user_id":130,"name":"EnergyBolt30","steam_id":76561198925178957,"connected_time":3687000000000,"state":"active","ping":80},{"user_id":129,"name":"vanilla linguine","steam_id":76561198155661890,"connected_time":3736000000000,"state":"active","ping":75},{"user_id":166,"name":"King Popcat","steam_id":76561199248781401,"connected_time":476000000000,"state":"active","ping":72},{"user_id":30,"name":"vyx","steam_id":76561198037205391,"connected_time":11852000000000,"state":"active","ping":81},{"user_id":167,"name":"Legit_Jaxer","steam_id":76561198172234053,"connected_time":459000000000,"state":"active","ping":109},{"user_id":157,"name":"mrselfdestruct13","steam_id":76561197992054553,"connected_time":1724000000000,"state":"active","ping":87},{"user_id":170,"name":"Rocket To Insanity","steam_id":76561197998166266,"connected_time":141000000000,"state":"active","ping":73},{"user_id":123,"name":"Vanilla trains rights choo choo","steam_id":76561199106847859,"connected_time":4505000000000,"state":"active","ping":71}]},{"server_id":402,"name":"Uncletopia | Chicago | 3 | All Maps","name_short":"chi-3","host":"chi-1.us.uncletopia.com","port":27035,"enabled":true,"region":"us-central","cc":"us","latitude":41.881832,"longitude":-87.62318,"reserved":0,"last_update":"0001-01-01T00:00:00Z","name_a2s":"Uncletopia | Chicago | 3 | All Maps","protocol":17,"map":"cp_snakewater_final1","folder":"tf","game":"Team Fortress","app_id":440,"player_count":0,"max_players":24,"Bots":0,"server_type":"Dedicated","server_os":"Linux","password":true,"vac":true,"version":"7757534","steam_id":85568392924515191,"keywords":["cp","nocrits","nodmgspread","uncletopia"],"game_id":440,"stv_port":27036,"stv_name":"Uncletopia | Chicago | 3 | All Maps | STV","players":null},{"server_id":403,"name":"Uncletopia | Chicago | 4 | All Maps","name_short":"chi-4","host":"chi-1.us.uncletopia.com","port":27045,"enabled":true,"region":"us-central","cc":"us","latitude":41.881832,"longitude":-87.62318,"reserved":0,"last_update":"0001-01-01T00:00:00Z","name_a2s":"Uncletopia | Chicago | 4 | All Maps","protocol":17,"map":"cp_process_final","folder":"tf","game":"Team Fortress","app_id":440,"player_count":23,"max_players":24,"Bots":0,"server_type":"Dedicated","server_os":"Linux","password":true,"vac":true,"version":"7757534","steam_id":85568392924515193,"keywords":["cp","nocrits","nodmgspread","uncletopia"],"game_id":440,"stv_port":27046,"stv_name":"Uncletopia | Chicago | 4 | All Maps | STV","players":[{"user_id":50,"name":"Metbol","steam_id":76561198001362410,"connected_time":5278000000000,"state":"active","ping":82},{"user_id":105,"name":"Jimmy jam123","steam_id":76561199216003981,"connected_time":1471000000000,"state":"active","ping":75},{"user_id":88,"name":"RiverEgg","steam_id":76561198888913405,"connected_time":2756000000000,"state":"active","ping":54},{"user_id":52,"name":"TrashMann","steam_id":76561198040969743,"connected_time":5136000000000,"state":"active","ping":75},{"user_id":117,"name":"carrion goat she/it","steam_id":76561198262064871,"connected_time":395000000000,"state":"active","ping":45},{"user_id":41,"name":"G0LD","steam_id":76561198890015734,"connected_time":6631000000000,"state":"active","ping":92},{"user_id":84,"name":"bappoOG","steam_id":76561199294792123,"connected_time":2996000000000,"state":"active","ping":55},{"user_id":115,"name":"Inpecular","steam_id":76561198096571237,"connected_time":687000000000,"state":"active","ping":84},{"user_id":106,"name":"like","steam_id":76561199103766971,"connected_time":1452000000000,"state":"active","ping":87},{"user_id":107,"name":"Retrowave","steam_id":76561198061921346,"connected_time":1435000000000,"state":"active","ping":59},{"user_id":102,"name":"volta","steam_id":76561199214283884,"connected_time":1912000000000,"state":"active","ping":92},{"user_id":69,"name":"Corpe","steam_id":76561198054490549,"connected_time":3947000000000,"state":"active","ping":120},{"user_id":96,"name":"_Lusty_","steam_id":76561198876948142,"connected_time":2106000000000,"state":"active","ping":65},{"user_id":108,"name":"Cooki","steam_id":76561198051705314,"connected_time":1432000000000,"state":"active","ping":70},{"user_id":110,"name":"J.G. Klaus","steam_id":76561198001111196,"connected_time":1050000000000,"state":"active","ping":62},{"user_id":111,"name":"penguinlord","steam_id":76561198305192692,"connected_time":1005000000000,"state":"active","ping":59},{"user_id":63,"name":"Loop","steam_id":76561198880211576,"connected_time":4487000000000,"state":"active","ping":93},{"user_id":116,"name":"zeplinnn","steam_id":76561198301300987,"connected_time":592000000000,"state":"active","ping":105},{"user_id":29,"name":"BONZ","steam_id":76561199445629071,"connected_time":7173000000000,"state":"active","ping":60},{"user_id":114,"name":"i really like this dog :)","steam_id":76561198882404753,"connected_time":957000000000,"state":"active","ping":82},{"user_id":118,"name":"OReally","steam_id":76561197974569241,"connected_time":32000000000,"state":"active","ping":62},{"user_id":65,"name":"hk","steam_id":76561197977182378,"connected_time":4436000000000,"state":"active","ping":46},{"user_id":92,"name":"Vial of Throbb","steam_id":76561198348095996,"connected_time":2665000000000,"state":"active","ping":75}]},{"server_id":36,"name":"Uncletopia | Chicago | 5 | All Maps","name_short":"chi-5","host":"chi-2.us.uncletopia.com","port":27015,"enabled":true,"region":"us-central","cc":"us","latitude":41.881832,"longitude":-87.62318,"reserved":0,"last_update":"0001-01-01T00:00:00Z","name_a2s":"Uncletopia | Chicago | 5 | All Maps","protocol":17,"map":"koth_cascade","folder":"tf","game":"Team Fortress","app_id":440,"player_count":0,"max_players":24,"Bots":0,"server_type":"Dedicated","server_os":"Linux","password":true,"vac":true,"version":"7757534","steam_id":85568392924866362,"keywords":["cp","nocrits","nodmgspread","uncletopia"],"game_id":440,"stv_port":27016,"stv_name":"Uncletopia | Chicago | 5 | All Maps | STV","players":null},{"server_id":37,"name":"Uncletopia | Chicago | 6 | All Maps","name_short":"chi-6","host":"chi-2.us.uncletopia.com","port":27025,"enabled":true,"region":"us-central","cc":"us","latitude":41.881832,"longitude":-87.62318,"reserved":0,"last_update":"0001-01-01T00:00:00Z","name_a2s":"Uncletopia | Chicago | 6 | All Maps","protocol":17,"map":"pl_borneo","folder":"tf","game":"Team Fortress","app_id":440,"player_count":0,"max_players":24,"Bots":0,"server_type":"Dedicated","server_os":"Linux","password":true,"vac":true,"version":"7757534","steam_id":85568392924866363,"keywords":["nocrits","nodmgspread","payload","uncletopia"],"game_id":440,"stv_port":27026,"stv_name":"Uncletopia | Chicago | 6 | All Maps | STV","players":null},{"server_id":38,"name":"Uncletopia | Chicago | 7 | Stopwatch Beta","name_short":"chi-7","host":"chi-2.us.uncletopia.com","port":27035,"enabled":true,"region":"us-central","cc":"us","latitude":41.881832,"longitude":-87.62318,"reserved":0,"last_update":"0001-01-01T00:00:00Z","name_a2s":"Uncletopia | Chicago | 7 | Stopwatch Beta","protocol":17,"map":"pl_swiftwater_final1","folder":"tf","game":"Team Fortress","app_id":440,"player_count":0,"max_players":24,"Bots":0,"server_type":"Dedicated","server_os":"Linux","password":true,"vac":true,"version":"7757534","steam_id":85568392924866364,"keywords":["nocrits","nodmgspread","payload","uncletopia"],"game_id":440,"stv_port":27036,"stv_name":"Uncletopia | Chicago | 7 | Stopwatch Beta | STV","players":null},{"server_id":39,"name":"Uncletopia | Chicago | 8 | Community","name_short":"chi-8","host":"chi-2.us.uncletopia.com","port":27045,"enabled":true,"region":"us-central","cc":"us","latitude":41.881832,"longitude":-87.62318,"reserved":0,"last_update":"0001-01-01T00:00:00Z","name_a2s":"Uncletopia | Chicago | 8 | Community","protocol":17,"map":"koth_cascade","folder":"tf","game":"Team Fortress","app_id":440,"player_count":0,"max_players":24,"Bots":0,"server_type":"Dedicated","server_os":"Linux","password":true,"vac":true,"version":"7757534","steam_id":85568392924866365,"keywords":["cp","nocrits","nodmgspread","uncletopia"],"game_id":440,"stv_port":27046,"stv_name":"Uncletopia | Chicago | 8 | Community | STV","players":null},{"server_id":8,"name":"Uncletopia | Dallas | 1 | All Maps","name_short":"dal-1","host":"dal-1.us.uncletopia.com","port":27015,"enabled":true,"region":"us-central","cc":"us","latitude":32.779167,"longitude":-96.80889,"reserved":0,"last_update":"0001-01-01T00:00:00Z","name_a2s":"Uncletopia | Dallas | 1 | All Maps","protocol":17,"map":"pl_upward","folder":"tf","game":"Team Fortress","app_id":440,"player_count":1,"max_players":24,"Bots":0,"server_type":"Dedicated","server_os":"Linux","password":true,"vac":true,"version":"7757534","steam_id":85568392924469986,"keywords":["nocrits","nodmgspread","payload","uncletopia"],"game_id":440,"stv_port":27016,"stv_name":"Uncletopia | Dallas | 1 | All Maps | STV","players":[{"user_id":10,"name":"Stuck In Medieval Mode!!!","steam_id":76561198391687083,"connected_time":498000000000,"state":"active","ping":70}]},{"server_id":108,"name":"Uncletopia | Dallas | 2 | All Maps","name_short":"dal-2","host":"dal-1.us.uncletopia.com","port":27025,"enabled":true,"region":"us-central","cc":"us","latitude":32.779167,"longitude":-96.80889,"reserved":0,"last_update":"0001-01-01T00:00:00Z","name_a2s":"Uncletopia | Dallas | 2 | All Maps","protocol":17,"map":"pl_upward","folder":"tf","game":"Team Fortress","app_id":440,"player_count":0,"max_players":24,"Bots":0,"server_type":"Dedicated","server_os":"Linux","password":true,"vac":true,"version":"7757534","steam_id":85568392924469988,"keywords":["nocrits","nodmgspread","payload","uncletopia"],"game_id":440,"stv_port":27026,"stv_name":"Uncletopia | Dallas | 2 | All Maps | STV","players":null},{"server_id":5,"name":"Uncletopia | Frankfurt | 1 | All Maps","name_short":"frk-1","host":"frk-1.de.uncletopia.com","port":27015,"enabled":true,"region":"eu","cc":"de","latitude":50.110924,"longitude":8.682127,"reserved":0,"last_update":"0001-01-01T00:00:00Z","name_a2s":"Uncletopia | Frankfurt | 1 | All Maps","protocol":17,"map":"pl_swiftwater_final1","folder":"tf","game":"Team Fortress","app_id":440,"player_count":24,"max_players":24,"Bots":0,"server_type":"Dedicated","server_os":"Linux","password":true,"vac":true,"version":"7757534","steam_id":85568392924469989,"keywords":["nocrits","nodmgspread","payload","uncletopia"],"game_id":440,"stv_port":27016,"stv_name":"Uncletopia | Frankfurt | 1 | All Maps | STV","players":[{"user_id":12,"name":"TheShadowScribe","steam_id":76561199037525945,"connected_time":8256000000000,"state":"active","ping":95},{"user_id":82,"name":"howabe","steam_id":76561197996486818,"connected_time":1351000000000,"state":"active","ping":56},{"user_id":103,"name":"SocialistBacon","steam_id":76561198055872267,"connected_time":204000000000,"state":"active","ping":64},{"user_id":102,"name":"wicked","steam_id":76561198164376035,"connected_time":218000000000,"state":"active","ping":84},{"user_id":74,"name":"NLSAM","steam_id":76561199111154916,"connected_time":2128000000000,"state":"active","ping":66},{"user_id":110,"name":"fifrok","steam_id":76561198799267621,"connected_time":14000000000,"state":"active","ping":75},{"user_id":66,"name":"i look at gay people","steam_id":76561198078032019,"connected_time":2763000000000,"state":"active","ping":88},{"user_id":76,"name":"bigmazi","steam_id":76561198133276643,"connected_time":2104000000000,"state":"active","ping":85},{"user_id":108,"name":"dr. coom","steam_id":76561198172193711,"connected_time":73000000000,"state":"active","ping":55},{"user_id":83,"name":"Kikuri Hiroi","steam_id":76561198376786609,"connected_time":1221000000000,"state":"active","ping":94},{"user_id":100,"name":"oriano","steam_id":76561198099916327,"connected_time":329000000000,"state":"active","ping":61},{"user_id":57,"name":"Deacon Dracul","steam_id":76561198046880663,"connected_time":3338000000000,"state":"active","ping":100},{"user_id":92,"name":"A stripper","steam_id":76561198034865891,"connected_time":591000000000,"state":"active","ping":62},{"user_id":93,"name":"Blitzy","steam_id":76561198059253518,"connected_time":557000000000,"state":"active","ping":80},{"user_id":98,"name":"Xriasp","steam_id":76561198104721321,"connected_time":441000000000,"state":"active","ping":70},{"user_id":59,"name":"WX-78","steam_id":76561199117263527,"connected_time":3258000000000,"state":"active","ping":151},{"user_id":86,"name":"Lassie","steam_id":76561198131924713,"connected_time":752000000000,"state":"active","ping":57},{"user_id":109,"name":"avewszystkim","steam_id":76561199382492530,"connected_time":65000000000,"state":"active","ping":67},{"user_id":106,"name":"Danio211","steam_id":76561199228698878,"connected_time":163000000000,"state":"active","ping":90},{"user_id":96,"name":"Stabbyratbag","steam_id":76561198119531916,"connected_time":495000000000,"state":"active","ping":57},{"user_id":77,"name":"FUKAYU","steam_id":76561198380484033,"connected_time":2057000000000,"state":"active","ping":55},{"user_id":81,"name":"Wululu","steam_id":76561198180657331,"connected_time":1391000000000,"state":"active","ping":65},{"user_id":95,"name":"Lordware","steam_id":76561198022011299,"connected_time":550000000000,"state":"active","ping":82},{"user_id":85,"name":"Feylo","steam_id":76561199149815448,"connected_time":791000000000,"state":"active","ping":75}]},{"server_id":110,"name":"Uncletopia | Frankfurt | 2 | All Maps","name_short":"frk-2","host":"frk-1.de.uncletopia.com","port":27025,"enabled":true,"region":"eu","cc":"de","latitude":50.110924,"longitude":8.682127,"reserved":0,"last_update":"0001-01-01T00:00:00Z","name_a2s":"Uncletopia | Frankfurt | 2 | All Maps","protocol":17,"map":"pl_badwater","folder":"tf","game":"Team Fortress","app_id":440,"player_count":24,"max_players":24,"Bots":0,"server_type":"Dedicated","server_os":"Linux","password":true,"vac":true,"version":"7757534","steam_id":85568392924469990,"keywords":["nocrits","nodmgspread","payload","uncletopia"],"game_id":440,"stv_port":27026,"stv_name":"Uncletopia | Frankfurt | 2 | All Maps | STV","players":[{"user_id":143,"name":"scroted sigma freud","steam_id":76561198162462063,"connected_time":1923000000000,"state":"active","ping":68},{"user_id":166,"name":"MLG Peridot","steam_id":76561198069780233,"connected_time":384000000000,"state":"active","ping":60},{"user_id":153,"name":"SCRAMMMBLED","steam_id":76561197998307746,"connected_time":1141000000000,"state":"active","ping":63},{"user_id":156,"name":"Ð’Ð°Ð´Ð¸Ð¼ ÐšÐ°ÐºÐ°ÑˆÐºÐ¸Ð½","steam_id":76561198383509320,"connected_time":781000000000,"state":"active","ping":76},{"user_id":164,"name":"King Of The Chill","steam_id":76561197971394640,"connected_time":549000000000,"state":"active","ping":192},{"user_id":151,"name":"finbar","steam_id":76561198056812396,"connected_time":1603000000000,"state":"active","ping":82},{"user_id":131,"name":"Jack","steam_id":76561198325505238,"connected_time":2887000000000,"state":"active","ping":73},{"user_id":152,"name":"MoeruKurowassan","steam_id":76561198319349647,"connected_time":1544000000000,"state":"active","ping":84},{"user_id":126,"name":"Bigman","steam_id":76561199072016452,"connected_time":2998000000000,"state":"active","ping":164},{"user_id":147,"name":"dassasinb","steam_id":76561198128316186,"connected_time":1823000000000,"state":"active","ping":63},{"user_id":158,"name":"cherry powder","steam_id":76561199006915718,"connected_time":732000000000,"state":"active","ping":63},{"user_id":148,"name":"jill valentine","steam_id":76561198075068529,"connected_time":1791000000000,"state":"active","ping":54},{"user_id":163,"name":"kyuta","steam_id":76561198382281653,"connected_time":633000000000,"state":"active","ping":91},{"user_id":157,"name":"Tobey Wan Kenobi","steam_id":76561198201249363,"connected_time":755000000000,"state":"active","ping":92},{"user_id":165,"name":"Egor Pomidor","steam_id":76561199175688390,"connected_time":435000000000,"state":"active","ping":81},{"user_id":167,"name":"Loyde","steam_id":76561198029919524,"connected_time":317000000000,"state":"active","ping":105},{"user_id":162,"name":"Jendos","steam_id":76561198026471272,"connected_time":702000000000,"state":"active","ping":105},{"user_id":117,"name":"TarekInnit","steam_id":76561198298618127,"connected_time":3793000000000,"state":"active","ping":49},{"user_id":168,"name":"Bilbo Ballbaggins","steam_id":76561198070593514,"connected_time":263000000000,"state":"active","ping":54},{"user_id":169,"name":"f/G","steam_id":76561198002287511,"connected_time":178000000000,"state":"active","ping":88},{"user_id":146,"name":"Asuka","steam_id":76561198358436150,"connected_time":1845000000000,"state":"active","ping":64},{"user_id":161,"name":"Shi æ­»","steam_id":76561199214163032,"connected_time":720000000000,"state":"active","ping":99},{"user_id":66,"name":"Bobo","steam_id":76561198052308399,"connected_time":8533000000000,"state":"active","ping":61},{"user_id":130,"name":"MEDiUM","steam_id":76561198112328561,"connected_time":2966000000000,"state":"active","ping":75}]},{"server_id":308,"name":"Uncletopia | Frankfurt | 3 | All Maps","name_short":"frk-3","host":"frk-1.de.uncletopia.com","port":27035,"enabled":true,"region":"eu","cc":"de","latitude":50.110924,"longitude":8.682127,"reserved":0,"last_update":"0001-01-01T00:00:00Z","name_a2s":"Uncletopia | Frankfurt | 3 | All Maps","protocol":17,"map":"pl_pier","folder":"tf","game":"Team Fortress","app_id":440,"player_count":0,"max_players":24,"Bots":0,"server_type":"Dedicated","server_os":"Linux","password":true,"vac":true,"version":"7757534","steam_id":85568392924504274,"keywords":["nocrits","nodmgspread","payload","uncletopia"],"game_id":440,"stv_port":27036,"stv_name":"Uncletopia | Frankfurt | 3 | All Maps | STV","players":null},{"server_id":309,"name":"Uncletopia | Frankfurt | 4 | All Maps","name_short":"frk-4","host":"frk-1.de.uncletopia.com","port":27045,"enabled":true,"region":"eu","cc":"de","latitude":50.110924,"longitude":8.682127,"reserved":0,"last_update":"0001-01-01T00:00:00Z","name_a2s":"Uncletopia | Frankfurt | 4 | All Maps","protocol":17,"map":"koth_highpass","folder":"tf","game":"Team Fortress","app_id":440,"player_count":2,"max_players":24,"Bots":0,"server_type":"Dedicated","server_os":"Linux","password":true,"vac":true,"version":"7757534","steam_id":85568392924504275,"keywords":["cp","nocrits","nodmgspread","uncletopia"],"game_id":440,"stv_port":27046,"stv_name":"Uncletopia | Frankfurt | 4 | All Maps | STV","players":[{"user_id":20,"name":"pan","steam_id":76561198829879412,"connected_time":93000000000,"state":"active","ping":54},{"user_id":17,"name":"Vorge","steam_id":76561198411852459,"connected_time":521000000000,"state":"active","ping":122}]},{"server_id":310,"name":"Uncletopia | Frankfurt | 5 | All Maps","name_short":"frk-5","host":"frk-1.de.uncletopia.com","port":27055,"enabled":true,"region":"eu","cc":"de","latitude":50.110924,"longitude":8.682127,"reserved":0,"last_update":"0001-01-01T00:00:00Z","name_a2s":"Uncletopia | Frankfurt | 5 | All Maps","protocol":17,"map":"koth_lakeside_final","folder":"tf","game":"Team Fortress","app_id":440,"player_count":0,"max_players":24,"Bots":0,"server_type":"Dedicated","server_os":"Linux","password":true,"vac":true,"version":"7757534","steam_id":85568392924504277,"keywords":["cp","nocrits","nodmgspread","uncletopia"],"game_id":440,"stv_port":27056,"stv_name":"Uncletopia | Frankfurt | 5 | All Maps | STV","players":null},{"server_id":311,"name":"Uncletopia | Frankfurt | 6 | All Maps","name_short":"frk-6","host":"frk-1.de.uncletopia.com","port":27065,"enabled":true,"region":"eu","cc":"de","latitude":50.110924,"longitude":8.682127,"reserved":0,"last_update":"0001-01-01T00:00:00Z","name_a2s":"Uncletopia | Frankfurt | 6 | All Maps","protocol":17,"map":"cp_sunshine","folder":"tf","game":"Team Fortress","app_id":440,"player_count":23,"max_players":24,"Bots":0,"server_type":"Dedicated","server_os":"Linux","password":true,"vac":true,"version":"7757534","steam_id":85568392924504278,"keywords":["cp","nocrits","nodmgspread","uncletopia"],"game_id":440,"stv_port":27066,"stv_name":"Uncletopia | Frankfurt | 6 | All Maps | STV","players":[{"user_id":226,"name":"Purple","steam_id":76561199032365015,"connected_time":577000000000,"state":"active","ping":91},{"user_id":227,"name":"Nards","steam_id":76561198001819260,"connected_time":563000000000,"state":"active","ping":98},{"user_id":228,"name":"GoudAI","steam_id":76561198103391197,"connected_time":203000000000,"state":"active","ping":93},{"user_id":209,"name":"Hot Milk.","steam_id":76561198169969898,"connected_time":1736000000000,"state":"active","ping":58},{"user_id":166,"name":"Old Boy Anter","steam_id":76561198153786963,"connected_time":5393000000000,"state":"active","ping":135},{"user_id":193,"name":"GipsySorcerer","steam_id":76561198170020311,"connected_time":2841000000000,"state":"active","ping":81},{"user_id":25,"name":"poliakov.noam","steam_id":76561199259322961,"connected_time":15146000000000,"state":"active","ping":105},{"user_id":175,"name":"lol","steam_id":76561198322087870,"connected_time":3660000000000,"state":"active","ping":102},{"user_id":210,"name":"Akane","steam_id":76561197990407312,"connected_time":1723000000000,"state":"active","ping":75},{"user_id":224,"name":"Pirate duck","steam_id":76561198373484722,"connected_time":1064000000000,"state":"active","ping":86},{"user_id":218,"name":"OutOfRage","steam_id":76561198211205791,"connected_time":1407000000000,"state":"active","ping":48},{"user_id":220,"name":"brehs","steam_id":76561198150653454,"connected_time":1255000000000,"state":"active","ping":60},{"user_id":184,"name":"Pico","steam_id":76561198063552545,"connected_time":3541000000000,"state":"active","ping":102},{"user_id":206,"name":"DarkFady","steam_id":76561198179099523,"connected_time":1767000000000,"state":"active","ping":108},{"user_id":219,"name":"Labial","steam_id":76561198385163046,"connected_time":1372000000000,"state":"active","ping":45},{"user_id":186,"name":"Sky Tree","steam_id":76561198027103242,"connected_time":3372000000000,"state":"active","ping":127},{"user_id":200,"name":"Sneikijs","steam_id":76561198052549308,"connected_time":2151000000000,"state":"active","ping":56},{"user_id":169,"name":"ðŸ˜ˆ COCKDESTROYER ðŸ˜ˆ","steam_id":76561198042846999,"connected_time":5348000000000,"state":"active","ping":67},{"user_id":195,"name":"giclure :;","steam_id":76561197986362828,"connected_time":2581000000000,"state":"active","ping":67},{"user_id":214,"name":"Von.K","steam_id":76561199226726501,"connected_time":1654000000000,"state":"active","ping":77},{"user_id":222,"name":"ZANNABLUKE","steam_id":76561198013534336,"connected_time":1191000000000,"state":"active","ping":60},{"user_id":203,"name":"Puck :))","steam_id":76561198378295653,"connected_time":2022000000000,"state":"active","ping":52},{"user_id":221,"name":"Sambo","steam_id":76561198176687203,"connected_time":1254000000000,"state":"active","ping":68}]},{"server_id":23,"name":"Uncletopia | Frankfurt | 7 | Stopwatch Beta","name_short":"frk-7","host":"frk-1.de.uncletopia.com","port":27075,"enabled":true,"region":"eu","cc":"de","latitude":50.110924,"longitude":8.682127,"reserved":0,"last_update":"0001-01-01T00:00:00Z","name_a2s":"Uncletopia | Frankfurt | 7 | Stopwatch Beta","protocol":17,"map":"workshop/koth_bagel_rc6.ugc2514036946","folder":"tf","game":"Team Fortress","app_id":440,"player_count":0,"max_players":24,"Bots":0,"server_type":"Dedicated","server_os":"Linux","password":true,"vac":true,"version":"7757534","steam_id":85568392924742827,"keywords":["cp","nocrits","nodmgspread","uncletopia"],"game_id":440,"stv_port":27076,"stv_name":"Uncletopia | Frankfurt | 7 | Stopwatch Beta | STV","players":null},{"server_id":24,"name":"Uncletopia | Frankfurt | 8 | Community","name_short":"frk-8","host":"frk-1.de.uncletopia.com","port":27085,"enabled":true,"region":"eu","cc":"de","latitude":50.110924,"longitude":8.682127,"reserved":0,"last_update":"0001-01-01T00:00:00Z","name_a2s":"Uncletopia | Frankfurt | 8 | Community","protocol":17,"map":"koth_lakeside_final","folder":"tf","game":"Team Fortress","app_id":440,"player_count":0,"max_players":24,"Bots":0,"server_type":"Dedicated","server_os":"Linux","password":true,"vac":true,"version":"7757534","steam_id":85568392924742828,"keywords":["cp","nocrits","nodmgspread","uncletopia"],"game_id":440,"stv_port":27086,"stv_name":"Uncletopia | Frankfurt | 8 | Community | STV","players":null},{"server_id":202,"name":"Uncletopia | Hong Kong | 1 | All Maps","name_short":"hgk-1","host":"hgk-1.hk.uncletopia.com","port":27015,"enabled":true,"region":"asia","cc":"hk","latitude":22.302711,"longitude":114.177216,"reserved":0,"last_update":"0001-01-01T00:00:00Z","name_a2s":"Uncletopia | Hong Kong | 1 | All Maps","protocol":17,"map":"koth_cascade","folder":"tf","game":"Team Fortress","app_id":440,"player_count":0,"max_players":24,"Bots":0,"server_type":"Dedicated","server_os":"Linux","password":true,"vac":true,"version":"7757534","steam_id":85568392924494504,"keywords":["cp","nocrits","nodmgspread","uncletopia"],"game_id":440,"stv_port":27016,"stv_name":"Uncletopia | Hong Kong | 1 | All Maps | STV","players":null},{"server_id":1,"name":"Uncletopia | Los Angeles | 1 | All Maps","name_short":"lax-1","host":"lax-1.us.uncletopia.com","port":27015,"enabled":true,"region":"us-west","cc":"us","latitude":33.94279,"longitude":-118.41004,"reserved":0,"last_update":"0001-01-01T00:00:00Z","name_a2s":"Uncletopia | Los Angeles | 1 | All Maps","protocol":17,"map":"koth_lakeside_final","folder":"tf","game":"Team Fortress","app_id":440,"player_count":0,"max_players":24,"Bots":0,"server_type":"Dedicated","server_os":"Linux","password":true,"vac":true,"version":"7757534","steam_id":85568392924469991,"keywords":["cp","nocrits","nodmgspread","uncletopia"],"game_id":440,"stv_port":27016,"stv_name":"Uncletopia | Los Angeles | 1 | All Maps | STV","players":null},{"server_id":112,"name":"Uncletopia | Los Angeles | 2 | All Maps","name_short":"lax-2","host":"lax-1.us.uncletopia.com","port":27025,"enabled":true,"region":"us-west","cc":"us","latitude":33.94279,"longitude":-118.41004,"reserved":0,"last_update":"0001-01-01T00:00:00Z","name_a2s":"Uncletopia | Los Angeles | 2 | All Maps","protocol":17,"map":"pl_badwater","folder":"tf","game":"Team Fortress","app_id":440,"player_count":0,"max_players":24,"Bots":0,"server_type":"Dedicated","server_os":"Linux","password":true,"vac":true,"version":"7757534","steam_id":85568392924469992,"keywords":["nocrits","nodmgspread","payload","uncletopia"],"game_id":440,"stv_port":27026,"stv_name":"Uncletopia | Los Angeles | 2 | All Maps | STV","players":null},{"server_id":324,"name":"Uncletopia | Los Angeles | 3 | All Maps","name_short":"lax-3","host":"lax-1.us.uncletopia.com","port":27035,"enabled":true,"region":"us-west","cc":"us","latitude":33.94279,"longitude":-118.41004,"reserved":0,"last_update":"0001-01-01T00:00:00Z","name_a2s":"Uncletopia | Los Angeles | 3 | All Maps","protocol":17,"map":"pl_barnblitz","folder":"tf","game":"Team Fortress","app_id":440,"player_count":0,"max_players":24,"Bots":0,"server_type":"Dedicated","server_os":"Linux","password":true,"vac":true,"version":"7757534","steam_id":85568392924510198,"keywords":["nocrits","nodmgspread","payload","uncletopia"],"game_id":440,"stv_port":27036,"stv_name":"Uncletopia | Los Angeles | 3 | All Maps | STV","players":null},{"server_id":25,"name":"Uncletopia | Los Angeles | 4 | Stopwatch Beta","name_short":"lax-4","host":"lax-1.us.uncletopia.com","port":27045,"enabled":true,"region":"us-west","cc":"us","latitude":33.94279,"longitude":-118.41004,"reserved":0,"last_update":"0001-01-01T00:00:00Z","name_a2s":"Uncletopia | Los Angeles | 4 | Stopwatch Beta","protocol":17,"map":"pl_swiftwater_final1","folder":"tf","game":"Team Fortress","app_id":440,"player_count":0,"max_players":24,"Bots":0,"server_type":"Dedicated","server_os":"Linux","password":true,"vac":true,"version":"7757534","steam_id":85568392924510199,"keywords":["nocrits","nodmgspread","payload","uncletopia"],"game_id":440,"stv_port":27046,"stv_name":"Uncletopia | Los Angeles | 4 | Stopwatch Beta | STV","players":null},{"server_id":11,"name":"Uncletopia | London | 1 | All Maps","name_short":"lon-1","host":"lon-1.uk.uncletopia.com","port":27015,"enabled":true,"region":"eu","cc":"gb","latitude":51.509865,"longitude":-0.118092,"reserved":0,"last_update":"0001-01-01T00:00:00Z","name_a2s":"Uncletopia | London | 1 | All Maps","protocol":17,"map":"pl_borneo","folder":"tf","game":"Team Fortress","app_id":440,"player_count":24,"max_players":24,"Bots":0,"server_type":"Dedicated","server_os":"Linux","password":true,"vac":true,"version":"7757534","steam_id":85568392924367362,"keywords":["nocrits","nodmgspread","payload","uncletopia"],"game_id":440,"stv_port":27016,"stv_name":"Uncletopia | London | 1 | All Maps | STV","players":[{"user_id":473,"name":"Ted Kaczynski","steam_id":76561198064795519,"connected_time":453000000000,"state":"active","ping":64},{"user_id":471,"name":"Jara.","steam_id":76561197992207165,"connected_time":718000000000,"state":"active","ping":107},{"user_id":399,"name":"frionel cuckitini","steam_id":76561198106049954,"connected_time":5593000000000,"state":"active","ping":85},{"user_id":468,"name":"Een schaap zonder slaap","steam_id":76561198084808410,"connected_time":1435000000000,"state":"active","ping":59},{"user_id":451,"name":"Minimi","steam_id":76561198873850443,"connected_time":2874000000000,"state":"active","ping":44},{"user_id":398,"name":"Rose","steam_id":76561198043601838,"connected_time":5625000000000,"state":"active","ping":61},{"user_id":469,"name":"Mammut","steam_id":76561198056773933,"connected_time":1431000000000,"state":"active","ping":52},{"user_id":456,"name":"Tre3","steam_id":76561198054795379,"connected_time":2337000000000,"state":"active","ping":68},{"user_id":383,"name":"LordTrap.exe","steam_id":76561198318089716,"connected_time":6842000000000,"state":"active","ping":44},{"user_id":453,"name":"Organized Konfusion - Self Titl","steam_id":76561198011155232,"connected_time":2658000000000,"state":"active","ping":58},{"user_id":470,"name":".                           TK","steam_id":76561199384193338,"connected_time":1425000000000,"state":"active","ping":67},{"user_id":474,"name":"Lewylow","steam_id":76561198005425686,"connected_time":102000000000,"state":"active","ping":48},{"user_id":429,"name":"i am not schizophrenic","steam_id":76561198079277466,"connected_time":3630000000000,"state":"active","ping":71},{"user_id":457,"name":"Licks-Your-Soup","steam_id":76561198982674420,"connected_time":2328000000000,"state":"active","ping":45},{"user_id":461,"name":"JOHN GAMING (#transrights)","steam_id":76561199085822219,"connected_time":2257000000000,"state":"active","ping":87},{"user_id":386,"name":"Ã¸possum","steam_id":76561198056152479,"connected_time":6808000000000,"state":"active","ping":37},{"user_id":472,"name":"Devastation on its way","steam_id":76561199383437138,"connected_time":472000000000,"state":"active","ping":117},{"user_id":462,"name":"bayzoes","steam_id":76561198117472639,"connected_time":2232000000000,"state":"active","ping":39},{"user_id":467,"name":"Renard pos4","steam_id":76561197998908594,"connected_time":1544000000000,"state":"active","ping":63},{"user_id":454,"name":"mohammed","steam_id":76561198156087581,"connected_time":2567000000000,"state":"active","ping":82},{"user_id":392,"name":"Smokio","steam_id":76561198069650580,"connected_time":6523000000000,"state":"active","ping":89},{"user_id":463,"name":"SoldierBugsBunny","steam_id":76561199307144598,"connected_time":2190000000000,"state":"active","ping":118},{"user_id":444,"name":"â™¥ aura â™¥","steam_id":76561198066258544,"connected_time":3058000000000,"state":"active","ping":65}]},{"server_id":114,"name":"Uncletopia | London | 2 | All Maps","name_short":"lon-2","host":"lon-1.uk.uncletopia.com","port":27025,"enabled":true,"region":"eu","cc":"gb","latitude":51.509865,"longitude":-0.118092,"reserved":0,"last_update":"0001-01-01T00:00:00Z","name_a2s":"Uncletopia | London | 2 | All Maps","protocol":17,"map":"pl_barnblitz","folder":"tf","game":"Team Fortress","app_id":440,"player_count":24,"max_players":24,"Bots":0,"server_type":"Dedicated","server_os":"Linux","password":true,"vac":true,"version":"7757534","steam_id":85568392924470941,"keywords":["nocrits","nodmgspread","payload","uncletopia"],"game_id":440,"stv_port":27026,"stv_name":"Uncletopia | London | 2 | All Maps | STV","players":[{"user_id":122,"name":"British Disapproval","steam_id":76561198001375260,"connected_time":1510000000000,"state":"active","ping":55},{"user_id":128,"name":"Rad","steam_id":76561198001101843,"connected_time":1333000000000,"state":"active","ping":62},{"user_id":140,"name":"â„¢ Niraash *ADV*","steam_id":76561198416329992,"connected_time":91000000000,"state":"spawning","ping":62},{"user_id":77,"name":"wide appreciator","steam_id":76561198083286511,"connected_time":3625000000000,"state":"active","ping":45},{"user_id":121,"name":"SirSangoor","steam_id":76561198044462559,"connected_time":1685000000000,"state":"active","ping":107},{"user_id":135,"name":"skilltissues","steam_id":76561198025828664,"connected_time":445000000000,"state":"active","ping":56},{"user_id":120,"name":"JeanCorben","steam_id":76561197965133561,"connected_time":1928000000000,"state":"active","ping":40},{"user_id":136,"name":"He could be any one of us","steam_id":76561198320506848,"connected_time":370000000000,"state":"active","ping":37},{"user_id":129,"name":"croco.","steam_id":76561198988882521,"connected_time":1251000000000,"state":"active","ping":127},{"user_id":83,"name":"SoupER","steam_id":76561198063056668,"connected_time":3388000000000,"state":"active","ping":45},{"user_id":126,"name":"RaidBoss","steam_id":76561198138777659,"connected_time":1397000000000,"state":"active","ping":80},{"user_id":131,"name":"Peat","steam_id":76561197992168067,"connected_time":956000000000,"state":"active","ping":64},{"user_id":139,"name":"Waffle Wannabe","steam_id":76561198064510650,"connected_time":278000000000,"state":"active","ping":117},{"user_id":132,"name":"The Funny Cat-Heaby","steam_id":76561198439978112,"connected_time":664000000000,"state":"active","ping":104},{"user_id":101,"name":"Pipp Petals2014","steam_id":76561198147668373,"connected_time":2691000000000,"state":"active","ping":65},{"user_id":110,"name":"à¸¸","steam_id":76561198045466919,"connected_time":2395000000000,"state":"active","ping":74},{"user_id":116,"name":"legend","steam_id":76561198174339677,"connected_time":2259000000000,"state":"active","ping":55},{"user_id":109,"name":"Carkey","steam_id":76561198054398642,"connected_time":2416000000000,"state":"active","ping":60},{"user_id":133,"name":"MovingIsOverRated","steam_id":76561198385633292,"connected_time":651000000000,"state":"active","ping":80},{"user_id":117,"name":"gagalak","steam_id":76561198089979108,"connected_time":2043000000000,"state":"active","ping":103},{"user_id":142,"name":"Shrimpeee","steam_id":76561199012689768,"connected_time":53000000000,"state":"active","ping":77},{"user_id":125,"name":"Kodutah","steam_id":76561198203405574,"connected_time":1454000000000,"state":"active","ping":75},{"user_id":115,"name":"the joy of recycling","steam_id":76561198415564349,"connected_time":2266000000000,"state":"active","ping":59},{"user_id":138,"name":"'Tis but a scratch","steam_id":76561198118517671,"connected_time":330000000000,"state":"active","ping":119}]},{"server_id":320,"name":"Uncletopia | London | 3 | All Maps","name_short":"lon-3","host":"lon-1.uk.uncletopia.com","port":27035,"enabled":true,"region":"eu","cc":"gb","latitude":51.509865,"longitude":-0.118092,"reserved":0,"last_update":"0001-01-01T00:00:00Z","name_a2s":"Uncletopia | London | 3 | All Maps","protocol":17,"map":"cp_dustbowl","folder":"tf","game":"Team Fortress","app_id":440,"player_count":0,"max_players":24,"Bots":0,"server_type":"Dedicated","server_os":"Linux","password":true,"vac":true,"version":"7757534","steam_id":85568392924510192,"keywords":["cp","nocrits","nodmgspread","uncletopia"],"game_id":440,"stv_port":27036,"stv_name":"Uncletopia | London | 3 | All Maps | STV","players":null},{"server_id":321,"name":"Uncletopia | London | 4 | All Maps","name_short":"lon-4","host":"lon-1.uk.uncletopia.com","port":27045,"enabled":true,"region":"eu","cc":"gb","latitude":51.509865,"longitude":-0.118092,"reserved":0,"last_update":"0001-01-01T00:00:00Z","name_a2s":"Uncletopia | London | 4 | All Maps","protocol":17,"map":"pl_frontier_final","folder":"tf","game":"Team Fortress","app_id":440,"player_count":0,"max_players":24,"Bots":0,"server_type":"Dedicated","server_os":"Linux","password":true,"vac":true,"version":"7757534","steam_id":85568392924510193,"keywords":["nocrits","nodmgspread","payload","uncletopia"],"game_id":440,"stv_port":27046,"stv_name":"Uncletopia | London | 4 | All Maps | STV","players":null},{"server_id":21,"name":"Uncletopia | London | 5 | All Maps","name_short":"lon-5","host":"lon-1.uk.uncletopia.com","port":27055,"enabled":true,"region":"eu","cc":"gb","latitude":51.509865,"longitude":-0.118092,"reserved":0,"last_update":"0001-01-01T00:00:00Z","name_a2s":"Uncletopia | London | 5 | All Maps","protocol":17,"map":"cp_altitude","folder":"tf","game":"Team Fortress","app_id":440,"player_count":0,"max_players":24,"Bots":0,"server_type":"Dedicated","server_os":"Linux","password":true,"vac":true,"version":"7757534","steam_id":85568392924742829,"keywords":["cp","nocrits","nodmgspread","uncletopia"],"game_id":440,"stv_port":27056,"stv_name":"Uncletopia | London | 5 | All Maps | STV","players":null},{"server_id":22,"name":"Uncletopia | London | 6 | All Maps","name_short":"lon-6","host":"lon-1.uk.uncletopia.com","port":27065,"enabled":true,"region":"eu","cc":"gb","latitude":51.509865,"longitude":-0.118092,"reserved":0,"last_update":"0001-01-01T00:00:00Z","name_a2s":"Uncletopia | London | 6 | All Maps","protocol":17,"map":"pl_snowycoast","folder":"tf","game":"Team Fortress","app_id":440,"player_count":24,"max_players":24,"Bots":0,"server_type":"Dedicated","server_os":"Linux","password":true,"vac":true,"version":"7757534","steam_id":85568392924742830,"keywords":["nocrits","nodmgspread","payload","uncletopia"],"game_id":440,"stv_port":27066,"stv_name":"Uncletopia | London | 6 | All Maps | STV","players":[{"user_id":260,"name":"Clark","steam_id":76561198120498831,"connected_time":1971000000000,"state":"active","ping":57},{"user_id":272,"name":"Soloman","steam_id":76561199212054667,"connected_time":1086000000000,"state":"active","ping":42},{"user_id":270,"name":"Envy","steam_id":76561198132723219,"connected_time":1209000000000,"state":"active","ping":100},{"user_id":273,"name":"Concorde","steam_id":76561199141714627,"connected_time":1078000000000,"state":"active","ping":70},{"user_id":261,"name":"Falling Apples","steam_id":76561198122762346,"connected_time":1887000000000,"state":"active","ping":66},{"user_id":262,"name":"Ach Wheesht","steam_id":76561197996993222,"connected_time":1836000000000,"state":"active","ping":38},{"user_id":274,"name":"Mind Fuzz","steam_id":76561199443547191,"connected_time":1074000000000,"state":"active","ping":62},{"user_id":269,"name":"AleXandriX","steam_id":76561198035203950,"connected_time":1360000000000,"state":"active","ping":64},{"user_id":268,"name":"thebadspy","steam_id":76561199213624583,"connected_time":1421000000000,"state":"active","ping":149},{"user_id":275,"name":"Mozzaza","steam_id":76561198156316111,"connected_time":994000000000,"state":"active","ping":134},{"user_id":293,"name":"fried","steam_id":76561198307522022,"connected_time":564000000000,"state":"active","ping":47},{"user_id":277,"name":"Wendigo","steam_id":76561198301962254,"connected_time":953000000000,"state":"active","ping":72},{"user_id":295,"name":"john fortress","steam_id":76561198013237629,"connected_time":423000000000,"state":"active","ping":92},{"user_id":289,"name":"Grape Juice","steam_id":76561198380337568,"connected_time":701000000000,"state":"active","ping":163},{"user_id":281,"name":"Greeny363","steam_id":76561198152611554,"connected_time":824000000000,"state":"active","ping":131},{"user_id":297,"name":"sxl","steam_id":76561198150627999,"connected_time":406000000000,"state":"active","ping":124},{"user_id":283,"name":"Hyperek","steam_id":76561198130797464,"connected_time":805000000000,"state":"active","ping":83},{"user_id":285,"name":"SaltyCupcakes","steam_id":76561198256386417,"connected_time":786000000000,"state":"active","ping":42},{"user_id":300,"name":"shaheen45","steam_id":76561198334819486,"connected_time":246000000000,"state":"active","ping":152},{"user_id":287,"name":"GrÃ¸Ã¸ngaard","steam_id":76561198124010974,"connected_time":741000000000,"state":"active","ping":81},{"user_id":299,"name":"MagicA","steam_id":76561198454494204,"connected_time":264000000000,"state":"active","ping":61},{"user_id":290,"name":"lucks","steam_id":76561198362253931,"connected_time":643000000000,"state":"active","ping":152},{"user_id":291,"name":"mixxxa_french","steam_id":76561198085098243,"connected_time":625000000000,"state":"active","ping":116},{"user_id":298,"name":"Zerfesh","steam_id":76561198117534358,"connected_time":401000000000,"state":"active","ping":94}]},{"server_id":40,"name":"Uncletopia | London | 7 | No Payload","name_short":"lon-7","host":"lon-1.uk.uncletopia.com","port":27075,"enabled":true,"region":"eu","cc":"gb","latitude":51.509865,"longitude":-0.118092,"reserved":0,"last_update":"0001-01-01T00:00:00Z","name_a2s":"Uncletopia | London | 7 | No Payload","protocol":17,"map":"pl_badwater","folder":"tf","game":"Team Fortress","app_id":440,"player_count":0,"max_players":24,"Bots":0,"server_type":"Dedicated","server_os":"Linux","password":true,"vac":true,"version":"7757534","steam_id":85568392924964314,"keywords":["nocrits","nodmgspread","payload","uncletopia"],"game_id":440,"stv_port":27076,"stv_name":"Uncletopia | London | 7 | No Payload | STV","players":null},{"server_id":41,"name":"Uncletopia | London | 8 | Community","name_short":"lon-8","host":"lon-1.uk.uncletopia.com","port":27085,"enabled":true,"region":"eu","cc":"gb","latitude":51.509865,"longitude":-0.118092,"reserved":0,"last_update":"0001-01-01T00:00:00Z","name_a2s":"Uncletopia | London | 8 | Community","protocol":17,"map":"pl_barnblitz","folder":"tf","game":"Team Fortress","app_id":440,"player_count":0,"max_players":24,"Bots":0,"server_type":"Dedicated","server_os":"Linux","password":true,"vac":true,"version":"7757534","steam_id":85568392924964315,"keywords":["nocrits","nodmgspread","payload","uncletopia"],"game_id":440,"stv_port":27086,"stv_name":"Uncletopia | London | 8 | Community | STV","players":null},{"server_id":300,"name":"Uncletopia | MontrÃ©al | 1 | All Maps","name_short":"mtl-1","host":"mtl-1.ca.uncletopia.com","port":27015,"enabled":true,"region":"us-east","cc":"ca","latitude":45.50889,"longitude":-73.56167,"reserved":0,"last_update":"0001-01-01T00:00:00Z","name_a2s":"Uncletopia | MontrÃ©al | 1 | All Maps","protocol":17,"map":"pl_upward","folder":"tf","game":"Team Fortress","app_id":440,"player_count":0,"max_players":24,"Bots":0,"server_type":"Dedicated","server_os":"Linux","password":true,"vac":true,"version":"7757534","steam_id":85568392924500087,"keywords":["nocrits","nodmgspread","payload","uncletopia"],"game_id":440,"stv_port":27016,"stv_name":"Uncletopia | MontrÃ©al | 1 | All Maps | STV","players":null},{"server_id":301,"name":"Uncletopia | MontrÃ©al | 2 | All Maps","name_short":"mtl-2","host":"mtl-1.ca.uncletopia.com","port":27025,"enabled":true,"region":"us-east","cc":"ca","latitude":45.50889,"longitude":-73.56167,"reserved":0,"last_update":"0001-01-01T00:00:00Z","name_a2s":"Uncletopia | MontrÃ©al | 2 | All Maps","protocol":17,"map":"pl_snowycoast","folder":"tf","game":"Team Fortress","app_id":440,"player_count":0,"max_players":24,"Bots":0,"server_type":"Dedicated","server_os":"Linux","password":true,"vac":true,"version":"7757534","steam_id":85568392924500088,"keywords":["nocrits","nodmgspread","payload","uncletopia"],"game_id":440,"stv_port":27026,"stv_name":"Uncletopia | MontrÃ©al | 2 | All Maps | STV","players":null},{"server_id":302,"name":"Uncletopia | MontrÃ©al | 3 | All Maps","name_short":"mtl-3","host":"mtl-1.ca.uncletopia.com","port":27035,"enabled":true,"region":"us-east","cc":"ca","latitude":45.50889,"longitude":-73.56167,"reserved":0,"last_update":"0001-01-01T00:00:00Z","name_a2s":"Uncletopia | MontrÃ©al | 3 | All Maps","protocol":17,"map":"pl_swiftwater_final1","folder":"tf","game":"Team Fortress","app_id":440,"player_count":0,"max_players":24,"Bots":0,"server_type":"Dedicated","server_os":"Linux","password":true,"vac":true,"version":"7757534","steam_id":85568392924500089,"keywords":["nocrits","nodmgspread","payload","uncletopia"],"game_id":440,"stv_port":27036,"stv_name":"Uncletopia | MontrÃ©al | 3 | All Maps | STV","players":null},{"server_id":303,"name":"Uncletopia | MontrÃ©al | 4 | No Payload","name_short":"mtl-4","host":"mtl-1.ca.uncletopia.com","port":27045,"enabled":true,"region":"us-east","cc":"ca","latitude":45.50889,"longitude":-73.56167,"reserved":0,"last_update":"0001-01-01T00:00:00Z","name_a2s":"Uncletopia | MontrÃ©al | 4 | No Payload","protocol":17,"map":"pl_pier","folder":"tf","game":"Team Fortress","app_id":440,"player_count":0,"max_players":24,"Bots":0,"server_type":"Dedicated","server_os":"Linux","password":true,"vac":true,"version":"7757534","steam_id":85568392924500090,"keywords":["nocrits","nodmgspread","payload","uncletopia"],"game_id":440,"stv_port":27046,"stv_name":"Uncletopia | MontrÃ©al | 4 | No Payload | STV","players":null},{"server_id":13,"name":"Uncletopia | New York City | 1 | All Maps","name_short":"nyc-1","host":"nyc-1.us.uncletopia.com","port":27015,"enabled":true,"region":"us-east","cc":"us","latitude":40.73061,"longitude":-73.93524,"reserved":0,"last_update":"0001-01-01T00:00:00Z","name_a2s":"Uncletopia | New York City | 1 | All Maps","protocol":17,"map":"koth_lakeside_final","folder":"tf","game":"Team Fortress","app_id":440,"player_count":3,"max_players":24,"Bots":0,"server_type":"Dedicated","server_os":"Linux","password":true,"vac":true,"version":"7757534","steam_id":85568392924469993,"keywords":["cp","nocrits","nodmgspread","uncletopia"],"game_id":440,"stv_port":27016,"stv_name":"Uncletopia | New York City | 1 | All Maps | STV","players":[{"user_id":12,"name":"M16A1Sauce","steam_id":76561199058049384,"connected_time":1050000000000,"state":"active","ping":58},{"user_id":13,"name":"eWVra2Vy","steam_id":76561198453565942,"connected_time":1035000000000,"state":"active","ping":64},{"user_id":14,"name":"Nice21","steam_id":76561199427548141,"connected_time":304000000000,"state":"active","ping":68}]},{"server_id":14,"name":"Uncletopia | New York City | 2 | All Maps","name_short":"nyc-2","host":"nyc-1.us.uncletopia.com","port":27025,"enabled":true,"region":"us-east","cc":"us","latitude":40.73061,"longitude":-73.93524,"reserved":0,"last_update":"0001-01-01T00:00:00Z","name_a2s":"Uncletopia | New York City | 2 | All Maps","protocol":17,"map":"pl_badwater","folder":"tf","game":"Team Fortress","app_id":440,"player_count":25,"max_players":24,"Bots":0,"server_type":"Dedicated","server_os":"Linux","password":true,"vac":true,"version":"7757534","steam_id":85568392924469994,"keywords":["nocrits","nodmgspread","payload","uncletopia"],"game_id":440,"stv_port":27026,"stv_name":"Uncletopia | New York City | 2 | All Maps | STV","players":[{"user_id":89,"name":"cockmongler","steam_id":76561198861493711,"connected_time":5131000000000,"state":"active","ping":61},{"user_id":119,"name":"StormyBoyo","steam_id":76561198273482774,"connected_time":3374000000000,"state":"active","ping":70},{"user_id":186,"name":"goose flower","steam_id":76561198164306336,"connected_time":1609000000000,"state":"active","ping":58},{"user_id":181,"name":"Marketable Rebecca Plushie","steam_id":76561198035475444,"connected_time":1645000000000,"state":"active","ping":69},{"user_id":176,"name":"V3CTOR Gaminf","steam_id":76561199233035882,"connected_time":1813000000000,"state":"active","ping":109},{"user_id":98,"name":"Wahooka","steam_id":76561197962240925,"connected_time":4316000000000,"state":"active","ping":45},{"user_id":59,"name":"ç§ã¯ä¸æ­£è¡Œç‚ºã‚’ã—ã¦ã„","steam_id":76561199465653959,"connected_time":8164000000000,"state":"active","ping":137},{"user_id":169,"name":"El Bondin","steam_id":76561198820792434,"connected_time":2046000000000,"state":"active","ping":96},{"user_id":161,"name":"Omni-S","steam_id":76561198082396372,"connected_time":2249000000000,"state":"active","ping":79},{"user_id":105,"name":"UsingXbox360Remote","steam_id":76561198258253304,"connected_time":3671000000000,"state":"active","ping":67},{"user_id":223,"name":"Nansral26","steam_id":76561198886650496,"connected_time":478000000000,"state":"active","ping":57},{"user_id":208,"name":"Makerâ€™s_Mark","steam_id":76561198198371445,"connected_time":848000000000,"state":"active","ping":73},{"user_id":62,"name":"Jin","steam_id":76561198119873148,"connected_time":7805000000000,"state":"active","ping":47},{"user_id":211,"name":"nnobi","steam_id":76561198878729277,"connected_time":758000000000,"state":"active","ping":75},{"user_id":148,"name":"Pickle Chips","steam_id":76561198271951504,"connected_time":2498000000000,"state":"active","ping":49},{"user_id":212,"name":"confused","steam_id":76561198018654093,"connected_time":724000000000,"state":"active","ping":47},{"user_id":197,"name":"15pounds","steam_id":76561198179606183,"connected_time":1312000000000,"state":"active","ping":74},{"user_id":175,"name":"Ian","steam_id":76561199078852180,"connected_time":1852000000000,"state":"active","ping":55},{"user_id":37,"name":"Saschuh","steam_id":76561198202188972,"connected_time":9187000000000,"state":"active","ping":74},{"user_id":206,"name":"Kuai","steam_id":76561198321216513,"connected_time":956000000000,"state":"active","ping":57},{"user_id":213,"name":"mineblast99","steam_id":76561199065648954,"connected_time":723000000000,"state":"active","ping":77},{"user_id":241,"name":"Good Christian boy","steam_id":76561199190492674,"connected_time":6000000000,"state":"spawning","ping":82},{"user_id":184,"name":"Bow_","steam_id":76561198109608134,"connected_time":1615000000000,"state":"active","ping":67},{"user_id":195,"name":"emseaeye","steam_id":76561198161499803,"connected_time":1350000000000,"state":"active","ping":60},{"user_id":151,"name":"Drinking on the Job","steam_id":76561199158508890,"connected_time":2455000000000,"state":"active","ping":50}]},{"server_id":15,"name":"Uncletopia | New York City | 3 | Stopwatch Beta","name_short":"nyc-3","host":"nyc-1.us.uncletopia.com","port":27035,"enabled":true,"region":"us-east","cc":"us","latitude":40.73061,"longitude":-73.93524,"reserved":0,"last_update":"0001-01-01T00:00:00Z","name_a2s":"Uncletopia | New York City | 3 | Stopwatch Beta","protocol":17,"map":"cp_process_final","folder":"tf","game":"Team Fortress","app_id":440,"player_count":0,"max_players":24,"Bots":0,"server_type":"Dedicated","server_os":"Linux","password":true,"vac":true,"version":"7757534","steam_id":85568392924742820,"keywords":["cp","nocrits","nodmgspread","uncletopia"],"game_id":440,"stv_port":27036,"stv_name":"Uncletopia | New York City | 3 | Stopwatch Beta | STV","players":null},{"server_id":16,"name":"Uncletopia | New York City | 4 | Community","name_short":"nyc-4","host":"nyc-1.us.uncletopia.com","port":27045,"enabled":true,"region":"us-east","cc":"us","latitude":40.73061,"longitude":-73.93524,"reserved":0,"last_update":"0001-01-01T00:00:00Z","name_a2s":"Uncletopia | New York City | 4 | Community","protocol":17,"map":"workshop/cp_logjam_rc12.ugc454812035","folder":"tf","game":"Team Fortress","app_id":440,"player_count":0,"max_players":24,"Bots":0,"server_type":"Dedicated","server_os":"Linux","password":true,"vac":true,"version":"7757534","steam_id":85568392924742821,"keywords":["cp","nocrits","nodmgspread","uncletopia"],"game_id":440,"stv_port":27046,"stv_name":"Uncletopia | New York City | 4 | Community | STV","players":null},{"server_id":142,"name":"Uncletopia | SÃ£o Paulo | 1 | All Maps","name_short":"sao-1","host":"sao-1.br.uncletopia.com","port":27015,"enabled":true,"region":"sa","cc":"br","latitude":-23.533773,"longitude":-46.62529,"reserved":0,"last_update":"0001-01-01T00:00:00Z","name_a2s":"Uncletopia | SÃ£o Paulo | 1 | All Maps","protocol":17,"map":"koth_lakeside_final","folder":"tf","game":"Team Fortress","app_id":440,"player_count":0,"max_players":24,"Bots":0,"server_type":"Dedicated","server_os":"Linux","password":true,"vac":true,"version":"7757534","steam_id":85568392924469996,"keywords":["cp","nocrits","nodmgspread","uncletopia"],"game_id":440,"stv_port":27016,"stv_name":"Uncletopia | SÃ£o Paulo | 1 | All Maps | STV","players":null},{"server_id":143,"name":"Uncletopia | SÃ£o Paulo | 2 | All Maps","name_short":"sao-2","host":"sao-2.br.uncletopia.com","port":27015,"enabled":true,"region":"sa","cc":"br","latitude":-23.533773,"longitude":-46.62529,"reserved":0,"last_update":"0001-01-01T00:00:00Z","name_a2s":"Uncletopia | SÃ£o Paulo | 2 | All Maps","protocol":17,"map":"pl_swiftwater_final1","folder":"tf","game":"Team Fortress","app_id":440,"player_count":0,"max_players":24,"Bots":0,"server_type":"Dedicated","server_os":"Linux","password":true,"vac":true,"version":"7757534","steam_id":85568392924485349,"keywords":["nocrits","nodmgspread","payload","uncletopia"],"game_id":440,"stv_port":27016,"stv_name":"Uncletopia | SÃ£o Paulo | 2 | All Maps | STV","players":null},{"server_id":7,"name":"Uncletopia | Seattle | 1 | All Maps","name_short":"sea-1","host":"sea-1.us.uncletopia.com","port":27015,"enabled":true,"region":"us-west","cc":"us","latitude":47.608013,"longitude":-122.33517,"reserved":0,"last_update":"0001-01-01T00:00:00Z","name_a2s":"Uncletopia | Seattle | 1 | All Maps","protocol":17,"map":"koth_lakeside_final","folder":"tf","game":"Team Fortress","app_id":440,"player_count":0,"max_players":24,"Bots":0,"server_type":"Dedicated","server_os":"Linux","password":true,"vac":true,"version":"7757534","steam_id":85568392924469997,"keywords":["cp","nocrits","nodmgspread","uncletopia"],"game_id":440,"stv_port":27016,"stv_name":"Uncletopia | Seattle | 1 | All Maps | STV","players":null},{"server_id":119,"name":"Uncletopia | Seattle | 2 | All Maps","name_short":"sea-2","host":"sea-1.us.uncletopia.com","port":27025,"enabled":true,"region":"us-west","cc":"us","latitude":47.608013,"longitude":-122.33517,"reserved":0,"last_update":"0001-01-01T00:00:00Z","name_a2s":"Uncletopia | Seattle | 2 | All Maps","protocol":17,"map":"pl_upward","folder":"tf","game":"Team Fortress","app_id":440,"player_count":24,"max_players":24,"Bots":0,"server_type":"Dedicated","server_os":"Linux","password":true,"vac":true,"version":"7757534","steam_id":85568392924469998,"keywords":["nocrits","nodmgspread","payload","uncletopia"],"game_id":440,"stv_port":27026,"stv_name":"Uncletopia | Seattle | 2 | All Maps | STV","players":[{"user_id":4,"name":"Tyler\u0026Fingers","steam_id":76561198085154485,"connected_time":5646000000000,"state":"active","ping":138},{"user_id":5,"name":"aqua","steam_id":76561199407709552,"connected_time":5645000000000,"state":"active","ping":86},{"user_id":58,"name":"Maho","steam_id":76561199076491805,"connected_time":1061000000000,"state":"active","ping":83},{"user_id":7,"name":"BuncusBeffer","steam_id":76561198285936616,"connected_time":5644000000000,"state":"active","ping":75},{"user_id":53,"name":"bobbymcbobington","steam_id":76561199089411172,"connected_time":2230000000000,"state":"active","ping":165},{"user_id":35,"name":"Cloudylive","steam_id":76561198870456040,"connected_time":3810000000000,"state":"active","ping":48},{"user_id":54,"name":"Little Linguine","steam_id":76561198816986370,"connected_time":2223000000000,"state":"active","ping":58},{"user_id":69,"name":"Ok then","steam_id":76561198891914787,"connected_time":66000000000,"state":"active","ping":78},{"user_id":12,"name":"Mario","steam_id":76561198321794277,"connected_time":5614000000000,"state":"active","ping":74},{"user_id":43,"name":"mumbles(muted)","steam_id":76561197994528974,"connected_time":3066000000000,"state":"active","ping":80},{"user_id":46,"name":"IT BURNS","steam_id":76561198018889261,"connected_time":2703000000000,"state":"active","ping":113},{"user_id":36,"name":"lycoris","steam_id":76561199113965768,"connected_time":3805000000000,"state":"active","ping":130},{"user_id":16,"name":"THE BIG MAN","steam_id":76561198072179960,"connected_time":5558000000000,"state":"active","ping":87},{"user_id":41,"name":"Dead Dandy","steam_id":76561199052569511,"connected_time":3098000000000,"state":"active","ping":75},{"user_id":18,"name":"Rain","steam_id":76561198065612273,"connected_time":5503000000000,"state":"active","ping":45},{"user_id":57,"name":"Goose","steam_id":76561198036774894,"connected_time":1809000000000,"state":"active","ping":51},{"user_id":65,"name":"DiscoTraveler","steam_id":76561199240168088,"connected_time":276000000000,"state":"active","ping":114},{"user_id":70,"name":"foreskin gamer 344","steam_id":76561198422103060,"connected_time":49000000000,"state":"active","ping":194},{"user_id":51,"name":"boulder","steam_id":76561198347225801,"connected_time":2388000000000,"state":"active","ping":35},{"user_id":45,"name":"DudeBro42","steam_id":76561198021838197,"connected_time":2883000000000,"state":"active","ping":61},{"user_id":32,"name":"Treekincko","steam_id":76561198047995911,"connected_time":4589000000000,"state":"active","ping":36},{"user_id":56,"name":"slack","steam_id":76561198269268086,"connected_time":1852000000000,"state":"active","ping":115},{"user_id":71,"name":"NVM!!!","steam_id":76561198432721568,"connected_time":48000000000,"state":"active","ping":62},{"user_id":59,"name":"abbsence","steam_id":76561198094353546,"connected_time":835000000000,"state":"active","ping":131}]},{"server_id":406,"name":"Uncletopia | Seattle | 3 | Stopwatch Beta","name_short":"sea-3","host":"sea-1.us.uncletopia.com","port":27035,"enabled":true,"region":"us-west","cc":"us","latitude":47.608013,"longitude":-122.33517,"reserved":0,"last_update":"0001-01-01T00:00:00Z","name_a2s":"Uncletopia | Seattle | 3 | Stopwatch Beta","protocol":17,"map":"cp_dustbowl","folder":"tf","game":"Team Fortress","app_id":440,"player_count":0,"max_players":24,"Bots":0,"server_type":"Dedicated","server_os":"Linux","password":true,"vac":true,"version":"7757534","steam_id":85568392924515217,"keywords":["cp","nocrits","nodmgspread","uncletopia"],"game_id":440,"stv_port":27036,"stv_name":"Uncletopia | Seattle | 3 | Stopwatch Beta | STV","players":null},{"server_id":17,"name":"Uncletopia | San Francisco | 1 | All Maps","name_short":"sfo-1","host":"sfo-1.us.uncletopia.com","port":27015,"enabled":true,"region":"us-west","cc":"us","latitude":37.77397,"longitude":-122.4313,"reserved":0,"last_update":"0001-01-01T00:00:00Z","name_a2s":"Uncletopia | San Francisco | 1 | All Maps","protocol":17,"map":"cp_process_final","folder":"tf","game":"Team Fortress","app_id":440,"player_count":0,"max_players":24,"Bots":0,"server_type":"Dedicated","server_os":"Linux","password":true,"vac":true,"version":"7757534","steam_id":85568392924469999,"keywords":["cp","nocrits","nodmgspread","uncletopia"],"game_id":440,"stv_port":27016,"stv_name":"Uncletopia | San Francisco | 1 | All Maps | STV","players":null},{"server_id":18,"name":"Uncletopia | San Francisco | 2 | All Maps","name_short":"sfo-2","host":"sfo-1.us.uncletopia.com","port":27025,"enabled":true,"region":"us-west","cc":"us","latitude":37.77397,"longitude":-122.4313,"reserved":0,"last_update":"0001-01-01T00:00:00Z","name_a2s":"Uncletopia | San Francisco | 2 | All Maps","protocol":17,"map":"koth_highpass","folder":"tf","game":"Team Fortress","app_id":440,"player_count":0,"max_players":24,"Bots":0,"server_type":"Dedicated","server_os":"Linux","password":true,"vac":true,"version":"7757534","steam_id":85568392924470000,"keywords":["cp","nocrits","nodmgspread","uncletopia"],"game_id":440,"stv_port":27026,"stv_name":"Uncletopia | San Francisco | 2 | All Maps | STV","players":null},{"server_id":19,"name":"Uncletopia | San Francisco | 3 | Stopwatch Beta","name_short":"sfo-3","host":"sfo-1.us.uncletopia.com","port":27035,"enabled":true,"region":"us-west","cc":"us","latitude":37.77397,"longitude":-122.4313,"reserved":0,"last_update":"0001-01-01T00:00:00Z","name_a2s":"Uncletopia | San Francisco | 3 | Stopwatch Beta","protocol":17,"map":"koth_lakeside_final","folder":"tf","game":"Team Fortress","app_id":440,"player_count":0,"max_players":24,"Bots":0,"server_type":"Dedicated","server_os":"Linux","password":true,"vac":true,"version":"7757534","steam_id":85568392924742824,"keywords":["cp","nocrits","nodmgspread","uncletopia"],"game_id":440,"stv_port":27036,"stv_name":"Uncletopia | San Francisco | 3 | Stopwatch Beta | STV","players":null},{"server_id":20,"name":"Uncletopia | San Francisco | 4 | Community","name_short":"sfo-4","host":"sfo-1.us.uncletopia.com","port":27045,"enabled":true,"region":"us-west","cc":"us","latitude":37.77397,"longitude":-122.4313,"reserved":0,"last_update":"0001-01-01T00:00:00Z","name_a2s":"Uncletopia | San Francisco | 4 | Community","protocol":17,"map":"cp_altitude","folder":"tf","game":"Team Fortress","app_id":440,"player_count":0,"max_players":24,"Bots":0,"server_type":"Dedicated","server_os":"Linux","password":true,"vac":true,"version":"7757534","steam_id":85568392924742826,"keywords":["cp","nocrits","nodmgspread","uncletopia"],"game_id":440,"stv_port":27046,"stv_name":"Uncletopia | San Francisco | 4 | Community | STV","players":null},{"server_id":141,"name":"Uncletopia | Sydney | 1 | All Maps","name_short":"syd-1","host":"syd-1.au.uncletopia.com","port":27015,"enabled":true,"region":"au","cc":"au","latitude":-33.865143,"longitude":151.2099,"reserved":0,"last_update":"0001-01-01T00:00:00Z","name_a2s":"Uncletopia | Sydney | 1 | All Maps","protocol":17,"map":"pl_upward","folder":"tf","game":"Team Fortress","app_id":440,"player_count":0,"max_players":24,"Bots":0,"server_type":"Dedicated","server_os":"Linux","password":true,"vac":true,"version":"7757534","steam_id":85568392924470001,"keywords":["nocrits","nodmgspread","payload","uncletopia"],"game_id":440,"stv_port":27016,"stv_name":"Uncletopia | Sydney | 1 | All Maps | STV","players":null},{"server_id":123,"name":"Uncletopia | Sydney | 2 | All Maps","name_short":"syd-2","host":"syd-1.au.uncletopia.com","port":27025,"enabled":true,"region":"au","cc":"au","latitude":-33.865143,"longitude":151.2099,"reserved":0,"last_update":"0001-01-01T00:00:00Z","name_a2s":"Uncletopia | Sydney | 2 | All Maps","protocol":17,"map":"cp_dustbowl","folder":"tf","game":"Team Fortress","app_id":440,"player_count":0,"max_players":24,"Bots":0,"server_type":"Dedicated","server_os":"Linux","password":true,"vac":true,"version":"7757534","steam_id":85568392924470002,"keywords":["cp","nocrits","nodmgspread","uncletopia"],"game_id":440,"stv_port":27026,"stv_name":"Uncletopia | Sydney | 2 | All Maps | STV","players":null},{"server_id":395,"name":"Uncletopia | Sydney | 3 | All Maps","name_short":"syd-3","host":"syd-1.au.uncletopia.com","port":27035,"enabled":true,"region":"au","cc":"au","latitude":-33.865143,"longitude":151.2099,"reserved":0,"last_update":"0001-01-01T00:00:00Z","name_a2s":"Uncletopia | Sydney | 3 | All Maps","protocol":17,"map":"cp_dustbowl","folder":"tf","game":"Team Fortress","app_id":440,"player_count":0,"max_players":24,"Bots":0,"server_type":"Dedicated","server_os":"Linux","password":true,"vac":true,"version":"7757534","steam_id":85568392925194467,"keywords":["cp","nocrits","nodmgspread","uncletopia"],"game_id":440,"stv_port":27036,"stv_name":"Uncletopia | Sydney | 3 | All Maps | STV","players":null},{"server_id":396,"name":"Uncletopia | Sydney | 4 | All Maps","name_short":"syd-4","host":"syd-1.au.uncletopia.com","port":27045,"enabled":true,"region":"au","cc":"au","latitude":-33.865143,"longitude":151.2099,"reserved":0,"last_update":"0001-01-01T00:00:00Z","name_a2s":"Uncletopia | Sydney | 4 | All Maps","protocol":17,"map":"koth_highpass","folder":"tf","game":"Team Fortress","app_id":440,"player_count":0,"max_players":24,"Bots":0,"server_type":"Dedicated","server_os":"Linux","password":true,"vac":true,"version":"7757534","steam_id":85568392925397958,"keywords":["cp","nocrits","nodmgspread","uncletopia"],"game_id":440,"stv_port":27046,"stv_name":"Uncletopia | Sydney | 4 | All Maps | STV","players":null},{"server_id":58,"name":"Uncletopia | Sydney | 5 | Stopwatch Beta","name_short":"syd-5","host":"syd-1.au.uncletopia.com","port":27055,"enabled":true,"region":"au","cc":"au","latitude":-33.865143,"longitude":151.2099,"reserved":0,"last_update":"0001-01-01T00:00:00Z","name_a2s":"Uncletopia | Sydney | 5 | Stopwatch Beta","protocol":17,"map":"pl_upward","folder":"tf","game":"Team Fortress","app_id":440,"player_count":0,"max_players":24,"Bots":0,"server_type":"Dedicated","server_os":"Linux","password":true,"vac":true,"version":"7757534","steam_id":85568392925397959,"keywords":["nocrits","nodmgspread","payload","uncletopia"],"game_id":440,"stv_port":27056,"stv_name":"Uncletopia | Sydney | 5 | Stopwatch Beta | STV","players":null},{"server_id":59,"name":"Uncletopia | Sydney | 6 | Community","name_short":"syd-6","host":"syd-1.au.uncletopia.com","port":27065,"enabled":true,"region":"au","cc":"au","latitude":-33.865143,"longitude":151.2099,"reserved":0,"last_update":"0001-01-01T00:00:00Z","name_a2s":"Uncletopia | Sydney | 6 | Community","protocol":17,"map":"workshop/koth_ashville_final.ugc2130459942","folder":"tf","game":"Team Fortress","app_id":440,"player_count":0,"max_players":24,"Bots":0,"server_type":"Dedicated","server_os":"Linux","password":true,"vac":true,"version":"7757534","steam_id":85568392925397960,"keywords":["cp","nocrits","nodmgspread","uncletopia"],"game_id":440,"stv_port":27066,"stv_name":"Uncletopia | Sydney | 6 | Community | STV","players":null},{"server_id":49,"name":"Uncletopia | Warsaw | 1 | All Maps","name_short":"waw-1","host":"waw-1.pl.uncletopia.com","port":27015,"enabled":true,"region":"eu","cc":"pl","latitude":52.2297,"longitude":21.017532,"reserved":0,"last_update":"0001-01-01T00:00:00Z","name_a2s":"","protocol":0,"map":"","folder":"","game":"","app_id":0,"player_count":0,"max_players":0,"Bots":0,"server_type":"","server_os":"","password":false,"vac":false,"version":"","steam_id":0,"keywords":null,"game_id":0,"stv_port":0,"stv_name":"","players":null},{"server_id":50,"name":"Uncletopia | Warsaw | 2 | All Maps","name_short":"waw-2","host":"waw-1.pl.uncletopia.com","port":27025,"enabled":true,"region":"eu","cc":"pl","latitude":52.2297,"longitude":21.017532,"reserved":0,"last_update":"0001-01-01T00:00:00Z","name_a2s":"Uncletopia | Warsaw | 2 | All Maps","protocol":17,"map":"koth_viaduct","folder":"tf","game":"Team Fortress","app_id":440,"player_count":0,"max_players":24,"Bots":0,"server_type":"Dedicated","server_os":"Linux","password":true,"vac":true,"version":"7757534","steam_id":85568392925397851,"keywords":["cp","nocrits","nodmgspread","uncletopia"],"game_id":440,"stv_port":27026,"stv_name":"Uncletopia | Warsaw | 2 | All Maps | STV","players":null},{"server_id":51,"name":"Uncletopia | Warsaw | 3 | All Maps","name_short":"waw-3","host":"waw-1.pl.uncletopia.com","port":27035,"enabled":true,"region":"eu","cc":"pl","latitude":52.2297,"longitude":21.017532,"reserved":0,"last_update":"0001-01-01T00:00:00Z","name_a2s":"Uncletopia | Warsaw | 3 | All Maps","protocol":17,"map":"pl_barnblitz","folder":"tf","game":"Team Fortress","app_id":440,"player_count":0,"max_players":24,"Bots":0,"server_type":"Dedicated","server_os":"Linux","password":true,"vac":true,"version":"7757534","steam_id":85568392925397852,"keywords":["nocrits","nodmgspread","payload","uncletopia"],"game_id":440,"stv_port":27036,"stv_name":"Uncletopia | Warsaw | 3 | All Maps | STV","players":null},{"server_id":52,"name":"Uncletopia | Warsaw | 4 | All Maps","name_short":"waw-4","host":"waw-1.pl.uncletopia.com","port":27045,"enabled":true,"region":"eu","cc":"pl","latitude":52.2297,"longitude":21.017532,"reserved":0,"last_update":"0001-01-01T00:00:00Z","name_a2s":"Uncletopia | Warsaw | 4 | All Maps","protocol":17,"map":"koth_lakeside_final","folder":"tf","game":"Team Fortress","app_id":440,"player_count":0,"max_players":24,"Bots":0,"server_type":"Dedicated","server_os":"Linux","password":true,"vac":true,"version":"7757534","steam_id":85568392925397853,"keywords":["cp","nocrits","nodmgspread","uncletopia"],"game_id":440,"stv_port":27046,"stv_name":"Uncletopia | Warsaw | 4 | All Maps | STV","players":null},{"server_id":53,"name":"Uncletopia | Warsaw | 5 | Stopwatch Beta","name_short":"waw-5","host":"waw-1.pl.uncletopia.com","port":27055,"enabled":true,"region":"eu","cc":"pl","latitude":52.2297,"longitude":21.017532,"reserved":0,"last_update":"0001-01-01T00:00:00Z","name_a2s":"Uncletopia | Warsaw | 5 | Stopwatch Beta","protocol":17,"map":"pl_borneo","folder":"tf","game":"Team Fortress","app_id":440,"player_count":0,"max_players":24,"Bots":0,"server_type":"Dedicated","server_os":"Linux","password":true,"vac":true,"version":"7757534","steam_id":85568392925397854,"keywords":["nocrits","nodmgspread","payload","uncletopia"],"game_id":440,"stv_port":27056,"stv_name":"Uncletopia | Warsaw | 5 | Stopwatch Beta | STV","players":null},{"server_id":54,"name":"Uncletopia | Warsaw | 6 | Community","name_short":"waw-6","host":"waw-1.pl.uncletopia.com","port":27065,"enabled":true,"region":"eu","cc":"pl","latitude":52.2297,"longitude":21.017532,"reserved":0,"last_update":"0001-01-01T00:00:00Z","name_a2s":"Uncletopia | Warsaw | 6 | Community","protocol":17,"map":"koth_lakeside_final","folder":"tf","game":"Team Fortress","app_id":440,"player_count":0,"max_players":24,"Bots":0,"server_type":"Dedicated","server_os":"Linux","password":true,"vac":true,"version":"7757534","steam_id":85568392925397856,"keywords":["cp","nocrits","nodmgspread","uncletopia"],"game_id":440,"stv_port":27066,"stv_name":"Uncletopia | Warsaw | 6 | Community | STV","players":null}]}