{"status":true,"message":"","result":[{"server_id":9,"name":"Uncletopia | Atlanta | 1 | All Maps","name_short":"atl-1","host":"atl-1.us.uncletopia.com","port":27015,"enabled":true,"region":"us-east","cc":"us","latitude":33.753746,"longitude":-84.38633,"reserved":0,"last_update":"0001-01-01T00:00:00Z","name_a2s":"Uncletopia | Atlanta | 1 | All Maps","protocol":17,"map":"koth_highpass","folder":"tf","game":"Team Fortress","app_id":440,"player_count":0,"max_players":24,"Bots":0,"server_type":"Dedicated","server_os":"Linux","password":true,"vac":true,"version":"7757534","steam_id":85568392924469982,"keywords":["cp","nocrits","nodmgspread","uncletopia"],"game_id":440,"stv_port":27016,"stv_name":"Uncletopia | Atlanta | 1 | All Maps | STV","players":null},{"server_id":400,"name":"Uncletopia | Atlanta | 3 | Community","name_short":"atl-3","host":"atl-1.us.uncletopia.com","port":27035,"enabled":true,"region":"us-east","cc":"us","latitude":33.753746,"longitude":-84.38633,"reserved":0,"last_update":"0001-01-01T00:00:00Z","name_a2s":"Uncletopia | Atlanta | 3 | Community","protocol":17,"map":"workshop/pl_barnblitz_pro7.ugc582280235","folder":"tf","game":"Team Fortress","app_id":440,"player_count":0,"max_players":24,"Bots":0,"server_type":"Dedicated","server_os":"Linux","password":true,"vac":true,"version":"7757534","steam_id":85568392924515187,"keywords":["nocrits","nodmgspread","payload","uncletopia"],"game_id":440,"stv_port":27036,"stv_name":"Uncletopia | Atlanta | 3 | Community | STV","players":null},{"server_id":401,"name":"Uncletopia | Atlanta | 4 | No Payload","name_short":"atl-4","host":"atl-1.us.uncletopia.com","port":27045,"enabled":true,"region":"us-east","cc":"us","latitude":33.753746,"longitude":-84.38633,"reserved":0,"last_update":"0001-01-01T00:00:00Z","name_a2s":"Uncletopia | Atlanta | 4 | No Payload","protocol":17,"map":"pl_pier","folder":"tf","game":"Team Fortress","app_id":440,"player_count":0,"max_players":24,"Bots":0,"server_type":"Dedicated","server_os":"Linux","password":true,"vac":true,"version":"7723704","steam_id":85568392924515188,"keywords":["nocrits","nodmgspread","payload","uncletopia"],"game_id":440,"stv_port":27046,"stv_name":"Uncletopia | Atlanta | 4 | No Payload | STV","players":null},{"server_id":2,"name":"Uncletopia | Chicago | 1 | All Maps","name_short":"chi-1","host":"chi-1.us.uncletopia.com","port":27015,"enabled":true,"region":"us-central","cc":"us","latitude":41.881832,"longitude":-87.62318,"reserved":0,"last_update":"0001-01-01T00:00:00Z","name_a2s":"Uncletopia | Chicago | 1 | All Maps","protocol":17,"map":"cp_dustbowl","folder":"tf","game":"Team Fortress","app_id":440,"player_count":24,"max_players":24,"Bots":0,"server_type":"Dedicated","server_os":"Linux","password":true,"vac":true,"version":"7757534","steam_id":85568392924469984,"keywords":["cp","nocrits","nodmgspread","uncletopia"],"game_id":440,"stv_port":27016,"stv_name":"Uncletopia | Chicago | 1 | All Maps | STV","players":[{"user_id":170,"name":"robert","steam_id":76561198001196512,"connected_time":2232000000000,"state":"active","ping":50},{"user_id":68,"name":"xZackAttack27x","steam_id":76561198035446639,"connected_time":7691000000000,"state":"active","ping":70},{"user_id":178,"name":"mechiimi ★","steam_id":76561198321627268,"connected_time":1049000000000,"state":"active","ping":141},{"user_id":181,"name":"Wahooka","steam_id":76561197962240925,"connected_time":1006000000000,"state":"active","ping":54},{"user_id":22,"name":"Lucy","steam_id":76561198032590343,"connected_time":12434000000000,"state":"active","ping":100},{"user_id":188,"name":"Gabinator32","steam_id":76561198872467183,"connected_time":428000000000,"state":"active","ping":46},{"user_id":36,"name":"daemon","steam_id":76561198001541433,"connected_time":11278000000000,"state":"active","ping":60},{"user_id":176,"name":"Tyco","steam_id":76561197978414167,"connected_time":1054000000000,"state":"active","ping":74},{"user_id":183,"name":"mio","steam_id":76561198239286750,"connected_time":988000000000,"state":"active","ping":66},{"user_id":139,"name":"goblino","steam_id":76561198068260422,"connected_time":4920000000000,"state":"active","ping":51},{"user_id":187,"name":"barbara","steam_id":76561198072417792,"connected_time":431000000000,"state":"active","ping":114},{"user_id":175,"name":"Ejaculation Zach","steam_id":76561198203765200,"connected_time":1060000000000,"state":"active","ping":61},{"user_id":180,"name":"SCATTER","steam_id":76561198405168492,"connected_time":1041000000000,"state":"active","ping":85},{"user_id":182,"name":"Potato ^ω^","steam_id":76561199045781941,"connected_time":1004000000000,"state":"active","ping":74},{"user_id":177,"name":"6t26j","steam_id":76561198278282836,"connected_time":1053000000000,"state":"active","ping":55},{"user_id":161,"name":"goober","steam_id":76561198943598378,"connected_time":2826000000000,"state":"active","ping":50},{"user_id":189,"name":"Vibey","steam_id":76561198342873474,"connected_time":349000000000,"state":"active","ping":78},{"user_id":185,"name":"harrison.avenue","steam_id":76561198037288988,"connected_time":935000000000,"state":"active","ping":97},{"user_id":158,"name":"wobba wobba","steam_id":76561198249206656,"connected_time":3363000000000,"state":"active","ping":60},{"user_id":162,"name":"Fuegan Ra","steam_id":76561198287923849,"connected_time":2355000000000,"state":"active","ping":46},{"user_id":191,"name":"imposter","steam_id":76561198085571748,"connected_time":105000000000,"state":"active","ping":60},{"user_id":172,"name":"what you know","steam_id":76561198982810452,"connected_time":1754000000000,"state":"active","ping":87},{"user_id":190,"name":"richard clock","steam_id":76561198048455671,"connected_time":107000000000,"state":"active","ping":51},{"user_id":186,"name":"Dali","steam_id":76561198077593486,"connected_time":718000000000,"state":"active","ping":121}]},{"server_id":106,"name":"Uncletopia | Chicago | 2 | All Maps","name_short":"chi-2","host":"chi-1.us.uncletopia.com","port":27025,"enabled":true,"region":"us-central","cc":"us","latitude":41.881832,"longitude":-87.62318,"reserved":0,"last_update":"0001-01-01T00:00:00Z","name_a2s":"Uncletopia | Chicago | 2 | All Maps","protocol":17,"map":"koth_viaduct","folder":"tf","game":"Team Fortress","app_id":440,"player_count":19,"max_players":24,"Bots":0,"server_type":"Dedicated","server_os":"Linux","password":true,"vac":true,"version":"7757534","steam_id":85568392924469985,"keywords":["cp","nocrits","nodmgspread","uncletopia"],"game_id":440,"stv_port":27026,"stv_name":"Uncletopia | Chicago | 2 | All Maps | STV","players":[{"user_id":18,"name":"GlitchGame","steam_id":76561198935134697,"connected_time":131000000000,"state":"active","ping":44},{"user_id":7,"name":"zanealcannon","steam_id":76561198409950668,"connected_time":787000000000,"state":"active","ping":67},{"user_id":8,"name":"jojobinks613","steam_id":76561198841293111,"connected_time":781000000000,"state":"active","ping":134},{"user_id":10,"name":"cokersworld","steam_id":76561198039731344,"connected_time":549000000000,"state":"active","ping":70},{"user_id":11,"name":"mars (she/they)","steam_id":76561198127459772,"connected_time":490000000000,"state":"active","ping":67},{"user_id":12,"name":"DJFunnyBone","steam_id":76561198892528359,"connected_time":399000000000,"state":"active","ping":34},{"user_id":13,"name":"Spraxinator","steam_id":76561199083563607,"connected_time":297000000000,"state":"active","ping":97},{"user_id":14,"name":"Leaf ♥","steam_id":76561198348965524,"connected_time":266000000000,"state":"active","ping":60},{"user_id":15,"name":"Turtlin'","steam_id":76561198885096042,"connected_time":185000000000,"state":"active","ping":64},{"user_id":16,"name":"Josh","steam_id":76561198055691099,"connected_time":154000000000,"state":"active","ping":82},{"user_id":17,"name":"hierodule","steam_id":76561198023229665,"connected_time":134000000000,"state":"active","ping":73},{"user_id":19,"name":"Six","steam_id":76561198052472822,"connected_time":131000000000,"state":"active","ping":68},{"user_id":20,"name":"Zeora","steam_id":76561198799145251,"connected_time":110000000000,"state":"active","ping":67},{"user_id":21,"name":"Snekydog (Can't Chat)","steam_id":76561199132653236,"connected_time":88000000000,"state":"active","ping":87},{"user_id":22,"name":"derz","steam_id":76561198010742216,"connected_time":72000000000,"state":"active","ping":53},{"user_id":23,"name":"Ｂ Ｕ Ｒ Ｄ","steam_id":76561198124142841,"connected_time":67000000000,"state":"active","ping":60},{"user_id":24,"name":"Motreir","steam_id":76561198151717946,"connected_time":62000000000,"state":"active","ping":75},{"user_id":25,"name":"conscripted monk","steam_id":76561199029246232,"connected_time":56000000000,"state":"active","ping":66},{"user_id":26,"name":"suicide bomber","steam_id":76561199074689482,"connected_time":27000000000,"state":"spawning","ping":59}]},{"server_id":402,"name":"Uncletopia | Chicago | 3 | All Maps","name_short":"chi-3","host":"chi-1.us.uncletopia.com","port":27035,"enabled":true,"region":"us-central","cc":"us","latitude":41.881832,"longitude":-87.62318,"reserved":0,"last_update":"0001-01-01T00:00:00Z","name_a2s":"Uncletopia | Chicago | 3 | All Maps","protocol":17,"map":"koth_lakeside_final","folder":"tf","game":"Team Fortress","app_id":440,"player_count":0,"max_players":24,"Bots":0,"server_type":"Dedicated","server_os":"Linux","password":true,"vac":true,"version":"7757534","steam_id":85568392924515191,"keywords":["cp","nocrits","nodmgspread","uncletopia"],"game_id":440,"stv_port":27036,"stv_name":"Uncletopia | Chicago | 3 | All Maps | STV","players":null},{"server_id":403,"name":"Uncletopia | Chicago | 4 | All Maps","name_short":"chi-4","host":"chi-1.us.uncletopia.com","port":27045,"enabled":true,"region":"us-central","cc":"us","latitude":41.881832,"longitude":-87.62318,"reserved":0,"last_update":"0001-01-01T00:00:00Z","name_a2s":"Uncletopia | Chicago | 4 | All Maps","protocol":17,"map":"koth_viaduct","folder":"tf","game":"Team Fortress","app_id":440,"player_count":0,"max_players":24,"Bots":0,"server_type":"Dedicated","server_os":"Linux","password":true,"vac":true,"version":"7757534","steam_id":85568392924515193,"keywords":["cp","nocrits","nodmgspread","uncletopia"],"game_id":440,"stv_port":27046,"stv_name":"Uncletopia | Chicago | 4 | All Maps | STV","players":null},{"server_id":36,"name":"Uncletopia | Chicago | 5 | All Maps","name_short":"chi-5","host":"chi-2.us.uncletopia.com","port":27015,"enabled":true,"region":"us-central","cc":"us","latitude":41.881832,"longitude":-87.62318,"reserved":0,"last_update":"0001-01-01T00:00:00Z","name_a2s":"Uncletopia | Chicago | 5 | All Maps","protocol":17,"map":"koth_cascade","folder":"tf","game":"Team Fortress","app_id":440,"player_count":0,"max_players":24,"Bots":0,"server_type":"Dedicated","server_os":"Linux","password":true,"vac":true,"version":"7757534","steam_id":85568392924866362,"keywords":["cp","nocrits","nodmgspread","uncletopia"],"game_id":440,"stv_port":27016,"stv_name":"Uncletopia | Chicago | 5 | All Maps | STV","players":null},{"server_id":37,"name":"Uncletopia | Chicago | 6 | All Maps","name_short":"chi-6","host":"chi-2.us.uncletopia.com","port":27025,"enabled":true,"region":"us-central","cc":"us","latitude":41.881832,"longitude":-87.62318,"reserved":0,"last_update":"0001-01-01T00:00:00Z","name_a2s":"Uncletopia | Chicago | 6 | All Maps","protocol":17,"map":"koth_cascade","folder":"tf","game":"Team Fortress","app_id":440,"player_count":0,"max_players":24,"Bots":0,"server_type":"Dedicated","server_os":"Linux","password":true,"vac":true,"version":"7757534","steam_id":85568392924866363,"keywords":["cp","nocrits","nodmgspread","uncletopia"],"game_id":440,"stv_port":27026,"stv_name":"Uncletopia | Chicago | 6 | All Maps | STV","players":null},{"server_id":38,"name":"Uncletopia | Chicago | 7 | Stopwatch Beta","name_short":"chi-7","host":"chi-2.us.uncletopia.com","port":27035,"enabled":true,"region":"us-central","cc":"us","latitude":41.881832,"longitude":-87.62318,"reserved":0,"last_update":"0001-01-01T00:00:00Z","name_a2s":"Uncletopia | Chicago | 7 | Stopwatch Beta","protocol":17,"map":"pl_upward","folder":"tf","game":"Team Fortress","app_id":440,"player_count":0,"max_players":24,"Bots":0,"server_type":"Dedicated","server_os":"Linux","password":true,"vac":true,"version":"7757534","steam_id":85568392924866364,"keywords":["nocrits","nodmgspread","payload","uncletopia"],"game_id":440,"stv_port":27036,"stv_name":"Uncletopia | Chicago | 7 | Stopwatch Beta | STV","players":null},{"server_id":39,"name":"Uncletopia | Chicago | 8 | Community","name_short":"chi-8","host":"chi-2.us.uncletopia.com","port":27045,"enabled":true,"region":"us-central","cc":"us","latitude":41.881832,"longitude":-87.62318,"reserved":0,"last_update":"0001-01-01T00:00:00Z","name_a2s":"Uncletopia | Chicago | 8 | Community","protocol":17,"map":"workshop/cp_villa_b19.ugc2113052569","folder":"tf","game":"Team Fortress","app_id":440,"player_count":0,"max_players":24,"Bots":0,"server_type":"Dedicated","server_os":"Linux","password":true,"vac":true,"version":"7757534","steam_id":85568392924866365,"keywords":["cp","nocrits","nodmgspread","uncletopia"],"game_id":440,"stv_port":27046,"stv_name":"Uncletopia | Chicago | 8 | Community | STV","players":null},{"server_id":8,"name":"Uncletopia | Dallas | 1 | All Maps","name_short":"dal-1","host":"dal-1.us.uncletopia.com","port":27015,"enabled":true,"region":"us-central","cc":"us","latitude":32.779167,"longitude":-96.80889,"reserved":0,"last_update":"0001-01-01T00:00:00Z","name_a2s":"Uncletopia | Dallas | 1 | All Maps","protocol":17,"map":"koth_cascade","folder":"tf","game":"Team Fortress","app_id":440,"player_count":0,"max_players":24,"Bots":0,"server_type":"Dedicated","server_os":"Linux","password":true,"vac":true,"version":"7757534","steam_id":85568392924469986,"keywords":["cp","nocrits","nodmgspread","uncletopia"],"game_id":440,"stv_port":27016,"stv_name":"Uncletopia | Dallas | 1 | All Maps | STV","players":null},{"server_id":108,"name":"Uncletopia | Dallas | 2 | All Maps","name_short":"dal-2","host":"dal-1.us.uncletopia.com","port":27025,"enabled":true,"region":"us-central","cc":"us","latitude":32.779167,"longitude":-96.80889,"reserved":0,"last_update":"0001-01-01T00:00:00Z","name_a2s":"Uncletopia | Dallas | 2 | All Maps","protocol":17,"map":"pl_badwater","folder":"tf","game":"Team Fortress","app_id":440,"player_count":5,"max_players":24,"Bots":0,"server_type":"Dedicated","server_os":"Linux","password":true,"vac":true,"version":"7757534","steam_id":85568392924469988,"keywords":["nocrits","nodmgspread","payload","uncletopia"],"game_id":440,"stv_port":27026,"stv_name":"Uncletopia | Dallas | 2 | All Maps | STV","players":[{"user_id":26,"name":"bad at video games","steam_id":76561198328675913,"connected_time":991000000000,"state":"active","ping":115},{"user_id":28,"name":"FUSION","steam_id":76561197972659738,"connected_time":719000000000,"state":"active","ping":67},{"user_id":31,"name":"Pew Pew ..","steam_id":76561199197023436,"connected_time":528000000000,"state":"active","ping":83},{"user_id":33,"name":"Zizen","steam_id":76561199011832069,"connected_time":103000000000,"state":"active","ping":96},{"user_id":19,"name":"magicbeetle","steam_id":76561199160422863,"connected_time":1852000000000,"state":"active","ping":143}]},{"server_id":5,"name":"Uncletopia | Frankfurt | 1 | All Maps","name_short":"frk-1","host":"frk-1.de.uncletopia.com","port":27015,"enabled":true,"region":"eu","cc":"de","latitude":50.110924,"longitude":8.682127,"reserved":0,"last_update":"0001-01-01T00:00:00Z","name_a2s":"Uncletopia | Frankfurt | 1 | All Maps","protocol":17,"map":"pl_borneo","folder":"tf","game":"Team Fortress","app_id":440,"player_count":24,"max_players":24,"Bots":0,"server_type":"Dedicated","server_os":"Linux","password":true,"vac":true,"version":"7757534","steam_id":85568392924469989,"keywords":["nocrits","nodmgspread","payload","uncletopia"],"game_id":440,"stv_port":27016,"stv_name":"Uncletopia | Frankfurt | 1 | All Maps | STV","players":[{"user_id":8,"name":"Natpad","steam_id":76561198842124497,"connected_time":3273000000000,"state":"active","ping":70},{"user_id":45,"name":"B4ByBoI:D","steam_id":76561198878798417,"connected_time":1674000000000,"state":"active","ping":86},{"user_id":53,"name":"Kee","steam_id":76561198258764421,"connected_time":972000000000,"state":"active","ping":65},{"user_id":56,"name":"Neytan","steam_id":76561198027024747,"connected_time":750000000000,"state":"active","ping":117},{"user_id":57,"name":"theo von","steam_id":76561198125381319,"connected_time":642000000000,"state":"active","ping":87},{"user_id":13,"name":"wasps","steam_id":76561198049485054,"connected_time":2897000000000,"state":"active","ping":85},{"user_id":58,"name":"テイルス","steam_id":76561198022403271,"connected_time":598000000000,"state":"active","ping":45},{"user_id":39,"name":"Barmax","steam_id":76561198973424528,"connected_time":2410000000000,"state":"active","ping":90},{"user_id":44,"name":"cazador","steam_id":76561198123096922,"connected_time":1877000000000,"state":"active","ping":91},{"user_id":48,"name":"Boonir","steam_id":76561198049172108,"connected_time":1448000000000,"state":"active","ping":97},{"user_id":60,"name":"Jᵃᶜᵏᶤᵉ Cʰᵃᶰ","steam_id":76561198250935222,"connected_time":37000000000,"state":"active","ping":166},{"user_id":55,"name":"EdSuedi","steam_id":76561199387956486,"connected_time":781000000000,"state":"active","ping":52},{"user_id":21,"name":"The Witch-Finder General","steam_id":76561198375599872,"connected_time":2720000000000,"state":"active","ping":74},{"user_id":22,"name":"PLUTO","steam_id":76561198312436128,"connected_time":2719000000000,"state":"active","ping":121},{"user_id":35,"name":"MERP","steam_id":76561198392409485,"connected_time":2514000000000,"state":"active","ping":73},{"user_id":26,"name":"snooper main","steam_id":76561199073802389,"connected_time":2672000000000,"state":"active","ping":105},{"user_id":28,"name":"cloud","steam_id":76561198179768931,"connected_time":2664000000000,"state":"active","ping":62},{"user_id":43,"name":"Mao Zedong","steam_id":76561198347020945,"connected_time":1935000000000,"state":"active","ping":76},{"user_id":42,"name":"Medieval Doktor","steam_id":76561198075373362,"connected_time":2047000000000,"state":"active","ping":51},{"user_id":32,"name":"Motley_","steam_id":76561198116057976,"connected_time":2594000000000,"state":"active","ping":48},{"user_id":40,"name":"punchmypotatoes","steam_id":76561198091255731,"connected_time":2399000000000,"state":"active","ping":68},{"user_id":46,"name":"wheelie bin","steam_id":76561198040040328,"connected_time":1660000000000,"state":"active","ping":62},{"user_id":38,"name":"suna militisto","steam_id":76561198352926998,"connected_time":2474000000000,"state":"active","ping":90},{"user_id":50,"name":"꧁༒Xenon༒꧂","steam_id":76561198120502313,"connected_time":1356000000000,"state":"active","ping":73}]},{"server_id":110,"name":"Uncletopia | Frankfurt | 2 | All Maps","name_short":"frk-2","host":"frk-1.de.uncletopia.com","port":27025,"enabled":true,"region":"eu","cc":"de","latitude":50.110924,"longitude":8.682127,"reserved":0,"last_update":"0001-01-01T00:00:00Z","name_a2s":"Uncletopia | Frankfurt | 2 | All Maps","protocol":17,"map":"pl_snowycoast","folder":"tf","game":"Team Fortress","app_id":440,"player_count":24,"max_players":24,"Bots":0,"server_type":"Dedicated","server_os":"Linux","password":true,"vac":true,"version":"7757534","steam_id":85568392924469990,"keywords":["nocrits","nodmgspread","payload","uncletopia"],"game_id":440,"stv_port":27026,"stv_name":"Uncletopia | Frankfurt | 2 | All Maps | STV","players":[{"user_id":267,"name":"Emil420m","steam_id":76561198241894374,"connected_time":655000000000,"state":"active","ping":57},{"user_id":232,"name":"whathefox","steam_id":76561197983055690,"connected_time":3956000000000,"state":"active","ping":86},{"user_id":279,"name":"brique","steam_id":76561199103944229,"connected_time":435000000000,"state":"active","ping":63},{"user_id":263,"name":"MAKENTAKEN","steam_id":76561199127359587,"connected_time":1617000000000,"state":"active","ping":84},{"user_id":249,"name":"NNidea","steam_id":76561199043470524,"connected_time":1972000000000,"state":"active","ping":48},{"user_id":278,"name":"Suetolog","steam_id":76561199053090212,"connected_time":481000000000,"state":"active","ping":57},{"user_id":202,"name":"i love the scottish","steam_id":76561198058012525,"connected_time":5784000000000,"state":"active","ping":74},{"user_id":245,"name":"לו","steam_id":76561198170332885,"connected_time":2251000000000,"state":"active","ping":119},{"user_id":280,"name":"NerdyEnforcement","steam_id":76561198437710820,"connected_time":428000000000,"state":"active","ping":164},{"user_id":250,"name":"Gjsöekakeurhdkfisgjchjateyvxsr","steam_id":76561198220571256,"connected_time":1967000000000,"state":"active","ping":58},{"user_id":203,"name":".::[SerafeTTiN]::.","steam_id":76561198009471724,"connected_time":5642000000000,"state":"active","ping":88},{"user_id":273,"name":"Poor Fucking Infantry","steam_id":76561198055978522,"connected_time":616000000000,"state":"active","ping":61},{"user_id":264,"name":"Rafalexis","steam_id":76561198055792457,"connected_time":1141000000000,"state":"active","ping":69},{"user_id":253,"name":"better call selo","steam_id":76561198976793469,"connected_time":1903000000000,"state":"active","ping":91},{"user_id":270,"name":"AviK","steam_id":76561198310822598,"connected_time":645000000000,"state":"active","ping":178},{"user_id":271,"name":"open up your loving arms","steam_id":76561197994492154,"connected_time":642000000000,"state":"active","ping":60},{"user_id":265,"name":"Cave Johnson","steam_id":76561198366456565,"connected_time":720000000000,"state":"active","ping":61},{"user_id":276,"name":"Randomly Colored Master","steam_id":76561198015126961,"connected_time":561000000000,"state":"active","ping":113},{"user_id":257,"name":"A Sewer Ratte","steam_id":76561198798448303,"connected_time":1889000000000,"state":"active","ping":157},{"user_id":272,"name":"Duke","steam_id":76561198150365149,"connected_time":631000000000,"state":"active","ping":73},{"user_id":274,"name":"Mr.Schnittlauch","steam_id":76561198295868113,"connected_time":614000000000,"state":"active","ping":70},{"user_id":261,"name":"HimpoX","steam_id":76561198043946778,"connected_time":1811000000000,"state":"active","ping":99},{"user_id":244,"name":"Sylbar","steam_id":76561198065379590,"connected_time":2469000000000,"state":"active","ping":69},{"user_id":275,"name":"אמא ךלש","steam_id":76561199467013380,"connected_time":606000000000,"state":"active","ping":122}]},{"server_id":308,"name":"Uncletopia | Frankfurt | 3 | All Maps","name_short":"frk-3","host":"frk-1.de.uncletopia.com","port":27035,"enabled":true,"region":"eu","cc":"de","latitude":50.110924,"longitude":8.682127,"reserved":0,"last_update":"0001-01-01T00:00:00Z","name_a2s":"Uncletopia | Frankfurt | 3 | All Maps","protocol":17,"map":"cp_process_final","folder":"tf","game":"Team Fortress","app_id":440,"player_count":0,"max_players":24,"Bots":0,"server_type":"Dedicated","server_os":"Linux","password":true,"vac":true,"version":"7757534","steam_id":85568392924504274,"keywords":["cp","nocrits","nodmgspread","uncletopia"],"game_id":440,"stv_port":27036,"stv_name":"Uncletopia | Frankfurt | 3 | All Maps | STV","players":null},{"server_id":309,"name":"Uncletopia | Frankfurt | 4 | All Maps","name_short":"frk-4","host":"frk-1.de.uncletopia.com","port":27045,"enabled":true,"region":"eu","cc":"de","latitude":50.110924,"longitude":8.682127,"reserved":0,"last_update":"0001-01-01T00:00:00Z","name_a2s":"Uncletopia | Frankfurt | 4 | All Maps","protocol":17,"map":"koth_viaduct","folder":"tf","game":"Team Fortress","app_id":440,"player_count":0,"max_players":24,"Bots":0,"server_type":"Dedicated","server_os":"Linux","password":true,"vac":true,"version":"7757534","steam_id":85568392924504275,"keywords":["cp","nocrits","nodmgspread","uncletopia"],"game_id":440,"stv_port":27046,"stv_name":"Uncletopia | Frankfurt | 4 | All Maps | STV","players":null},{"server_id":310,"name":"Uncletopia | Frankfurt | 5 | All Maps","name_short":"frk-5","host":"frk-1.de.uncletopia.com","port":27055,"enabled":true,"region":"eu","cc":"de","latitude":50.110924,"longitude":8.682127,"reserved":0,"last_update":"0001-01-01T00:00:00Z","name_a2s":"Uncletopia | Frankfurt | 5 | All Maps","protocol":17,"map":"pl_badwater","folder":"tf","game":"Team Fortress","app_id":440,"player_count":24,"max_players":24,"Bots":0,"server_type":"Dedicated","server_os":"Linux","password":true,"vac":true,"version":"7757534","steam_id":85568392924504277,"keywords":["nocrits","nodmgspread","payload","uncletopia"],"game_id":440,"stv_port":27056,"stv_name":"Uncletopia | Frankfurt | 5 | All Maps | STV","players":[{"user_id":220,"name":"Alegz","steam_id":76561198287810139,"connected_time":170000000000,"state":"active","ping":46},{"user_id":222,"name":"The Dwarf Who Says Grudge a lot","steam_id":76561197963866545,"connected_time":133000000000,"state":"active","ping":59},{"user_id":148,"name":"Orochi","steam_id":76561198265192382,"connected_time":5640000000000,"state":"active","ping":63},{"user_id":183,"name":"Rolprev","steam_id":76561198047275939,"connected_time":2823000000000,"state":"active","ping":78},{"user_id":216,"name":"Princess Fuzz","steam_id":76561198025783000,"connected_time":659000000000,"state":"active","ping":48},{"user_id":206,"name":"hut hut","steam_id":76561198088426580,"connected_time":1653000000000,"state":"active","ping":61},{"user_id":214,"name":"Femboypawnguy","steam_id":76561198274894771,"connected_time":825000000000,"state":"active","ping":53},{"user_id":208,"name":"Kruthal","steam_id":76561198245726582,"connected_time":1267000000000,"state":"active","ping":75},{"user_id":207,"name":"tiiyama","steam_id":76561198046196005,"connected_time":1474000000000,"state":"active","ping":44},{"user_id":225,"name":"Liko","steam_id":76561197994660517,"connected_time":118000000000,"state":"active","ping":76},{"user_id":209,"name":"ᴉoio","steam_id":76561198024952144,"connected_time":1250000000000,"state":"active","ping":47},{"user_id":221,"name":"Záporák","steam_id":76561198207175503,"connected_time":148000000000,"state":"active","ping":60},{"user_id":215,"name":"Competitive racist","steam_id":76561198110470565,"connected_time":821000000000,"state":"active","ping":97},{"user_id":211,"name":"Mr.Fix","steam_id":76561199017362445,"connected_time":1195000000000,"state":"active","ping":94},{"user_id":223,"name":"Doriian","steam_id":76561198071438810,"connected_time":131000000000,"state":"active","ping":76},{"user_id":219,"name":"Bell","steam_id":76561199454586928,"connected_time":176000000000,"state":"active","ping":136},{"user_id":202,"name":"Mike Rizzowski","steam_id":76561198798657045,"connected_time":1914000000000,"state":"active","ping":75},{"user_id":195,"name":"amjadgx9","steam_id":76561199388681087,"connected_time":2091000000000,"state":"active","ping":128},{"user_id":224,"name":"Piros","steam_id":76561198193785653,"connected_time":124000000000,"state":"active","ping":89},{"user_id":166,"name":"Baspla","steam_id":76561198066260876,"connected_time":4495000000000,"state":"active","ping":57},{"user_id":213,"name":"Osmo","steam_id":76561199286764992,"connected_time":882000000000,"state":"active","ping":76},{"user_id":129,"name":"john fortress","steam_id":76561198013237629,"connected_time":7082000000000,"state":"active","ping":101},{"user_id":218,"name":"jge","steam_id":76561198123186387,"connected_time":239000000000,"state":"active","ping":55},{"user_id":227,"name":"goktwoxd","steam_id":76561198065114415,"connected_time":38000000000,"state":"active","ping":75}]},{"server_id":311,"name":"Uncletopia | Frankfurt | 6 | All Maps","name_short":"frk-6","host":"frk-1.de.uncletopia.com","port":27065,"enabled":true,"region":"eu","cc":"de","latitude":50.110924,"longitude":8.682127,"reserved":0,"last_update":"0001-01-01T00:00:00Z","name_a2s":"Uncletopia | Frankfurt | 6 | All Maps","protocol":17,"map":"cp_altitude","folder":"tf","game":"Team Fortress","app_id":440,"player_count":0,"max_players":24,"Bots":0,"server_type":"Dedicated","server_os":"Linux","password":true,"vac":true,"version":"7757534","steam_id":85568392924504278,"keywords":["cp","nocrits","nodmgspread","uncletopia"],"game_id":440,"stv_port":27066,"stv_name":"Uncletopia | Frankfurt | 6 | All Maps | STV","players":null},{"server_id":23,"name":"Uncletopia | Frankfurt | 7 | Stopwatch Beta","name_short":"frk-7","host":"frk-1.de.uncletopia.com","port":27075,"enabled":true,"region":"eu","cc":"de","latitude":50.110924,"longitude":8.682127,"reserved":0,"last_update":"0001-01-01T00:00:00Z","name_a2s":"Uncletopia | Frankfurt | 7 | Stopwatch Beta","protocol":17,"map":"pl_frontier_final","folder":"tf","game":"Team Fortress","app_id":440,"player_count":0,"max_players":24,"Bots":0,"server_type":"Dedicated","server_os":"Linux","password":true,"vac":true,"version":"7757534","steam_id":85568392924742827,"keywords":["nocrits","nodmgspread","payload","uncletopia"],"game_id":440,"stv_port":27076,"stv_name":"Uncletopia | Frankfurt | 7 | Stopwatch Beta | STV","players":null},{"server_id":24,"name":"Uncletopia | Frankfurt | 8 | Community","name_short":"frk-8","host":"frk-1.de.uncletopia.com","port":27085,"enabled":true,"region":"eu","cc":"de","latitude":50.110924,"longitude":8.682127,"reserved":0,"last_update":"0001-01-01T00:00:00Z","name_a2s":"Uncletopia | Frankfurt | 8 | Community","protocol":17,"map":"workshop/cp_kalinka_rc6a.ugc1272700588","folder":"tf","game":"Team Fortress","app_id":440,"player_count":0,"max_players":24,"Bots":0,"server_type":"Dedicated","server_os":"Linux","password":true,"vac":true,"version":"7757534","steam_id":85568392924742828,"keywords":["cp","nocrits","nodmgspread","uncletopia"],"game_id":440,"stv_port":27086,"stv_name":"Uncletopia | Frankfurt | 8 | Community | STV","players":null},{"server_id":202,"name":"Uncletopia | Hong Kong | 1 | All Maps","name_short":"hgk-1","host":"hgk-1.hk.uncletopia.com","port":27015,"enabled":true,"region":"asia","cc":"hk","latitude":22.302711,"longitude":114.177216,"reserved":0,"last_update":"0001-01-01T00:00:00Z","name_a2s":"Uncletopia | Hong Kong | 1 | All Maps","protocol":17,"map":"pl_snowycoast","folder":"tf","game":"Team Fortress","app_id":440,"player_count":9,"max_players":24,"Bots":0,"server_type":"Dedicated","server_os":"Linux","password":true,"vac":true,"version":"7757534","steam_id":85568392924494504,"keywords":["nocrits","nodmgspread","payload","uncletopia"],"game_id":440,"stv_port":27016,"stv_name":"Uncletopia | Hong Kong | 1 | All Maps | STV","players":[{"user_id":472,"name":"твоя капитуляция","steam_id":76561198883349993,"connected_time":346000000000,"state":"active","ping":133},{"user_id":437,"name":"母の肉団子","steam_id":76561198069561896,"connected_time":3763000000000,"state":"active","ping":23},{"user_id":462,"name":"Waltuh (CEO of Chicanery)","steam_id":76561199257300024,"connected_time":1852000000000,"state":"active","ping":69},{"user_id":469,"name":"BabyPupa","steam_id":76561198442467591,"connected_time":909000000000,"state":"active","ping":76},{"user_id":471,"name":"Owmyn","steam_id":76561199239651098,"connected_time":412000000000,"state":"active","ping":110},{"user_id":473,"name":"Merdit65","steam_id":76561199097416950,"connected_time":64000000000,"state":"active","ping":264},{"user_id":450,"name":"detf2oxification","steam_id":76561199077602424,"connected_time":2592000000000,"state":"active","ping":63},{"user_id":465,"name":"Miles Per'Hour","steam_id":76561199000630075,"connected_time":1791000000000,"state":"active","ping":114},{"user_id":459,"name":"Branko","steam_id":76561199262196710,"connected_time":1975000000000,"state":"active","ping":166}]},{"server_id":1,"name":"Uncletopia | Los Angeles | 1 | All Maps","name_short":"lax-1","host":"lax-1.us.uncletopia.com","port":27015,"enabled":true,"region":"us-west","cc":"us","latitude":33.94279,"longitude":-118.41004,"reserved":0,"last_update":"0001-01-01T00:00:00Z","name_a2s":"Uncletopia | Los Angeles | 1 | All Maps","protocol":17,"map":"pl_borneo","folder":"tf","game":"Team Fortress","app_id":440,"player_count":0,"max_players":24,"Bots":0,"server_type":"Dedicated","server_os":"Linux","password":true,"vac":true,"version":"7757534","steam_id":85568392924469991,"keywords":["nocrits","nodmgspread","payload","uncletopia"],"game_id":440,"stv_port":27016,"stv_name":"Uncletopia | Los Angeles | 1 | All Maps | STV","players":null},{"server_id":112,"name":"Uncletopia | Los Angeles | 2 | All Maps","name_short":"lax-2","host":"lax-1.us.uncletopia.com","port":27025,"enabled":true,"region":"us-west","cc":"us","latitude":33.94279,"longitude":-118.41004,"reserved":0,"last_update":"0001-01-01T00:00:00Z","name_a2s":"Uncletopia | Los Angeles | 2 | All Maps","protocol":17,"map":"koth_cascade","folder":"tf","game":"Team Fortress","app_id":440,"player_count":0,"max_players":24,"Bots":0,"server_type":"Dedicated","server_os":"Linux","password":true,"vac":true,"version":"7757534","steam_id":85568392924469992,"keywords":["cp","nocrits","nodmgspread","uncletopia"],"game_id":440,"stv_port":27026,"stv_name":"Uncletopia | Los Angeles | 2 | All Maps | STV","players":null},{"server_id":324,"name":"Uncletopia | Los Angeles | 3 | All Maps","name_short":"lax-3","host":"lax-1.us.uncletopia.com","port":27035,"enabled":true,"region":"us-west","cc":"us","latitude":33.94279,"longitude":-118.41004,"reserved":0,"last_update":"0001-01-01T00:00:00Z","name_a2s":"Uncletopia | Los Angeles | 3 | All Maps","protocol":17,"map":"pl_pier","folder":"tf","game":"Team Fortress","app_id":440,"player_count":0,"max_players":24,"Bots":0,"server_type":"Dedicated","server_os":"Linux","password":true,"vac":true,"version":"7757534","steam_id":85568392924510198,"keywords":["nocrits","nodmgspread","payload","uncletopia"],"game_id":440,"stv_port":27036,"stv_name":"Uncletopia | Los Angeles | 3 | All Maps | STV","players":null},{"server_id":25,"name":"Uncletopia | Los Angeles | 4 | Stopwatch Beta","name_short":"lax-4","host":"lax-1.us.uncletopia.com","port":27045,"enabled":true,"region":"us-west","cc":"us","latitude":33.94279,"longitude":-118.41004,"reserved":0,"last_update":"0001-01-01T00:00:00Z","name_a2s":"Uncletopia | Los Angeles | 4 | Stopwatch Beta","protocol":17,"map":"pl_frontier_final","folder":"tf","game":"Team Fortress","app_id":440,"player_count":0,"max_players":24,"Bots":0,"server_type":"Dedicated","server_os":"Linux","password":true,"vac":true,"version":"7757534","steam_id":85568392924510199,"keywords":["nocrits","nodmgspread","payload","uncletopia"],"game_id":440,"stv_port":27046,"stv_name":"Uncletopia | Los Angeles | 4 | Stopwatch Beta | STV","players":null},{"server_id":11,"name":"Uncletopia | London | 1 | All Maps","name_short":"lon-1","host":"lon-1.uk.uncletopia.com","port":27015,"enabled":true,"region":"eu","cc":"gb","latitude":51.509865,"longitude":-0.118092,"reserved":0,"last_update":"0001-01-01T00:00:00Z","name_a2s":"Uncletopia | London | 1 | All Maps","protocol":17,"map":"cp_snakewater_final1","folder":"tf","game":"Team Fortress","app_id":440,"player_count":24,"max_players":24,"Bots":0,"server_type":"Dedicated","server_os":"Linux","password":true,"vac":true,"version":"7757534","steam_id":85568392924367362,"keywords":["cp","nocrits","nodmgspread","uncletopia"],"game_id":440,"stv_port":27016,"stv_name":"Uncletopia | London | 1 | All Maps | STV","players":[{"user_id":371,"name":"pansexual","steam_id":76561198047778351,"connected_time":3541000000000,"state":"active","ping":45},{"user_id":390,"name":"cult","steam_id":76561198188647690,"connected_time":1808000000000,"state":"active","ping":72},{"user_id":364,"name":"Poppy Stingray","steam_id":76561198049673783,"connected_time":4139000000000,"state":"active","ping":62},{"user_id":113,"name":"gamerweed5","steam_id":76561198087651151,"connected_time":24564000000000,"state":"active","ping":40},{"user_id":375,"name":"Tonys202","steam_id":76561198058331473,"connected_time":3193000000000,"state":"active","ping":98},{"user_id":399,"name":"Sandshee","steam_id":76561198088574666,"connected_time":168000000000,"state":"active","ping":31},{"user_id":398,"name":"fume.","steam_id":76561197960476801,"connected_time":350000000000,"state":"active","ping":53},{"user_id":384,"name":"makiverem","steam_id":76561198425866216,"connected_time":2374000000000,"state":"active","ping":81},{"user_id":395,"name":"chronic bhop syndrome","steam_id":76561198193357946,"connected_time":1201000000000,"state":"active","ping":106},{"user_id":283,"name":"ciliorkun18","steam_id":76561198228942500,"connected_time":10630000000000,"state":"active","ping":90},{"user_id":386,"name":"Cosmetic brain","steam_id":76561198055936410,"connected_time":2245000000000,"state":"active","ping":75},{"user_id":369,"name":"Sonnakai","steam_id":76561198051688749,"connected_time":3608000000000,"state":"active","ping":44},{"user_id":396,"name":"HOI","steam_id":76561198061182117,"connected_time":1032000000000,"state":"active","ping":48},{"user_id":385,"name":"hud_saytext_time 0","steam_id":76561198010327228,"connected_time":2364000000000,"state":"active","ping":70},{"user_id":353,"name":"Flump","steam_id":76561198106352373,"connected_time":4721000000000,"state":"active","ping":45},{"user_id":397,"name":"Fat Pigeon","steam_id":76561198817940142,"connected_time":857000000000,"state":"active","ping":46},{"user_id":392,"name":"FNF","steam_id":76561199151422826,"connected_time":1765000000000,"state":"active","ping":108},{"user_id":387,"name":"hideki","steam_id":76561198030728517,"connected_time":2028000000000,"state":"active","ping":45},{"user_id":339,"name":"Pasta sauce","steam_id":76561198232919072,"connected_time":5985000000000,"state":"active","ping":39},{"user_id":383,"name":"Dimitri_612","steam_id":76561199223984137,"connected_time":2429000000000,"state":"active","ping":45},{"user_id":373,"name":"Pain in a Box","steam_id":76561197990777173,"connected_time":3325000000000,"state":"active","ping":88},{"user_id":367,"name":"Wedgeridoo","steam_id":76561198082813907,"connected_time":3750000000000,"state":"active","ping":148},{"user_id":393,"name":"Maximalsound","steam_id":76561198068246502,"connected_time":1712000000000,"state":"active","ping":59},{"user_id":374,"name":"Grinch Gun","steam_id":76561198097789669,"connected_time":3317000000000,"state":"active","ping":69}]},{"server_id":114,"name":"Uncletopia | London | 2 | All Maps","name_short":"lon-2","host":"lon-1.uk.uncletopia.com","port":27025,"enabled":true,"region":"eu","cc":"gb","latitude":51.509865,"longitude":-0.118092,"reserved":0,"last_update":"0001-01-01T00:00:00Z","name_a2s":"Uncletopia | London | 2 | All Maps","protocol":17,"map":"pl_frontier_final","folder":"tf","game":"Team Fortress","app_id":440,"player_count":24,"max_players":24,"Bots":0,"server_type":"Dedicated","server_os":"Linux","password":true,"vac":true,"version":"7757534","steam_id":85568392924470941,"keywords":["nocrits","nodmgspread","payload","uncletopia"],"game_id":440,"stv_port":27026,"stv_name":"Uncletopia | London | 2 | All Maps | STV","players":[{"user_id":168,"name":"YourDoom","steam_id":76561198080790857,"connected_time":7375000000000,"state":"active","ping":44},{"user_id":211,"name":"triangle","steam_id":76561198046838168,"connected_time":2884000000000,"state":"active","ping":64},{"user_id":199,"name":"British Disapproval","steam_id":76561198001375260,"connected_time":4240000000000,"state":"active","ping":82},{"user_id":221,"name":"Zerzark","steam_id":76561198070118903,"connected_time":2028000000000,"state":"active","ping":58},{"user_id":238,"name":"✪ qua ✪","steam_id":76561198066408333,"connected_time":696000000000,"state":"active","ping":75},{"user_id":188,"name":"naleksi","steam_id":76561198018391055,"connected_time":5344000000000,"state":"active","ping":100},{"user_id":240,"name":"katzdani","steam_id":76561198843351132,"connected_time":512000000000,"state":"active","ping":69},{"user_id":220,"name":"Clitorina","steam_id":76561198077570815,"connected_time":2314000000000,"state":"active","ping":43},{"user_id":222,"name":"homeinvasion$","steam_id":76561199111905021,"connected_time":1932000000000,"state":"active","ping":113},{"user_id":224,"name":"Fancy","steam_id":76561198350658462,"connected_time":1775000000000,"state":"active","ping":89},{"user_id":241,"name":"skilltissues","steam_id":76561198025828664,"connected_time":343000000000,"state":"active","ping":56},{"user_id":217,"name":"Bat in a thousand","steam_id":76561198320506848,"connected_time":2562000000000,"state":"active","ping":37},{"user_id":207,"name":"poliakov.noam","steam_id":76561199259322961,"connected_time":3701000000000,"state":"active","ping":108},{"user_id":219,"name":"Dominixk","steam_id":76561198995512625,"connected_time":2536000000000,"state":"active","ping":75},{"user_id":129,"name":"Arcader","steam_id":76561198109860110,"connected_time":10764000000000,"state":"active","ping":63},{"user_id":195,"name":"LordAzran","steam_id":76561198212396007,"connected_time":4533000000000,"state":"active","ping":83},{"user_id":232,"name":"Dr.Ludwig","steam_id":76561199221271922,"connected_time":1125000000000,"state":"active","ping":136},{"user_id":233,"name":"CosminSL","steam_id":76561198055827684,"connected_time":1097000000000,"state":"active","ping":76},{"user_id":239,"name":"System","steam_id":76561199442503973,"connected_time":666000000000,"state":"active","ping":46},{"user_id":204,"name":"Nag","steam_id":76561197970488206,"connected_time":4168000000000,"state":"active","ping":72},{"user_id":228,"name":"b_a1Ln","steam_id":76561198135213739,"connected_time":1544000000000,"state":"active","ping":98},{"user_id":235,"name":"Nifi","steam_id":76561198102682566,"connected_time":1076000000000,"state":"active","ping":75},{"user_id":181,"name":"す LightFlight し","steam_id":76561198079007530,"connected_time":6259000000000,"state":"active","ping":57},{"user_id":166,"name":"WiiSportKing","steam_id":76561198114139081,"connected_time":7859000000000,"state":"active","ping":59}]},{"server_id":320,"name":"Uncletopia | London | 3 | All Maps","name_short":"lon-3","host":"lon-1.uk.uncletopia.com","port":27035,"enabled":true,"region":"eu","cc":"gb","latitude":51.509865,"longitude":-0.118092,"reserved":0,"last_update":"0001-01-01T00:00:00Z","name_a2s":"Uncletopia | London | 3 | All Maps","protocol":17,"map":"pl_pier","folder":"tf","game":"Team Fortress","app_id":440,"player_count":24,"max_players":24,"Bots":0,"server_type":"Dedicated","server_os":"Linux","password":true,"vac":true,"version":"7757534","steam_id":85568392924510192,"keywords":["nocrits","nodmgspread","payload","uncletopia"],"game_id":440,"stv_port":27036,"stv_name":"Uncletopia | London | 3 | All Maps | STV","players":[{"user_id":165,"name":"april","steam_id":76561198852743258,"connected_time":493000000000,"state":"active","ping":151},{"user_id":152,"name":"Clamor_","steam_id":76561198104368295,"connected_time":1493000000000,"state":"active","ping":77},{"user_id":129,"name":"Jiggie","steam_id":76561198018134884,"connected_time":3482000000000,"state":"active","ping":84},{"user_id":161,"name":"Viral Pink Sauce","steam_id":76561198174510235,"connected_time":923000000000,"state":"active","ping":55},{"user_id":159,"name":"Dr.Sees [F2P]","steam_id":76561199219233587,"connected_time":1217000000000,"state":"active","ping":77},{"user_id":149,"name":"Sgt. Sandwich","steam_id":76561198037476776,"connected_time":2066000000000,"state":"active","ping":65},{"user_id":168,"name":"scarfweather","steam_id":76561198121331836,"connected_time":384000000000,"state":"active","ping":60},{"user_id":163,"name":"Repays","steam_id":76561198082993000,"connected_time":677000000000,"state":"active","ping":39},{"user_id":151,"name":"KFC Enjoyer","steam_id":76561198840259819,"connected_time":1696000000000,"state":"active","ping":56},{"user_id":62,"name":"Flare","steam_id":76561198039098320,"connected_time":7679000000000,"state":"active","ping":48},{"user_id":134,"name":"Doomz","steam_id":76561198029147860,"connected_time":2859000000000,"state":"active","ping":135},{"user_id":155,"name":"Dominus.","steam_id":76561199065917088,"connected_time":1436000000000,"state":"active","ping":65},{"user_id":169,"name":"Jimbo","steam_id":76561198253507297,"connected_time":375000000000,"state":"active","ping":146},{"user_id":147,"name":"Torrii","steam_id":76561198307916635,"connected_time":2357000000000,"state":"active","ping":95},{"user_id":170,"name":"wizard man","steam_id":76561199121285443,"connected_time":194000000000,"state":"active","ping":120},{"user_id":128,"name":"PizzaPete123","steam_id":76561198089478290,"connected_time":3725000000000,"state":"active","ping":38},{"user_id":164,"name":"peepee boi ®","steam_id":76561198204821037,"connected_time":666000000000,"state":"active","ping":67},{"user_id":140,"name":"donal rump","steam_id":76561198136239861,"connected_time":2613000000000,"state":"active","ping":47},{"user_id":148,"name":"Uncle Motong","steam_id":76561198029093635,"connected_time":2232000000000,"state":"active","ping":63},{"user_id":160,"name":"alvinulv","steam_id":76561198024487177,"connected_time":1141000000000,"state":"active","ping":62},{"user_id":127,"name":"Geraldo","steam_id":76561198046596619,"connected_time":3843000000000,"state":"active","ping":128},{"user_id":144,"name":"TK","steam_id":76561199384193338,"connected_time":2483000000000,"state":"active","ping":64},{"user_id":130,"name":"KiT","steam_id":76561198043770371,"connected_time":3190000000000,"state":"active","ping":101},{"user_id":157,"name":"Mury","steam_id":76561198069743049,"connected_time":1406000000000,"state":"active","ping":142}]},{"server_id":321,"name":"Uncletopia | London | 4 | All Maps","name_short":"lon-4","host":"lon-1.uk.uncletopia.com","port":27045,"enabled":true,"region":"eu","cc":"gb","latitude":51.509865,"longitude":-0.118092,"reserved":0,"last_update":"0001-01-01T00:00:00Z","name_a2s":"Uncletopia | London | 4 | All Maps","protocol":17,"map":"koth_viaduct","folder":"tf","game":"Team Fortress","app_id":440,"player_count":0,"max_players":24,"Bots":0,"server_type":"Dedicated","server_os":"Linux","password":true,"vac":true,"version":"7757534","steam_id":85568392924510193,"keywords":["cp","nocrits","nodmgspread","uncletopia"],"game_id":440,"stv_port":27046,"stv_name":"Uncletopia | London | 4 | All Maps | STV","players":null},{"server_id":21,"name":"Uncletopia | London | 5 | All Maps","name_short":"lon-5","host":"lon-1.uk.uncletopia.com","port":27055,"enabled":true,"region":"eu","cc":"gb","latitude":51.509865,"longitude":-0.118092,"reserved":0,"last_update":"0001-01-01T00:00:00Z","name_a2s":"Uncletopia | London | 5 | All Maps","protocol":17,"map":"koth_viaduct","folder":"tf","game":"Team Fortress","app_id":440,"player_count":5,"max_players":24,"Bots":0,"server_type":"Dedicated","server_os":"Linux","password":true,"vac":true,"version":"7757534","steam_id":85568392924742829,"keywords":["cp","nocrits","nodmgspread","uncletopia"],"game_id":440,"stv_port":27056,"stv_name":"Uncletopia | London | 5 | All Maps | STV","players":[{"user_id":14,"name":"tactical783","steam_id":76561199051688560,"connected_time":310000000000,"state":"active","ping":67},{"user_id":15,"name":"Lionball_3","steam_id":76561199084049796,"connected_time":215000000000,"state":"active","ping":72},{"user_id":16,"name":"another act of torture","steam_id":76561199042470246,"connected_time":185000000000,"state":"active","ping":60},{"user_id":17,"name":"UlyssesLives","steam_id":76561198886915794,"connected_time":39000000000,"state":"active","ping":61},{"user_id":18,"name":"sinderquiler","steam_id":76561198047953481,"connected_time":3000000000,"state":"spawning","ping":103}]},{"server_id":22,"name":"Uncletopia | London | 6 | All Maps","name_short":"lon-6","host":"lon-1.uk.uncletopia.com","port":27065,"enabled":true,"region":"eu","cc":"gb","latitude":51.509865,"longitude":-0.118092,"reserved":0,"last_update":"0001-01-01T00:00:00Z","name_a2s":"Uncletopia | London | 6 | All Maps","protocol":17,"map":"cp_dustbowl","folder":"tf","game":"Team Fortress","app_id":440,"player_count":24,"max_players":24,"Bots":0,"server_type":"Dedicated","server_os":"Linux","password":true,"vac":true,"version":"7757534","steam_id":85568392924742830,"keywords":["cp","nocrits","nodmgspread","uncletopia"],"game_id":440,"stv_port":27066,"stv_name":"Uncletopia | London | 6 | All Maps | STV","players":[{"user_id":10,"name":"give me copper(i need money)","steam_id":76561199087284519,"connected_time":1326000000000,"state":"active","ping":84},{"user_id":8,"name":"Mozzaza","steam_id":76561198156316111,"connected_time":1429000000000,"state":"active","ping":137},{"user_id":15,"name":"LizaЯdlЧ","steam_id":76561198176750238,"connected_time":1070000000000,"state":"active","ping":71},{"user_id":11,"name":"Laax","steam_id":76561198938409558,"connected_time":1218000000000,"state":"active","ping":99},{"user_id":13,"name":"ashsbhop","steam_id":76561199155075476,"connected_time":1161000000000,"state":"active","ping":93},{"user_id":19,"name":"nux","steam_id":76561199241115962,"connected_time":957000000000,"state":"active","ping":137},{"user_id":17,"name":"Gamer","steam_id":76561199185763926,"connected_time":977000000000,"state":"active","ping":115},{"user_id":18,"name":"Böek","steam_id":76561198357872188,"connected_time":968000000000,"state":"active","ping":101},{"user_id":20,"name":"Dishwasher Soap","steam_id":76561198287275124,"connected_time":888000000000,"state":"active","ping":55},{"user_id":21,"name":"majora's boostio","steam_id":76561198392628642,"connected_time":876000000000,"state":"active","ping":37},{"user_id":22,"name":"Naomii","steam_id":76561198285305925,"connected_time":862000000000,"state":"active","ping":56},{"user_id":35,"name":"Pyro","steam_id":76561198860424456,"connected_time":344000000000,"state":"active","ping":72},{"user_id":42,"name":"lugger","steam_id":76561197963937453,"connected_time":100000000000,"state":"active","ping":66},{"user_id":26,"name":"Life is Pain","steam_id":76561198829768335,"connected_time":617000000000,"state":"active","ping":121},{"user_id":27,"name":"Blåhaj","steam_id":76561198960436071,"connected_time":614000000000,"state":"active","ping":97},{"user_id":32,"name":"Arky 🦑","steam_id":76561198027448234,"connected_time":396000000000,"state":"active","ping":74},{"user_id":34,"name":"FunynMan","steam_id":76561198070387328,"connected_time":379000000000,"state":"active","ping":61},{"user_id":30,"name":"Spieller","steam_id":76561198057197847,"connected_time":414000000000,"state":"active","ping":86},{"user_id":36,"name":"Farmercy","steam_id":76561198000038039,"connected_time":335000000000,"state":"active","ping":60},{"user_id":37,"name":"purplecan","steam_id":76561199208283508,"connected_time":278000000000,"state":"active","ping":79},{"user_id":38,"name":"Sonder","steam_id":76561198115893794,"connected_time":273000000000,"state":"active","ping":78},{"user_id":39,"name":"Vikep'S","steam_id":76561199002274689,"connected_time":236000000000,"state":"active","ping":90},{"user_id":40,"name":"JOK'R","steam_id":76561198140741944,"connected_time":235000000000,"state":"active","ping":145},{"user_id":41,"name":"The","steam_id":76561198359311605,"connected_time":219000000000,"state":"active","ping":75}]},{"server_id":40,"name":"Uncletopia | London | 7 | No Payload","name_short":"lon-7","host":"lon-1.uk.uncletopia.com","port":27075,"enabled":true,"region":"eu","cc":"gb","latitude":51.509865,"longitude":-0.118092,"reserved":0,"last_update":"0001-01-01T00:00:00Z","name_a2s":"Uncletopia | London | 7 | No Payload","protocol":17,"map":"cp_gravelpit","folder":"tf","game":"Team Fortress","app_id":440,"player_count":0,"max_players":24,"Bots":0,"server_type":"Dedicated","server_os":"Linux","password":true,"vac":true,"version":"7757534","steam_id":85568392924964314,"keywords":["cp","nocrits","nodmgspread","uncletopia"],"game_id":440,"stv_port":27076,"stv_name":"Uncletopia | London | 7 | No Payload | STV","players":null},{"server_id":41,"name":"Uncletopia | London | 8 | Community","name_short":"lon-8","host":"lon-1.uk.uncletopia.com","port":27085,"enabled":true,"region":"eu","cc":"gb","latitude":51.509865,"longitude":-0.118092,"reserved":0,"last_update":"0001-01-01T00:00:00Z","name_a2s":"Uncletopia | London | 8 | Community","protocol":17,"map":"workshop/cp_glassworks_rc6a.ugc454118349","folder":"tf","game":"Team Fortress","app_id":440,"player_count":0,"max_players":24,"Bots":0,"server_type":"Dedicated","server_os":"Linux","password":true,"vac":true,"version":"7757534","steam_id":85568392924964315,"keywords":["cp","nocrits","nodmgspread","uncletopia"],"game_id":440,"stv_port":27086,"stv_name":"Uncletopia | London | 8 | Community | STV","players":null},{"server_id":300,"name":"Uncletopia | Montréal | 1 | All Maps","name_short":"mtl-1","host":"mtl-1.ca.uncletopia.com","port":27015,"enabled":true,"region":"us-east","cc":"ca","latitude":45.50889,"longitude":-73.56167,"reserved":0,"last_update":"0001-01-01T00:00:00Z","name_a2s":"Uncletopia | Montréal | 1 | All Maps","protocol":17,"map":"pl_snowycoast","folder":"tf","game":"Team Fortress","app_id":440,"player_count":0,"max_players":24,"Bots":0,"server_type":"Dedicated","server_os":"Linux","password":true,"vac":true,"version":"7757534","steam_id":85568392924500087,"keywords":["nocrits","nodmgspread","payload","uncletopia"],"game_id":440,"stv_port":27016,"stv_name":"Uncletopia | Montréal | 1 | All Maps | STV","players":null},{"server_id":301,"name":"Uncletopia | Montréal | 2 | All Maps","name_short":"mtl-2","host":"mtl-1.ca.uncletopia.com","port":27025,"enabled":true,"region":"us-east","cc":"ca","latitude":45.50889,"longitude":-73.56167,"reserved":0,"last_update":"0001-01-01T00:00:00Z","name_a2s":"Uncletopia | Montréal | 2 | All Maps","protocol":17,"map":"pl_snowycoast","folder":"tf","game":"Team Fortress","app_id":440,"player_count":0,"max_players":24,"Bots":0,"server_type":"Dedicated","server_os":"Linux","password":true,"vac":true,"version":"7757534","steam_id":85568392924500088,"keywords":["nocrits","nodmgspread","payload","uncletopia"],"game_id":440,"stv_port":27026,"stv_name":"Uncletopia | Montréal | 2 | All Maps | STV","players":null},{"server_id":302,"name":"Uncletopia | Montréal | 3 | All Maps","name_short":"mtl-3","host":"mtl-1.ca.uncletopia.com","port":27035,"enabled":true,"region":"us-east","cc":"ca","latitude":45.50889,"longitude":-73.56167,"reserved":0,"last_update":"0001-01-01T00:00:00Z","name_a2s":"Uncletopia | Montréal | 3 | All Maps","protocol":17,"map":"cp_dustbowl","folder":"tf","game":"Team Fortress","app_id":440,"player_count":0,"max_players":24,"Bots":0,"server_type":"Dedicated","server_os":"Linux","password":true,"vac":true,"version":"7757534","steam_id":85568392924500089,"keywords":["cp","nocrits","nodmgspread","uncletopia"],"game_id":440,"stv_port":27036,"stv_name":"Uncletopia | Montréal | 3 | All Maps | STV","players":null},{"server_id":303,"name":"Uncletopia | Montréal | 4 | No Payload","name_short":"mtl-4","host":"mtl-1.ca.uncletopia.com","port":27045,"enabled":true,"region":"us-east","cc":"ca","latitude":45.50889,"longitude":-73.56167,"reserved":0,"last_update":"0001-01-01T00:00:00Z","name_a2s":"Uncletopia | Montréal | 4 | No Payload","protocol":17,"map":"pl_borneo","folder":"tf","game":"Team Fortress","app_id":440,"player_count":0,"max_players":24,"Bots":0,"server_type":"Dedicated","server_os":"Linux","password":true,"vac":true,"version":"7757534","steam_id":85568392924500090,"keywords":["nocrits","nodmgspread","payload","uncletopia"],"game_id":440,"stv_port":27046,"stv_name":"Uncletopia | Montréal | 4 | No Payload | STV","players":null},{"server_id":13,"name":"Uncletopia | New York City | 1 | All Maps","name_short":"nyc-1","host":"nyc-1.us.uncletopia.com","port":27015,"enabled":true,"region":"us-east","cc":"us","latitude":40.73061,"longitude":-73.93524,"reserved":0,"last_update":"0001-01-01T00:00:00Z","name_a2s":"Uncletopia | New York City | 1 | All Maps","protocol":17,"map":"pl_upward","folder":"tf","game":"Team Fortress","app_id":440,"player_count":24,"max_players":24,"Bots":0,"server_type":"Dedicated","server_os":"Linux","password":true,"vac":true,"version":"7757534","steam_id":85568392924469993,"keywords":["nocrits","nodmgspread","payload","uncletopia"],"game_id":440,"stv_port":27016,"stv_name":"Uncletopia | New York City | 1 | All Maps | STV","players":[{"user_id":57,"name":"the grungler!","steam_id":76561198058485742,"connected_time":2328000000000,"state":"active","ping":55},{"user_id":5,"name":"nhbiker","steam_id":76561198081277675,"connected_time":5025000000000,"state":"active","ping":52},{"user_id":68,"name":"Fishstall","steam_id":76561198038126034,"connected_time":1636000000000,"state":"active","ping":95},{"user_id":78,"name":"you forgot the sauce","steam_id":76561198387016713,"connected_time":427000000000,"state":"active","ping":59},{"user_id":69,"name":"LuBzEur0b3ats","steam_id":76561199041041574,"connected_time":1020000000000,"state":"active","ping":55},{"user_id":10,"name":"Mask","steam_id":76561198877649728,"connected_time":4428000000000,"state":"active","ping":134},{"user_id":79,"name":"HOTA","steam_id":76561199002778841,"connected_time":310000000000,"state":"active","ping":75},{"user_id":65,"name":"Mr_Blue_Sun","steam_id":76561198803462433,"connected_time":2050000000000,"state":"active","ping":61},{"user_id":39,"name":"boymilk","steam_id":76561199074208922,"connected_time":3267000000000,"state":"active","ping":145},{"user_id":49,"name":"miraakz420","steam_id":76561199013850154,"connected_time":2567000000000,"state":"active","ping":100},{"user_id":80,"name":"beans","steam_id":76561199132406388,"connected_time":15000000000,"state":"active","ping":133},{"user_id":71,"name":"yoink!","steam_id":76561198041770884,"connected_time":996000000000,"state":"active","ping":105},{"user_id":75,"name":"Mister Mundy","steam_id":76561198145675134,"connected_time":847000000000,"state":"active","ping":60},{"user_id":63,"name":"uzr","steam_id":76561198799343084,"connected_time":2229000000000,"state":"active","ping":112},{"user_id":23,"name":"Glitchpower64","steam_id":76561198994710718,"connected_time":4136000000000,"state":"active","ping":142},{"user_id":52,"name":"Bagel","steam_id":76561198167747447,"connected_time":2511000000000,"state":"active","ping":69},{"user_id":76,"name":"g00bur","steam_id":76561197993622520,"connected_time":827000000000,"state":"active","ping":58},{"user_id":67,"name":"Plimpus","steam_id":76561198990014861,"connected_time":1871000000000,"state":"active","ping":60},{"user_id":60,"name":"judas from the binding of isaac","steam_id":76561199068993168,"connected_time":2312000000000,"state":"active","ping":58},{"user_id":62,"name":"Coffee with a Stranger","steam_id":76561198307422313,"connected_time":2268000000000,"state":"active","ping":58},{"user_id":33,"name":"pepsoi","steam_id":76561198361818082,"connected_time":3949000000000,"state":"active","ping":116},{"user_id":46,"name":"LOLTOGOD","steam_id":76561199441952029,"connected_time":3059000000000,"state":"active","ping":90},{"user_id":54,"name":"blue drink","steam_id":76561199260739414,"connected_time":2398000000000,"state":"active","ping":80},{"user_id":70,"name":"trippingbull419","steam_id":76561199111639935,"connected_time":1020000000000,"state":"active","ping":77}]},{"server_id":14,"name":"Uncletopia | New York City | 2 | All Maps","name_short":"nyc-2","host":"nyc-1.us.uncletopia.com","port":27025,"enabled":true,"region":"us-east","cc":"us","latitude":40.73061,"longitude":-73.93524,"reserved":0,"last_update":"0001-01-01T00:00:00Z","name_a2s":"Uncletopia | New York City | 2 | All Maps","protocol":17,"map":"koth_viaduct","folder":"tf","game":"Team Fortress","app_id":440,"player_count":0,"max_players":24,"Bots":0,"server_type":"Dedicated","server_os":"Linux","password":true,"vac":true,"version":"7757534","steam_id":85568392924469994,"keywords":["cp","nocrits","nodmgspread","uncletopia"],"game_id":440,"stv_port":27026,"stv_name":"Uncletopia | New York City | 2 | All Maps | STV","players":null},{"server_id":15,"name":"Uncletopia | New York City | 3 | Stopwatch Beta","name_short":"nyc-3","host":"nyc-1.us.uncletopia.com","port":27035,"enabled":true,"region":"us-east","cc":"us","latitude":40.73061,"longitude":-73.93524,"reserved":0,"last_update":"0001-01-01T00:00:00Z","name_a2s":"Uncletopia | New York City | 3 | Stopwatch Beta","protocol":17,"map":"cp_granary","folder":"tf","game":"Team Fortress","app_id":440,"player_count":0,"max_players":24,"Bots":0,"server_type":"Dedicated","server_os":"Linux","password":true,"vac":true,"version":"7757534","steam_id":85568392924742820,"keywords":["cp","nocrits","nodmgspread","uncletopia"],"game_id":440,"stv_port":27036,"stv_name":"Uncletopia | New York City | 3 | Stopwatch Beta | STV","players":null},{"server_id":16,"name":"Uncletopia | New York City | 4 | Community","name_short":"nyc-4","host":"nyc-1.us.uncletopia.com","port":27045,"enabled":true,"region":"us-east","cc":"us","latitude":40.73061,"longitude":-73.93524,"reserved":0,"last_update":"0001-01-01T00:00:00Z","name_a2s":"Uncletopia | New York City | 4 | Community","protocol":17,"map":"pl_borneo","folder":"tf","game":"Team Fortress","app_id":440,"player_count":0,"max_players":24,"Bots":0,"server_type":"Dedicated","server_os":"Linux","password":true,"vac":true,"version":"7757534","steam_id":85568392924742821,"keywords":["nocrits","nodmgspread","payload","uncletopia"],"game_id":440,"stv_port":27046,"stv_name":"Uncletopia | New York City | 4 | Community | STV","players":null},{"server_id":142,"name":"Uncletopia | São Paulo | 1 | All Maps","name_short":"sao-1","host":"sao-1.br.uncletopia.com","port":27015,"enabled":true,"region":"sa","cc":"br","latitude":-23.533773,"longitude":-46.62529,"reserved":0,"last_update":"0001-01-01T00:00:00Z","name_a2s":"Uncletopia | São Paulo | 1 | All Maps","protocol":17,"map":"pl_badwater","folder":"tf","game":"Team Fortress","app_id":440,"player_count":0,"max_players":24,"Bots":0,"server_type":"Dedicated","server_os":"Linux","password":true,"vac":true,"version":"7757534","steam_id":85568392924469996,"keywords":["nocrits","nodmgspread","payload","uncletopia"],"game_id":440,"stv_port":27016,"stv_name":"Uncletopia | São Paulo | 1 | All Maps | STV","players":null},{"server_id":143,"name":"Uncletopia | São Paulo | 2 | All Maps","name_short":"sao-2","host":"sao-2.br.uncletopia.com","port":27015,"enabled":true,"region":"sa","cc":"br","latitude":-23.533773,"longitude":-46.62529,"reserved":0,"last_update":"0001-01-01T00:00:00Z","name_a2s":"Uncletopia | São Paulo | 2 | All Maps","protocol":17,"map":"pl_borneo","folder":"tf","game":"Team Fortress","app_id":440,"player_count":0,"max_players":24,"Bots":0,"server_type":"Dedicated","server_os":"Linux","password":true,"vac":true,"version":"7757534","steam_id":85568392924485349,"keywords":["nocrits","nodmgspread","payload","uncletopia"],"game_id":440,"stv_port":27016,"stv_name":"Uncletopia | São Paulo | 2 | All Maps | STV","players":null},{"server_id":7,"name":"Uncletopia | Seattle | 1 | All Maps","name_short":"sea-1","host":"sea-1.us.uncletopia.com","port":27015,"enabled":true,"region":"us-west","cc":"us","latitude":47.608013,"longitude":-122.33517,"reserved":0,"last_update":"0001-01-01T00:00:00Z","name_a2s":"Uncletopia | Seattle | 1 | All Maps","protocol":17,"map":"pl_frontier_final","folder":"tf","game":"Team Fortress","app_id":440,"player_count":22,"max_players":24,"Bots":0,"server_type":"Dedicated","server_os":"Linux","password":true,"vac":true,"version":"7757534","steam_id":85568392924469997,"keywords":["nocrits","nodmgspread","payload","uncletopia"],"game_id":440,"stv_port":27016,"stv_name":"Uncletopia | Seattle | 1 | All Maps | STV","players":[{"user_id":78,"name":"A Random Guy","steam_id":76561198052725191,"connected_time":776000000000,"state":"active","ping":70},{"user_id":55,"name":"m1","steam_id":76561198004133638,"connected_time":3165000000000,"state":"active","ping":75},{"user_id":42,"name":"Nexo Fighter","steam_id":76561199187418090,"connected_time":3745000000000,"state":"active","ping":163},{"user_id":30,"name":"mumbles","steam_id":76561197994528974,"connected_time":4893000000000,"state":"active","ping":80},{"user_id":79,"name":"Jesus Loves You57","steam_id":76561199058833769,"connected_time":584000000000,"state":"active","ping":57},{"user_id":65,"name":"M4 Sherman","steam_id":76561198126990820,"connected_time":1820000000000,"state":"active","ping":90},{"user_id":54,"name":"iClops","steam_id":76561197963096480,"connected_time":3332000000000,"state":"active","ping":114},{"user_id":70,"name":"Vegerot","steam_id":76561197997843710,"connected_time":1286000000000,"state":"active","ping":111},{"user_id":48,"name":"Shmebulock","steam_id":76561198046941925,"connected_time":3592000000000,"state":"active","ping":104},{"user_id":13,"name":"noot noot","steam_id":76561198318446417,"connected_time":5552000000000,"state":"active","ping":128},{"user_id":71,"name":"xanzabars","steam_id":76561198807593935,"connected_time":1191000000000,"state":"active","ping":74},{"user_id":64,"name":"Anxious Nerd Bird","steam_id":76561198112178602,"connected_time":1945000000000,"state":"active","ping":89},{"user_id":72,"name":"Terribad","steam_id":76561198120844785,"connected_time":1144000000000,"state":"active","ping":92},{"user_id":73,"name":"Donald","steam_id":76561198269123970,"connected_time":1079000000000,"state":"active","ping":94},{"user_id":81,"name":"floppy muppet","steam_id":76561198003076261,"connected_time":231000000000,"state":"active","ping":138},{"user_id":35,"name":"Stargriefer190","steam_id":76561198996425356,"connected_time":4527000000000,"state":"active","ping":131},{"user_id":49,"name":"Futa Lover","steam_id":76561198056775795,"connected_time":3542000000000,"state":"active","ping":120},{"user_id":80,"name":"god approaches","steam_id":76561198081617990,"connected_time":458000000000,"state":"active","ping":109},{"user_id":75,"name":"spy","steam_id":76561198364943570,"connected_time":1037000000000,"state":"active","ping":115},{"user_id":31,"name":"Turts","steam_id":76561197998448097,"connected_time":4848000000000,"state":"active","ping":69},{"user_id":76,"name":"i \u003c3 poptarts #saveTF2","steam_id":76561199057354397,"connected_time":993000000000,"state":"active","ping":127},{"user_id":83,"name":"TheMysteryMan","steam_id":76561199229595389,"connected_time":9000000000,"state":"spawning","ping":109}]},{"server_id":119,"name":"Uncletopia | Seattle | 2 | All Maps","name_short":"sea-2","host":"sea-1.us.uncletopia.com","port":27025,"enabled":true,"region":"us-west","cc":"us","latitude":47.608013,"longitude":-122.33517,"reserved":0,"last_update":"0001-01-01T00:00:00Z","name_a2s":"Uncletopia | Seattle | 2 | All Maps","protocol":17,"map":"koth_viaduct","folder":"tf","game":"Team Fortress","app_id":440,"player_count":0,"max_players":24,"Bots":0,"server_type":"Dedicated","server_os":"Linux","password":true,"vac":true,"version":"7757534","steam_id":85568392924469998,"keywords":["cp","nocrits","nodmgspread","uncletopia"],"game_id":440,"stv_port":27026,"stv_name":"Uncletopia | Seattle | 2 | All Maps | STV","players":null},{"server_id":406,"name":"Uncletopia | Seattle | 3 | Stopwatch Beta","name_short":"sea-3","host":"sea-1.us.uncletopia.com","port":27035,"enabled":true,"region":"us-west","cc":"us","latitude":47.608013,"longitude":-122.33517,"reserved":0,"last_update":"0001-01-01T00:00:00Z","name_a2s":"Uncletopia | Seattle | 3 | Stopwatch Beta","protocol":17,"map":"pl_barnblitz","folder":"tf","game":"Team Fortress","app_id":440,"player_count":0,"max_players":24,"Bots":0,"server_type":"Dedicated","server_os":"Linux","password":true,"vac":true,"version":"7757534","steam_id":85568392924515217,"keywords":["nocrits","nodmgspread","payload","uncletopia"],"game_id":440,"stv_port":27036,"stv_name":"Uncletopia | Seattle | 3 | Stopwatch Beta | STV","players":null},{"server_id":17,"name":"Uncletopia | San Francisco | 1 | All Maps","name_short":"sfo-1","host":"sfo-1.us.uncletopia.com","port":27015,"enabled":true,"region":"us-west","cc":"us","latitude":37.77397,"longitude":-122.4313,"reserved":0,"last_update":"0001-01-01T00:00:00Z","name_a2s":"Uncletopia | San Francisco | 1 | All Maps","protocol":17,"map":"cp_process_final","folder":"tf","game":"Team Fortress","app_id":440,"player_count":0,"max_players":24,"Bots":0,"server_type":"Dedicated","server_os":"Linux","password":true,"vac":true,"version":"7757534","steam_id":85568392924469999,"keywords":["cp","nocrits","nodmgspread","uncletopia"],"game_id":440,"stv_port":27016,"stv_name":"Uncletopia | San Francisco | 1 | All Maps | STV","players":null},{"server_id":18,"name":"Uncletopia | San Francisco | 2 | All Maps","name_short":"sfo-2","host":"sfo-1.us.uncletopia.com","port":27025,"enabled":true,"region":"us-west","cc":"us","latitude":37.77397,"longitude":-122.4313,"reserved":0,"last_update":"0001-01-01T00:00:00Z","name_a2s":"Uncletopia | San Francisco | 2 | All Maps","protocol":17,"map":"cp_altitude","folder":"tf","game":"Team Fortress","app_id":440,"player_count":0,"max_players":24,"Bots":0,"server_type":"Dedicated","server_os":"Linux","password":true,"vac":true,"version":"7757534","steam_id":85568392924470000,"keywords":["cp","nocrits","nodmgspread","uncletopia"],"game_id":440,"stv_port":27026,"stv_name":"Uncletopia | San Francisco | 2 | All Maps | STV","players":null},{"server_id":19,"name":"Uncletopia | San Francisco | 3 | Stopwatch Beta","name_short":"sfo-3","host":"sfo-1.us.uncletopia.com","port":27035,"enabled":true,"region":"us-west","cc":"us","latitude":37.77397,"longitude":-122.4313,"reserved":0,"last_update":"0001-01-01T00:00:00Z","name_a2s":"Uncletopia | San Francisco | 3 | Stopwatch Beta","protocol":17,"map":"pl_borneo","folder":"tf","game":"Team Fortress","app_id":440,"player_count":0,"max_players":24,"Bots":0,"server_type":"Dedicated","server_os":"Linux","password":true,"vac":true,"version":"7757534","steam_id":85568392924742824,"keywords":["nocrits","nodmgspread","payload","uncletopia"],"game_id":440,"stv_port":27036,"stv_name":"Uncletopia | San Francisco | 3 | Stopwatch Beta | STV","players":null},{"server_id":20,"name":"Uncletopia | San Francisco | 4 | Community","name_short":"sfo-4","host":"sfo-1.us.uncletopia.com","port":27045,"enabled":true,"region":"us-west","cc":"us","latitude":37.77397,"longitude":-122.4313,"reserved":0,"last_update":"0001-01-01T00:00:00Z","name_a2s":"Uncletopia | San Francisco | 4 | Community","protocol":17,"map":"koth_highpass","folder":"tf","game":"Team Fortress","app_id":440,"player_count":0,"max_players":24,"Bots":0,"server_type":"Dedicated","server_os":"Linux","password":true,"vac":true,"version":"7757534","steam_id":85568392924742826,"keywords":["cp","nocrits","nodmgspread","uncletopia"],"game_id":440,"stv_port":27046,"stv_name":"Uncletopia | San Francisco | 4 | Community | STV","players":null},{"server_id":141,"name":"Uncletopia | Sydney | 1 | All Maps","name_short":"syd-1","host":"syd-1.au.uncletopia.com","port":27015,"enabled":true,"region":"au","cc":"au","latitude":-33.865143,"longitude":151.2099,"reserved":0,"last_update":"0001-01-01T00:00:00Z","name_a2s":"Uncletopia | Sydney | 1 | All Maps","protocol":17,"map":"cp_snakewater_final1","folder":"tf","game":"Team Fortress","app_id":440,"player_count":0,"max_players":24,"Bots":0,"server_type":"Dedicated","server_os":"Linux","password":true,"vac":true,"version":"7757534","steam_id":85568392924470001,"keywords":["cp","nocrits","nodmgspread","uncletopia"],"game_id":440,"stv_port":27016,"stv_name":"Uncletopia | Sydney | 1 | All Maps | STV","players":null},{"server_id":123,"name":"Uncletopia | Sydney | 2 | All Maps","name_short":"syd-2","host":"syd-1.au.uncletopia.com","port":27025,"enabled":true,"region":"au","cc":"au","latitude":-33.865143,"longitude":151.2099,"reserved":0,"last_update":"0001-01-01T00:00:00Z","name_a2s":"Uncletopia | Sydney | 2 | All Maps","protocol":17,"map":"pl_pier","folder":"tf","game":"Team Fortress","app_id":440,"player_count":0,"max_players":24,"Bots":0,"server_type":"Dedicated","server_os":"Linux","password":true,"vac":true,"version":"7757534","steam_id":85568392924470002,"keywords":["nocrits","nodmgspread","payload","uncletopia"],"game_id":440,"stv_port":27026,"stv_name":"Uncletopia | Sydney | 2 | All Maps | STV","players":null},{"server_id":395,"name":"Uncletopia | Sydney | 3 | All Maps","name_short":"syd-3","host":"syd-1.au.uncletopia.com","port":27035,"enabled":true,"region":"au","cc":"au","latitude":-33.865143,"longitude":151.2099,"reserved":0,"last_update":"0001-01-01T00:00:00Z","name_a2s":"Uncletopia | Sydney | 3 | All Maps","protocol":17,"map":"koth_viaduct","folder":"tf","game":"Team Fortress","app_id":440,"player_count":0,"max_players":24,"Bots":0,"server_type":"Dedicated","server_os":"Linux","password":true,"vac":true,"version":"7757534","steam_id":85568392925194467,"keywords":["cp","nocrits","nodmgspread","uncletopia"],"game_id":440,"stv_port":27036,"stv_name":"Uncletopia | Sydney | 3 | All Maps | STV","players":null},{"server_id":396,"name":"Uncletopia | Sydney | 4 | All Maps","name_short":"syd-4","host":"syd-1.au.uncletopia.com","port":27045,"enabled":true,"region":"au","cc":"au","latitude":-33.865143,"longitude":151.2099,"reserved":0,"last_update":"0001-01-01T00:00:00Z","name_a2s":"Uncletopia | Sydney | 4 | All Maps","protocol":17,"map":"koth_viaduct","folder":"tf","game":"Team Fortress","app_id":440,"player_count":0,"max_players":24,"Bots":0,"server_type":"Dedicated","server_os":"Linux","password":true,"vac":true,"version":"7757534","steam_id":85568392925397958,"keywords":["cp","nocrits","nodmgspread","uncletopia"],"game_id":440,"stv_port":27046,"stv_name":"Uncletopia | Sydney | 4 | All Maps | STV","players":null},{"server_id":58,"name":"Uncletopia | Sydney | 5 | Stopwatch Beta","name_short":"syd-5","host":"syd-1.au.uncletopia.com","port":27055,"enabled":true,"region":"au","cc":"au","latitude":-33.865143,"longitude":151.2099,"reserved":0,"last_update":"0001-01-01T00:00:00Z","name_a2s":"Uncletopia | Sydney | 5 | Stopwatch Beta","protocol":17,"map":"pl_swiftwater_final1","folder":"tf","game":"Team Fortress","app_id":440,"player_count":0,"max_players":24,"Bots":0,"server_type":"Dedicated","server_os":"Linux","password":true,"vac":true,"version":"7757534","steam_id":85568392925397959,"keywords":["nocrits","nodmgspread","payload","uncletopia"],"game_id":440,"stv_port":27056,"stv_name":"Uncletopia | Sydney | 5 | Stopwatch Beta | STV","players":null},{"server_id":59,"name":"Uncletopia | Sydney | 6 | Community","name_short":"syd-6","host":"syd-1.au.uncletopia.com","port":27065,"enabled":true,"region":"au","cc":"au","latitude":-33.865143,"longitude":151.2099,"reserved":0,"last_update":"0001-01-01T00:00:00Z","name_a2s":"Uncletopia | Sydney | 6 | Community","protocol":17,"map":"workshop/koth_slaughter_rc1.ugc1712845210","folder":"tf","game":"Team Fortress","app_id":440,"player_count":0,"max_players":24,"Bots":0,"server_type":"Dedicated","server_os":"Linux","password":true,"vac":true,"version":"7757534","steam_id":85568392925397960,"keywords":["cp","nocrits","nodmgspread","uncletopia"],"game_id":440,"stv_port":27066,"stv_name":"Uncletopia | Sydney | 6 | Community | STV","players":null},{"server_id":49,"name":"Uncletopia | Warsaw | 1 | All Maps","name_short":"waw-1","host":"waw-1.pl.uncletopia.com","port":27015,"enabled":true,"region":"eu","cc":"pl","latitude":52.2297,"longitude":21.017532,"reserved":0,"last_update":"0001-01-01T00:00:00Z","name_a2s":"","protocol":0,"map":"","folder":"","game":"","app_id":0,"player_count":0,"max_players":0,"Bots":0,"server_type":"","server_os":"","password":false,"vac":false,"version":"","steam_id":0,"keywords":null,"game_id":0,"stv_port":0,"stv_name":"","players":null},{"server_id":50,"name":"Uncletopia | Warsaw | 2 | All Maps","name_short":"waw-2","host":"waw-1.pl.uncletopia.com","port":27025,"enabled":true,"region":"eu","cc":"pl","latitude":52.2297,"longitude":21.017532,"reserved":0,"last_update":"0001-01-01T00:00:00Z","name_a2s":"Uncletopia | Warsaw | 2 | All Maps","protocol":17,"map":"cp_altitude","folder":"tf","game":"Team Fortress","app_id":440,"player_count":0,"max_players":24,"Bots":0,"server_type":"Dedicated","server_os":"Linux","password":true,"vac":true,"version":"7757534","steam_id":85568392925397851,"keywords":["cp","nocrits","nodmgspread","uncletopia"],"game_id":440,"stv_port":27026,"stv_name":"Uncletopia | Warsaw | 2 | All Maps | STV","players":null},{"server_id":51,"name":"Uncletopia | Warsaw | 3 | All Maps","name_short":"waw-3","host":"waw-1.pl.uncletopia.com","port":27035,"enabled":true,"region":"eu","cc":"pl","latitude":52.2297,"longitude":21.017532,"reserved":0,"last_update":"0001-01-01T00:00:00Z","name_a2s":"Uncletopia | Warsaw | 3 | All Maps","protocol":17,"map":"pl_pier","folder":"tf","game":"Team Fortress","app_id":440,"player_count":0,"max_players":24,"Bots":0,"server_type":"Dedicated","server_os":"Linux","password":true,"vac":true,"version":"7757534","steam_id":85568392925397852,"keywords":["nocrits","nodmgspread","payload","uncletopia"],"game_id":440,"stv_port":27036,"stv_name":"Uncletopia | Warsaw | 3 | All Maps | STV","players":null},{"server_id":52,"name":"Uncletopia | Warsaw | 4 | All Maps","name_short":"waw-4","host":"waw-1.pl.uncletopia.com","port":27045,"enabled":true,"region":"eu","cc":"pl","latitude":52.2297,"longitude":21.017532,"reserved":0,"last_update":"0001-01-01T00:00:00Z","name_a2s":"Uncletopia | Warsaw | 4 | All Maps","protocol":17,"map":"pl_snowycoast","folder":"tf","game":"Team Fortress","app_id":440,"player_count":0,"max_players":24,"Bots":0,"server_type":"Dedicated","server_os":"Linux","password":true,"vac":true,"version":"7757534","steam_id":85568392925397853,"keywords":["nocrits","nodmgspread","payload","uncletopia"],"game_id":440,"stv_port":27046,"stv_name":"Uncletopia | Warsaw | 4 | All Maps | STV","players":null},{"server_id":53,"name":"Uncletopia | Warsaw | 5 | Stopwatch Beta","name_short":"waw-5","host":"waw-1.pl.uncletopia.com","port":27055,"enabled":true,"region":"eu","cc":"pl","latitude":52.2297,"longitude":21.017532,"reserved":0,"last_update":"0001-01-01T00:00:00Z","name_a2s":"Uncletopia | Warsaw | 5 | Stopwatch Beta","protocol":17,"map":"pl_barnblitz","folder":"tf","game":"Team Fortress","app_id":440,"player_count":0,"max_players":24,"Bots":0,"server_type":"Dedicated","server_os":"Linux","password":true,"vac":true,"version":"7757534","steam_id":85568392925397854,"keywords":["nocrits","nodmgspread","payload","uncletopia"],"game_id":440,"stv_port":27056,"stv_name":"Uncletopia | Warsaw | 5 | Stopwatch Beta | STV","players":null},{"server_id":54,"name":"Uncletopia | Warsaw | 6 | Community","name_short":"waw-6","host":"waw-1.pl.uncletopia.com","port":27065,"enabled":true,"region":"eu","cc":"pl","latitude":52.2297,"longitude":21.017532,"reserved":0,"last_update":"0001-01-01T00:00:00Z","name_a2s":"Uncletopia | Warsaw | 6 | Community","protocol":17,"map":"pl_swiftwater_final1","folder":"tf","game":"Team Fortress","app_id":440,"player_count":0,"max_players":24,"Bots":0,"server_type":"Dedicated","server_os":"Linux","password":true,"vac":true,"version":"7757534","steam_id":85568392925397856,"keywords":["nocrits","nodmgspread","payload","uncletopia"],"game_id":440,"stv_port":27066,"stv_name":"Uncletopia | Warsaw | 6 | Community | STV","players":null}]}