{"status":true,"message":"","result":[{"server_id":9,"name":"Uncletopia | Atlanta | 1 | All Maps","name_short":"atl-1","host":"atl-1.us.uncletopia.com","port":27015,"enabled":true,"region":"us-east","cc":"us","latitude":33.753746,"longitude":-84.38633,"reserved":0,"last_update":"0001-01-01T00:00:00Z","name_a2s":"Uncletopia | Atlanta | 1 | All Maps","protocol":17,"map":"koth_king","folder":"tf","game":"Team Fortress","app_id":440,"player_count":24,"max_players":24,"Bots":0,"server_type":"Dedicated","server_os":"Linux","password":true,"vac":true,"version":"7961495","steam_id":85568392924469982,"keywords":["cp","nocrits","nodmgspread","uncletopia"],"game_id":440,"stv_port":27016,"stv_name":"Uncletopia | Atlanta | 1 | All Maps | STV","players":null},{"server_id":104,"name":"Uncletopia | Atlanta | 2 | All Maps","name_short":"atl-2","host":"atl-1.us.uncletopia.com","port":27025,"enabled":true,"region":"us-east","cc":"us","latitude":33.753746,"longitude":-84.38633,"reserved":0,"last_update":"0001-01-01T00:00:00Z","name_a2s":"Uncletopia | Atlanta | 2 | All Maps","protocol":17,"map":"koth_cascade","folder":"tf","game":"Team Fortress","app_id":440,"player_count":0,"max_players":24,"Bots":0,"server_type":"Dedicated","server_os":"Linux","password":true,"vac":true,"version":"7961495","steam_id":85568392924469983,"keywords":["cp","nocrits","nodmgspread","uncletopia"],"game_id":440,"stv_port":27026,"stv_name":"Uncletopia | Atlanta | 2 | All Maps | STV","players":null},{"server_id":400,"name":"Uncletopia | Atlanta | 3 | Stopwatch","name_short":"atl-3","host":"atl-1.us.uncletopia.com","port":27035,"enabled":true,"region":"us-east","cc":"us","latitude":33.753746,"longitude":-84.38633,"reserved":0,"last_update":"0001-01-01T00:00:00Z","name_a2s":"Uncletopia | Atlanta | 3 | Stopwatch","protocol":17,"map":"koth_clearcut_b15","folder":"tf","game":"Team Fortress","app_id":440,"player_count":0,"max_players":24,"Bots":0,"server_type":"Dedicated","server_os":"Linux","password":true,"vac":true,"version":"7961495","steam_id":85568392924515187,"keywords":["cp","nocrits","nodmgspread","uncletopia"],"game_id":440,"stv_port":27036,"stv_name":"Uncletopia | Atlanta | 3 | Stopwatch | STV","players":null},{"server_id":401,"name":"Uncletopia | Atlanta | 4 | Community","name_short":"atl-4","host":"atl-1.us.uncletopia.com","port":27045,"enabled":true,"region":"us-east","cc":"us","latitude":33.753746,"longitude":-84.38633,"reserved":0,"last_update":"0001-01-01T00:00:00Z","name_a2s":"Uncletopia | Atlanta | 4 | Community","protocol":17,"map":"koth_bagel_rc6","folder":"tf","game":"Team Fortress","app_id":440,"player_count":0,"max_players":24,"Bots":0,"server_type":"Dedicated","server_os":"Linux","password":true,"vac":true,"version":"7961495","steam_id":85568392924515188,"keywords":["cp","nocrits","nodmgspread","uncletopia"],"game_id":440,"stv_port":27046,"stv_name":"Uncletopia | Atlanta | 4 | Community | STV","players":null},{"server_id":2,"name":"Uncletopia | Chicago | 1 | All Maps","name_short":"chi-1","host":"chi-1.us.uncletopia.com","port":27015,"enabled":true,"region":"us-central","cc":"us","latitude":41.881832,"longitude":-87.62318,"reserved":0,"last_update":"0001-01-01T00:00:00Z","name_a2s":"Uncletopia | Chicago | 1 | All Maps","protocol":17,"map":"koth_viaduct","folder":"tf","game":"Team Fortress","app_id":440,"player_count":0,"max_players":24,"Bots":0,"server_type":"Dedicated","server_os":"Linux","password":true,"vac":true,"version":"7961495","steam_id":85568392924469984,"keywords":["cp","nocrits","nodmgspread","uncletopia"],"game_id":440,"stv_port":27016,"stv_name":"Uncletopia | Chicago | 1 | All Maps | STV","players":null},{"server_id":106,"name":"Uncletopia | Chicago | 2 | All Maps","name_short":"chi-2","host":"chi-1.us.uncletopia.com","port":27025,"enabled":true,"region":"us-central","cc":"us","latitude":41.881832,"longitude":-87.62318,"reserved":0,"last_update":"0001-01-01T00:00:00Z","name_a2s":"Uncletopia | Chicago | 2 | All Maps","protocol":17,"map":"pl_barnblitz","folder":"tf","game":"Team Fortress","app_id":440,"player_count":24,"max_players":24,"Bots":0,"server_type":"Dedicated","server_os":"Linux","password":true,"vac":true,"version":"7961495","steam_id":85568392924469985,"keywords":["nocrits","nodmgspread","payload","uncletopia"],"game_id":440,"stv_port":27026,"stv_name":"Uncletopia | Chicago | 2 | All Maps | STV","players":[{"user_id":236,"name":"what the freak","steam_id":76561198080754727,"connected_time":235000000000,"state":"active","ping":77},{"user_id":237,"name":"vanilla latt√©","steam_id":76561198243990636,"connected_time":218000000000,"state":"active","ping":62},{"user_id":238,"name":"Captian Wobbs","steam_id":76561198142884936,"connected_time":208000000000,"state":"active","ping":81},{"user_id":180,"name":"ThatOneKnight","steam_id":76561198388583650,"connected_time":5574000000000,"state":"active","ping":52},{"user_id":239,"name":"afaniscool","steam_id":76561198121380368,"connected_time":207000000000,"state":"active","ping":138},{"user_id":235,"name":"Cousin Balki","steam_id":76561198070496395,"connected_time":743000000000,"state":"active","ping":74},{"user_id":221,"name":"MrKokonut","steam_id":76561198879575825,"connected_time":2559000000000,"state":"active","ping":60},{"user_id":240,"name":"wheat","steam_id":76561197971158435,"connected_time":203000000000,"state":"active","ping":58},{"user_id":232,"name":"princess fern \u003c3333","steam_id":76561198881792140,"connected_time":992000000000,"state":"active","ping":86},{"user_id":178,"name":"Fluffeline","steam_id":76561198352909489,"connected_time":6105000000000,"state":"active","ping":146},{"user_id":204,"name":"Chicago Shoplifter","steam_id":76561197986530028,"connected_time":3857000000000,"state":"active","ping":106},{"user_id":187,"name":"Rornir","steam_id":76561198081829615,"connected_time":5180000000000,"state":"active","ping":40},{"user_id":227,"name":"Zozbieta","steam_id":76561198010336265,"connected_time":2283000000000,"state":"active","ping":94},{"user_id":233,"name":"PyroTechno","steam_id":76561198060929872,"connected_time":988000000000,"state":"active","ping":69},{"user_id":241,"name":"Mythic","steam_id":76561198028616665,"connected_time":201000000000,"state":"active","ping":62},{"user_id":242,"name":"Satori Komeiji","steam_id":76561198158211423,"connected_time":194000000000,"state":"active","ping":101},{"user_id":176,"name":"Ceige LFT","steam_id":76561198068538473,"connected_time":6245000000000,"state":"active","ping":77},{"user_id":246,"name":"ZYNTERLINKED","steam_id":76561198241948526,"connected_time":19000000000,"state":"active","ping":65},{"user_id":244,"name":"ƒê√Ø…ê»ê…π…¶…Üa","steam_id":76561198981411945,"connected_time":175000000000,"state":"active","ping":193},{"user_id":218,"name":"feudal","steam_id":76561198057374871,"connected_time":2843000000000,"state":"active","ping":64},{"user_id":213,"name":"Lost","steam_id":76561198025933206,"connected_time":3154000000000,"state":"active","ping":61},{"user_id":219,"name":"twizted","steam_id":76561197960407274,"connected_time":2800000000000,"state":"active","ping":67},{"user_id":224,"name":"vv","steam_id":76561198134813102,"connected_time":2478000000000,"state":"active","ping":60},{"user_id":245,"name":"CoconutRice","steam_id":76561198114909164,"connected_time":142000000000,"state":"active","ping":54}]},{"server_id":402,"name":"Uncletopia | Chicago | 3 | All Maps","name_short":"chi-3","host":"chi-1.us.uncletopia.com","port":27035,"enabled":true,"region":"us-central","cc":"us","latitude":41.881832,"longitude":-87.62318,"reserved":0,"last_update":"0001-01-01T00:00:00Z","name_a2s":"Uncletopia | Chicago | 3 | All Maps","protocol":17,"map":"cp_dustbowl","folder":"tf","game":"Team Fortress","app_id":440,"player_count":24,"max_players":24,"Bots":0,"server_type":"Dedicated","server_os":"Linux","password":true,"vac":true,"version":"7961495","steam_id":85568392924515191,"keywords":["cp","nocrits","nodmgspread","uncletopia"],"game_id":440,"stv_port":27036,"stv_name":"Uncletopia | Chicago | 3 | All Maps | STV","players":[{"user_id":114,"name":"Steve-O","steam_id":76561199199770572,"connected_time":2430000000000,"state":"active","ping":72},{"user_id":80,"name":"BRUH NATOR","steam_id":76561199094694437,"connected_time":4089000000000,"state":"active","ping":86},{"user_id":137,"name":"R{FITH}‚Ñ¢ Z4LTte","steam_id":76561198283258068,"connected_time":250000000000,"state":"active","ping":60},{"user_id":99,"name":"SlurpyTheDog","steam_id":76561198799733154,"connected_time":3329000000000,"state":"active","ping":76},{"user_id":129,"name":"Oopsie Daisy ‚ùã","steam_id":76561198042144492,"connected_time":830000000000,"state":"active","ping":77},{"user_id":94,"name":"dicksnip","steam_id":76561198356515396,"connected_time":3573000000000,"state":"active","ping":82},{"user_id":105,"name":"Soju","steam_id":76561198044130442,"connected_time":2915000000000,"state":"active","ping":78},{"user_id":111,"name":"gary","steam_id":76561198140226890,"connected_time":2600000000000,"state":"active","ping":61},{"user_id":113,"name":"flange","steam_id":76561198040182692,"connected_time":2450000000000,"state":"active","ping":135},{"user_id":124,"name":"Theus117 [ „ÉÅ„É´„Éé‚ë®]","steam_id":76561198108902928,"connected_time":1472000000000,"state":"active","ping":61},{"user_id":133,"name":"dahperson","steam_id":76561198067207467,"connected_time":499000000000,"state":"active","ping":58},{"user_id":101,"name":"chonk97531","steam_id":76561199384248529,"connected_time":3224000000000,"state":"active","ping":81},{"user_id":139,"name":"chikin.sauce","steam_id":76561198042464635,"connected_time":88000000000,"state":"active","ping":81},{"user_id":138,"name":"The_Swan101","steam_id":76561198255629546,"connected_time":119000000000,"state":"active","ping":74},{"user_id":140,"name":"Pall Mall Man in Pill Mill Land","steam_id":76561198053873756,"connected_time":0,"state":"spawning","ping":76},{"user_id":121,"name":"Bennet","steam_id":76561198194582382,"connected_time":1747000000000,"state":"active","ping":71},{"user_id":128,"name":"Riff III","steam_id":76561198066921423,"connected_time":1135000000000,"state":"active","ping":71},{"user_id":62,"name":"1-800-GHOST-DANCE","steam_id":76561198835430429,"connected_time":6029000000000,"state":"active","ping":76},{"user_id":120,"name":"Critscare","steam_id":76561198087712508,"connected_time":1925000000000,"state":"active","ping":46},{"user_id":117,"name":"YOU WHAT?!","steam_id":76561198418679471,"connected_time":2419000000000,"state":"active","ping":60},{"user_id":135,"name":"hobo","steam_id":76561198044107141,"connected_time":431000000000,"state":"active","ping":78},{"user_id":136,"name":"I shat your pants","steam_id":76561198852938533,"connected_time":392000000000,"state":"active","ping":64},{"user_id":97,"name":"evil geeker","steam_id":76561198280331687,"connected_time":3508000000000,"state":"active","ping":81},{"user_id":110,"name":"gayforgod","steam_id":76561198364882421,"connected_time":2790000000000,"state":"active","ping":107}]},{"server_id":403,"name":"Uncletopia | Chicago | 4 | All Maps","name_short":"chi-4","host":"chi-1.us.uncletopia.com","port":27045,"enabled":true,"region":"us-central","cc":"us","latitude":41.881832,"longitude":-87.62318,"reserved":0,"last_update":"0001-01-01T00:00:00Z","name_a2s":"Uncletopia | Chicago | 4 | All Maps","protocol":17,"map":"koth_lakeside_final","folder":"tf","game":"Team Fortress","app_id":440,"player_count":23,"max_players":24,"Bots":0,"server_type":"Dedicated","server_os":"Linux","password":true,"vac":true,"version":"7961495","steam_id":85568392924515193,"keywords":["cp","nocrits","nodmgspread","uncletopia"],"game_id":440,"stv_port":27046,"stv_name":"Uncletopia | Chicago | 4 | All Maps | STV","players":[{"user_id":10,"name":"DeadlyBlind","steam_id":76561197986897274,"connected_time":3222000000000,"state":"active","ping":68},{"user_id":4,"name":"OldRavensFan","steam_id":76561198043919562,"connected_time":5307000000000,"state":"active","ping":70},{"user_id":59,"name":"yaldabaoth","steam_id":76561198084606869,"connected_time":354000000000,"state":"active","ping":45},{"user_id":11,"name":"Some Dipshit","steam_id":76561197971011603,"connected_time":3215000000000,"state":"active","ping":78},{"user_id":35,"name":"Mint Jelly","steam_id":76561197991286751,"connected_time":2091000000000,"state":"active","ping":49},{"user_id":61,"name":"jimmz","steam_id":76561199076776118,"connected_time":333000000000,"state":"active","ping":72},{"user_id":60,"name":"DOORDASH","steam_id":76561199214126908,"connected_time":340000000000,"state":"active","ping":107},{"user_id":51,"name":"ratie","steam_id":76561198059399661,"connected_time":1149000000000,"state":"active","ping":75},{"user_id":56,"name":"Weerk","steam_id":76561199209543551,"connected_time":810000000000,"state":"active","ping":77},{"user_id":48,"name":"Keegs","steam_id":76561198346917831,"connected_time":1359000000000,"state":"active","ping":54},{"user_id":58,"name":"average Damnation player","steam_id":76561198144675074,"connected_time":391000000000,"state":"active","ping":91},{"user_id":19,"name":"cyren caster","steam_id":76561198204509499,"connected_time":2572000000000,"state":"active","ping":102},{"user_id":62,"name":"Jin Mu-Won","steam_id":76561198414122318,"connected_time":258000000000,"state":"active","ping":61},{"user_id":63,"name":"Colonel Cornelius Cornwall","steam_id":76561198815992492,"connected_time":255000000000,"state":"active","ping":61},{"user_id":42,"name":"Blitzy","steam_id":76561198149472890,"connected_time":1883000000000,"state":"active","ping":73},{"user_id":26,"name":"sloth (be nice im cringe)","steam_id":76561198047098172,"connected_time":2320000000000,"state":"active","ping":70},{"user_id":64,"name":"Retro Phoenix","steam_id":76561198077176271,"connected_time":200000000000,"state":"active","ping":61},{"user_id":65,"name":"chicken coup d'√©tat","steam_id":76561198069586736,"connected_time":161000000000,"state":"active","ping":92},{"user_id":66,"name":"Legit_Jaxer","steam_id":76561198172234053,"connected_time":140000000000,"state":"active","ping":128},{"user_id":67,"name":"üÖúüÖîüÖîüÖöüÖ¢üÖ£üÖî\ufffd\ufffd\ufffd","steam_id":76561197999748343,"connected_time":138000000000,"state":"active","ping":71},{"user_id":68,"name":"Quark","steam_id":76561198328155605,"connected_time":135000000000,"state":"active","ping":56},{"user_id":50,"name":"LW | [wrd]HaloLagann","steam_id":76561198047561568,"connected_time":1183000000000,"state":"active","ping":72},{"user_id":57,"name":"Carton","steam_id":76561198989473391,"connected_time":616000000000,"state":"active","ping":62}]},{"server_id":36,"name":"Uncletopia | Chicago | 5 | All Maps","name_short":"chi-5","host":"chi-2.us.uncletopia.com","port":27015,"enabled":true,"region":"us-central","cc":"us","latitude":41.881832,"longitude":-87.62318,"reserved":0,"last_update":"0001-01-01T00:00:00Z","name_a2s":"Uncletopia | Chicago | 5 | All Maps","protocol":17,"map":"koth_viaduct","folder":"tf","game":"Team Fortress","app_id":440,"player_count":0,"max_players":24,"Bots":0,"server_type":"Dedicated","server_os":"Linux","password":true,"vac":true,"version":"7961495","steam_id":85568392924866362,"keywords":["cp","nocrits","nodmgspread","uncletopia"],"game_id":440,"stv_port":27016,"stv_name":"Uncletopia | Chicago | 5 | All Maps | STV","players":null},{"server_id":37,"name":"Uncletopia | Chicago | 6 | All Maps","name_short":"chi-6","host":"chi-2.us.uncletopia.com","port":27025,"enabled":true,"region":"us-central","cc":"us","latitude":41.881832,"longitude":-87.62318,"reserved":0,"last_update":"0001-01-01T00:00:00Z","name_a2s":"Uncletopia | Chicago | 6 | All Maps","protocol":17,"map":"cp_freight_final1","folder":"tf","game":"Team Fortress","app_id":440,"player_count":21,"max_players":24,"Bots":0,"server_type":"Dedicated","server_os":"Linux","password":true,"vac":true,"version":"7961495","steam_id":85568392924866363,"keywords":["cp","nocrits","nodmgspread","uncletopia"],"game_id":440,"stv_port":27026,"stv_name":"Uncletopia | Chicago | 6 | All Maps | STV","players":[{"user_id":492,"name":"Oogle","steam_id":76561198041815877,"connected_time":190000000000,"state":"active","ping":60},{"user_id":459,"name":"UNIT 220","steam_id":76561198042243497,"connected_time":2033000000000,"state":"active","ping":65},{"user_id":460,"name":"BUT COME TUESDAY","steam_id":76561198119220289,"connected_time":2026000000000,"state":"active","ping":73},{"user_id":482,"name":"Sergi338","steam_id":76561198201866231,"connected_time":773000000000,"state":"active","ping":100},{"user_id":440,"name":"airballer","steam_id":76561198165899125,"connected_time":3254000000000,"state":"active","ping":70},{"user_id":436,"name":"Lia_Rein TTV","steam_id":76561198151569597,"connected_time":3354000000000,"state":"active","ping":148},{"user_id":493,"name":"Minecraft Villager Gaming","steam_id":76561198280321704,"connected_time":180000000000,"state":"active","ping":63},{"user_id":494,"name":"mr poop","steam_id":76561199195196632,"connected_time":176000000000,"state":"active","ping":78},{"user_id":497,"name":"IIIIIIIIII","steam_id":76561198882591193,"connected_time":50000000000,"state":"spawning","ping":61},{"user_id":496,"name":"Kibeka the Weird","steam_id":76561198116534133,"connected_time":61000000000,"state":"active","ping":78},{"user_id":498,"name":"Knox","steam_id":76561198025324498,"connected_time":45000000000,"state":"active","ping":83},{"user_id":462,"name":"erm... what the spruce","steam_id":76561198057076267,"connected_time":1976000000000,"state":"active","ping":72},{"user_id":455,"name":"alv√∂ru","steam_id":76561198273488925,"connected_time":2256000000000,"state":"active","ping":75},{"user_id":463,"name":"Griffin","steam_id":76561198159339442,"connected_time":1966000000000,"state":"active","ping":69},{"user_id":456,"name":"soymilksteak","steam_id":76561198001488041,"connected_time":2229000000000,"state":"active","ping":86},{"user_id":485,"name":"Danny Fentanyl","steam_id":76561197970791798,"connected_time":670000000000,"state":"active","ping":90},{"user_id":477,"name":"CinnamonBoy","steam_id":76561198882330338,"connected_time":1078000000000,"state":"active","ping":71},{"user_id":417,"name":"Sizenberg","steam_id":76561198115842661,"connected_time":4795000000000,"state":"active","ping":83},{"user_id":499,"name":"poopoocum","steam_id":76561198180641206,"connected_time":10000000000,"state":"spawning","ping":145},{"user_id":465,"name":"i have an rsi","steam_id":76561198020322241,"connected_time":1889000000000,"state":"active","ping":75},{"user_id":449,"name":"Darkmaen","steam_id":76561198060543390,"connected_time":2563000000000,"state":"active","ping":151}]},{"server_id":38,"name":"Uncletopia | Chicago | 7 | Stopwatch","name_short":"chi-7","host":"chi-2.us.uncletopia.com","port":27035,"enabled":true,"region":"us-central","cc":"us","latitude":41.881832,"longitude":-87.62318,"reserved":0,"last_update":"0001-01-01T00:00:00Z","name_a2s":"Uncletopia | Chicago | 7 | Stopwatch","protocol":17,"map":"pl_badwater","folder":"tf","game":"Team Fortress","app_id":440,"player_count":0,"max_players":24,"Bots":0,"server_type":"Dedicated","server_os":"Linux","password":true,"vac":true,"version":"7961495","steam_id":85568392924866364,"keywords":["nocrits","nodmgspread","payload","uncletopia"],"game_id":440,"stv_port":27036,"stv_name":"Uncletopia | Chicago | 7 | Stopwatch | STV","players":null},{"server_id":39,"name":"Uncletopia | Chicago | 8 | Community","name_short":"chi-8","host":"chi-2.us.uncletopia.com","port":27045,"enabled":true,"region":"us-central","cc":"us","latitude":41.881832,"longitude":-87.62318,"reserved":0,"last_update":"0001-01-01T00:00:00Z","name_a2s":"Uncletopia | Chicago | 8 | Community","protocol":17,"map":"pl_pier","folder":"tf","game":"Team Fortress","app_id":440,"player_count":0,"max_players":24,"Bots":0,"server_type":"Dedicated","server_os":"Linux","password":true,"vac":true,"version":"7961495","steam_id":85568392924866365,"keywords":["nocrits","nodmgspread","payload","uncletopia"],"game_id":440,"stv_port":27046,"stv_name":"Uncletopia | Chicago | 8 | Community | STV","players":null},{"server_id":8,"name":"Uncletopia | Dallas | 1 | All Maps","name_short":"dal-1","host":"dal-1.us.uncletopia.com","port":27015,"enabled":true,"region":"us-central","cc":"us","latitude":32.779167,"longitude":-96.80889,"reserved":0,"last_update":"0001-01-01T00:00:00Z","name_a2s":"Uncletopia | Dallas | 1 | All Maps","protocol":17,"map":"koth_cascade","folder":"tf","game":"Team Fortress","app_id":440,"player_count":3,"max_players":24,"Bots":0,"server_type":"Dedicated","server_os":"Linux","password":true,"vac":true,"version":"7961495","steam_id":85568392924469986,"keywords":["cp","nocrits","nodmgspread","uncletopia"],"game_id":440,"stv_port":27016,"stv_name":"Uncletopia | Dallas | 1 | All Maps | STV","players":[{"user_id":27,"name":"Sup m8","steam_id":76561198081659121,"connected_time":133000000000,"state":"active","ping":31},{"user_id":17,"name":"Gul'dan","steam_id":76561198240466940,"connected_time":1358000000000,"state":"active","ping":180},{"user_id":20,"name":"End My Suffering And Knuckles","steam_id":76561198171844685,"connected_time":1266000000000,"state":"active","ping":116}]},{"server_id":108,"name":"Uncletopia | Dallas | 2 | All Maps","name_short":"dal-2","host":"dal-1.us.uncletopia.com","port":27025,"enabled":true,"region":"us-central","cc":"us","latitude":32.779167,"longitude":-96.80889,"reserved":0,"last_update":"0001-01-01T00:00:00Z","name_a2s":"Uncletopia | Dallas | 2 | All Maps","protocol":17,"map":"ctf_2fort","folder":"tf","game":"Team Fortress","app_id":440,"player_count":18,"max_players":24,"Bots":0,"server_type":"Dedicated","server_os":"Linux","password":true,"vac":true,"version":"7961495","steam_id":85568392924469988,"keywords":["ctf","nocrits","nodmgspread","uncletopia"],"game_id":440,"stv_port":27026,"stv_name":"Uncletopia | Dallas | 2 | All Maps | STV","players":[{"user_id":217,"name":"BaCkSeAtGaMeR123123","steam_id":76561198103798860,"connected_time":190000000000,"state":"active","ping":71},{"user_id":189,"name":"Rob","steam_id":76561199187786660,"connected_time":2983000000000,"state":"active","ping":43},{"user_id":216,"name":"DragonHunter994","steam_id":76561199076203907,"connected_time":965000000000,"state":"active","ping":57},{"user_id":218,"name":"Groundlaser49","steam_id":76561198259288290,"connected_time":83000000000,"state":"active","ping":81},{"user_id":219,"name":"ufo","steam_id":76561198018514993,"connected_time":49000000000,"state":"spawning","ping":44},{"user_id":199,"name":"ICBMonkey","steam_id":76561198033351821,"connected_time":1908000000000,"state":"active","ping":60},{"user_id":194,"name":"Your Dad‚Ñ¢","steam_id":76561198254739340,"connected_time":2317000000000,"state":"active","ping":86},{"user_id":198,"name":"Gary Busey","steam_id":76561197970096950,"connected_time":1991000000000,"state":"active","ping":31},{"user_id":215,"name":"Queen of Latex","steam_id":76561198037779673,"connected_time":976000000000,"state":"active","ping":89},{"user_id":205,"name":"Engineer who laughs on 2Fort","steam_id":76561199061965517,"connected_time":1348000000000,"state":"active","ping":59},{"user_id":192,"name":"I LOVE 2FORT","steam_id":76561198338424207,"connected_time":2324000000000,"state":"active","ping":94},{"user_id":182,"name":"Zanylank","steam_id":76561198858480639,"connected_time":3801000000000,"state":"active","ping":104},{"user_id":196,"name":"The_Blaze_king","steam_id":76561198324842122,"connected_time":2171000000000,"state":"active","ping":130},{"user_id":208,"name":"duckmains1","steam_id":76561199499117901,"connected_time":1316000000000,"state":"active","ping":67},{"user_id":197,"name":"KESO","steam_id":76561198000391945,"connected_time":2123000000000,"state":"active","ping":150},{"user_id":195,"name":"gock enjoyer","steam_id":76561198439745263,"connected_time":2307000000000,"state":"active","ping":102},{"user_id":190,"name":"mterbay","steam_id":76561198023473264,"connected_time":2783000000000,"state":"active","ping":68},{"user_id":211,"name":"Greasy Guavas","steam_id":76561198089650428,"connected_time":1282000000000,"state":"active","ping":65}]},{"server_id":404,"name":"Uncletopia | Dallas | 3 | All Maps","name_short":"dal-3","host":"dal-1.us.uncletopia.com","port":27035,"enabled":true,"region":"us-central","cc":"us","latitude":32.779167,"longitude":-96.80889,"reserved":0,"last_update":"0001-01-01T00:00:00Z","name_a2s":"Uncletopia | Dallas | 3 | All Maps","protocol":17,"map":"pl_pier","folder":"tf","game":"Team Fortress","app_id":440,"player_count":0,"max_players":24,"Bots":0,"server_type":"Dedicated","server_os":"Linux","password":true,"vac":true,"version":"7961495","steam_id":85568392924515219,"keywords":["nocrits","nodmgspread","payload","uncletopia"],"game_id":440,"stv_port":27036,"stv_name":"Uncletopia | Dallas | 3 | All Maps | STV","players":null},{"server_id":405,"name":"Uncletopia | Dallas | 4 | Community","name_short":"dal-4","host":"dal-1.us.uncletopia.com","port":27045,"enabled":true,"region":"us-central","cc":"us","latitude":32.779167,"longitude":-96.80889,"reserved":0,"last_update":"0001-01-01T00:00:00Z","name_a2s":"Uncletopia | Dallas | 4 | Community","protocol":17,"map":"pl_pier","folder":"tf","game":"Team Fortress","app_id":440,"player_count":0,"max_players":24,"Bots":0,"server_type":"Dedicated","server_os":"Linux","password":true,"vac":true,"version":"7961495","steam_id":85568392924515220,"keywords":["nocrits","nodmgspread","payload","uncletopia"],"game_id":440,"stv_port":27046,"stv_name":"Uncletopia | Dallas | 4 | Community | STV","players":null},{"server_id":5,"name":"Uncletopia | Frankfurt | 1 | All Maps","name_short":"frk-1","host":"frk-1.de.uncletopia.com","port":27015,"enabled":true,"region":"eu","cc":"de","latitude":50.110924,"longitude":8.682127,"reserved":0,"last_update":"0001-01-01T00:00:00Z","name_a2s":"Uncletopia | Frankfurt | 1 | All Maps","protocol":17,"map":"koth_harvest_final","folder":"tf","game":"Team Fortress","app_id":440,"player_count":21,"max_players":24,"Bots":0,"server_type":"Dedicated","server_os":"Linux","password":true,"vac":true,"version":"7961495","steam_id":85568392924469989,"keywords":["cp","nocrits","nodmgspread","uncletopia"],"game_id":440,"stv_port":27016,"stv_name":"Uncletopia | Frankfurt | 1 | All Maps | STV","players":[{"user_id":222,"name":"=OKB= P4NTH3R","steam_id":76561197999204603,"connected_time":30000000000,"state":"active","ping":51},{"user_id":203,"name":"hey tutorial heads","steam_id":76561197993777553,"connected_time":2753000000000,"state":"active","ping":60},{"user_id":187,"name":"Toasty5050","steam_id":76561198073540881,"connected_time":3585000000000,"state":"active","ping":36},{"user_id":218,"name":"valzecam","steam_id":76561198274352933,"connected_time":644000000000,"state":"active","ping":55},{"user_id":208,"name":"A.D.H.|Artem","steam_id":76561198041801369,"connected_time":2106000000000,"state":"active","ping":81},{"user_id":177,"name":"Vershal Smershal","steam_id":76561198116223995,"connected_time":4715000000000,"state":"active","ping":54},{"user_id":192,"name":"Bobirulez","steam_id":76561198009125458,"connected_time":3553000000000,"state":"active","ping":74},{"user_id":171,"name":"Woman (Real)","steam_id":76561199151823932,"connected_time":5054000000000,"state":"active","ping":72},{"user_id":215,"name":"Mi Manchi","steam_id":76561198171573129,"connected_time":1774000000000,"state":"active","ping":51},{"user_id":214,"name":"Rarky","steam_id":76561198054398642,"connected_time":1850000000000,"state":"active","ping":45},{"user_id":194,"name":"Rimx","steam_id":76561198053034840,"connected_time":3327000000000,"state":"active","ping":85},{"user_id":168,"name":"xavier","steam_id":76561198076494034,"connected_time":5319000000000,"state":"active","ping":50},{"user_id":193,"name":"Totally Clueless","steam_id":76561198085966488,"connected_time":3551000000000,"state":"active","ping":87},{"user_id":172,"name":"Pilaarius","steam_id":76561198120273212,"connected_time":4968000000000,"state":"active","ping":98},{"user_id":217,"name":"Just Navlis (on the scoreboard)","steam_id":76561198090479609,"connected_time":837000000000,"state":"active","ping":45},{"user_id":221,"name":"TheEventGuy","steam_id":76561197972797744,"connected_time":58000000000,"state":"active","ping":62},{"user_id":190,"name":"skippy","steam_id":76561198171958773,"connected_time":3568000000000,"state":"active","ping":58},{"user_id":176,"name":"KnugenIV","steam_id":76561198127091993,"connected_time":4722000000000,"state":"active","ping":56},{"user_id":220,"name":"sareena","steam_id":76561198810194062,"connected_time":405000000000,"state":"active","ping":81},{"user_id":209,"name":"LEGEND FUMO.","steam_id":76561198061033903,"connected_time":2106000000000,"state":"active","ping":46},{"user_id":186,"name":"Bajas","steam_id":76561198179339326,"connected_time":3929000000000,"state":"active","ping":75}]},{"server_id":110,"name":"Uncletopia | Frankfurt | 2 | All Maps","name_short":"frk-2","host":"frk-1.de.uncletopia.com","port":27025,"enabled":true,"region":"eu","cc":"de","latitude":50.110924,"longitude":8.682127,"reserved":0,"last_update":"0001-01-01T00:00:00Z","name_a2s":"Uncletopia | Frankfurt | 2 | All Maps","protocol":17,"map":"pl_badwater","folder":"tf","game":"Team Fortress","app_id":440,"player_count":22,"max_players":24,"Bots":0,"server_type":"Dedicated","server_os":"Linux","password":true,"vac":true,"version":"7961495","steam_id":85568392924469990,"keywords":["nocrits","nodmgspread","payload","uncletopia"],"game_id":440,"stv_port":27026,"stv_name":"Uncletopia | Frankfurt | 2 | All Maps | STV","players":[{"user_id":342,"name":"‚ù§Ô∏éWarMole‚ù§","steam_id":76561198104248760,"connected_time":1363000000000,"state":"active","ping":66},{"user_id":343,"name":"Voodoo D Child","steam_id":76561198094569373,"connected_time":1338000000000,"state":"active","ping":83},{"user_id":344,"name":"mohemmedmokhter2005","steam_id":76561199197650506,"connected_time":1329000000000,"state":"active","ping":103},{"user_id":351,"name":"nky!","steam_id":76561198086229832,"connected_time":319000000000,"state":"active","ping":54},{"user_id":338,"name":"Repa24","steam_id":76561198033016390,"connected_time":1782000000000,"state":"active","ping":60},{"user_id":350,"name":"morbius (a lenda da marvel)","steam_id":76561198156198125,"connected_time":416000000000,"state":"active","ping":87},{"user_id":290,"name":"‚Ñ¶","steam_id":76561199088570961,"connected_time":4260000000000,"state":"active","ping":103},{"user_id":353,"name":"c1v","steam_id":76561199085624224,"connected_time":274000000000,"state":"active","ping":61},{"user_id":324,"name":"mex :3","steam_id":76561198091083324,"connected_time":2595000000000,"state":"active","ping":62},{"user_id":337,"name":"sus man","steam_id":76561199234935153,"connected_time":1945000000000,"state":"active","ping":114},{"user_id":349,"name":"Magos","steam_id":76561198885792320,"connected_time":651000000000,"state":"active","ping":77},{"user_id":347,"name":"Lux","steam_id":76561198060417740,"connected_time":1296000000000,"state":"active","ping":52},{"user_id":326,"name":"Erection Man","steam_id":76561198021714542,"connected_time":2583000000000,"state":"active","ping":60},{"user_id":352,"name":"MostSereneDogeBestDoge","steam_id":76561198061196566,"connected_time":307000000000,"state":"active","ping":74},{"user_id":329,"name":"Durin sein Vater","steam_id":76561198021246713,"connected_time":2455000000000,"state":"active","ping":44},{"user_id":354,"name":"youtubelover64","steam_id":76561198082865040,"connected_time":261000000000,"state":"active","ping":77},{"user_id":346,"name":"Pfuck","steam_id":76561198146081601,"connected_time":1316000000000,"state":"active","ping":46},{"user_id":312,"name":"Birch","steam_id":76561197998712822,"connected_time":3195000000000,"state":"active","ping":54},{"user_id":341,"name":"TF2 Pro","steam_id":76561198042225094,"connected_time":1542000000000,"state":"active","ping":63},{"user_id":301,"name":"Gruset","steam_id":76561198327512432,"connected_time":3903000000000,"state":"active","ping":77},{"user_id":355,"name":"hisham","steam_id":76561198414437290,"connected_time":251000000000,"state":"active","ping":105},{"user_id":356,"name":"The Big J","steam_id":76561198158202901,"connected_time":235000000000,"state":"active","ping":53}]},{"server_id":308,"name":"Uncletopia | Frankfurt | 3 | All Maps","name_short":"frk-3","host":"frk-1.de.uncletopia.com","port":27035,"enabled":true,"region":"eu","cc":"de","latitude":50.110924,"longitude":8.682127,"reserved":0,"last_update":"0001-01-01T00:00:00Z","name_a2s":"Uncletopia | Frankfurt | 3 | All Maps","protocol":17,"map":"pl_upward","folder":"tf","game":"Team Fortress","app_id":440,"player_count":24,"max_players":24,"Bots":0,"server_type":"Dedicated","server_os":"Linux","password":true,"vac":true,"version":"7961495","steam_id":85568392924504274,"keywords":["nocrits","nodmgspread","payload","uncletopia"],"game_id":440,"stv_port":27036,"stv_name":"Uncletopia | Frankfurt | 3 | All Maps | STV","players":[{"user_id":457,"name":"ÍßÅùïÆùñÜùñâùñäùñÜùñì‡ºí","steam_id":76561198183880529,"connected_time":562000000000,"state":"active","ping":64},{"user_id":462,"name":"MrMethor","steam_id":76561198155992717,"connected_time":312000000000,"state":"active","ping":67},{"user_id":465,"name":"ShoQeX","steam_id":76561198815956100,"connected_time":70000000000,"state":"active","ping":64},{"user_id":440,"name":"Not Sussy Tanuki","steam_id":76561198137289375,"connected_time":1852000000000,"state":"active","ping":96},{"user_id":464,"name":"SNIPER WITH GOUT","steam_id":76561198042774930,"connected_time":273000000000,"state":"active","ping":72},{"user_id":435,"name":"Sentry hater","steam_id":76561199269309068,"connected_time":2776000000000,"state":"active","ping":86},{"user_id":353,"name":"unKr","steam_id":76561198342024316,"connected_time":8732000000000,"state":"active","ping":74},{"user_id":458,"name":"KaiserinoPeperinio","steam_id":76561198017683850,"connected_time":517000000000,"state":"active","ping":72},{"user_id":459,"name":"Wolfdad Duke","steam_id":76561197986442930,"connected_time":502000000000,"state":"active","ping":59},{"user_id":428,"name":"MuchoBroke","steam_id":76561199389474207,"connected_time":3165000000000,"state":"active","ping":54},{"user_id":460,"name":"Portal2Player","steam_id":76561198062870114,"connected_time":498000000000,"state":"active","ping":199},{"user_id":461,"name":"Janfors","steam_id":76561198874152503,"connected_time":460000000000,"state":"active","ping":88},{"user_id":411,"name":"Piteras","steam_id":76561198858532207,"connected_time":4312000000000,"state":"active","ping":72},{"user_id":444,"name":"cazador","steam_id":76561198123096922,"connected_time":1205000000000,"state":"active","ping":90},{"user_id":429,"name":"[ALT_F4]dottor_cacabula_m8","steam_id":76561198173192267,"connected_time":3153000000000,"state":"active","ping":70},{"user_id":441,"name":"xiiski","steam_id":76561198152387747,"connected_time":1851000000000,"state":"active","ping":91},{"user_id":445,"name":"snakeghoul","steam_id":76561199018056408,"connected_time":1154000000000,"state":"active","ping":72},{"user_id":406,"name":"Fish 'n' Chips","steam_id":76561198033476886,"connected_time":4539000000000,"state":"active","ping":52},{"user_id":358,"name":"MUWEQ","steam_id":76561198107615727,"connected_time":8604000000000,"state":"active","ping":75},{"user_id":454,"name":"heddwch","steam_id":76561198076097983,"connected_time":651000000000,"state":"active","ping":75},{"user_id":387,"name":"Eric Catman","steam_id":76561198802117294,"connected_time":6658000000000,"state":"active","ping":86},{"user_id":456,"name":"hwg","steam_id":76561198090848620,"connected_time":648000000000,"state":"active","ping":81},{"user_id":439,"name":"‚ô•Also Freddy‚ô•","steam_id":76561198200934934,"connected_time":2014000000000,"state":"active","ping":57},{"user_id":442,"name":"Sandro","steam_id":76561198150314892,"connected_time":1828000000000,"state":"active","ping":74}]},{"server_id":309,"name":"Uncletopia | Frankfurt | 4 | All Maps","name_short":"frk-4","host":"frk-1.de.uncletopia.com","port":27045,"enabled":true,"region":"eu","cc":"de","latitude":50.110924,"longitude":8.682127,"reserved":0,"last_update":"0001-01-01T00:00:00Z","name_a2s":"Uncletopia | Frankfurt | 4 | All Maps","protocol":17,"map":"pl_borneo","folder":"tf","game":"Team Fortress","app_id":440,"player_count":23,"max_players":24,"Bots":0,"server_type":"Dedicated","server_os":"Linux","password":true,"vac":true,"version":"7961495","steam_id":85568392924504275,"keywords":["nocrits","nodmgspread","payload","uncletopia"],"game_id":440,"stv_port":27046,"stv_name":"Uncletopia | Frankfurt | 4 | All Maps | STV","players":[{"user_id":192,"name":"LordTrap.exe","steam_id":76561198318089716,"connected_time":811000000000,"state":"active","ping":69},{"user_id":118,"name":"Ralistix","steam_id":76561198051654135,"connected_time":5372000000000,"state":"active","ping":86},{"user_id":170,"name":"Chicken","steam_id":76561198146492664,"connected_time":1636000000000,"state":"active","ping":93},{"user_id":157,"name":"peeka","steam_id":76561198221122068,"connected_time":3550000000000,"state":"active","ping":70},{"user_id":181,"name":"Shronkistan","steam_id":76561198083697305,"connected_time":1285000000000,"state":"active","ping":71},{"user_id":189,"name":"pepega","steam_id":76561198210509251,"connected_time":1012000000000,"state":"active","ping":106},{"user_id":185,"name":"emko√ß","steam_id":76561198846782346,"connected_time":1129000000000,"state":"active","ping":106},{"user_id":196,"name":"say gex","steam_id":76561198265479349,"connected_time":575000000000,"state":"active","ping":60},{"user_id":144,"name":"SHR√ñX","steam_id":76561198250244554,"connected_time":4079000000000,"state":"active","ping":85},{"user_id":162,"name":"Kurbeats","steam_id":76561198102259574,"connected_time":3256000000000,"state":"active","ping":60},{"user_id":175,"name":"s a i","steam_id":76561197970379754,"connected_time":1591000000000,"state":"active","ping":48},{"user_id":197,"name":"tired","steam_id":76561198046838168,"connected_time":542000000000,"state":"active","ping":51},{"user_id":198,"name":"Fellow scientist","steam_id":76561198102125260,"connected_time":527000000000,"state":"active","ping":74},{"user_id":194,"name":"Ghost11","steam_id":76561198068892992,"connected_time":716000000000,"state":"active","ping":101},{"user_id":155,"name":"Nozzo","steam_id":76561198012367783,"connected_time":3582000000000,"state":"active","ping":69},{"user_id":173,"name":"GAJtheSPY","steam_id":76561198256080023,"connected_time":1609000000000,"state":"active","ping":68},{"user_id":195,"name":"etc","steam_id":76561197998394797,"connected_time":714000000000,"state":"active","ping":55},{"user_id":131,"name":"average manicotti enjoyer","steam_id":76561198059535856,"connected_time":4643000000000,"state":"active","ping":168},{"user_id":201,"name":"Archie","steam_id":76561198073498063,"connected_time":409000000000,"state":"active","ping":57},{"user_id":114,"name":"Sn1Ch","steam_id":76561198073076943,"connected_time":5499000000000,"state":"active","ping":85},{"user_id":174,"name":"beno","steam_id":76561198152146711,"connected_time":1608000000000,"state":"active","ping":72},{"user_id":200,"name":"Tri-","steam_id":76561198133524794,"connected_time":512000000000,"state":"active","ping":52},{"user_id":148,"name":"SneaK","steam_id":76561198280344773,"connected_time":4020000000000,"state":"active","ping":87}]},{"server_id":310,"name":"Uncletopia | Frankfurt | 5 | All Maps","name_short":"frk-5","host":"frk-1.de.uncletopia.com","port":27055,"enabled":true,"region":"eu","cc":"de","latitude":50.110924,"longitude":8.682127,"reserved":0,"last_update":"0001-01-01T00:00:00Z","name_a2s":"Uncletopia | Frankfurt | 5 | All Maps","protocol":17,"map":"pl_borneo","folder":"tf","game":"Team Fortress","app_id":440,"player_count":22,"max_players":24,"Bots":0,"server_type":"Dedicated","server_os":"Linux","password":true,"vac":true,"version":"7961495","steam_id":85568392924504277,"keywords":["nocrits","nodmgspread","payload","uncletopia"],"game_id":440,"stv_port":27056,"stv_name":"Uncletopia | Frankfurt | 5 | All Maps | STV","players":[{"user_id":309,"name":"Jeffrey Harpen","steam_id":76561199073314677,"connected_time":2279000000000,"state":"active","ping":67},{"user_id":344,"name":"Vitamin Weee","steam_id":76561199183937747,"connected_time":177000000000,"state":"active","ping":76},{"user_id":351,"name":"DonkHappy","steam_id":76561197989948420,"connected_time":4000000000,"state":"spawning","ping":59},{"user_id":349,"name":"Jasperatus","steam_id":76561198196733750,"connected_time":38000000000,"state":"spawning","ping":73},{"user_id":297,"name":"CRANK","steam_id":76561198188720263,"connected_time":2529000000000,"state":"active","ping":46},{"user_id":350,"name":"Buford","steam_id":76561198129828715,"connected_time":30000000000,"state":"active","ping":47},{"user_id":305,"name":"Sippie","steam_id":76561198130393388,"connected_time":2414000000000,"state":"active","ping":65},{"user_id":328,"name":"FoOzTV","steam_id":76561197998636728,"connected_time":1242000000000,"state":"active","ping":70},{"user_id":348,"name":"Triggerhappy","steam_id":76561198334672983,"connected_time":54000000000,"state":"active","ping":211},{"user_id":307,"name":"Supercoxylac","steam_id":76561198376300138,"connected_time":2349000000000,"state":"active","ping":74},{"user_id":345,"name":"limbicsystem","steam_id":76561198025612680,"connected_time":172000000000,"state":"active","ping":69},{"user_id":322,"name":"DevFish","steam_id":76561199010456751,"connected_time":1410000000000,"state":"active","ping":60},{"user_id":331,"name":"Trulle","steam_id":76561198059090698,"connected_time":1187000000000,"state":"active","ping":72},{"user_id":333,"name":"Kn√∂sta","steam_id":76561198143422139,"connected_time":1065000000000,"state":"active","ping":94},{"user_id":335,"name":"Another Dimension","steam_id":76561198987558651,"connected_time":698000000000,"state":"active","ping":176},{"user_id":338,"name":"gaming (official)","steam_id":76561198106012909,"connected_time":612000000000,"state":"active","ping":61},{"user_id":346,"name":"The King","steam_id":76561198117344758,"connected_time":138000000000,"state":"active","ping":165},{"user_id":329,"name":"hhhhhh","steam_id":76561198031982574,"connected_time":1237000000000,"state":"active","ping":53},{"user_id":334,"name":"–ë—É–±–∏—Å–ª–∞–≤ –ü–∞–ª—ã—á","steam_id":76561198161205559,"connected_time":897000000000,"state":"active","ping":86},{"user_id":343,"name":"pakin157","steam_id":76561198035125667,"connected_time":226000000000,"state":"active","ping":83},{"user_id":330,"name":"Toxic√≤","steam_id":76561199031920676,"connected_time":1232000000000,"state":"active","ping":83},{"user_id":303,"name":"Nickbro101","steam_id":76561198044271692,"connected_time":2479000000000,"state":"active","ping":45}]},{"server_id":311,"name":"Uncletopia | Frankfurt | 6 | All Maps","name_short":"frk-6","host":"frk-1.de.uncletopia.com","port":27065,"enabled":true,"region":"eu","cc":"de","latitude":50.110924,"longitude":8.682127,"reserved":0,"last_update":"0001-01-01T00:00:00Z","name_a2s":"Uncletopia | Frankfurt | 6 | All Maps","protocol":17,"map":"pl_borneo","folder":"tf","game":"Team Fortress","app_id":440,"player_count":24,"max_players":24,"Bots":0,"server_type":"Dedicated","server_os":"Linux","password":true,"vac":true,"version":"7961495","steam_id":85568392924504278,"keywords":["nocrits","nodmgspread","payload","uncletopia"],"game_id":440,"stv_port":27066,"stv_name":"Uncletopia | Frankfurt | 6 | All Maps | STV","players":[{"user_id":241,"name":"Direct Miss","steam_id":76561198303496304,"connected_time":660000000000,"state":"active","ping":60},{"user_id":244,"name":"Relaxedd v√§ldigt m√§nniska","steam_id":76561198072727888,"connected_time":400000000000,"state":"active","ping":71},{"user_id":139,"name":"Ketich","steam_id":76561198021772703,"connected_time":7964000000000,"state":"active","ping":71},{"user_id":237,"name":"Wattseyy","steam_id":76561198248567360,"connected_time":982000000000,"state":"active","ping":61},{"user_id":231,"name":"Schmack","steam_id":76561198026535437,"connected_time":1738000000000,"state":"active","ping":60},{"user_id":205,"name":"Rubi","steam_id":76561198139410003,"connected_time":3637000000000,"state":"active","ping":76},{"user_id":227,"name":"Vitun Jonne","steam_id":76561198401737380,"connected_time":2237000000000,"state":"active","ping":54},{"user_id":224,"name":"Timantrop","steam_id":76561198142563461,"connected_time":2270000000000,"state":"active","ping":64},{"user_id":180,"name":"After8","steam_id":76561198090750865,"connected_time":5662000000000,"state":"active","ping":65},{"user_id":233,"name":"hananamanna","steam_id":76561198006570285,"connected_time":1454000000000,"state":"active","ping":114},{"user_id":240,"name":"ywyw","steam_id":76561198088624259,"connected_time":691000000000,"state":"active","ping":65},{"user_id":90,"name":"baby's first domination","steam_id":76561198325898181,"connected_time":11136000000000,"state":"active","ping":69},{"user_id":234,"name":"Syd","steam_id":76561198020515027,"connected_time":1438000000000,"state":"active","ping":97},{"user_id":245,"name":"Luuk","steam_id":76561198088266026,"connected_time":387000000000,"state":"active","ping":46},{"user_id":236,"name":"gfjhsdf","steam_id":76561198136736426,"connected_time":1164000000000,"state":"active","ping":54},{"user_id":219,"name":"DJThunderHeart","steam_id":76561198274197575,"connected_time":2816000000000,"state":"active","ping":132},{"user_id":230,"name":"generic alias","steam_id":76561198271607226,"connected_time":1829000000000,"state":"active","ping":100},{"user_id":211,"name":"radu","steam_id":76561198067346802,"connected_time":3284000000000,"state":"active","ping":55},{"user_id":246,"name":"OpticalBlack","steam_id":76561198038624807,"connected_time":272000000000,"state":"active","ping":105},{"user_id":238,"name":"emir","steam_id":76561198113089831,"connected_time":765000000000,"state":"active","ping":98},{"user_id":232,"name":"shmax","steam_id":76561198889012709,"connected_time":1734000000000,"state":"active","ping":88},{"user_id":204,"name":"Star Throne","steam_id":76561198132171027,"connected_time":3686000000000,"state":"active","ping":64},{"user_id":222,"name":"Zor","steam_id":76561198009851383,"connected_time":2463000000000,"state":"active","ping":72},{"user_id":243,"name":"Dot","steam_id":76561198047299145,"connected_time":639000000000,"state":"active","ping":77}]},{"server_id":23,"name":"Uncletopia | Frankfurt | 7 | Stopwatch","name_short":"frk-7","host":"frk-1.de.uncletopia.com","port":27075,"enabled":true,"region":"eu","cc":"de","latitude":50.110924,"longitude":8.682127,"reserved":0,"last_update":"0001-01-01T00:00:00Z","name_a2s":"Uncletopia | Frankfurt | 7 | Stopwatch","protocol":17,"map":"workshop/koth_clearcut_b15.ugc2107050255","folder":"tf","game":"Team Fortress","app_id":440,"player_count":0,"max_players":24,"Bots":0,"server_type":"Dedicated","server_os":"Linux","password":true,"vac":true,"version":"7961495","steam_id":85568392924742827,"keywords":["cp","nocrits","nodmgspread","uncletopia"],"game_id":440,"stv_port":27076,"stv_name":"Uncletopia | Frankfurt | 7 | Stopwatch | STV","players":null},{"server_id":24,"name":"Uncletopia | Frankfurt | 8 | Community","name_short":"frk-8","host":"frk-1.de.uncletopia.com","port":27085,"enabled":true,"region":"eu","cc":"de","latitude":50.110924,"longitude":8.682127,"reserved":0,"last_update":"0001-01-01T00:00:00Z","name_a2s":"Uncletopia | Frankfurt | 8 | Community","protocol":17,"map":"workshop/cp_croissant_final.ugc458840209","folder":"tf","game":"Team Fortress","app_id":440,"player_count":19,"max_players":24,"Bots":0,"server_type":"Dedicated","server_os":"Linux","password":true,"vac":true,"version":"7961495","steam_id":85568392924742828,"keywords":["cp","nocrits","nodmgspread","uncletopia"],"game_id":440,"stv_port":27086,"stv_name":"Uncletopia | Frankfurt | 8 | Community | STV","players":[{"user_id":345,"name":"Commander Pasta","steam_id":76561198045773077,"connected_time":1330000000000,"state":"active","ping":30},{"user_id":356,"name":"PyBOP","steam_id":76561198039583834,"connected_time":183000000000,"state":"active","ping":57},{"user_id":338,"name":"Skatnaset","steam_id":76561198298457353,"connected_time":2060000000000,"state":"active","ping":83},{"user_id":350,"name":"TylowStar","steam_id":76561198357107806,"connected_time":932000000000,"state":"active","ping":70},{"user_id":360,"name":"kiko","steam_id":76561199229985758,"connected_time":35000000000,"state":"active","ping":83},{"user_id":357,"name":"j√π xiƒì","steam_id":76561198096189399,"connected_time":143000000000,"state":"active","ping":53},{"user_id":340,"name":"BritishBeef","steam_id":76561197971054321,"connected_time":1964000000000,"state":"active","ping":61},{"user_id":358,"name":"MartinSpaghetti","steam_id":76561198950678126,"connected_time":134000000000,"state":"active","ping":70},{"user_id":331,"name":"Vonacht","steam_id":76561198016033944,"connected_time":2360000000000,"state":"active","ping":74},{"user_id":336,"name":"zazuza","steam_id":76561198049820905,"connected_time":2286000000000,"state":"active","ping":60},{"user_id":359,"name":"Von Leining","steam_id":76561198859983504,"connected_time":111000000000,"state":"active","ping":44},{"user_id":346,"name":"kloada","steam_id":76561198082113271,"connected_time":1284000000000,"state":"active","ping":67},{"user_id":313,"name":"Drinking Problem","steam_id":76561198319162953,"connected_time":3080000000000,"state":"active","ping":64},{"user_id":314,"name":"Smoking problem","steam_id":76561198361351449,"connected_time":3051000000000,"state":"active","ping":58},{"user_id":348,"name":"Loz405 (YouTube)","steam_id":76561198799315884,"connected_time":1167000000000,"state":"active","ping":62},{"user_id":341,"name":"awkward weirdo loser freak","steam_id":76561199042470246,"connected_time":1947000000000,"state":"active","ping":53},{"user_id":324,"name":"Matteo Il Biondo","steam_id":76561198315389475,"connected_time":2760000000000,"state":"active","ping":64},{"user_id":353,"name":"A Cat","steam_id":76561199015740181,"connected_time":737000000000,"state":"active","ping":73},{"user_id":344,"name":"Pan Pan","steam_id":76561199074670515,"connected_time":1743000000000,"state":"active","ping":79}]},{"server_id":202,"name":"Uncletopia | Hong Kong | 1 | All Maps","name_short":"hgk-1","host":"hgk-1.hk.uncletopia.com","port":27015,"enabled":true,"region":"asia","cc":"hk","latitude":22.302711,"longitude":114.177216,"reserved":0,"last_update":"0001-01-01T00:00:00Z","name_a2s":"Uncletopia | Hong Kong | 1 | All Maps","protocol":17,"map":"koth_cascade","folder":"tf","game":"Team Fortress","app_id":440,"player_count":0,"max_players":24,"Bots":0,"server_type":"Dedicated","server_os":"Linux","password":true,"vac":true,"version":"7961495","steam_id":85568392924494504,"keywords":["cp","nocrits","nodmgspread","uncletopia"],"game_id":440,"stv_port":27016,"stv_name":"Uncletopia | Hong Kong | 1 | All Maps | STV","players":null},{"server_id":1,"name":"Uncletopia | Los Angeles | 1 | All Maps","name_short":"lax-1","host":"lax-1.us.uncletopia.com","port":27015,"enabled":true,"region":"us-west","cc":"us","latitude":33.94279,"longitude":-118.41004,"reserved":0,"last_update":"0001-01-01T00:00:00Z","name_a2s":"Uncletopia | Los Angeles | 1 | All Maps","protocol":17,"map":"pl_swiftwater_final1","folder":"tf","game":"Team Fortress","app_id":440,"player_count":0,"max_players":24,"Bots":0,"server_type":"Dedicated","server_os":"Linux","password":true,"vac":true,"version":"7961495","steam_id":85568392924469991,"keywords":["nocrits","nodmgspread","payload","uncletopia"],"game_id":440,"stv_port":27016,"stv_name":"Uncletopia | Los Angeles | 1 | All Maps | STV","players":null},{"server_id":112,"name":"Uncletopia | Los Angeles | 2 | All Maps","name_short":"lax-2","host":"lax-1.us.uncletopia.com","port":27025,"enabled":true,"region":"us-west","cc":"us","latitude":33.94279,"longitude":-118.41004,"reserved":0,"last_update":"0001-01-01T00:00:00Z","name_a2s":"Uncletopia | Los Angeles | 2 | All Maps","protocol":17,"map":"koth_cascade","folder":"tf","game":"Team Fortress","app_id":440,"player_count":0,"max_players":24,"Bots":0,"server_type":"Dedicated","server_os":"Linux","password":true,"vac":true,"version":"7961495","steam_id":85568392924469992,"keywords":["cp","nocrits","nodmgspread","uncletopia"],"game_id":440,"stv_port":27026,"stv_name":"Uncletopia | Los Angeles | 2 | All Maps | STV","players":null},{"server_id":324,"name":"Uncletopia | Los Angeles | 3 | All Maps","name_short":"lax-3","host":"lax-1.us.uncletopia.com","port":27035,"enabled":true,"region":"us-west","cc":"us","latitude":33.94279,"longitude":-118.41004,"reserved":0,"last_update":"0001-01-01T00:00:00Z","name_a2s":"Uncletopia | Los Angeles | 3 | All Maps","protocol":17,"map":"pl_pier","folder":"tf","game":"Team Fortress","app_id":440,"player_count":0,"max_players":24,"Bots":0,"server_type":"Dedicated","server_os":"Linux","password":true,"vac":true,"version":"7961495","steam_id":85568392924510198,"keywords":["nocrits","nodmgspread","payload","uncletopia"],"game_id":440,"stv_port":27036,"stv_name":"Uncletopia | Los Angeles | 3 | All Maps | STV","players":null},{"server_id":25,"name":"Uncletopia | Los Angeles | 4 | Stopwatch","name_short":"lax-4","host":"lax-1.us.uncletopia.com","port":27045,"enabled":true,"region":"us-west","cc":"us","latitude":33.94279,"longitude":-118.41004,"reserved":0,"last_update":"0001-01-01T00:00:00Z","name_a2s":"Uncletopia | Los Angeles | 4 | Stopwatch","protocol":17,"map":"pl_barnblitz","folder":"tf","game":"Team Fortress","app_id":440,"player_count":0,"max_players":24,"Bots":0,"server_type":"Dedicated","server_os":"Linux","password":true,"vac":true,"version":"7961495","steam_id":85568392924510199,"keywords":["nocrits","nodmgspread","payload","uncletopia"],"game_id":440,"stv_port":27046,"stv_name":"Uncletopia | Los Angeles | 4 | Stopwatch | STV","players":null},{"server_id":11,"name":"Uncletopia | London | 1 | All Maps","name_short":"lon-1","host":"lon-1.uk.uncletopia.com","port":27015,"enabled":true,"region":"eu","cc":"gb","latitude":51.509865,"longitude":-0.118092,"reserved":0,"last_update":"0001-01-01T00:00:00Z","name_a2s":"Uncletopia | London | 1 | All Maps","protocol":17,"map":"pl_barnblitz","folder":"tf","game":"Team Fortress","app_id":440,"player_count":24,"max_players":24,"Bots":0,"server_type":"Dedicated","server_os":"Linux","password":true,"vac":true,"version":"7961495","steam_id":85568392924367362,"keywords":["nocrits","nodmgspread","payload","uncletopia"],"game_id":440,"stv_port":27016,"stv_name":"Uncletopia | London | 1 | All Maps | STV","players":[{"user_id":485,"name":"Sza","steam_id":76561198022132105,"connected_time":928000000000,"state":"active","ping":66},{"user_id":469,"name":"Slifer the BIG SHOT","steam_id":76561198062255803,"connected_time":2240000000000,"state":"active","ping":71},{"user_id":490,"name":"Aaron","steam_id":76561197990046953,"connected_time":412000000000,"state":"active","ping":59},{"user_id":465,"name":"shooer!","steam_id":76561198110531281,"connected_time":2792000000000,"state":"active","ping":71},{"user_id":468,"name":"Skinny101","steam_id":76561197985599360,"connected_time":2512000000000,"state":"active","ping":56},{"user_id":487,"name":"Kahvi","steam_id":76561198723244199,"connected_time":668000000000,"state":"active","ping":74},{"user_id":483,"name":"shoras","steam_id":76561198019680159,"connected_time":1170000000000,"state":"active","ping":79},{"user_id":486,"name":"Cookies","steam_id":76561198255106757,"connected_time":838000000000,"state":"active","ping":78},{"user_id":480,"name":"Scarlet","steam_id":76561198075966579,"connected_time":1414000000000,"state":"active","ping":40},{"user_id":491,"name":"‚ú™ Danny","steam_id":76561198104483241,"connected_time":400000000000,"state":"active","ping":51},{"user_id":451,"name":"Sir Cauterize","steam_id":76561198047079422,"connected_time":4188000000000,"state":"active","ping":54},{"user_id":492,"name":"_Context_","steam_id":76561199163359312,"connected_time":374000000000,"state":"active","ping":65},{"user_id":435,"name":"UltimateSlayer","steam_id":76561198384109309,"connected_time":5199000000000,"state":"active","ping":56},{"user_id":441,"name":"jcb.f.smith","steam_id":76561199491964000,"connected_time":4996000000000,"state":"active","ping":55},{"user_id":493,"name":"zayd","steam_id":76561198895235231,"connected_time":367000000000,"state":"active","ping":46},{"user_id":474,"name":"Cpt_frost","steam_id":76561198218034817,"connected_time":2214000000000,"state":"active","ping":45},{"user_id":475,"name":"sushii","steam_id":76561198297987372,"connected_time":2211000000000,"state":"active","ping":53},{"user_id":467,"name":"flappi","steam_id":76561198072892783,"connected_time":2785000000000,"state":"active","ping":71},{"user_id":462,"name":"breakfast burrito","steam_id":76561198148606969,"connected_time":3799000000000,"state":"active","ping":84},{"user_id":484,"name":"ROX","steam_id":76561198272289320,"connected_time":1112000000000,"state":"active","ping":66},{"user_id":489,"name":"ÎùºÌûò","steam_id":76561198164648942,"connected_time":546000000000,"state":"active","ping":165},{"user_id":477,"name":"I Love Filtered Water","steam_id":76561198016042113,"connected_time":1902000000000,"state":"active","ping":85},{"user_id":482,"name":"AWildTamim","steam_id":76561198048060652,"connected_time":1256000000000,"state":"active","ping":43},{"user_id":438,"name":"Will","steam_id":76561198173329977,"connected_time":5188000000000,"state":"active","ping":56}]},{"server_id":114,"name":"Uncletopia | London | 2 | All Maps","name_short":"lon-2","host":"lon-1.uk.uncletopia.com","port":27025,"enabled":true,"region":"eu","cc":"gb","latitude":51.509865,"longitude":-0.118092,"reserved":0,"last_update":"0001-01-01T00:00:00Z","name_a2s":"Uncletopia | London | 2 | All Maps","protocol":17,"map":"pl_pier","folder":"tf","game":"Team Fortress","app_id":440,"player_count":24,"max_players":24,"Bots":0,"server_type":"Dedicated","server_os":"Linux","password":true,"vac":true,"version":"7961495","steam_id":85568392924470941,"keywords":["nocrits","nodmgspread","payload","uncletopia"],"game_id":440,"stv_port":27026,"stv_name":"Uncletopia | London | 2 | All Maps | STV","players":[{"user_id":393,"name":"uncured schizophrenia","steam_id":76561198373565279,"connected_time":779000000000,"state":"active","ping":50},{"user_id":413,"name":"Le Chevalier Pingouin","steam_id":76561198221355000,"connected_time":276000000000,"state":"active","ping":39},{"user_id":383,"name":"Zero Sleep Gaming","steam_id":76561198982674420,"connected_time":1754000000000,"state":"active","ping":40},{"user_id":391,"name":"cactus varo","steam_id":76561198968770670,"connected_time":1093000000000,"state":"active","ping":125},{"user_id":388,"name":"Sheen (Khang)","steam_id":76561198371062974,"connected_time":1377000000000,"state":"active","ping":98},{"user_id":392,"name":"Temperance","steam_id":76561198446955878,"connected_time":918000000000,"state":"active","ping":59},{"user_id":394,"name":"John Wick","steam_id":76561198411787465,"connected_time":767000000000,"state":"active","ping":45},{"user_id":395,"name":"Dr. Funkenstein","steam_id":76561197977816210,"connected_time":740000000000,"state":"active","ping":49},{"user_id":401,"name":"MentallyUnstable","steam_id":76561198288435616,"connected_time":585000000000,"state":"active","ping":61},{"user_id":414,"name":"I I","steam_id":76561199101935057,"connected_time":246000000000,"state":"active","ping":107},{"user_id":398,"name":"shaunrq","steam_id":76561199136585297,"connected_time":647000000000,"state":"active","ping":60},{"user_id":399,"name":"MiLLje9ia‚ò≠","steam_id":76561198353537034,"connected_time":638000000000,"state":"active","ping":48},{"user_id":400,"name":"whatsapp man","steam_id":76561198802028634,"connected_time":636000000000,"state":"active","ping":54},{"user_id":403,"name":"yuno appreciator","steam_id":76561198083286511,"connected_time":536000000000,"state":"active","ping":43},{"user_id":404,"name":"Dondesupatch","steam_id":76561198041769921,"connected_time":501000000000,"state":"active","ping":55},{"user_id":405,"name":"zek","steam_id":76561198862763731,"connected_time":493000000000,"state":"active","ping":61},{"user_id":412,"name":"Detonator20bomb","steam_id":76561199121742336,"connected_time":363000000000,"state":"active","ping":57},{"user_id":407,"name":"The Bread Bringer","steam_id":76561198264079743,"connected_time":472000000000,"state":"active","ping":51},{"user_id":409,"name":"dotdotdot","steam_id":76561198057628751,"connected_time":457000000000,"state":"active","ping":63},{"user_id":415,"name":"Klaus","steam_id":76561198150394201,"connected_time":199000000000,"state":"active","ping":85},{"user_id":416,"name":"Urfangonultasadana","steam_id":76561199389286151,"connected_time":195000000000,"state":"active","ping":100},{"user_id":419,"name":"Tickleshits","steam_id":76561198159197241,"connected_time":158000000000,"state":"active","ping":53},{"user_id":418,"name":"flamingosaurus","steam_id":76561198051455397,"connected_time":187000000000,"state":"active","ping":44},{"user_id":420,"name":"Barbo","steam_id":76561198149438431,"connected_time":135000000000,"state":"active","ping":62}]},{"server_id":320,"name":"Uncletopia | London | 3 | All Maps","name_short":"lon-3","host":"lon-1.uk.uncletopia.com","port":27035,"enabled":true,"region":"eu","cc":"gb","latitude":51.509865,"longitude":-0.118092,"reserved":0,"last_update":"0001-01-01T00:00:00Z","name_a2s":"Uncletopia | London | 3 | All Maps","protocol":17,"map":"cp_sunshine","folder":"tf","game":"Team Fortress","app_id":440,"player_count":24,"max_players":24,"Bots":0,"server_type":"Dedicated","server_os":"Linux","password":true,"vac":true,"version":"7961495","steam_id":85568392924510192,"keywords":["cp","nocrits","nodmgspread","uncletopia"],"game_id":440,"stv_port":27036,"stv_name":"Uncletopia | London | 3 | All Maps | STV","players":[{"user_id":610,"name":"mere","steam_id":76561199136308055,"connected_time":5175000000000,"state":"active","ping":53},{"user_id":646,"name":"Nithle","steam_id":76561198025372740,"connected_time":2830000000000,"state":"active","ping":31},{"user_id":644,"name":"Yassine","steam_id":76561198140565712,"connected_time":3085000000000,"state":"active","ping":47},{"user_id":662,"name":"quickfast","steam_id":76561199438900919,"connected_time":1431000000000,"state":"active","ping":42},{"user_id":609,"name":"Gentlemann Co.","steam_id":76561197997142921,"connected_time":5243000000000,"state":"active","ping":53},{"user_id":640,"name":"Bobo","steam_id":76561198052308399,"connected_time":3565000000000,"state":"active","ping":66},{"user_id":574,"name":"Fuvuk","steam_id":76561198044458593,"connected_time":7257000000000,"state":"active","ping":90},{"user_id":643,"name":"Macci - Obismal","steam_id":76561198050485404,"connected_time":3175000000000,"state":"active","ping":83},{"user_id":650,"name":"stickurr","steam_id":76561198089536805,"connected_time":2338000000000,"state":"active","ping":54},{"user_id":656,"name":"Jewix","steam_id":76561198063457899,"connected_time":1697000000000,"state":"active","ping":75},{"user_id":652,"name":"eMcP","steam_id":76561198382509396,"connected_time":2119000000000,"state":"active","ping":56},{"user_id":658,"name":"ExtraFlames","steam_id":76561199136146246,"connected_time":1673000000000,"state":"active","ping":133},{"user_id":666,"name":"JohnTraveltime","steam_id":76561199244281754,"connected_time":855000000000,"state":"active","ping":79},{"user_id":664,"name":"soup","steam_id":76561198386933065,"connected_time":1075000000000,"state":"active","ping":71},{"user_id":668,"name":"CAL","steam_id":76561199217717138,"connected_time":545000000000,"state":"active","ping":67},{"user_id":647,"name":"Mister","steam_id":76561199049647854,"connected_time":2654000000000,"state":"active","ping":47},{"user_id":637,"name":"Caruzon - Obismal","steam_id":76561198036211170,"connected_time":3691000000000,"state":"active","ping":88},{"user_id":667,"name":"Vastol","steam_id":76561198294073078,"connected_time":595000000000,"state":"active","ping":90},{"user_id":655,"name":"Hyperion","steam_id":76561198043716162,"connected_time":1703000000000,"state":"active","ping":68},{"user_id":633,"name":"Level 1 Noob","steam_id":76561198088586340,"connected_time":4318000000000,"state":"active","ping":56},{"user_id":638,"name":"R8N - Obismal","steam_id":76561198007482714,"connected_time":3689000000000,"state":"active","ping":76},{"user_id":660,"name":"spy's arent real","steam_id":76561198165871469,"connected_time":1634000000000,"state":"active","ping":74},{"user_id":661,"name":"pep","steam_id":76561198207543607,"connected_time":1613000000000,"state":"active","ping":77},{"user_id":613,"name":"KAMIL","steam_id":76561198014578785,"connected_time":5007000000000,"state":"active","ping":55}]},{"server_id":321,"name":"Uncletopia | London | 4 | All Maps","name_short":"lon-4","host":"lon-1.uk.uncletopia.com","port":27045,"enabled":true,"region":"eu","cc":"gb","latitude":51.509865,"longitude":-0.118092,"reserved":0,"last_update":"0001-01-01T00:00:00Z","name_a2s":"Uncletopia | London | 4 | All Maps","protocol":17,"map":"pl_upward","folder":"tf","game":"Team Fortress","app_id":440,"player_count":24,"max_players":24,"Bots":0,"server_type":"Dedicated","server_os":"Linux","password":true,"vac":true,"version":"7961495","steam_id":85568392924510193,"keywords":["nocrits","nodmgspread","payload","uncletopia"],"game_id":440,"stv_port":27046,"stv_name":"Uncletopia | London | 4 | All Maps | STV","players":[{"user_id":255,"name":"David \"Crash\" Murphy","steam_id":76561198292845505,"connected_time":1827000000000,"state":"active","ping":95},{"user_id":200,"name":"jj","steam_id":76561198079200985,"connected_time":5056000000000,"state":"active","ping":53},{"user_id":270,"name":"Moohsem","steam_id":76561198172198154,"connected_time":466000000000,"state":"active","ping":115},{"user_id":243,"name":"Swiss_Nostalgia","steam_id":76561199159896259,"connected_time":2289000000000,"state":"active","ping":65},{"user_id":271,"name":"MrRoAndrei","steam_id":76561198205282000,"connected_time":464000000000,"state":"active","ping":64},{"user_id":227,"name":"MatarArg","steam_id":76561198280246498,"connected_time":2651000000000,"state":"active","ping":109},{"user_id":272,"name":"Blurred BOY","steam_id":76561198008011046,"connected_time":452000000000,"state":"active","ping":54},{"user_id":269,"name":"Grey","steam_id":76561198187190267,"connected_time":530000000000,"state":"active","ping":45},{"user_id":273,"name":"Giga–°had Pyro","steam_id":76561198140742485,"connected_time":451000000000,"state":"active","ping":103},{"user_id":265,"name":"biohazard.pt","steam_id":76561198088367808,"connected_time":1005000000000,"state":"active","ping":85},{"user_id":268,"name":"Versunix","steam_id":76561197978073496,"connected_time":714000000000,"state":"active","ping":54},{"user_id":258,"name":"Marcus","steam_id":76561198205027963,"connected_time":1380000000000,"state":"active","ping":62},{"user_id":266,"name":"Spanns","steam_id":76561197998349793,"connected_time":874000000000,"state":"active","ping":75},{"user_id":236,"name":"Tort","steam_id":76561198329646769,"connected_time":2479000000000,"state":"active","ping":59},{"user_id":276,"name":"ran is running","steam_id":76561199443185667,"connected_time":421000000000,"state":"active","ping":167},{"user_id":262,"name":"Toa LightMakuta","steam_id":76561198212178104,"connected_time":1234000000000,"state":"active","ping":99},{"user_id":224,"name":"UltimateAura","steam_id":76561198338361324,"connected_time":2819000000000,"state":"active","ping":45},{"user_id":257,"name":"kaelan","steam_id":76561198001425310,"connected_time":1690000000000,"state":"active","ping":74},{"user_id":216,"name":"skilltissues","steam_id":76561198025828664,"connected_time":3826000000000,"state":"active","ping":53},{"user_id":274,"name":"Doritoshredder","steam_id":76561198826710752,"connected_time":434000000000,"state":"active","ping":107},{"user_id":275,"name":"Dan Dan the Furious","steam_id":76561198091032527,"connected_time":433000000000,"state":"active","ping":49},{"user_id":215,"name":"[Sheep] Tomco","steam_id":76561198388549261,"connected_time":3864000000000,"state":"active","ping":60},{"user_id":177,"name":"A Very Disappointing Salad","steam_id":76561198020277939,"connected_time":6190000000000,"state":"active","ping":53},{"user_id":252,"name":"Erchius","steam_id":76561198256892300,"connected_time":1881000000000,"state":"active","ping":141}]},{"server_id":21,"name":"Uncletopia | London | 5 | All Maps","name_short":"lon-5","host":"lon-1.uk.uncletopia.com","port":27055,"enabled":true,"region":"eu","cc":"gb","latitude":51.509865,"longitude":-0.118092,"reserved":0,"last_update":"0001-01-01T00:00:00Z","name_a2s":"Uncletopia | London | 5 | All Maps","protocol":17,"map":"koth_lakeside_final","folder":"tf","game":"Team Fortress","app_id":440,"player_count":0,"max_players":24,"Bots":0,"server_type":"Dedicated","server_os":"Linux","password":true,"vac":true,"version":"7961495","steam_id":85568392924742829,"keywords":["cp","nocrits","nodmgspread","uncletopia"],"game_id":440,"stv_port":27056,"stv_name":"Uncletopia | London | 5 | All Maps | STV","players":null},{"server_id":22,"name":"Uncletopia | London | 6 | All Maps","name_short":"lon-6","host":"lon-1.uk.uncletopia.com","port":27065,"enabled":true,"region":"eu","cc":"gb","latitude":51.509865,"longitude":-0.118092,"reserved":0,"last_update":"0001-01-01T00:00:00Z","name_a2s":"Uncletopia | London | 6 | All Maps","protocol":17,"map":"pl_upward","folder":"tf","game":"Team Fortress","app_id":440,"player_count":25,"max_players":24,"Bots":0,"server_type":"Dedicated","server_os":"Linux","password":true,"vac":true,"version":"7961495","steam_id":85568392924742830,"keywords":["nocrits","nodmgspread","payload","uncletopia"],"game_id":440,"stv_port":27066,"stv_name":"Uncletopia | London | 6 | All Maps | STV","players":[{"user_id":668,"name":"H341","steam_id":76561198046754534,"connected_time":2310000000000,"state":"active","ping":88},{"user_id":672,"name":"padillacampos","steam_id":76561198161923970,"connected_time":2267000000000,"state":"active","ping":87},{"user_id":706,"name":"i ‚ù§ dragos","steam_id":76561199089599602,"connected_time":382000000000,"state":"active","ping":93},{"user_id":707,"name":"jovi_","steam_id":76561198449280552,"connected_time":360000000000,"state":"active","ping":55},{"user_id":704,"name":"ratbastardgaming","steam_id":76561198444254926,"connected_time":441000000000,"state":"active","ping":52},{"user_id":708,"name":"Kaziocalvice","steam_id":76561198146425583,"connected_time":352000000000,"state":"active","ping":73},{"user_id":716,"name":"wtabs","steam_id":76561198831766743,"connected_time":51000000000,"state":"active","ping":77},{"user_id":702,"name":"Apollo","steam_id":76561198866054007,"connected_time":769000000000,"state":"active","ping":84},{"user_id":709,"name":"GRASSY","steam_id":76561198277180883,"connected_time":351000000000,"state":"active","ping":93},{"user_id":710,"name":"tua","steam_id":76561198034955422,"connected_time":328000000000,"state":"active","ping":49},{"user_id":705,"name":"The Lady","steam_id":76561198029895809,"connected_time":436000000000,"state":"active","ping":89},{"user_id":701,"name":"MANOLO PRIME","steam_id":76561198149152939,"connected_time":914000000000,"state":"active","ping":71},{"user_id":711,"name":"heavy sings (real)","steam_id":76561199023804405,"connected_time":320000000000,"state":"active","ping":80},{"user_id":639,"name":"Egor Pomidor","steam_id":76561199175688390,"connected_time":4846000000000,"state":"active","ping":90},{"user_id":698,"name":"Morkus","steam_id":76561199134560302,"connected_time":1197000000000,"state":"active","ping":83},{"user_id":686,"name":"CLAPPER","steam_id":76561199061808252,"connected_time":1940000000000,"state":"active","ping":59},{"user_id":712,"name":"IndigoJones","steam_id":76561198050284262,"connected_time":318000000000,"state":"active","ping":49},{"user_id":680,"name":"YouR dad","steam_id":76561198044013623,"connected_time":2122000000000,"state":"active","ping":144},{"user_id":655,"name":"Fat Pigeon","steam_id":76561198817940142,"connected_time":4157000000000,"state":"active","ping":47},{"user_id":713,"name":"Collie","steam_id":76561198149072785,"connected_time":313000000000,"state":"active","ping":142},{"user_id":685,"name":"Gnomes","steam_id":76561198093510773,"connected_time":1979000000000,"state":"active","ping":53},{"user_id":664,"name":"Elsuedi","steam_id":76561198074722832,"connected_time":2373000000000,"state":"active","ping":61},{"user_id":703,"name":"BAIIIIMAHN","steam_id":76561198093418370,"connected_time":558000000000,"state":"active","ping":83},{"user_id":714,"name":"I I","steam_id":76561199101935057,"connected_time":260000000000,"state":"connecting","ping":0},{"user_id":715,"name":"obi","steam_id":76561198040154461,"connected_time":221000000000,"state":"active","ping":72}]},{"server_id":40,"name":"Uncletopia | London | 7 | Stopwatch","name_short":"lon-7","host":"lon-1.uk.uncletopia.com","port":27075,"enabled":true,"region":"eu","cc":"gb","latitude":51.509865,"longitude":-0.118092,"reserved":0,"last_update":"0001-01-01T00:00:00Z","name_a2s":"Uncletopia | London | 7 | Stopwatch","protocol":17,"map":"pl_upward","folder":"tf","game":"Team Fortress","app_id":440,"player_count":0,"max_players":24,"Bots":0,"server_type":"Dedicated","server_os":"Linux","password":true,"vac":true,"version":"7961495","steam_id":85568392924964314,"keywords":["nocrits","nodmgspread","payload","uncletopia"],"game_id":440,"stv_port":27076,"stv_name":"Uncletopia | London | 7 | Stopwatch | STV","players":null},{"server_id":41,"name":"Uncletopia | London | 8 | Community","name_short":"lon-8","host":"lon-1.uk.uncletopia.com","port":27085,"enabled":true,"region":"eu","cc":"gb","latitude":51.509865,"longitude":-0.118092,"reserved":0,"last_update":"0001-01-01T00:00:00Z","name_a2s":"Uncletopia | London | 8 | Community","protocol":17,"map":"workshop/koth_bagel_rc6.ugc2514036946","folder":"tf","game":"Team Fortress","app_id":440,"player_count":0,"max_players":24,"Bots":0,"server_type":"Dedicated","server_os":"Linux","password":true,"vac":true,"version":"7961495","steam_id":85568392924964315,"keywords":["cp","nocrits","nodmgspread","uncletopia"],"game_id":440,"stv_port":27086,"stv_name":"Uncletopia | London | 8 | Community | STV","players":null},{"server_id":300,"name":"Uncletopia | Montr√©al | 1 | One Thousand Uncles","name_short":"mtl-1","host":"mtl-1.ca.uncletopia.com","port":27015,"enabled":true,"region":"us-east","cc":"ca","latitude":45.50889,"longitude":-73.56167,"reserved":0,"last_update":"0001-01-01T00:00:00Z","name_a2s":"","protocol":0,"map":"","folder":"","game":"","app_id":0,"player_count":1,"max_players":0,"Bots":0,"server_type":"","server_os":"","password":false,"vac":false,"version":"","steam_id":0,"keywords":null,"game_id":0,"stv_port":0,"stv_name":"","players":[{"user_id":139,"name":"Jeb_error","steam_id":76561199260090417,"connected_time":1079000000000,"state":"active","ping":73}]},{"server_id":301,"name":"Uncletopia | Montr√©al | 2 | One Thousand Uncles","name_short":"mtl-2","host":"mtl-1.ca.uncletopia.com","port":27025,"enabled":true,"region":"us-east","cc":"ca","latitude":45.50889,"longitude":-73.56167,"reserved":0,"last_update":"0001-01-01T00:00:00Z","name_a2s":"","protocol":0,"map":"","folder":"","game":"","app_id":0,"player_count":0,"max_players":0,"Bots":0,"server_type":"","server_os":"","password":false,"vac":false,"version":"","steam_id":0,"keywords":null,"game_id":0,"stv_port":0,"stv_name":"","players":null},{"server_id":302,"name":"Uncletopia | Montr√©al | 3 | One Thousand Uncles","name_short":"mtl-3","host":"mtl-1.ca.uncletopia.com","port":27035,"enabled":true,"region":"us-east","cc":"ca","latitude":45.50889,"longitude":-73.56167,"reserved":0,"last_update":"0001-01-01T00:00:00Z","name_a2s":"","protocol":0,"map":"","folder":"","game":"","app_id":0,"player_count":0,"max_players":0,"Bots":0,"server_type":"","server_os":"","password":false,"vac":false,"version":"","steam_id":0,"keywords":null,"game_id":0,"stv_port":0,"stv_name":"","players":null},{"server_id":13,"name":"Uncletopia | New York City | 1 | All Maps","name_short":"nyc-1","host":"nyc-1.us.uncletopia.com","port":27015,"enabled":true,"region":"us-east","cc":"us","latitude":40.73061,"longitude":-73.93524,"reserved":0,"last_update":"0001-01-01T00:00:00Z","name_a2s":"Uncletopia | New York City | 1 | All Maps","protocol":17,"map":"pl_barnblitz","folder":"tf","game":"Team Fortress","app_id":440,"player_count":24,"max_players":24,"Bots":0,"server_type":"Dedicated","server_os":"Linux","password":true,"vac":true,"version":"7961495","steam_id":85568392924469993,"keywords":["nocrits","nodmgspread","payload","uncletopia"],"game_id":440,"stv_port":27016,"stv_name":"Uncletopia | New York City | 1 | All Maps | STV","players":[{"user_id":86,"name":"Spoon ¬Ω","steam_id":76561198032696548,"connected_time":3647000000000,"state":"active","ping":142},{"user_id":117,"name":"FAKE TAXI PRANKS","steam_id":76561198136746987,"connected_time":962000000000,"state":"active","ping":74},{"user_id":95,"name":"markus","steam_id":76561199499906561,"connected_time":3119000000000,"state":"active","ping":33},{"user_id":127,"name":"I'm Sleepy","steam_id":76561198879929343,"connected_time":182000000000,"state":"active","ping":60},{"user_id":123,"name":"CHIPS","steam_id":76561199085414584,"connected_time":423000000000,"state":"active","ping":59},{"user_id":103,"name":"saurhead","steam_id":76561198132937722,"connected_time":1728000000000,"state":"active","ping":45},{"user_id":75,"name":"taigaxx","steam_id":76561198202669250,"connected_time":4389000000000,"state":"active","ping":73},{"user_id":113,"name":"Marzz","steam_id":76561198059034982,"connected_time":1321000000000,"state":"active","ping":55},{"user_id":105,"name":"NYC APPA YIP YIP","steam_id":76561198112929942,"connected_time":1720000000000,"state":"active","ping":55},{"user_id":104,"name":"cyberas","steam_id":76561198257092290,"connected_time":1727000000000,"state":"active","ping":65},{"user_id":108,"name":"EmeraldMoth","steam_id":76561198153816586,"connected_time":1640000000000,"state":"active","ping":98},{"user_id":92,"name":"Ziath","steam_id":76561198094009164,"connected_time":3494000000000,"state":"active","ping":45},{"user_id":106,"name":"Jonny4Balls","steam_id":76561198979333994,"connected_time":1720000000000,"state":"active","ping":71},{"user_id":109,"name":"bajookieland patriot","steam_id":76561198994524569,"connected_time":1618000000000,"state":"active","ping":67},{"user_id":114,"name":"Forced2Wipe","steam_id":76561198170390298,"connected_time":1305000000000,"state":"active","ping":96},{"user_id":82,"name":"Child Obesity","steam_id":76561198099263425,"connected_time":3710000000000,"state":"active","ping":49},{"user_id":125,"name":"Kalief!","steam_id":76561199453123772,"connected_time":373000000000,"state":"active","ping":68},{"user_id":85,"name":"REZ","steam_id":76561198071088274,"connected_time":3655000000000,"state":"active","ping":154},{"user_id":115,"name":"CreeperCatBengal","steam_id":76561198213193221,"connected_time":1291000000000,"state":"active","ping":71},{"user_id":98,"name":"The Cavalry Is Almost Here","steam_id":76561198044856349,"connected_time":2445000000000,"state":"active","ping":62},{"user_id":124,"name":"Assitins","steam_id":76561198041572892,"connected_time":421000000000,"state":"active","ping":60},{"user_id":111,"name":"4Lukaska","steam_id":76561198083515060,"connected_time":1401000000000,"state":"active","ping":40},{"user_id":122,"name":"patdine","steam_id":76561198060865671,"connected_time":478000000000,"state":"active","ping":69},{"user_id":116,"name":"KZ","steam_id":76561198306669868,"connected_time":1234000000000,"state":"active","ping":43}]},{"server_id":14,"name":"Uncletopia | New York City | 2 | All Maps","name_short":"nyc-2","host":"nyc-1.us.uncletopia.com","port":27025,"enabled":true,"region":"us-east","cc":"us","latitude":40.73061,"longitude":-73.93524,"reserved":0,"last_update":"0001-01-01T00:00:00Z","name_a2s":"Uncletopia | New York City | 2 | All Maps","protocol":17,"map":"cp_sunshine","folder":"tf","game":"Team Fortress","app_id":440,"player_count":24,"max_players":24,"Bots":0,"server_type":"Dedicated","server_os":"Linux","password":true,"vac":true,"version":"7961495","steam_id":85568392924469994,"keywords":["cp","nocrits","nodmgspread","uncletopia"],"game_id":440,"stv_port":27026,"stv_name":"Uncletopia | New York City | 2 | All Maps | STV","players":[{"user_id":15,"name":"Typh","steam_id":76561198315344079,"connected_time":1984000000000,"state":"active","ping":68},{"user_id":16,"name":"TheSmolPopato","steam_id":76561199076606348,"connected_time":1718000000000,"state":"active","ping":76},{"user_id":44,"name":"qool guy","steam_id":76561198064758306,"connected_time":12000000000,"state":"spawning","ping":59},{"user_id":19,"name":"the pest","steam_id":76561198826298849,"connected_time":1308000000000,"state":"active","ping":100},{"user_id":20,"name":"Fish","steam_id":76561199258053772,"connected_time":1174000000000,"state":"active","ping":71},{"user_id":24,"name":"Cyberpunk McDonald's Play Place","steam_id":76561198063512035,"connected_time":852000000000,"state":"active","ping":59},{"user_id":22,"name":"LeadLepisma","steam_id":76561198386057151,"connected_time":1096000000000,"state":"active","ping":96},{"user_id":23,"name":"Gaminglast","steam_id":76561198362927765,"connected_time":1079000000000,"state":"active","ping":128},{"user_id":25,"name":"GameboyAdvancedSPMobileHotspot","steam_id":76561198413739460,"connected_time":833000000000,"state":"active","ping":92},{"user_id":26,"name":"Matthew 10:39","steam_id":76561198121933439,"connected_time":692000000000,"state":"active","ping":60},{"user_id":27,"name":"Orange Triangle","steam_id":76561198320498182,"connected_time":517000000000,"state":"active","ping":74},{"user_id":28,"name":"Nugget Puncher","steam_id":76561198084555382,"connected_time":509000000000,"state":"active","ping":91},{"user_id":29,"name":"your very own pocket medic","steam_id":76561199489320369,"connected_time":497000000000,"state":"active","ping":65},{"user_id":30,"name":"Bernadetta is best girl","steam_id":76561198817338038,"connected_time":437000000000,"state":"active","ping":54},{"user_id":31,"name":"$limek‚úîngEM0.an1me.B0Y_33309","steam_id":76561198283687382,"connected_time":422000000000,"state":"active","ping":83},{"user_id":32,"name":"Pluto","steam_id":76561198338593690,"connected_time":409000000000,"state":"active","ping":77},{"user_id":33,"name":"Sickduck Mcgee","steam_id":76561198028577159,"connected_time":403000000000,"state":"active","ping":63},{"user_id":34,"name":"KarrieKara","steam_id":76561198410723101,"connected_time":387000000000,"state":"active","ping":119},{"user_id":35,"name":"kino","steam_id":76561198270926835,"connected_time":374000000000,"state":"active","ping":99},{"user_id":41,"name":"sirsmit1","steam_id":76561199129778001,"connected_time":195000000000,"state":"active","ping":66},{"user_id":38,"name":"malcute","steam_id":76561198046055673,"connected_time":249000000000,"state":"active","ping":60},{"user_id":39,"name":"CowardicePrevails","steam_id":76561198145199545,"connected_time":244000000000,"state":"active","ping":73},{"user_id":42,"name":"ThatGamingKiwi","steam_id":76561199170522237,"connected_time":194000000000,"state":"active","ping":76},{"user_id":43,"name":"Rodriguez1219","steam_id":76561198797915802,"connected_time":162000000000,"state":"active","ping":55}]},{"server_id":15,"name":"Uncletopia | New York City | 3 | Stopwatch","name_short":"nyc-3","host":"nyc-1.us.uncletopia.com","port":27035,"enabled":true,"region":"us-east","cc":"us","latitude":40.73061,"longitude":-73.93524,"reserved":0,"last_update":"0001-01-01T00:00:00Z","name_a2s":"Uncletopia | New York City | 3 | Stopwatch","protocol":17,"map":"koth_lakeside_final","folder":"tf","game":"Team Fortress","app_id":440,"player_count":0,"max_players":24,"Bots":0,"server_type":"Dedicated","server_os":"Linux","password":true,"vac":true,"version":"7961495","steam_id":85568392924742820,"keywords":["cp","nocrits","nodmgspread","uncletopia"],"game_id":440,"stv_port":27036,"stv_name":"Uncletopia | New York City | 3 | Stopwatch | STV","players":null},{"server_id":16,"name":"Uncletopia | New York City | 4 | Community","name_short":"nyc-4","host":"nyc-1.us.uncletopia.com","port":27045,"enabled":true,"region":"us-east","cc":"us","latitude":40.73061,"longitude":-73.93524,"reserved":0,"last_update":"0001-01-01T00:00:00Z","name_a2s":"Uncletopia | New York City | 4 | Community","protocol":17,"map":"workshop/koth_trenchfoot_b1a.ugc731436616","folder":"tf","game":"Team Fortress","app_id":440,"player_count":0,"max_players":24,"Bots":0,"server_type":"Dedicated","server_os":"Linux","password":true,"vac":true,"version":"7961495","steam_id":85568392924742821,"keywords":["cp","nocrits","nodmgspread","uncletopia"],"game_id":440,"stv_port":27046,"stv_name":"Uncletopia | New York City | 4 | Community | STV","players":null},{"server_id":142,"name":"Uncletopia | S√£o Paulo | 1 | All Maps","name_short":"sao-1","host":"sao-1.br.uncletopia.com","port":27015,"enabled":true,"region":"sa","cc":"br","latitude":-23.533773,"longitude":-46.62529,"reserved":0,"last_update":"0001-01-01T00:00:00Z","name_a2s":"Uncletopia | S√£o Paulo | 1 | All Maps","protocol":17,"map":"koth_viaduct","folder":"tf","game":"Team Fortress","app_id":440,"player_count":0,"max_players":24,"Bots":0,"server_type":"Dedicated","server_os":"Linux","password":true,"vac":true,"version":"7961495","steam_id":85568392924469996,"keywords":["cp","nocrits","nodmgspread","uncletopia"],"game_id":440,"stv_port":27016,"stv_name":"Uncletopia | S√£o Paulo | 1 | All Maps | STV","players":null},{"server_id":143,"name":"Uncletopia | S√£o Paulo | 2 | Community","name_short":"sao-2","host":"sao-2.br.uncletopia.com","port":27015,"enabled":true,"region":"sa","cc":"br","latitude":-23.533773,"longitude":-46.62529,"reserved":0,"last_update":"0001-01-01T00:00:00Z","name_a2s":"Uncletopia | S√£o Paulo | 2 | Community","protocol":17,"map":"pl_badwater","folder":"tf","game":"Team Fortress","app_id":440,"player_count":0,"max_players":24,"Bots":0,"server_type":"Dedicated","server_os":"Linux","password":true,"vac":true,"version":"7961495","steam_id":85568392924485349,"keywords":["nocrits","nodmgspread","payload","uncletopia"],"game_id":440,"stv_port":27016,"stv_name":"Uncletopia | S√£o Paulo | 2 | Community | STV","players":null},{"server_id":7,"name":"Uncletopia | Seattle | 1 | All Maps","name_short":"sea-1","host":"sea-1.us.uncletopia.com","port":27015,"enabled":true,"region":"us-west","cc":"us","latitude":47.608013,"longitude":-122.33517,"reserved":0,"last_update":"0001-01-01T00:00:00Z","name_a2s":"Uncletopia | Seattle | 1 | All Maps","protocol":17,"map":"pl_hoodoo_final","folder":"tf","game":"Team Fortress","app_id":440,"player_count":20,"max_players":24,"Bots":0,"server_type":"Dedicated","server_os":"Linux","password":true,"vac":true,"version":"7961495","steam_id":85568392924469997,"keywords":["nocrits","nodmgspread","payload","uncletopia"],"game_id":440,"stv_port":27016,"stv_name":"Uncletopia | Seattle | 1 | All Maps | STV","players":[{"user_id":288,"name":"Hoovy","steam_id":76561198409907417,"connected_time":2065000000000,"state":"active","ping":94},{"user_id":258,"name":"you just got dyked on","steam_id":76561198018977723,"connected_time":4803000000000,"state":"active","ping":55},{"user_id":276,"name":"2 Point Tom","steam_id":76561198087617008,"connected_time":3470000000000,"state":"active","ping":47},{"user_id":311,"name":"Pathara44","steam_id":76561198048238620,"connected_time":29000000000,"state":"active","ping":97},{"user_id":312,"name":"MrPoisionousLabs","steam_id":76561199184552915,"connected_time":25000000000,"state":"spawning","ping":82},{"user_id":292,"name":"squart guy","steam_id":76561199411560141,"connected_time":1351000000000,"state":"active","ping":43},{"user_id":302,"name":"Sudsen","steam_id":76561198370603787,"connected_time":875000000000,"state":"active","ping":76},{"user_id":300,"name":"mrow","steam_id":76561198171840525,"connected_time":906000000000,"state":"active","ping":62},{"user_id":280,"name":"allahsdroptop","steam_id":76561198133195238,"connected_time":2953000000000,"state":"active","ping":66},{"user_id":295,"name":"MrQuack","steam_id":76561198873049714,"connected_time":1275000000000,"state":"active","ping":77},{"user_id":308,"name":"Walka","steam_id":76561198074325951,"connected_time":390000000000,"state":"active","ping":85},{"user_id":293,"name":"MrYadaization","steam_id":76561198050770818,"connected_time":1333000000000,"state":"active","ping":53},{"user_id":286,"name":"XxDragon4321xX","steam_id":76561198046705735,"connected_time":2340000000000,"state":"active","ping":84},{"user_id":273,"name":"SeeNik","steam_id":76561198149499817,"connected_time":3530000000000,"state":"active","ping":91},{"user_id":303,"name":"The Caretaker","steam_id":76561198125241411,"connected_time":787000000000,"state":"active","ping":140},{"user_id":310,"name":"Luca","steam_id":76561198125087140,"connected_time":132000000000,"state":"active","ping":51},{"user_id":264,"name":"Firedust19","steam_id":76561198153238631,"connected_time":4258000000000,"state":"active","ping":100},{"user_id":284,"name":"Mr8bittripper","steam_id":76561198133894229,"connected_time":2545000000000,"state":"active","ping":45},{"user_id":294,"name":"Lili","steam_id":76561199488457138,"connected_time":1333000000000,"state":"active","ping":49},{"user_id":255,"name":"UserLeft","steam_id":76561197998297379,"connected_time":5056000000000,"state":"active","ping":74}]},{"server_id":119,"name":"Uncletopia | Seattle | 2 | All Maps","name_short":"sea-2","host":"sea-1.us.uncletopia.com","port":27025,"enabled":true,"region":"us-west","cc":"us","latitude":47.608013,"longitude":-122.33517,"reserved":0,"last_update":"0001-01-01T00:00:00Z","name_a2s":"Uncletopia | Seattle | 2 | All Maps","protocol":17,"map":"koth_cascade","folder":"tf","game":"Team Fortress","app_id":440,"player_count":0,"max_players":24,"Bots":0,"server_type":"Dedicated","server_os":"Linux","password":true,"vac":true,"version":"7961495","steam_id":85568392924469998,"keywords":["cp","nocrits","nodmgspread","uncletopia"],"game_id":440,"stv_port":27026,"stv_name":"Uncletopia | Seattle | 2 | All Maps | STV","players":null},{"server_id":406,"name":"Uncletopia | Seattle | 3 | Stopwatch","name_short":"sea-3","host":"sea-1.us.uncletopia.com","port":27035,"enabled":true,"region":"us-west","cc":"us","latitude":47.608013,"longitude":-122.33517,"reserved":0,"last_update":"0001-01-01T00:00:00Z","name_a2s":"Uncletopia | Seattle | 3 | Stopwatch","protocol":17,"map":"pl_pier","folder":"tf","game":"Team Fortress","app_id":440,"player_count":0,"max_players":24,"Bots":0,"server_type":"Dedicated","server_os":"Linux","password":true,"vac":true,"version":"7961495","steam_id":85568392924515217,"keywords":["nocrits","nodmgspread","payload","uncletopia"],"game_id":440,"stv_port":27036,"stv_name":"Uncletopia | Seattle | 3 | Stopwatch | STV","players":null},{"server_id":17,"name":"Uncletopia | San Francisco | 1 | All Maps","name_short":"sfo-1","host":"sfo-1.us.uncletopia.com","port":27015,"enabled":true,"region":"us-west","cc":"us","latitude":37.77397,"longitude":-122.4313,"reserved":0,"last_update":"0001-01-01T00:00:00Z","name_a2s":"Uncletopia | San Francisco | 1 | All Maps","protocol":17,"map":"koth_cascade","folder":"tf","game":"Team Fortress","app_id":440,"player_count":0,"max_players":24,"Bots":0,"server_type":"Dedicated","server_os":"Linux","password":true,"vac":true,"version":"7961495","steam_id":85568392924469999,"keywords":["cp","nocrits","nodmgspread","uncletopia"],"game_id":440,"stv_port":27016,"stv_name":"Uncletopia | San Francisco | 1 | All Maps | STV","players":null},{"server_id":18,"name":"Uncletopia | San Francisco | 2 | All Maps","name_short":"sfo-2","host":"sfo-1.us.uncletopia.com","port":27025,"enabled":true,"region":"us-west","cc":"us","latitude":37.77397,"longitude":-122.4313,"reserved":0,"last_update":"0001-01-01T00:00:00Z","name_a2s":"Uncletopia | San Francisco | 2 | All Maps","protocol":17,"map":"pl_frontier_final","folder":"tf","game":"Team Fortress","app_id":440,"player_count":0,"max_players":24,"Bots":0,"server_type":"Dedicated","server_os":"Linux","password":true,"vac":true,"version":"7961495","steam_id":85568392924470000,"keywords":["nocrits","nodmgspread","payload","uncletopia"],"game_id":440,"stv_port":27026,"stv_name":"Uncletopia | San Francisco | 2 | All Maps | STV","players":null},{"server_id":19,"name":"Uncletopia | San Francisco | 3 | Stopwatch","name_short":"sfo-3","host":"sfo-1.us.uncletopia.com","port":27035,"enabled":true,"region":"us-west","cc":"us","latitude":37.77397,"longitude":-122.4313,"reserved":0,"last_update":"0001-01-01T00:00:00Z","name_a2s":"Uncletopia | San Francisco | 3 | Stopwatch","protocol":17,"map":"pl_pier","folder":"tf","game":"Team Fortress","app_id":440,"player_count":0,"max_players":24,"Bots":0,"server_type":"Dedicated","server_os":"Linux","password":true,"vac":true,"version":"7961495","steam_id":85568392924742824,"keywords":["nocrits","nodmgspread","payload","uncletopia"],"game_id":440,"stv_port":27036,"stv_name":"Uncletopia | San Francisco | 3 | Stopwatch | STV","players":null},{"server_id":20,"name":"Uncletopia | San Francisco | 4 | Community","name_short":"sfo-4","host":"sfo-1.us.uncletopia.com","port":27045,"enabled":true,"region":"us-west","cc":"us","latitude":37.77397,"longitude":-122.4313,"reserved":0,"last_update":"0001-01-01T00:00:00Z","name_a2s":"Uncletopia | San Francisco | 4 | Community","protocol":17,"map":"workshop/koth_product_final.ugc454272353","folder":"tf","game":"Team Fortress","app_id":440,"player_count":0,"max_players":24,"Bots":0,"server_type":"Dedicated","server_os":"Linux","password":true,"vac":true,"version":"7961495","steam_id":85568392924742826,"keywords":["cp","nocrits","nodmgspread","uncletopia"],"game_id":440,"stv_port":27046,"stv_name":"Uncletopia | San Francisco | 4 | Community | STV","players":null},{"server_id":141,"name":"Uncletopia | Sydney | 1 | All Maps","name_short":"syd-1","host":"syd-1.au.uncletopia.com","port":27015,"enabled":true,"region":"au","cc":"au","latitude":-33.865143,"longitude":151.2099,"reserved":0,"last_update":"0001-01-01T00:00:00Z","name_a2s":"Uncletopia | Sydney | 1 | All Maps","protocol":17,"map":"koth_highpass","folder":"tf","game":"Team Fortress","app_id":440,"player_count":0,"max_players":24,"Bots":0,"server_type":"Dedicated","server_os":"Linux","password":true,"vac":true,"version":"7961495","steam_id":85568392924470001,"keywords":["cp","nocrits","nodmgspread","uncletopia"],"game_id":440,"stv_port":27016,"stv_name":"Uncletopia | Sydney | 1 | All Maps | STV","players":null},{"server_id":123,"name":"Uncletopia | Sydney | 2 | All Maps","name_short":"syd-2","host":"syd-1.au.uncletopia.com","port":27025,"enabled":true,"region":"au","cc":"au","latitude":-33.865143,"longitude":151.2099,"reserved":0,"last_update":"0001-01-01T00:00:00Z","name_a2s":"Uncletopia | Sydney | 2 | All Maps","protocol":17,"map":"pl_badwater","folder":"tf","game":"Team Fortress","app_id":440,"player_count":0,"max_players":24,"Bots":0,"server_type":"Dedicated","server_os":"Linux","password":true,"vac":true,"version":"7961495","steam_id":85568392924470002,"keywords":["nocrits","nodmgspread","payload","uncletopia"],"game_id":440,"stv_port":27026,"stv_name":"Uncletopia | Sydney | 2 | All Maps | STV","players":null},{"server_id":395,"name":"Uncletopia | Sydney | 3 | All Maps","name_short":"syd-3","host":"syd-1.au.uncletopia.com","port":27035,"enabled":true,"region":"au","cc":"au","latitude":-33.865143,"longitude":151.2099,"reserved":0,"last_update":"0001-01-01T00:00:00Z","name_a2s":"Uncletopia | Sydney | 3 | All Maps","protocol":17,"map":"koth_viaduct","folder":"tf","game":"Team Fortress","app_id":440,"player_count":0,"max_players":24,"Bots":0,"server_type":"Dedicated","server_os":"Linux","password":true,"vac":true,"version":"7961495","steam_id":85568392925194467,"keywords":["cp","nocrits","nodmgspread","uncletopia"],"game_id":440,"stv_port":27036,"stv_name":"Uncletopia | Sydney | 3 | All Maps | STV","players":null},{"server_id":396,"name":"Uncletopia | Sydney | 4 | All Maps","name_short":"syd-4","host":"syd-1.au.uncletopia.com","port":27045,"enabled":true,"region":"au","cc":"au","latitude":-33.865143,"longitude":151.2099,"reserved":0,"last_update":"0001-01-01T00:00:00Z","name_a2s":"Uncletopia | Sydney | 4 | All Maps","protocol":17,"map":"koth_highpass","folder":"tf","game":"Team Fortress","app_id":440,"player_count":0,"max_players":24,"Bots":0,"server_type":"Dedicated","server_os":"Linux","password":true,"vac":true,"version":"7961495","steam_id":85568392925397958,"keywords":["cp","nocrits","nodmgspread","uncletopia"],"game_id":440,"stv_port":27046,"stv_name":"Uncletopia | Sydney | 4 | All Maps | STV","players":null},{"server_id":58,"name":"Uncletopia | Sydney | 5 | Stopwatch","name_short":"syd-5","host":"syd-1.au.uncletopia.com","port":27055,"enabled":true,"region":"au","cc":"au","latitude":-33.865143,"longitude":151.2099,"reserved":0,"last_update":"0001-01-01T00:00:00Z","name_a2s":"Uncletopia | Sydney | 5 | Stopwatch","protocol":17,"map":"pl_frontier_final","folder":"tf","game":"Team Fortress","app_id":440,"player_count":0,"max_players":24,"Bots":0,"server_type":"Dedicated","server_os":"Linux","password":true,"vac":true,"version":"7961495","steam_id":85568392925397959,"keywords":["nocrits","nodmgspread","payload","uncletopia"],"game_id":440,"stv_port":27056,"stv_name":"Uncletopia | Sydney | 5 | Stopwatch | STV","players":null},{"server_id":59,"name":"Uncletopia | Sydney | 6 | Community","name_short":"syd-6","host":"syd-1.au.uncletopia.com","port":27065,"enabled":true,"region":"au","cc":"au","latitude":-33.865143,"longitude":151.2099,"reserved":0,"last_update":"0001-01-01T00:00:00Z","name_a2s":"Uncletopia | Sydney | 6 | Community","protocol":17,"map":"workshop/koth_bagel_rc6.ugc2514036946","folder":"tf","game":"Team Fortress","app_id":440,"player_count":0,"max_players":24,"Bots":0,"server_type":"Dedicated","server_os":"Linux","password":true,"vac":true,"version":"7961495","steam_id":85568392925397960,"keywords":["cp","nocrits","nodmgspread","uncletopia"],"game_id":440,"stv_port":27066,"stv_name":"Uncletopia | Sydney | 6 | Community | STV","players":null},{"server_id":49,"name":"Uncletopia | Warsaw | 1 | One Thousand Uncles","name_short":"waw-1","host":"waw-1.pl.uncletopia.com","port":27015,"enabled":true,"region":"eu","cc":"pl","latitude":52.2297,"longitude":21.017532,"reserved":0,"last_update":"0001-01-01T00:00:00Z","name_a2s":"Uncletopia | Warsaw | 1 | One Thousand Uncles","protocol":17,"map":"pl_badwater","folder":"tf","game":"Team Fortress","app_id":440,"player_count":25,"max_players":32,"Bots":16,"server_type":"Dedicated","server_os":"Linux","password":true,"vac":true,"version":"7961495","steam_id":85568392925397850,"keywords":["alltalk","bots","danepve","increased_maxplayers","nocrits","norespawntime","payload","uncletopia"],"game_id":440,"stv_port":0,"stv_name":"","players":[{"user_id":95,"name":"Dj_Bear","steam_id":76561198149865187,"connected_time":3296000000000,"state":"active","ping":42},{"user_id":149,"name":"Monak","steam_id":76561199074593969,"connected_time":3000000000,"state":"spawning","ping":60},{"user_id":103,"name":"Joe weak","steam_id":76561198123988931,"connected_time":2622000000000,"state":"active","ping":83},{"user_id":77,"name":"Max Power","steam_id":76561198019269089,"connected_time":3567000000000,"state":"active","ping":63},{"user_id":104,"name":"Peter Pammpim","steam_id":76561199103785290,"connected_time":2311000000000,"state":"active","ping":89},{"user_id":143,"name":"jakonator1","steam_id":76561198127792559,"connected_time":752000000000,"state":"active","ping":225},{"user_id":145,"name":"JustACoomer","steam_id":76561198151433181,"connected_time":674000000000,"state":"active","ping":63},{"user_id":113,"name":"Hooty","steam_id":76561198365932023,"connected_time":1858000000000,"state":"active","ping":65},{"user_id":122,"name":"‚ú™ g0lddyseq","steam_id":76561198321888235,"connected_time":1312000000000,"state":"active","ping":49}]},{"server_id":50,"name":"Uncletopia | Warsaw | 2 | One Thousand Uncles","name_short":"waw-2","host":"waw-1.pl.uncletopia.com","port":27025,"enabled":true,"region":"eu","cc":"pl","latitude":52.2297,"longitude":21.017532,"reserved":0,"last_update":"0001-01-01T00:00:00Z","name_a2s":"Uncletopia | Warsaw | 2 | One Thousand Uncles","protocol":17,"map":"cp_dustbowl","folder":"tf","game":"Team Fortress","app_id":440,"player_count":24,"max_players":32,"Bots":16,"server_type":"Dedicated","server_os":"Linux","password":true,"vac":true,"version":"7961495","steam_id":85568392925397851,"keywords":["alltalk","bots","cp","danepve","increased_maxplayers","nocrits","norespawntime","uncletopia"],"game_id":440,"stv_port":0,"stv_name":"","players":[{"user_id":199,"name":"just a person","steam_id":76561198340369454,"connected_time":3569000000000,"state":"active","ping":39},{"user_id":121,"name":"Samuel L. Jackson","steam_id":76561198130427881,"connected_time":7608000000000,"state":"active","ping":179},{"user_id":228,"name":"Mabert","steam_id":76561198436058407,"connected_time":609000000000,"state":"active","ping":50},{"user_id":138,"name":"Lukas","steam_id":76561198009118452,"connected_time":5083000000000,"state":"active","ping":63},{"user_id":206,"name":"Egtu","steam_id":76561198013757235,"connected_time":2313000000000,"state":"active","ping":44},{"user_id":230,"name":"Pixar Cars on the PS2","steam_id":76561198079386295,"connected_time":445000000000,"state":"active","ping":72},{"user_id":232,"name":"mountainkug","steam_id":76561199491802535,"connected_time":138000000000,"state":"active","ping":150},{"user_id":208,"name":"nobleevolved","steam_id":76561199240626135,"connected_time":1987000000000,"state":"active","ping":77},{"user_id":233,"name":"BurningJoke","steam_id":76561199014358707,"connected_time":41000000000,"state":"active","ping":70}]},{"server_id":51,"name":"Uncletopia | Warsaw | 3 | All Maps","name_short":"waw-3","host":"waw-1.pl.uncletopia.com","port":27035,"enabled":true,"region":"eu","cc":"pl","latitude":52.2297,"longitude":21.017532,"reserved":0,"last_update":"0001-01-01T00:00:00Z","name_a2s":"Uncletopia | Warsaw | 3 | All Maps","protocol":17,"map":"koth_viaduct","folder":"tf","game":"Team Fortress","app_id":440,"player_count":0,"max_players":24,"Bots":0,"server_type":"Dedicated","server_os":"Linux","password":true,"vac":true,"version":"7961495","steam_id":85568392925397852,"keywords":["cp","nocrits","nodmgspread","uncletopia"],"game_id":440,"stv_port":27036,"stv_name":"Uncletopia | Warsaw | 3 | All Maps | STV","players":null},{"server_id":52,"name":"Uncletopia | Warsaw | 4 | All Maps","name_short":"waw-4","host":"waw-1.pl.uncletopia.com","port":27045,"enabled":true,"region":"eu","cc":"pl","latitude":52.2297,"longitude":21.017532,"reserved":0,"last_update":"0001-01-01T00:00:00Z","name_a2s":"Uncletopia | Warsaw | 4 | All Maps","protocol":17,"map":"koth_highpass","folder":"tf","game":"Team Fortress","app_id":440,"player_count":0,"max_players":24,"Bots":0,"server_type":"Dedicated","server_os":"Linux","password":true,"vac":true,"version":"7961495","steam_id":85568392925397853,"keywords":["cp","nocrits","nodmgspread","uncletopia"],"game_id":440,"stv_port":27046,"stv_name":"Uncletopia | Warsaw | 4 | All Maps | STV","players":null},{"server_id":53,"name":"Uncletopia | Warsaw | 5 | Stopwatch","name_short":"waw-5","host":"waw-1.pl.uncletopia.com","port":27055,"enabled":true,"region":"eu","cc":"pl","latitude":52.2297,"longitude":21.017532,"reserved":0,"last_update":"0001-01-01T00:00:00Z","name_a2s":"Uncletopia | Warsaw | 5 | Stopwatch","protocol":17,"map":"koth_highpass","folder":"tf","game":"Team Fortress","app_id":440,"player_count":0,"max_players":24,"Bots":0,"server_type":"Dedicated","server_os":"Linux","password":true,"vac":true,"version":"7961495","steam_id":85568392925397854,"keywords":["cp","nocrits","nodmgspread","uncletopia"],"game_id":440,"stv_port":27056,"stv_name":"Uncletopia | Warsaw | 5 | Stopwatch | STV","players":null},{"server_id":54,"name":"Uncletopia | Warsaw | 6 | Community","name_short":"waw-6","host":"waw-1.pl.uncletopia.com","port":27065,"enabled":true,"region":"eu","cc":"pl","latitude":52.2297,"longitude":21.017532,"reserved":0,"last_update":"0001-01-01T00:00:00Z","name_a2s":"Uncletopia | Warsaw | 6 | Community","protocol":17,"map":"workshop/koth_synthetic_rc6a.ugc1549817316","folder":"tf","game":"Team Fortress","app_id":440,"player_count":0,"max_players":24,"Bots":0,"server_type":"Dedicated","server_os":"Linux","password":true,"vac":true,"version":"7961495","steam_id":85568392925397856,"keywords":["cp","nocrits","nodmgspread","uncletopia"],"game_id":440,"stv_port":27066,"stv_name":"Uncletopia | Warsaw | 6 | Community | STV","players":null}]}