{"status":true,"message":"","result":[{"server_id":9,"name":"Uncletopia | Atlanta | 1 | All Maps","name_short":"atl-1","host":"atl-1.us.uncletopia.com","port":27015,"enabled":true,"region":"us-east","cc":"us","latitude":33.753746,"longitude":-84.38633,"reserved":0,"last_update":"0001-01-01T00:00:00Z","name_a2s":"Uncletopia | Atlanta | 1 | All Maps","protocol":17,"map":"pl_frontier_final","folder":"tf","game":"Team Fortress","app_id":440,"player_count":24,"max_players":24,"Bots":0,"server_type":"Dedicated","server_os":"Linux","password":true,"vac":true,"version":"7961495","steam_id":85568392924469982,"keywords":["nocrits","nodmgspread","payload","uncletopia"],"game_id":440,"stv_port":27016,"stv_name":"Uncletopia | Atlanta | 1 | All Maps | STV","players":[{"user_id":789,"name":"Hey","steam_id":76561198447517893,"connected_time":4885000000000,"state":"active","ping":59},{"user_id":826,"name":"Adolf The Toast Jesus™","steam_id":76561198024553767,"connected_time":1747000000000,"state":"active","ping":59},{"user_id":771,"name":"Flint","steam_id":76561198066547582,"connected_time":5634000000000,"state":"active","ping":94},{"user_id":827,"name":"Grandma","steam_id":76561198192419939,"connected_time":1718000000000,"state":"active","ping":134},{"user_id":839,"name":"Woke Bush","steam_id":76561198047994501,"connected_time":1411000000000,"state":"active","ping":44},{"user_id":753,"name":"canadian birds","steam_id":76561198059466588,"connected_time":6864000000000,"state":"active","ping":61},{"user_id":829,"name":"viedoamges","steam_id":76561198025295263,"connected_time":1689000000000,"state":"active","ping":83},{"user_id":830,"name":"*****setget","steam_id":76561198118824188,"connected_time":1658000000000,"state":"active","ping":108},{"user_id":822,"name":"The One True Luke","steam_id":76561198180891187,"connected_time":2120000000000,"state":"active","ping":75},{"user_id":845,"name":"Flash the shit out of the team","steam_id":76561198424438314,"connected_time":743000000000,"state":"active","ping":75},{"user_id":846,"name":"Female Gamer","steam_id":76561199366482682,"connected_time":740000000000,"state":"active","ping":110},{"user_id":815,"name":"Smooth, Refreshing Bleach™","steam_id":76561197981060504,"connected_time":2745000000000,"state":"active","ping":63},{"user_id":819,"name":"Caeso","steam_id":76561198075570341,"connected_time":2320000000000,"state":"active","ping":67},{"user_id":851,"name":"playguy carter","steam_id":76561198080679337,"connected_time":445000000000,"state":"active","ping":78},{"user_id":852,"name":"Burny Sanders","steam_id":76561197961879048,"connected_time":153000000000,"state":"active","ping":60},{"user_id":796,"name":"paetho YT","steam_id":76561198152690003,"connected_time":4105000000000,"state":"active","ping":45},{"user_id":832,"name":"Mom","steam_id":76561198207936000,"connected_time":1646000000000,"state":"active","ping":104},{"user_id":847,"name":"Sprite Enjoyer","steam_id":76561199371277079,"connected_time":700000000000,"state":"active","ping":70},{"user_id":784,"name":"cute anime girl","steam_id":76561198313129977,"connected_time":5019000000000,"state":"active","ping":88},{"user_id":842,"name":"Bunt","steam_id":76561198124477567,"connected_time":831000000000,"state":"active","ping":47},{"user_id":838,"name":"uthgarthegiant","steam_id":76561198348616230,"connected_time":1534000000000,"state":"active","ping":52},{"user_id":849,"name":"GLOBAL DUMBASS","steam_id":76561198155279884,"connected_time":637000000000,"state":"active","ping":75},{"user_id":850,"name":"mcshoobywooby","steam_id":76561198204985427,"connected_time":629000000000,"state":"active","ping":81},{"user_id":836,"name":"Artic_Ryuu","steam_id":76561198182194918,"connected_time":1566000000000,"state":"active","ping":95}]},{"server_id":104,"name":"Uncletopia | Atlanta | 2 | All Maps","name_short":"atl-2","host":"atl-1.us.uncletopia.com","port":27025,"enabled":true,"region":"us-east","cc":"us","latitude":33.753746,"longitude":-84.38633,"reserved":0,"last_update":"0001-01-01T00:00:00Z","name_a2s":"Uncletopia | Atlanta | 2 | All Maps","protocol":17,"map":"koth_cascade","folder":"tf","game":"Team Fortress","app_id":440,"player_count":0,"max_players":24,"Bots":0,"server_type":"Dedicated","server_os":"Linux","password":true,"vac":true,"version":"7961495","steam_id":85568392924469983,"keywords":["cp","nocrits","nodmgspread","uncletopia"],"game_id":440,"stv_port":27026,"stv_name":"Uncletopia | Atlanta | 2 | All Maps | STV","players":null},{"server_id":400,"name":"Uncletopia | Atlanta | 3 | Stopwatch","name_short":"atl-3","host":"atl-1.us.uncletopia.com","port":27035,"enabled":true,"region":"us-east","cc":"us","latitude":33.753746,"longitude":-84.38633,"reserved":0,"last_update":"0001-01-01T00:00:00Z","name_a2s":"Uncletopia | Atlanta | 3 | Stopwatch","protocol":17,"map":"workshop/koth_bagel_rc6.ugc2514036946","folder":"tf","game":"Team Fortress","app_id":440,"player_count":0,"max_players":24,"Bots":0,"server_type":"Dedicated","server_os":"Linux","password":true,"vac":true,"version":"7961495","steam_id":85568392924515187,"keywords":["cp","nocrits","nodmgspread","uncletopia"],"game_id":440,"stv_port":27036,"stv_name":"Uncletopia | Atlanta | 3 | Stopwatch | STV","players":null},{"server_id":401,"name":"Uncletopia | Atlanta | 4 | Community","name_short":"atl-4","host":"atl-1.us.uncletopia.com","port":27045,"enabled":true,"region":"us-east","cc":"us","latitude":33.753746,"longitude":-84.38633,"reserved":0,"last_update":"0001-01-01T00:00:00Z","name_a2s":"Uncletopia | Atlanta | 4 | Community","protocol":17,"map":"workshop/koth_ashville_final.ugc2130459942","folder":"tf","game":"Team Fortress","app_id":440,"player_count":0,"max_players":24,"Bots":0,"server_type":"Dedicated","server_os":"Linux","password":true,"vac":true,"version":"7961495","steam_id":85568392924515188,"keywords":["cp","nocrits","nodmgspread","uncletopia"],"game_id":440,"stv_port":27046,"stv_name":"Uncletopia | Atlanta | 4 | Community | STV","players":null},{"server_id":2,"name":"Uncletopia | Chicago | 1 | All Maps","name_short":"chi-1","host":"chi-1.us.uncletopia.com","port":27015,"enabled":true,"region":"us-central","cc":"us","latitude":41.881832,"longitude":-87.62318,"reserved":0,"last_update":"0001-01-01T00:00:00Z","name_a2s":"Uncletopia | Chicago | 1 | All Maps","protocol":17,"map":"cp_dustbowl","folder":"tf","game":"Team Fortress","app_id":440,"player_count":24,"max_players":24,"Bots":0,"server_type":"Dedicated","server_os":"Linux","password":true,"vac":true,"version":"7961495","steam_id":85568392924469984,"keywords":["cp","nocrits","nodmgspread","uncletopia"],"game_id":440,"stv_port":27016,"stv_name":"Uncletopia | Chicago | 1 | All Maps | STV","players":[{"user_id":889,"name":"Under an Unquiet Skull","steam_id":76561198164782653,"connected_time":490000000000,"state":"active","ping":68},{"user_id":880,"name":"Steak-Pocketer","steam_id":76561198277651410,"connected_time":1034000000000,"state":"active","ping":61},{"user_id":870,"name":"Megatron G","steam_id":76561198168864083,"connected_time":1441000000000,"state":"active","ping":90},{"user_id":890,"name":"bee","steam_id":76561198178015361,"connected_time":38000000000,"state":"active","ping":49},{"user_id":837,"name":"bath","steam_id":76561197969993352,"connected_time":3464000000000,"state":"active","ping":55},{"user_id":881,"name":"Papa Smoke","steam_id":76561198181348206,"connected_time":1012000000000,"state":"active","ping":48},{"user_id":873,"name":"Jazz2T","steam_id":76561198154418867,"connected_time":1379000000000,"state":"active","ping":101},{"user_id":861,"name":"here2he1p","steam_id":76561199216977630,"connected_time":2040000000000,"state":"active","ping":96},{"user_id":857,"name":"Boofenshmirtz","steam_id":76561198071649858,"connected_time":2101000000000,"state":"active","ping":59},{"user_id":875,"name":"Rafl","steam_id":76561198055222756,"connected_time":1303000000000,"state":"active","ping":66},{"user_id":877,"name":"lorient","steam_id":76561198150831438,"connected_time":1071000000000,"state":"active","ping":81},{"user_id":832,"name":"TheGerg","steam_id":76561198257099217,"connected_time":3519000000000,"state":"active","ping":58},{"user_id":883,"name":"Shoes [Gaming]","steam_id":76561198836436110,"connected_time":854000000000,"state":"active","ping":66},{"user_id":872,"name":"Joseph \"Biden\" Stalin","steam_id":76561198213863907,"connected_time":1392000000000,"state":"active","ping":133},{"user_id":878,"name":"Texas Red","steam_id":76561198832095246,"connected_time":1064000000000,"state":"active","ping":74},{"user_id":884,"name":"Russell","steam_id":76561198024159373,"connected_time":838000000000,"state":"active","ping":77},{"user_id":888,"name":"social distance warrior","steam_id":76561198128992994,"connected_time":641000000000,"state":"active","ping":90},{"user_id":874,"name":"Your Local Queer Librarian","steam_id":76561198013077080,"connected_time":1356000000000,"state":"active","ping":39},{"user_id":886,"name":"brickman","steam_id":76561198145072434,"connected_time":835000000000,"state":"active","ping":74},{"user_id":867,"name":"Jay","steam_id":76561198084129048,"connected_time":1837000000000,"state":"active","ping":75},{"user_id":887,"name":"gerg","steam_id":76561197997127387,"connected_time":835000000000,"state":"active","ping":107},{"user_id":843,"name":"kaputon","steam_id":76561198146299782,"connected_time":3422000000000,"state":"active","ping":60},{"user_id":849,"name":"chill stoner guy w cool stories","steam_id":76561198120973162,"connected_time":2528000000000,"state":"active","ping":80},{"user_id":850,"name":"Nickson1","steam_id":76561198175839309,"connected_time":2528000000000,"state":"active","ping":79}]},{"server_id":106,"name":"Uncletopia | Chicago | 2 | All Maps","name_short":"chi-2","host":"chi-1.us.uncletopia.com","port":27025,"enabled":true,"region":"us-central","cc":"us","latitude":41.881832,"longitude":-87.62318,"reserved":0,"last_update":"0001-01-01T00:00:00Z","name_a2s":"Uncletopia | Chicago | 2 | All Maps","protocol":17,"map":"cp_gorge","folder":"tf","game":"Team Fortress","app_id":440,"player_count":0,"max_players":24,"Bots":0,"server_type":"Dedicated","server_os":"Linux","password":true,"vac":true,"version":"7961495","steam_id":85568392924469985,"keywords":["cp","nocrits","nodmgspread","uncletopia"],"game_id":440,"stv_port":27026,"stv_name":"Uncletopia | Chicago | 2 | All Maps | STV","players":null},{"server_id":402,"name":"Uncletopia | Chicago | 3 | All Maps","name_short":"chi-3","host":"chi-1.us.uncletopia.com","port":27035,"enabled":true,"region":"us-central","cc":"us","latitude":41.881832,"longitude":-87.62318,"reserved":0,"last_update":"0001-01-01T00:00:00Z","name_a2s":"Uncletopia | Chicago | 3 | All Maps","protocol":17,"map":"koth_cascade","folder":"tf","game":"Team Fortress","app_id":440,"player_count":24,"max_players":24,"Bots":0,"server_type":"Dedicated","server_os":"Linux","password":true,"vac":true,"version":"7961495","steam_id":85568392924515191,"keywords":["cp","nocrits","nodmgspread","uncletopia"],"game_id":440,"stv_port":27036,"stv_name":"Uncletopia | Chicago | 3 | All Maps | STV","players":[{"user_id":684,"name":"Daddy-O Dizzy","steam_id":76561198292349348,"connected_time":2770000000000,"state":"active","ping":69},{"user_id":537,"name":"lobster","steam_id":76561198147417707,"connected_time":17728000000000,"state":"active","ping":69},{"user_id":708,"name":"Zebulon","steam_id":76561198025719753,"connected_time":1177000000000,"state":"active","ping":85},{"user_id":600,"name":"vga cable","steam_id":76561198217402847,"connected_time":10658000000000,"state":"active","ping":107},{"user_id":706,"name":"Rambly Dambly","steam_id":76561198844496567,"connected_time":1273000000000,"state":"active","ping":56},{"user_id":673,"name":"MyLittleArmy","steam_id":76561199474089340,"connected_time":4124000000000,"state":"active","ping":91},{"user_id":686,"name":"广东虎队支持者","steam_id":76561198202016334,"connected_time":2656000000000,"state":"active","ping":73},{"user_id":667,"name":":)!","steam_id":76561198853972150,"connected_time":4566000000000,"state":"active","ping":104},{"user_id":717,"name":"Raccoon Wizard","steam_id":76561198072562591,"connected_time":73000000000,"state":"active","ping":61},{"user_id":687,"name":"Woomy :3","steam_id":76561198272671664,"connected_time":2649000000000,"state":"active","ping":79},{"user_id":688,"name":"WithHelpfromtheBlackCommunity","steam_id":76561198096366496,"connected_time":2646000000000,"state":"active","ping":46},{"user_id":689,"name":"twitter verified death date","steam_id":76561198138221795,"connected_time":2633000000000,"state":"active","ping":75},{"user_id":690,"name":"OiledAssShaker","steam_id":76561198132068284,"connected_time":2631000000000,"state":"active","ping":52},{"user_id":711,"name":"Oni","steam_id":76561198112066584,"connected_time":926000000000,"state":"active","ping":64},{"user_id":716,"name":"Big Yoshi #savetf2","steam_id":76561198009916036,"connected_time":531000000000,"state":"active","ping":59},{"user_id":675,"name":"MaybeMars","steam_id":76561198084736804,"connected_time":3898000000000,"state":"active","ping":70},{"user_id":715,"name":"P E P S I","steam_id":76561198115035038,"connected_time":560000000000,"state":"active","ping":75},{"user_id":709,"name":"crunchy obama","steam_id":76561198044485217,"connected_time":1123000000000,"state":"active","ping":96},{"user_id":710,"name":"Luffa Rigno","steam_id":76561197998700507,"connected_time":1010000000000,"state":"active","ping":102},{"user_id":707,"name":"frank","steam_id":76561198137777483,"connected_time":1222000000000,"state":"active","ping":63},{"user_id":671,"name":"TTVPlumSmug","steam_id":76561198103960265,"connected_time":4461000000000,"state":"active","ping":49},{"user_id":712,"name":"LANDOFTAWN","steam_id":76561199180861116,"connected_time":921000000000,"state":"active","ping":81},{"user_id":702,"name":"Kataklysm","steam_id":76561198403653602,"connected_time":1982000000000,"state":"active","ping":108},{"user_id":696,"name":"Nilantive","steam_id":76561198177565082,"connected_time":2468000000000,"state":"active","ping":72}]},{"server_id":403,"name":"Uncletopia | Chicago | 4 | All Maps","name_short":"chi-4","host":"chi-1.us.uncletopia.com","port":27045,"enabled":true,"region":"us-central","cc":"us","latitude":41.881832,"longitude":-87.62318,"reserved":0,"last_update":"0001-01-01T00:00:00Z","name_a2s":"Uncletopia | Chicago | 4 | All Maps","protocol":17,"map":"koth_lakeside_final","folder":"tf","game":"Team Fortress","app_id":440,"player_count":3,"max_players":24,"Bots":0,"server_type":"Dedicated","server_os":"Linux","password":true,"vac":true,"version":"7961495","steam_id":85568392924515193,"keywords":["cp","nocrits","nodmgspread","uncletopia"],"game_id":440,"stv_port":27046,"stv_name":"Uncletopia | Chicago | 4 | All Maps | STV","players":[{"user_id":603,"name":"JellyRoll Jerry","steam_id":76561198037149474,"connected_time":1810000000000,"state":"active","ping":95},{"user_id":604,"name":"Bond","steam_id":76561198089262776,"connected_time":1636000000000,"state":"active","ping":70},{"user_id":605,"name":"ReddRipper666","steam_id":76561199264055991,"connected_time":1628000000000,"state":"active","ping":74}]},{"server_id":36,"name":"Uncletopia | Chicago | 5 | All Maps","name_short":"chi-5","host":"chi-2.us.uncletopia.com","port":27015,"enabled":true,"region":"us-central","cc":"us","latitude":41.881832,"longitude":-87.62318,"reserved":0,"last_update":"0001-01-01T00:00:00Z","name_a2s":"Uncletopia | Chicago | 5 | All Maps","protocol":17,"map":"koth_highpass","folder":"tf","game":"Team Fortress","app_id":440,"player_count":11,"max_players":24,"Bots":0,"server_type":"Dedicated","server_os":"Linux","password":true,"vac":true,"version":"7961495","steam_id":85568392924866362,"keywords":["cp","nocrits","nodmgspread","uncletopia"],"game_id":440,"stv_port":27016,"stv_name":"Uncletopia | Chicago | 5 | All Maps | STV","players":[{"user_id":881,"name":"GrimRedRose","steam_id":76561198200342509,"connected_time":408000000000,"state":"active","ping":64},{"user_id":882,"name":"Emma","steam_id":76561198318093783,"connected_time":125000000000,"state":"active","ping":85},{"user_id":870,"name":"Hazeyboi","steam_id":76561198130687838,"connected_time":1209000000000,"state":"active","ping":69},{"user_id":871,"name":"Monsterjessy","steam_id":76561198035630985,"connected_time":1157000000000,"state":"active","ping":59},{"user_id":883,"name":"Piki Jo","steam_id":76561198120368776,"connected_time":42000000000,"state":"active","ping":61},{"user_id":861,"name":"GasterDog","steam_id":76561198844423506,"connected_time":2038000000000,"state":"active","ping":101},{"user_id":877,"name":"eevee","steam_id":76561198447072392,"connected_time":646000000000,"state":"active","ping":179},{"user_id":761,"name":"uhooter","steam_id":76561198007829078,"connected_time":10068000000000,"state":"active","ping":54},{"user_id":875,"name":"basilberry","steam_id":76561198145275937,"connected_time":895000000000,"state":"active","ping":85},{"user_id":878,"name":"Tifa Lockhart","steam_id":76561198108904269,"connected_time":638000000000,"state":"active","ping":51},{"user_id":869,"name":"sum0","steam_id":76561198260451626,"connected_time":1382000000000,"state":"active","ping":51}]},{"server_id":37,"name":"Uncletopia | Chicago | 6 | All Maps","name_short":"chi-6","host":"chi-2.us.uncletopia.com","port":27025,"enabled":true,"region":"us-central","cc":"us","latitude":41.881832,"longitude":-87.62318,"reserved":0,"last_update":"0001-01-01T00:00:00Z","name_a2s":"Uncletopia | Chicago | 6 | All Maps","protocol":17,"map":"pl_thundermountain","folder":"tf","game":"Team Fortress","app_id":440,"player_count":12,"max_players":24,"Bots":0,"server_type":"Dedicated","server_os":"Linux","password":true,"vac":true,"version":"7961495","steam_id":85568392924866363,"keywords":["nocrits","nodmgspread","payload","uncletopia"],"game_id":440,"stv_port":27026,"stv_name":"Uncletopia | Chicago | 6 | All Maps | STV","players":[{"user_id":1030,"name":"MichaelScopic","steam_id":76561198440602177,"connected_time":238000000000,"state":"active","ping":80},{"user_id":968,"name":"Lumi","steam_id":76561198089978036,"connected_time":5727000000000,"state":"active","ping":50},{"user_id":1035,"name":"Blue Zuben","steam_id":76561198106447025,"connected_time":60000000000,"state":"active","ping":88},{"user_id":1003,"name":"Evanore","steam_id":76561198820768973,"connected_time":2288000000000,"state":"active","ping":59},{"user_id":991,"name":"LerN","steam_id":76561198083463877,"connected_time":2842000000000,"state":"active","ping":55},{"user_id":1031,"name":"The Pan Man From Slavic Land","steam_id":76561198401875841,"connected_time":158000000000,"state":"active","ping":45},{"user_id":1032,"name":"TyranoFlamesaurus-Rex","steam_id":76561198187188506,"connected_time":125000000000,"state":"active","ping":69},{"user_id":1034,"name":"god's dirtiest bomb","steam_id":76561198054260599,"connected_time":65000000000,"state":"active","ping":78},{"user_id":1027,"name":"chok","steam_id":76561198242016100,"connected_time":445000000000,"state":"active","ping":75},{"user_id":1011,"name":"demon girl","steam_id":76561198100477765,"connected_time":1796000000000,"state":"active","ping":76},{"user_id":1014,"name":"demon girl kisser :3c","steam_id":76561198248461754,"connected_time":1769000000000,"state":"active","ping":106},{"user_id":967,"name":"Aegle","steam_id":76561198871463455,"connected_time":5738000000000,"state":"active","ping":83}]},{"server_id":38,"name":"Uncletopia | Chicago | 7 | Stopwatch","name_short":"chi-7","host":"chi-2.us.uncletopia.com","port":27035,"enabled":true,"region":"us-central","cc":"us","latitude":41.881832,"longitude":-87.62318,"reserved":0,"last_update":"0001-01-01T00:00:00Z","name_a2s":"Uncletopia | Chicago | 7 | Stopwatch","protocol":17,"map":"workshop/koth_bagel_rc6.ugc2514036946","folder":"tf","game":"Team Fortress","app_id":440,"player_count":0,"max_players":24,"Bots":0,"server_type":"Dedicated","server_os":"Linux","password":true,"vac":true,"version":"7961495","steam_id":85568392924866364,"keywords":["cp","nocrits","nodmgspread","uncletopia"],"game_id":440,"stv_port":27036,"stv_name":"Uncletopia | Chicago | 7 | Stopwatch | STV","players":null},{"server_id":39,"name":"Uncletopia | Chicago | 8 | Community","name_short":"chi-8","host":"chi-2.us.uncletopia.com","port":27045,"enabled":true,"region":"us-central","cc":"us","latitude":41.881832,"longitude":-87.62318,"reserved":0,"last_update":"0001-01-01T00:00:00Z","name_a2s":"Uncletopia | Chicago | 8 | Community","protocol":17,"map":"workshop/pl_boundary_final1.ugc456799153","folder":"tf","game":"Team Fortress","app_id":440,"player_count":0,"max_players":24,"Bots":0,"server_type":"Dedicated","server_os":"Linux","password":true,"vac":true,"version":"7961495","steam_id":85568392924866365,"keywords":["nocrits","nodmgspread","payload","uncletopia"],"game_id":440,"stv_port":27046,"stv_name":"Uncletopia | Chicago | 8 | Community | STV","players":null},{"server_id":8,"name":"Uncletopia | Dallas | 1 | All Maps","name_short":"dal-1","host":"dal-1.us.uncletopia.com","port":27015,"enabled":true,"region":"us-central","cc":"us","latitude":32.779167,"longitude":-96.80889,"reserved":0,"last_update":"0001-01-01T00:00:00Z","name_a2s":"Uncletopia | Dallas | 1 | All Maps","protocol":17,"map":"koth_viaduct","folder":"tf","game":"Team Fortress","app_id":440,"player_count":24,"max_players":24,"Bots":0,"server_type":"Dedicated","server_os":"Linux","password":true,"vac":true,"version":"7961495","steam_id":85568392924469986,"keywords":["cp","nocrits","nodmgspread","uncletopia"],"game_id":440,"stv_port":27016,"stv_name":"Uncletopia | Dallas | 1 | All Maps | STV","players":[{"user_id":655,"name":"tunaa","steam_id":76561198362763159,"connected_time":1497000000000,"state":"active","ping":80},{"user_id":653,"name":"Just Juanito","steam_id":76561198241446874,"connected_time":1552000000000,"state":"active","ping":82},{"user_id":639,"name":"paypur -rng","steam_id":76561198214370515,"connected_time":2865000000000,"state":"active","ping":91},{"user_id":673,"name":"Kamin","steam_id":76561198255299559,"connected_time":449000000000,"state":"active","ping":52},{"user_id":654,"name":"tbm john","steam_id":76561198304194081,"connected_time":1543000000000,"state":"active","ping":119},{"user_id":672,"name":"Syndra's Futa Balls","steam_id":76561198058671296,"connected_time":624000000000,"state":"active","ping":67},{"user_id":657,"name":"ButteryJack","steam_id":76561198021691102,"connected_time":1448000000000,"state":"active","ping":90},{"user_id":660,"name":"there is cum in my ramen","steam_id":76561198059815894,"connected_time":1226000000000,"state":"active","ping":70},{"user_id":659,"name":"Q Whang","steam_id":76561198122479810,"connected_time":1344000000000,"state":"active","ping":77},{"user_id":569,"name":"JakeOwlsky","steam_id":76561198139194230,"connected_time":7640000000000,"state":"active","ping":94},{"user_id":627,"name":"HomeSkoola","steam_id":76561198000526372,"connected_time":4167000000000,"state":"active","ping":104},{"user_id":667,"name":"MenInHatz","steam_id":76561198825094263,"connected_time":1027000000000,"state":"active","ping":65},{"user_id":662,"name":"Angelillotry","steam_id":76561199055292373,"connected_time":1110000000000,"state":"active","ping":109},{"user_id":663,"name":"b","steam_id":76561198156336213,"connected_time":1106000000000,"state":"active","ping":95},{"user_id":647,"name":"shakoiwa","steam_id":76561199059441773,"connected_time":2553000000000,"state":"active","ping":78},{"user_id":664,"name":"Kermit Da Frog","steam_id":76561199057743526,"connected_time":1106000000000,"state":"active","ping":80},{"user_id":615,"name":"TBM | Jobr","steam_id":76561198016594813,"connected_time":4711000000000,"state":"active","ping":108},{"user_id":665,"name":"Abu Shoosh","steam_id":76561198094990358,"connected_time":1092000000000,"state":"active","ping":76},{"user_id":566,"name":"Asrael","steam_id":76561197986044901,"connected_time":7951000000000,"state":"active","ping":95},{"user_id":588,"name":"errant","steam_id":76561197961758410,"connected_time":5889000000000,"state":"active","ping":45},{"user_id":666,"name":"brian eno","steam_id":76561198109901138,"connected_time":1072000000000,"state":"active","ping":105},{"user_id":648,"name":"The_Pacific_gamer","steam_id":76561198089491446,"connected_time":2550000000000,"state":"active","ping":94},{"user_id":670,"name":"EnragedWaters","steam_id":76561198317135757,"connected_time":911000000000,"state":"active","ping":75},{"user_id":671,"name":"ĐïɐȐɹɦɆa","steam_id":76561198981411945,"connected_time":884000000000,"state":"active","ping":78}]},{"server_id":108,"name":"Uncletopia | Dallas | 2 | All Maps","name_short":"dal-2","host":"dal-1.us.uncletopia.com","port":27025,"enabled":true,"region":"us-central","cc":"us","latitude":32.779167,"longitude":-96.80889,"reserved":0,"last_update":"0001-01-01T00:00:00Z","name_a2s":"Uncletopia | Dallas | 2 | All Maps","protocol":17,"map":"pl_upward","folder":"tf","game":"Team Fortress","app_id":440,"player_count":18,"max_players":24,"Bots":0,"server_type":"Dedicated","server_os":"Linux","password":true,"vac":true,"version":"7961495","steam_id":85568392924469988,"keywords":["nocrits","nodmgspread","payload","uncletopia"],"game_id":440,"stv_port":27026,"stv_name":"Uncletopia | Dallas | 2 | All Maps | STV","players":[{"user_id":803,"name":"Battle Bug","steam_id":76561198005793034,"connected_time":67000000000,"state":"active","ping":85},{"user_id":798,"name":"Jw. www.vaticancatholic.com","steam_id":76561198190170075,"connected_time":368000000000,"state":"active","ping":79},{"user_id":800,"name":"bladees realest, saddest verse","steam_id":76561198098099826,"connected_time":218000000000,"state":"active","ping":63},{"user_id":734,"name":"くコ:彡","steam_id":76561199200969139,"connected_time":4262000000000,"state":"active","ping":97},{"user_id":769,"name":"wetto","steam_id":76561198224811504,"connected_time":2696000000000,"state":"active","ping":59},{"user_id":795,"name":"diigdugg","steam_id":76561198172581861,"connected_time":626000000000,"state":"active","ping":32},{"user_id":782,"name":"sonic1394","steam_id":76561198054636788,"connected_time":1346000000000,"state":"active","ping":75},{"user_id":794,"name":"The Great Karizma!","steam_id":76561198346191193,"connected_time":732000000000,"state":"active","ping":66},{"user_id":797,"name":"No, this is Patrick","steam_id":76561198058776774,"connected_time":387000000000,"state":"active","ping":63},{"user_id":799,"name":"zzzz","steam_id":76561198310495200,"connected_time":339000000000,"state":"active","ping":75},{"user_id":804,"name":"ballmuncher29","steam_id":76561199122915452,"connected_time":63000000000,"state":"active","ping":103},{"user_id":781,"name":"leopardo123atl","steam_id":76561198872648238,"connected_time":1510000000000,"state":"active","ping":60},{"user_id":790,"name":"Tuffcookie34","steam_id":76561198309031637,"connected_time":1164000000000,"state":"active","ping":56},{"user_id":766,"name":"sloth (lawful good)","steam_id":76561198047098172,"connected_time":3286000000000,"state":"active","ping":89},{"user_id":793,"name":"reis","steam_id":76561199232952016,"connected_time":850000000000,"state":"active","ping":179},{"user_id":718,"name":"Jetstream Sam","steam_id":76561198842076296,"connected_time":4653000000000,"state":"active","ping":44},{"user_id":762,"name":"Pie™","steam_id":76561198158312625,"connected_time":3628000000000,"state":"active","ping":111},{"user_id":802,"name":"confield","steam_id":76561198004322265,"connected_time":116000000000,"state":"active","ping":66}]},{"server_id":404,"name":"Uncletopia | Dallas | 3 | All Maps","name_short":"dal-3","host":"dal-1.us.uncletopia.com","port":27035,"enabled":true,"region":"us-central","cc":"us","latitude":32.779167,"longitude":-96.80889,"reserved":0,"last_update":"0001-01-01T00:00:00Z","name_a2s":"Uncletopia | Dallas | 3 | All Maps","protocol":17,"map":"ctf_2fort","folder":"tf","game":"Team Fortress","app_id":440,"player_count":0,"max_players":24,"Bots":0,"server_type":"Dedicated","server_os":"Linux","password":true,"vac":true,"version":"7961495","steam_id":85568392924515219,"keywords":["ctf","nocrits","nodmgspread","uncletopia"],"game_id":440,"stv_port":27036,"stv_name":"Uncletopia | Dallas | 3 | All Maps | STV","players":null},{"server_id":405,"name":"Uncletopia | Dallas | 4 | Community","name_short":"dal-4","host":"dal-1.us.uncletopia.com","port":27045,"enabled":true,"region":"us-central","cc":"us","latitude":32.779167,"longitude":-96.80889,"reserved":0,"last_update":"0001-01-01T00:00:00Z","name_a2s":"Uncletopia | Dallas | 4 | Community","protocol":17,"map":"workshop/koth_synthetic_rc6a.ugc1549817316","folder":"tf","game":"Team Fortress","app_id":440,"player_count":0,"max_players":24,"Bots":0,"server_type":"Dedicated","server_os":"Linux","password":true,"vac":true,"version":"7961495","steam_id":85568392924515220,"keywords":["cp","nocrits","nodmgspread","uncletopia"],"game_id":440,"stv_port":27046,"stv_name":"Uncletopia | Dallas | 4 | Community | STV","players":null},{"server_id":5,"name":"Uncletopia | Frankfurt | 1 | All Maps","name_short":"frk-1","host":"frk-1.de.uncletopia.com","port":27015,"enabled":true,"region":"eu","cc":"de","latitude":50.110924,"longitude":8.682127,"reserved":0,"last_update":"0001-01-01T00:00:00Z","name_a2s":"Uncletopia | Frankfurt | 1 | All Maps","protocol":17,"map":"cp_badlands","folder":"tf","game":"Team Fortress","app_id":440,"player_count":0,"max_players":24,"Bots":0,"server_type":"Dedicated","server_os":"Linux","password":true,"vac":true,"version":"7961495","steam_id":85568392924469989,"keywords":["cp","nocrits","nodmgspread","uncletopia"],"game_id":440,"stv_port":27016,"stv_name":"Uncletopia | Frankfurt | 1 | All Maps | STV","players":null},{"server_id":110,"name":"Uncletopia | Frankfurt | 2 | All Maps","name_short":"frk-2","host":"frk-1.de.uncletopia.com","port":27025,"enabled":true,"region":"eu","cc":"de","latitude":50.110924,"longitude":8.682127,"reserved":0,"last_update":"0001-01-01T00:00:00Z","name_a2s":"Uncletopia | Frankfurt | 2 | All Maps","protocol":17,"map":"plr_hightower","folder":"tf","game":"Team Fortress","app_id":440,"player_count":0,"max_players":24,"Bots":0,"server_type":"Dedicated","server_os":"Linux","password":true,"vac":true,"version":"7961495","steam_id":85568392924469990,"keywords":["nocrits","nodmgspread","payload","uncletopia"],"game_id":440,"stv_port":27026,"stv_name":"Uncletopia | Frankfurt | 2 | All Maps | STV","players":null},{"server_id":308,"name":"Uncletopia | Frankfurt | 3 | All Maps","name_short":"frk-3","host":"frk-1.de.uncletopia.com","port":27035,"enabled":true,"region":"eu","cc":"de","latitude":50.110924,"longitude":8.682127,"reserved":0,"last_update":"0001-01-01T00:00:00Z","name_a2s":"Uncletopia | Frankfurt | 3 | All Maps","protocol":17,"map":"cp_metalworks","folder":"tf","game":"Team Fortress","app_id":440,"player_count":0,"max_players":24,"Bots":0,"server_type":"Dedicated","server_os":"Linux","password":true,"vac":true,"version":"7961495","steam_id":85568392924504274,"keywords":["cp","nocrits","nodmgspread","uncletopia"],"game_id":440,"stv_port":27036,"stv_name":"Uncletopia | Frankfurt | 3 | All Maps | STV","players":null},{"server_id":309,"name":"Uncletopia | Frankfurt | 4 | All Maps","name_short":"frk-4","host":"frk-1.de.uncletopia.com","port":27045,"enabled":true,"region":"eu","cc":"de","latitude":50.110924,"longitude":8.682127,"reserved":0,"last_update":"0001-01-01T00:00:00Z","name_a2s":"Uncletopia | Frankfurt | 4 | All Maps","protocol":17,"map":"cp_gorge","folder":"tf","game":"Team Fortress","app_id":440,"player_count":0,"max_players":24,"Bots":0,"server_type":"Dedicated","server_os":"Linux","password":true,"vac":true,"version":"7961495","steam_id":85568392924504275,"keywords":["cp","nocrits","nodmgspread","uncletopia"],"game_id":440,"stv_port":27046,"stv_name":"Uncletopia | Frankfurt | 4 | All Maps | STV","players":null},{"server_id":310,"name":"Uncletopia | Frankfurt | 5 | All Maps","name_short":"frk-5","host":"frk-1.de.uncletopia.com","port":27055,"enabled":true,"region":"eu","cc":"de","latitude":50.110924,"longitude":8.682127,"reserved":0,"last_update":"0001-01-01T00:00:00Z","name_a2s":"Uncletopia | Frankfurt | 5 | All Maps","protocol":17,"map":"cp_mountainlab","folder":"tf","game":"Team Fortress","app_id":440,"player_count":0,"max_players":24,"Bots":0,"server_type":"Dedicated","server_os":"Linux","password":true,"vac":true,"version":"7961495","steam_id":85568392924504277,"keywords":["cp","nocrits","nodmgspread","uncletopia"],"game_id":440,"stv_port":27056,"stv_name":"Uncletopia | Frankfurt | 5 | All Maps | STV","players":null},{"server_id":311,"name":"Uncletopia | Frankfurt | 6 | All Maps","name_short":"frk-6","host":"frk-1.de.uncletopia.com","port":27065,"enabled":true,"region":"eu","cc":"de","latitude":50.110924,"longitude":8.682127,"reserved":0,"last_update":"0001-01-01T00:00:00Z","name_a2s":"Uncletopia | Frankfurt | 6 | All Maps","protocol":17,"map":"cp_coldfront","folder":"tf","game":"Team Fortress","app_id":440,"player_count":0,"max_players":24,"Bots":0,"server_type":"Dedicated","server_os":"Linux","password":true,"vac":true,"version":"7961495","steam_id":85568392924504278,"keywords":["cp","nocrits","nodmgspread","uncletopia"],"game_id":440,"stv_port":27066,"stv_name":"Uncletopia | Frankfurt | 6 | All Maps | STV","players":null},{"server_id":23,"name":"Uncletopia | Frankfurt | 7 | Stopwatch","name_short":"frk-7","host":"frk-1.de.uncletopia.com","port":27075,"enabled":true,"region":"eu","cc":"de","latitude":50.110924,"longitude":8.682127,"reserved":0,"last_update":"0001-01-01T00:00:00Z","name_a2s":"Uncletopia | Frankfurt | 7 | Stopwatch","protocol":17,"map":"cp_sunshine","folder":"tf","game":"Team Fortress","app_id":440,"player_count":0,"max_players":24,"Bots":0,"server_type":"Dedicated","server_os":"Linux","password":true,"vac":true,"version":"7961495","steam_id":85568392924742827,"keywords":["cp","nocrits","nodmgspread","uncletopia"],"game_id":440,"stv_port":27076,"stv_name":"Uncletopia | Frankfurt | 7 | Stopwatch | STV","players":null},{"server_id":24,"name":"Uncletopia | Frankfurt | 8 | Community","name_short":"frk-8","host":"frk-1.de.uncletopia.com","port":27085,"enabled":true,"region":"eu","cc":"de","latitude":50.110924,"longitude":8.682127,"reserved":0,"last_update":"0001-01-01T00:00:00Z","name_a2s":"Uncletopia | Frankfurt | 8 | Community","protocol":17,"map":"workshop/pl_boundary_final1.ugc456799153","folder":"tf","game":"Team Fortress","app_id":440,"player_count":0,"max_players":24,"Bots":0,"server_type":"Dedicated","server_os":"Linux","password":true,"vac":true,"version":"7961495","steam_id":85568392924742828,"keywords":["nocrits","nodmgspread","payload","uncletopia"],"game_id":440,"stv_port":27086,"stv_name":"Uncletopia | Frankfurt | 8 | Community | STV","players":null},{"server_id":202,"name":"Uncletopia | Hong Kong | 1 | All Maps","name_short":"hgk-1","host":"hgk-1.hk.uncletopia.com","port":27015,"enabled":true,"region":"asia","cc":"hk","latitude":22.302711,"longitude":114.177216,"reserved":0,"last_update":"0001-01-01T00:00:00Z","name_a2s":"Uncletopia | Hong Kong | 1 | All Maps","protocol":17,"map":"koth_king","folder":"tf","game":"Team Fortress","app_id":440,"player_count":7,"max_players":24,"Bots":0,"server_type":"Dedicated","server_os":"Linux","password":true,"vac":true,"version":"7961495","steam_id":85568392924494504,"keywords":["cp","nocrits","nodmgspread","uncletopia"],"game_id":440,"stv_port":27016,"stv_name":"Uncletopia | Hong Kong | 1 | All Maps | STV","players":[{"user_id":17,"name":"No. 1 LeMickey Hater","steam_id":76561199219484527,"connected_time":900000000000,"state":"active","ping":117},{"user_id":12,"name":"force","steam_id":76561199109339247,"connected_time":2025000000000,"state":"active","ping":73},{"user_id":18,"name":"i am a F2P and my aim is shit","steam_id":76561199475974790,"connected_time":590000000000,"state":"active","ping":68},{"user_id":19,"name":"Manjor","steam_id":76561199445694770,"connected_time":561000000000,"state":"active","ping":179},{"user_id":22,"name":"TomProPlayer","steam_id":76561199223292521,"connected_time":422000000000,"state":"active","ping":49},{"user_id":21,"name":"Jaguar Man","steam_id":76561199217301059,"connected_time":490000000000,"state":"active","ping":97},{"user_id":23,"name":"BabyLove","steam_id":76561198412865680,"connected_time":154000000000,"state":"active","ping":37}]},{"server_id":1,"name":"Uncletopia | Los Angeles | 1 | All Maps","name_short":"lax-1","host":"lax-1.us.uncletopia.com","port":27015,"enabled":true,"region":"us-west","cc":"us","latitude":33.94279,"longitude":-118.41004,"reserved":0,"last_update":"0001-01-01T00:00:00Z","name_a2s":"Uncletopia | Los Angeles | 1 | All Maps","protocol":17,"map":"pl_pier","folder":"tf","game":"Team Fortress","app_id":440,"player_count":24,"max_players":24,"Bots":0,"server_type":"Dedicated","server_os":"Linux","password":true,"vac":true,"version":"7961495","steam_id":85568392924469991,"keywords":["nocrits","nodmgspread","payload","uncletopia"],"game_id":440,"stv_port":27016,"stv_name":"Uncletopia | Los Angeles | 1 | All Maps | STV","players":[{"user_id":228,"name":"Cinnifox","steam_id":76561198068773971,"connected_time":407000000000,"state":"active","ping":57},{"user_id":218,"name":"MasterGeek.MX","steam_id":76561198063355220,"connected_time":814000000000,"state":"active","ping":115},{"user_id":189,"name":"solitaire","steam_id":76561198964025682,"connected_time":2771000000000,"state":"active","ping":40},{"user_id":224,"name":"Farseer Ulwithy","steam_id":76561197965179245,"connected_time":564000000000,"state":"active","ping":92},{"user_id":214,"name":"cheeto dorito","steam_id":76561198107941274,"connected_time":920000000000,"state":"active","ping":46},{"user_id":176,"name":"Antzen","steam_id":76561198041343470,"connected_time":3894000000000,"state":"active","ping":64},{"user_id":222,"name":"EchoicK","steam_id":76561198001003249,"connected_time":783000000000,"state":"active","ping":104},{"user_id":202,"name":"seahomebear","steam_id":76561198136548349,"connected_time":2084000000000,"state":"active","ping":48},{"user_id":211,"name":"Drive-By-Fish-Guy","steam_id":76561198105513652,"connected_time":1181000000000,"state":"active","ping":48},{"user_id":220,"name":"Drapph","steam_id":76561199384213314,"connected_time":805000000000,"state":"active","ping":105},{"user_id":232,"name":"Salt Baron","steam_id":76561198073417386,"connected_time":196000000000,"state":"active","ping":59},{"user_id":183,"name":"Lightning Bolt 1O1","steam_id":76561199099630600,"connected_time":3379000000000,"state":"active","ping":57},{"user_id":195,"name":"Urban","steam_id":76561198840725170,"connected_time":2695000000000,"state":"active","ping":104},{"user_id":226,"name":"Bee's","steam_id":76561198041888432,"connected_time":500000000000,"state":"active","ping":81},{"user_id":225,"name":"trackpad gaming | f2p","steam_id":76561198840414371,"connected_time":561000000000,"state":"active","ping":77},{"user_id":234,"name":"Igrium","steam_id":76561198119549811,"connected_time":108000000000,"state":"active","ping":60},{"user_id":207,"name":"suck it sideways","steam_id":76561198327633561,"connected_time":1409000000000,"state":"active","ping":51},{"user_id":233,"name":"Harley [Ramiel]","steam_id":76561198079510840,"connected_time":156000000000,"state":"active","ping":69},{"user_id":206,"name":"Mr.Rogers","steam_id":76561198043878683,"connected_time":1769000000000,"state":"active","ping":56},{"user_id":185,"name":"Dreamzapp","steam_id":76561199084936632,"connected_time":3116000000000,"state":"active","ping":56},{"user_id":229,"name":"for the king","steam_id":76561197973488858,"connected_time":366000000000,"state":"active","ping":102},{"user_id":181,"name":"fug","steam_id":76561198105374054,"connected_time":3532000000000,"state":"active","ping":73},{"user_id":230,"name":"Soft copper wings","steam_id":76561198092317849,"connected_time":282000000000,"state":"active","ping":54},{"user_id":210,"name":"Sak","steam_id":76561198307655707,"connected_time":1313000000000,"state":"active","ping":45}]},{"server_id":112,"name":"Uncletopia | Los Angeles | 2 | All Maps","name_short":"lax-2","host":"lax-1.us.uncletopia.com","port":27025,"enabled":true,"region":"us-west","cc":"us","latitude":33.94279,"longitude":-118.41004,"reserved":0,"last_update":"0001-01-01T00:00:00Z","name_a2s":"Uncletopia | Los Angeles | 2 | All Maps","protocol":17,"map":"pl_badwater","folder":"tf","game":"Team Fortress","app_id":440,"player_count":24,"max_players":24,"Bots":0,"server_type":"Dedicated","server_os":"Linux","password":true,"vac":true,"version":"7961495","steam_id":85568392924469992,"keywords":["nocrits","nodmgspread","payload","uncletopia"],"game_id":440,"stv_port":27026,"stv_name":"Uncletopia | Los Angeles | 2 | All Maps | STV","players":[{"user_id":296,"name":"HOVY GAMING (REAL)","steam_id":76561199210311096,"connected_time":990000000000,"state":"active","ping":128},{"user_id":233,"name":"Petrivus","steam_id":76561198202152453,"connected_time":2211000000000,"state":"active","ping":60},{"user_id":310,"name":"Pixelated Pussy","steam_id":76561198002511088,"connected_time":193000000000,"state":"active","ping":34},{"user_id":303,"name":"epsilon","steam_id":76561198025337276,"connected_time":609000000000,"state":"active","ping":46},{"user_id":192,"name":"JanPinyon610","steam_id":76561199238454799,"connected_time":3373000000000,"state":"active","ping":70},{"user_id":306,"name":"BakedAlaskan","steam_id":76561197993543230,"connected_time":368000000000,"state":"active","ping":56},{"user_id":301,"name":"Grill Skills","steam_id":76561198053575147,"connected_time":740000000000,"state":"active","ping":74},{"user_id":170,"name":"Mike Bean Burritos","steam_id":76561198173430607,"connected_time":5130000000000,"state":"active","ping":79},{"user_id":302,"name":"josie","steam_id":76561198170848553,"connected_time":669000000000,"state":"active","ping":75},{"user_id":275,"name":"estrogen in my vape juice","steam_id":76561198068387373,"connected_time":1450000000000,"state":"active","ping":56},{"user_id":293,"name":"Dova","steam_id":76561198079481047,"connected_time":1115000000000,"state":"active","ping":46},{"user_id":245,"name":"voidby ♦","steam_id":76561198146697462,"connected_time":2000000000000,"state":"active","ping":47},{"user_id":299,"name":"AilurosMajor88","steam_id":76561198350900640,"connected_time":850000000000,"state":"active","ping":77},{"user_id":201,"name":"cream team","steam_id":76561198139043953,"connected_time":3103000000000,"state":"active","ping":60},{"user_id":307,"name":"earthDF","steam_id":76561198026084025,"connected_time":359000000000,"state":"active","ping":45},{"user_id":198,"name":"Zeodexic","steam_id":76561198055636655,"connected_time":3271000000000,"state":"active","ping":108},{"user_id":238,"name":"just took estrogen ama :3","steam_id":76561198039225492,"connected_time":2106000000000,"state":"active","ping":56},{"user_id":300,"name":"Convenient Strip Mall","steam_id":76561198164678062,"connected_time":842000000000,"state":"active","ping":55},{"user_id":202,"name":"Irony is pretty cringy","steam_id":76561198120391460,"connected_time":3031000000000,"state":"active","ping":46},{"user_id":308,"name":"BLØRG","steam_id":76561198036126673,"connected_time":354000000000,"state":"active","ping":89},{"user_id":183,"name":"⛧ AlphaSatanOmega ⛧","steam_id":76561198035125511,"connected_time":3863000000000,"state":"active","ping":96},{"user_id":309,"name":"Arkán","steam_id":76561198205702933,"connected_time":347000000000,"state":"active","ping":70},{"user_id":153,"name":"chimplicity","steam_id":76561198012097062,"connected_time":7108000000000,"state":"active","ping":59},{"user_id":222,"name":"john.","steam_id":76561198982939658,"connected_time":2445000000000,"state":"active","ping":54}]},{"server_id":324,"name":"Uncletopia | Los Angeles | 3 | All Maps","name_short":"lax-3","host":"lax-1.us.uncletopia.com","port":27035,"enabled":true,"region":"us-west","cc":"us","latitude":33.94279,"longitude":-118.41004,"reserved":0,"last_update":"0001-01-01T00:00:00Z","name_a2s":"Uncletopia | Los Angeles | 3 | All Maps","protocol":17,"map":"cp_sunshine","folder":"tf","game":"Team Fortress","app_id":440,"player_count":0,"max_players":24,"Bots":0,"server_type":"Dedicated","server_os":"Linux","password":true,"vac":true,"version":"7961495","steam_id":85568392924510198,"keywords":["cp","nocrits","nodmgspread","uncletopia"],"game_id":440,"stv_port":27036,"stv_name":"Uncletopia | Los Angeles | 3 | All Maps | STV","players":null},{"server_id":25,"name":"Uncletopia | Los Angeles | 4 | Stopwatch","name_short":"lax-4","host":"lax-1.us.uncletopia.com","port":27045,"enabled":true,"region":"us-west","cc":"us","latitude":33.94279,"longitude":-118.41004,"reserved":0,"last_update":"0001-01-01T00:00:00Z","name_a2s":"Uncletopia | Los Angeles | 4 | Stopwatch","protocol":17,"map":"workshop/koth_jamram_rc1a.ugc2964065613","folder":"tf","game":"Team Fortress","app_id":440,"player_count":0,"max_players":24,"Bots":0,"server_type":"Dedicated","server_os":"Linux","password":true,"vac":true,"version":"7961495","steam_id":85568392924510199,"keywords":["cp","nocrits","nodmgspread","uncletopia"],"game_id":440,"stv_port":27046,"stv_name":"Uncletopia | Los Angeles | 4 | Stopwatch | STV","players":null},{"server_id":11,"name":"Uncletopia | London | 1 | All Maps","name_short":"lon-1","host":"lon-1.uk.uncletopia.com","port":27015,"enabled":true,"region":"eu","cc":"gb","latitude":51.509865,"longitude":-0.118092,"reserved":0,"last_update":"0001-01-01T00:00:00Z","name_a2s":"Uncletopia | London | 1 | All Maps","protocol":17,"map":"pl_barnblitz","folder":"tf","game":"Team Fortress","app_id":440,"player_count":1,"max_players":24,"Bots":0,"server_type":"Dedicated","server_os":"Linux","password":true,"vac":true,"version":"7961495","steam_id":85568392924367362,"keywords":["nocrits","nodmgspread","payload","uncletopia"],"game_id":440,"stv_port":27016,"stv_name":"Uncletopia | London | 1 | All Maps | STV","players":[{"user_id":5,"name":"Xens","steam_id":76561198208839507,"connected_time":76000000000,"state":"active","ping":96}]},{"server_id":114,"name":"Uncletopia | London | 2 | All Maps","name_short":"lon-2","host":"lon-1.uk.uncletopia.com","port":27025,"enabled":true,"region":"eu","cc":"gb","latitude":51.509865,"longitude":-0.118092,"reserved":0,"last_update":"0001-01-01T00:00:00Z","name_a2s":"Uncletopia | London | 2 | All Maps","protocol":17,"map":"pl_snowycoast","folder":"tf","game":"Team Fortress","app_id":440,"player_count":0,"max_players":24,"Bots":0,"server_type":"Dedicated","server_os":"Linux","password":true,"vac":true,"version":"7961495","steam_id":85568392924470941,"keywords":["nocrits","nodmgspread","payload","uncletopia"],"game_id":440,"stv_port":27026,"stv_name":"Uncletopia | London | 2 | All Maps | STV","players":null},{"server_id":320,"name":"Uncletopia | London | 3 | All Maps","name_short":"lon-3","host":"lon-1.uk.uncletopia.com","port":27035,"enabled":true,"region":"eu","cc":"gb","latitude":51.509865,"longitude":-0.118092,"reserved":0,"last_update":"0001-01-01T00:00:00Z","name_a2s":"Uncletopia | London | 3 | All Maps","protocol":17,"map":"koth_lakeside_final","folder":"tf","game":"Team Fortress","app_id":440,"player_count":0,"max_players":24,"Bots":0,"server_type":"Dedicated","server_os":"Linux","password":true,"vac":true,"version":"7961495","steam_id":85568392924510192,"keywords":["cp","nocrits","nodmgspread","uncletopia"],"game_id":440,"stv_port":27036,"stv_name":"Uncletopia | London | 3 | All Maps | STV","players":null},{"server_id":321,"name":"Uncletopia | London | 4 | All Maps","name_short":"lon-4","host":"lon-1.uk.uncletopia.com","port":27045,"enabled":true,"region":"eu","cc":"gb","latitude":51.509865,"longitude":-0.118092,"reserved":0,"last_update":"0001-01-01T00:00:00Z","name_a2s":"Uncletopia | London | 4 | All Maps","protocol":17,"map":"pl_badwater","folder":"tf","game":"Team Fortress","app_id":440,"player_count":0,"max_players":24,"Bots":0,"server_type":"Dedicated","server_os":"Linux","password":true,"vac":true,"version":"7961495","steam_id":85568392924510193,"keywords":["nocrits","nodmgspread","payload","uncletopia"],"game_id":440,"stv_port":27046,"stv_name":"Uncletopia | London | 4 | All Maps | STV","players":null},{"server_id":21,"name":"Uncletopia | London | 5 | All Maps","name_short":"lon-5","host":"lon-1.uk.uncletopia.com","port":27055,"enabled":true,"region":"eu","cc":"gb","latitude":51.509865,"longitude":-0.118092,"reserved":0,"last_update":"0001-01-01T00:00:00Z","name_a2s":"Uncletopia | London | 5 | All Maps","protocol":17,"map":"koth_lazarus","folder":"tf","game":"Team Fortress","app_id":440,"player_count":0,"max_players":24,"Bots":0,"server_type":"Dedicated","server_os":"Linux","password":true,"vac":true,"version":"7961495","steam_id":85568392924742829,"keywords":["cp","nocrits","nodmgspread","uncletopia"],"game_id":440,"stv_port":27056,"stv_name":"Uncletopia | London | 5 | All Maps | STV","players":null},{"server_id":22,"name":"Uncletopia | London | 6 | All Maps","name_short":"lon-6","host":"lon-1.uk.uncletopia.com","port":27065,"enabled":true,"region":"eu","cc":"gb","latitude":51.509865,"longitude":-0.118092,"reserved":0,"last_update":"0001-01-01T00:00:00Z","name_a2s":"Uncletopia | London | 6 | All Maps","protocol":17,"map":"cp_snakewater_final1","folder":"tf","game":"Team Fortress","app_id":440,"player_count":0,"max_players":24,"Bots":0,"server_type":"Dedicated","server_os":"Linux","password":true,"vac":true,"version":"7961495","steam_id":85568392924742830,"keywords":["cp","nocrits","nodmgspread","uncletopia"],"game_id":440,"stv_port":27066,"stv_name":"Uncletopia | London | 6 | All Maps | STV","players":null},{"server_id":40,"name":"Uncletopia | London | 7 | Stopwatch","name_short":"lon-7","host":"lon-1.uk.uncletopia.com","port":27075,"enabled":true,"region":"eu","cc":"gb","latitude":51.509865,"longitude":-0.118092,"reserved":0,"last_update":"0001-01-01T00:00:00Z","name_a2s":"Uncletopia | London | 7 | Stopwatch","protocol":17,"map":"workshop/pl_badwater_pro_v12.ugc2142942074","folder":"tf","game":"Team Fortress","app_id":440,"player_count":0,"max_players":24,"Bots":0,"server_type":"Dedicated","server_os":"Linux","password":true,"vac":true,"version":"7961495","steam_id":85568392924964314,"keywords":["nocrits","nodmgspread","payload","uncletopia"],"game_id":440,"stv_port":27076,"stv_name":"Uncletopia | London | 7 | Stopwatch | STV","players":null},{"server_id":41,"name":"Uncletopia | London | 8 | Community","name_short":"lon-8","host":"lon-1.uk.uncletopia.com","port":27085,"enabled":true,"region":"eu","cc":"gb","latitude":51.509865,"longitude":-0.118092,"reserved":0,"last_update":"0001-01-01T00:00:00Z","name_a2s":"Uncletopia | London | 8 | Community","protocol":17,"map":"workshop/cp_villa_b19.ugc2113052569","folder":"tf","game":"Team Fortress","app_id":440,"player_count":0,"max_players":24,"Bots":0,"server_type":"Dedicated","server_os":"Linux","password":true,"vac":true,"version":"7961495","steam_id":85568392924964315,"keywords":["cp","nocrits","nodmgspread","uncletopia"],"game_id":440,"stv_port":27086,"stv_name":"Uncletopia | London | 8 | Community | STV","players":null},{"server_id":300,"name":"Uncletopia | Montréal | 1 | One Thousand Uncles","name_short":"mtl-1","host":"mtl-1.ca.uncletopia.com","port":27015,"enabled":true,"region":"us-east","cc":"ca","latitude":45.50889,"longitude":-73.56167,"reserved":0,"last_update":"0001-01-01T00:00:00Z","name_a2s":"Uncletopia | Montréal | 1 | One Thousand Uncles","protocol":17,"map":"pl_snowycoast","folder":"tf","game":"Team Fortress","app_id":440,"player_count":0,"max_players":32,"Bots":0,"server_type":"Dedicated","server_os":"Linux","password":true,"vac":true,"version":"7961495","steam_id":85568392924500087,"keywords":["alltalk","danepve","increased_maxplayers","norespawntime","payload","uncletopia"],"game_id":440,"stv_port":0,"stv_name":"","players":null},{"server_id":301,"name":"Uncletopia | Montréal | 2 | One Thousand Uncles","name_short":"mtl-2","host":"mtl-1.ca.uncletopia.com","port":27025,"enabled":true,"region":"us-east","cc":"ca","latitude":45.50889,"longitude":-73.56167,"reserved":0,"last_update":"0001-01-01T00:00:00Z","name_a2s":"Uncletopia | Montréal | 2 | One Thousand Uncles","protocol":17,"map":"pl_goldrush","folder":"tf","game":"Team Fortress","app_id":440,"player_count":0,"max_players":32,"Bots":0,"server_type":"Dedicated","server_os":"Linux","password":true,"vac":true,"version":"7961495","steam_id":85568392924500088,"keywords":["alltalk","danepve","increased_maxplayers","norespawntime","payload","uncletopia"],"game_id":440,"stv_port":0,"stv_name":"","players":null},{"server_id":302,"name":"Uncletopia | Montréal | 3 | One Thousand Uncles","name_short":"mtl-3","host":"mtl-1.ca.uncletopia.com","port":27035,"enabled":true,"region":"us-east","cc":"ca","latitude":45.50889,"longitude":-73.56167,"reserved":0,"last_update":"0001-01-01T00:00:00Z","name_a2s":"Uncletopia | Montréal | 3 | One Thousand Uncles","protocol":17,"map":"pl_pier","folder":"tf","game":"Team Fortress","app_id":440,"player_count":0,"max_players":32,"Bots":0,"server_type":"Dedicated","server_os":"Linux","password":true,"vac":true,"version":"7961495","steam_id":85568392924500089,"keywords":["alltalk","danepve","increased_maxplayers","norespawntime","payload","uncletopia"],"game_id":440,"stv_port":0,"stv_name":"","players":null},{"server_id":13,"name":"Uncletopia | New York City | 1 | All Maps","name_short":"nyc-1","host":"nyc-1.us.uncletopia.com","port":27015,"enabled":true,"region":"us-east","cc":"us","latitude":40.73061,"longitude":-73.93524,"reserved":0,"last_update":"0001-01-01T00:00:00Z","name_a2s":"Uncletopia | New York City | 1 | All Maps","protocol":17,"map":"koth_cascade","folder":"tf","game":"Team Fortress","app_id":440,"player_count":21,"max_players":24,"Bots":0,"server_type":"Dedicated","server_os":"Linux","password":true,"vac":true,"version":"7961495","steam_id":85568392924469993,"keywords":["cp","nocrits","nodmgspread","uncletopia"],"game_id":440,"stv_port":27016,"stv_name":"Uncletopia | New York City | 1 | All Maps | STV","players":[{"user_id":918,"name":"medd","steam_id":76561198078238722,"connected_time":5562000000000,"state":"active","ping":110},{"user_id":970,"name":"THE MENACE","steam_id":76561198312055294,"connected_time":1493000000000,"state":"active","ping":49},{"user_id":983,"name":"Blobbyfish","steam_id":76561198822962650,"connected_time":877000000000,"state":"active","ping":38},{"user_id":925,"name":"Vincent Van Ghoul","steam_id":76561198271907916,"connected_time":5250000000000,"state":"active","ping":50},{"user_id":986,"name":"Pepsi","steam_id":76561198401918732,"connected_time":531000000000,"state":"active","ping":66},{"user_id":964,"name":"babaghanoush","steam_id":76561198209152288,"connected_time":1828000000000,"state":"active","ping":83},{"user_id":994,"name":"fuckhead","steam_id":76561199508390124,"connected_time":73000000000,"state":"active","ping":122},{"user_id":969,"name":"DA GOOFY MENACE ^_^ \u003c3","steam_id":76561198832230598,"connected_time":1498000000000,"state":"active","ping":60},{"user_id":947,"name":"neil","steam_id":76561198122666918,"connected_time":2896000000000,"state":"active","ping":58},{"user_id":987,"name":"Ivalerii","steam_id":76561198987227359,"connected_time":484000000000,"state":"active","ping":164},{"user_id":988,"name":"YolkOnYou","steam_id":76561198088760655,"connected_time":444000000000,"state":"active","ping":127},{"user_id":995,"name":"Yongle","steam_id":76561198068591156,"connected_time":60000000000,"state":"active","ping":66},{"user_id":989,"name":"Alexidoodles","steam_id":76561198414487405,"connected_time":361000000000,"state":"active","ping":72},{"user_id":996,"name":"SevenSuns","steam_id":76561198434263375,"connected_time":47000000000,"state":"active","ping":74},{"user_id":997,"name":"TheHumanTaco119","steam_id":76561198996107520,"connected_time":14000000000,"state":"spawning","ping":104},{"user_id":993,"name":"TheDragoniar","steam_id":76561198347102664,"connected_time":274000000000,"state":"active","ping":140},{"user_id":982,"name":"Whisk #GOOD GAMER","steam_id":76561198272318229,"connected_time":1116000000000,"state":"active","ping":66},{"user_id":956,"name":"Alejandro","steam_id":76561197970051493,"connected_time":2201000000000,"state":"active","ping":131},{"user_id":992,"name":"Charlie","steam_id":76561199098209171,"connected_time":300000000000,"state":"active","ping":74},{"user_id":981,"name":"Strange Diplomat","steam_id":76561198428191920,"connected_time":1261000000000,"state":"active","ping":116},{"user_id":967,"name":"$FMKUP$//:Fob Fenty","steam_id":76561198079623027,"connected_time":1689000000000,"state":"active","ping":90}]},{"server_id":14,"name":"Uncletopia | New York City | 2 | All Maps","name_short":"nyc-2","host":"nyc-1.us.uncletopia.com","port":27025,"enabled":true,"region":"us-east","cc":"us","latitude":40.73061,"longitude":-73.93524,"reserved":0,"last_update":"0001-01-01T00:00:00Z","name_a2s":"Uncletopia | New York City | 2 | All Maps","protocol":17,"map":"cp_process_final","folder":"tf","game":"Team Fortress","app_id":440,"player_count":0,"max_players":24,"Bots":0,"server_type":"Dedicated","server_os":"Linux","password":true,"vac":true,"version":"7961495","steam_id":85568392924469994,"keywords":["cp","nocrits","nodmgspread","uncletopia"],"game_id":440,"stv_port":27026,"stv_name":"Uncletopia | New York City | 2 | All Maps | STV","players":null},{"server_id":15,"name":"Uncletopia | New York City | 3 | Stopwatch","name_short":"nyc-3","host":"nyc-1.us.uncletopia.com","port":27035,"enabled":true,"region":"us-east","cc":"us","latitude":40.73061,"longitude":-73.93524,"reserved":0,"last_update":"0001-01-01T00:00:00Z","name_a2s":"Uncletopia | New York City | 3 | Stopwatch","protocol":17,"map":"workshop/koth_ashville_final.ugc2130459942","folder":"tf","game":"Team Fortress","app_id":440,"player_count":0,"max_players":24,"Bots":0,"server_type":"Dedicated","server_os":"Linux","password":true,"vac":true,"version":"7961495","steam_id":85568392924742820,"keywords":["cp","nocrits","nodmgspread","uncletopia"],"game_id":440,"stv_port":27036,"stv_name":"Uncletopia | New York City | 3 | Stopwatch | STV","players":null},{"server_id":16,"name":"Uncletopia | New York City | 4 | Community","name_short":"nyc-4","host":"nyc-1.us.uncletopia.com","port":27045,"enabled":true,"region":"us-east","cc":"us","latitude":40.73061,"longitude":-73.93524,"reserved":0,"last_update":"0001-01-01T00:00:00Z","name_a2s":"Uncletopia | New York City | 4 | Community","protocol":17,"map":"workshop/koth_slaughter_rc1.ugc1712845210","folder":"tf","game":"Team Fortress","app_id":440,"player_count":0,"max_players":24,"Bots":0,"server_type":"Dedicated","server_os":"Linux","password":true,"vac":true,"version":"7961495","steam_id":85568392924742821,"keywords":["cp","nocrits","nodmgspread","uncletopia"],"game_id":440,"stv_port":27046,"stv_name":"Uncletopia | New York City | 4 | Community | STV","players":null},{"server_id":142,"name":"Uncletopia | São Paulo | 1 | All Maps","name_short":"sao-1","host":"sao-1.br.uncletopia.com","port":27015,"enabled":true,"region":"sa","cc":"br","latitude":-23.533773,"longitude":-46.62529,"reserved":0,"last_update":"0001-01-01T00:00:00Z","name_a2s":"Uncletopia | São Paulo | 1 | All Maps","protocol":17,"map":"koth_cascade","folder":"tf","game":"Team Fortress","app_id":440,"player_count":0,"max_players":24,"Bots":0,"server_type":"Dedicated","server_os":"Linux","password":true,"vac":true,"version":"7961495","steam_id":85568392924469996,"keywords":["cp","nocrits","nodmgspread","uncletopia"],"game_id":440,"stv_port":27016,"stv_name":"Uncletopia | São Paulo | 1 | All Maps | STV","players":null},{"server_id":143,"name":"Uncletopia | São Paulo | 2 | Community","name_short":"sao-2","host":"sao-2.br.uncletopia.com","port":27015,"enabled":true,"region":"sa","cc":"br","latitude":-23.533773,"longitude":-46.62529,"reserved":0,"last_update":"0001-01-01T00:00:00Z","name_a2s":"Uncletopia | São Paulo | 2 | Community","protocol":17,"map":"workshop/koth_kemptown_rc1.ugc767410655","folder":"tf","game":"Team Fortress","app_id":440,"player_count":0,"max_players":24,"Bots":0,"server_type":"Dedicated","server_os":"Linux","password":true,"vac":true,"version":"7961495","steam_id":85568392924485349,"keywords":["cp","nocrits","nodmgspread","uncletopia"],"game_id":440,"stv_port":27016,"stv_name":"Uncletopia | São Paulo | 2 | Community | STV","players":null},{"server_id":7,"name":"Uncletopia | Seattle | 1 | All Maps","name_short":"sea-1","host":"sea-1.us.uncletopia.com","port":27015,"enabled":true,"region":"us-west","cc":"us","latitude":47.608013,"longitude":-122.33517,"reserved":0,"last_update":"0001-01-01T00:00:00Z","name_a2s":"Uncletopia | Seattle | 1 | All Maps","protocol":17,"map":"koth_nucleus","folder":"tf","game":"Team Fortress","app_id":440,"player_count":25,"max_players":24,"Bots":0,"server_type":"Dedicated","server_os":"Linux","password":true,"vac":true,"version":"7961495","steam_id":85568392924469997,"keywords":["cp","nocrits","nodmgspread","uncletopia"],"game_id":440,"stv_port":27016,"stv_name":"Uncletopia | Seattle | 1 | All Maps | STV","players":[{"user_id":806,"name":"Clagger","steam_id":76561198066701092,"connected_time":1372000000000,"state":"active","ping":44},{"user_id":800,"name":"hazel","steam_id":76561198037292232,"connected_time":1426000000000,"state":"active","ping":120},{"user_id":743,"name":"TROY","steam_id":76561197983852176,"connected_time":7321000000000,"state":"active","ping":75},{"user_id":810,"name":"HotHead","steam_id":76561198138468982,"connected_time":735000000000,"state":"active","ping":45},{"user_id":778,"name":"Nom Skirrett","steam_id":76561198014600788,"connected_time":3399000000000,"state":"active","ping":62},{"user_id":732,"name":"NEBULA","steam_id":76561198086878595,"connected_time":8097000000000,"state":"active","ping":65},{"user_id":733,"name":"squash","steam_id":76561198150281353,"connected_time":8096000000000,"state":"active","ping":58},{"user_id":802,"name":"Yikes","steam_id":76561198118639409,"connected_time":1404000000000,"state":"active","ping":51},{"user_id":801,"name":"gorlab","steam_id":76561198025089694,"connected_time":1422000000000,"state":"active","ping":65},{"user_id":779,"name":"Mignyanne :3","steam_id":76561198048754056,"connected_time":3399000000000,"state":"active","ping":64},{"user_id":811,"name":"Houdini Cache","steam_id":76561198045506970,"connected_time":596000000000,"state":"active","ping":44},{"user_id":730,"name":"[TrC] Dackstrus","steam_id":76561197973518509,"connected_time":8108000000000,"state":"active","ping":60},{"user_id":746,"name":"PvZ Enthusiast","steam_id":76561199089562026,"connected_time":7261000000000,"state":"active","ping":35},{"user_id":773,"name":"Sniff","steam_id":76561198010270922,"connected_time":3460000000000,"state":"active","ping":42},{"user_id":803,"name":"Doctor™","steam_id":76561198134309750,"connected_time":1404000000000,"state":"active","ping":103},{"user_id":792,"name":"0","steam_id":76561198450073779,"connected_time":1885000000000,"state":"active","ping":45},{"user_id":783,"name":"Arsonist Goose","steam_id":76561198147441830,"connected_time":2711000000000,"state":"active","ping":75},{"user_id":812,"name":"rorywashere /ᐠ - ˕ -マ Ⳋ","steam_id":76561198065825165,"connected_time":577000000000,"state":"active","ping":160},{"user_id":769,"name":"kill me","steam_id":76561198032625036,"connected_time":3483000000000,"state":"active","ping":57},{"user_id":775,"name":"Gm_Sweet","steam_id":76561199445091548,"connected_time":3444000000000,"state":"active","ping":60},{"user_id":750,"name":"blinkerton city","steam_id":76561198054270410,"connected_time":6702000000000,"state":"active","ping":52},{"user_id":805,"name":"Aerospine","steam_id":76561198021438134,"connected_time":1397000000000,"state":"active","ping":77},{"user_id":764,"name":"Lord Hater","steam_id":76561199158148782,"connected_time":5563000000000,"state":"active","ping":62},{"user_id":797,"name":"Brathic","steam_id":76561198966232163,"connected_time":1518000000000,"state":"active","ping":81},{"user_id":807,"name":"jorts","steam_id":76561199041179985,"connected_time":1333000000000,"state":"active","ping":59}]},{"server_id":119,"name":"Uncletopia | Seattle | 2 | All Maps","name_short":"sea-2","host":"sea-1.us.uncletopia.com","port":27025,"enabled":true,"region":"us-west","cc":"us","latitude":47.608013,"longitude":-122.33517,"reserved":0,"last_update":"0001-01-01T00:00:00Z","name_a2s":"Uncletopia | Seattle | 2 | All Maps","protocol":17,"map":"koth_cascade","folder":"tf","game":"Team Fortress","app_id":440,"player_count":0,"max_players":24,"Bots":0,"server_type":"Dedicated","server_os":"Linux","password":true,"vac":true,"version":"7961495","steam_id":85568392924469998,"keywords":["cp","nocrits","nodmgspread","uncletopia"],"game_id":440,"stv_port":27026,"stv_name":"Uncletopia | Seattle | 2 | All Maps | STV","players":null},{"server_id":406,"name":"Uncletopia | Seattle | 3 | Stopwatch","name_short":"sea-3","host":"sea-1.us.uncletopia.com","port":27035,"enabled":true,"region":"us-west","cc":"us","latitude":47.608013,"longitude":-122.33517,"reserved":0,"last_update":"0001-01-01T00:00:00Z","name_a2s":"Uncletopia | Seattle | 3 | Stopwatch","protocol":17,"map":"workshop/koth_product_final.ugc454272353","folder":"tf","game":"Team Fortress","app_id":440,"player_count":0,"max_players":24,"Bots":0,"server_type":"Dedicated","server_os":"Linux","password":true,"vac":true,"version":"7961495","steam_id":85568392924515217,"keywords":["cp","nocrits","nodmgspread","uncletopia"],"game_id":440,"stv_port":27036,"stv_name":"Uncletopia | Seattle | 3 | Stopwatch | STV","players":null},{"server_id":17,"name":"Uncletopia | San Francisco | 1 | All Maps","name_short":"sfo-1","host":"sfo-1.us.uncletopia.com","port":27015,"enabled":true,"region":"us-west","cc":"us","latitude":37.77397,"longitude":-122.4313,"reserved":0,"last_update":"0001-01-01T00:00:00Z","name_a2s":"Uncletopia | San Francisco | 1 | All Maps","protocol":17,"map":"cp_snakewater_final1","folder":"tf","game":"Team Fortress","app_id":440,"player_count":22,"max_players":24,"Bots":0,"server_type":"Dedicated","server_os":"Linux","password":true,"vac":true,"version":"7961495","steam_id":85568392924469999,"keywords":["cp","nocrits","nodmgspread","uncletopia"],"game_id":440,"stv_port":27016,"stv_name":"Uncletopia | San Francisco | 1 | All Maps | STV","players":[{"user_id":463,"name":"Kasufert","steam_id":76561198068851740,"connected_time":1101000000000,"state":"active","ping":58},{"user_id":452,"name":"[ØWQJØ]chubacaalatake","steam_id":76561198136201697,"connected_time":1678000000000,"state":"active","ping":98},{"user_id":481,"name":"Mistilteinn","steam_id":76561198114782270,"connected_time":144000000000,"state":"active","ping":38},{"user_id":448,"name":"voip","steam_id":76561198251603164,"connected_time":1869000000000,"state":"active","ping":52},{"user_id":484,"name":"Nyx","steam_id":76561198100929724,"connected_time":89000000000,"state":"active","ping":61},{"user_id":464,"name":"Mario","steam_id":76561198099304627,"connected_time":1087000000000,"state":"active","ping":47},{"user_id":445,"name":"Type Three Dabeetus","steam_id":76561198062710038,"connected_time":2112000000000,"state":"active","ping":44},{"user_id":483,"name":"enrique","steam_id":76561198381885211,"connected_time":111000000000,"state":"active","ping":81},{"user_id":472,"name":"rmbl","steam_id":76561198150137369,"connected_time":841000000000,"state":"active","ping":57},{"user_id":467,"name":"i am clinically insane","steam_id":76561199013323529,"connected_time":1032000000000,"state":"active","ping":60},{"user_id":461,"name":"Churro Chewer","steam_id":76561198170253694,"connected_time":1347000000000,"state":"active","ping":86},{"user_id":485,"name":"slim goodbody","steam_id":76561197997100185,"connected_time":45000000000,"state":"spawning","ping":59},{"user_id":474,"name":"Bobletoob","steam_id":76561199184464900,"connected_time":697000000000,"state":"active","ping":67},{"user_id":486,"name":"DukeofWutang","steam_id":76561198010246343,"connected_time":33000000000,"state":"active","ping":48},{"user_id":475,"name":"big cock. and balls too.","steam_id":76561198046073848,"connected_time":656000000000,"state":"active","ping":67},{"user_id":469,"name":"Thermo","steam_id":76561198978967412,"connected_time":938000000000,"state":"active","ping":52},{"user_id":455,"name":"Risky","steam_id":76561198231029328,"connected_time":1613000000000,"state":"active","ping":49},{"user_id":427,"name":"El Gato Paranoico","steam_id":76561198116567116,"connected_time":3402000000000,"state":"active","ping":100},{"user_id":477,"name":"Muselk, but mexican","steam_id":76561199289676387,"connected_time":516000000000,"state":"active","ping":106},{"user_id":471,"name":"1000 Ping","steam_id":76561198098330939,"connected_time":897000000000,"state":"active","ping":72},{"user_id":480,"name":"iiamiizzyy","steam_id":76561198355030751,"connected_time":181000000000,"state":"active","ping":123},{"user_id":478,"name":"devamar","steam_id":76561198069115467,"connected_time":468000000000,"state":"active","ping":58}]},{"server_id":18,"name":"Uncletopia | San Francisco | 2 | All Maps","name_short":"sfo-2","host":"sfo-1.us.uncletopia.com","port":27025,"enabled":true,"region":"us-west","cc":"us","latitude":37.77397,"longitude":-122.4313,"reserved":0,"last_update":"0001-01-01T00:00:00Z","name_a2s":"Uncletopia | San Francisco | 2 | All Maps","protocol":17,"map":"cp_mountainlab","folder":"tf","game":"Team Fortress","app_id":440,"player_count":0,"max_players":24,"Bots":0,"server_type":"Dedicated","server_os":"Linux","password":true,"vac":true,"version":"7961495","steam_id":85568392924470000,"keywords":["cp","nocrits","nodmgspread","uncletopia"],"game_id":440,"stv_port":27026,"stv_name":"Uncletopia | San Francisco | 2 | All Maps | STV","players":null},{"server_id":19,"name":"Uncletopia | San Francisco | 3 | Stopwatch","name_short":"sfo-3","host":"sfo-1.us.uncletopia.com","port":27035,"enabled":true,"region":"us-west","cc":"us","latitude":37.77397,"longitude":-122.4313,"reserved":0,"last_update":"0001-01-01T00:00:00Z","name_a2s":"Uncletopia | San Francisco | 3 | Stopwatch","protocol":17,"map":"workshop/koth_ashville_final.ugc2130459942","folder":"tf","game":"Team Fortress","app_id":440,"player_count":4,"max_players":24,"Bots":0,"server_type":"Dedicated","server_os":"Linux","password":true,"vac":true,"version":"7961495","steam_id":85568392924742824,"keywords":["cp","nocrits","nodmgspread","uncletopia"],"game_id":440,"stv_port":27036,"stv_name":"Uncletopia | San Francisco | 3 | Stopwatch | STV","players":[{"user_id":26,"name":"Cowboyfos","steam_id":76561199055740230,"connected_time":1290000000000,"state":"active","ping":48},{"user_id":8,"name":"MirrorsAreScary","steam_id":76561198860505587,"connected_time":4565000000000,"state":"active","ping":83},{"user_id":10,"name":"harambe 101","steam_id":76561198366850003,"connected_time":4555000000000,"state":"active","ping":49},{"user_id":14,"name":"FlexTape","steam_id":76561198871834867,"connected_time":3478000000000,"state":"active","ping":67}]},{"server_id":20,"name":"Uncletopia | San Francisco | 4 | Community","name_short":"sfo-4","host":"sfo-1.us.uncletopia.com","port":27045,"enabled":true,"region":"us-west","cc":"us","latitude":37.77397,"longitude":-122.4313,"reserved":0,"last_update":"0001-01-01T00:00:00Z","name_a2s":"Uncletopia | San Francisco | 4 | Community","protocol":17,"map":"workshop/cp_sulfur_rc2.ugc619869471","folder":"tf","game":"Team Fortress","app_id":440,"player_count":0,"max_players":24,"Bots":0,"server_type":"Dedicated","server_os":"Linux","password":true,"vac":true,"version":"7961495","steam_id":85568392924742826,"keywords":["cp","nocrits","nodmgspread","uncletopia"],"game_id":440,"stv_port":27046,"stv_name":"Uncletopia | San Francisco | 4 | Community | STV","players":null},{"server_id":141,"name":"Uncletopia | Sydney | 1 | All Maps","name_short":"syd-1","host":"syd-1.au.uncletopia.com","port":27015,"enabled":true,"region":"au","cc":"au","latitude":-33.865143,"longitude":151.2099,"reserved":0,"last_update":"0001-01-01T00:00:00Z","name_a2s":"Uncletopia | Sydney | 1 | All Maps","protocol":17,"map":"koth_nucleus","folder":"tf","game":"Team Fortress","app_id":440,"player_count":0,"max_players":24,"Bots":0,"server_type":"Dedicated","server_os":"Linux","password":true,"vac":true,"version":"7961495","steam_id":85568392924470001,"keywords":["cp","nocrits","nodmgspread","uncletopia"],"game_id":440,"stv_port":27016,"stv_name":"Uncletopia | Sydney | 1 | All Maps | STV","players":null},{"server_id":123,"name":"Uncletopia | Sydney | 2 | All Maps","name_short":"syd-2","host":"syd-1.au.uncletopia.com","port":27025,"enabled":true,"region":"au","cc":"au","latitude":-33.865143,"longitude":151.2099,"reserved":0,"last_update":"0001-01-01T00:00:00Z","name_a2s":"Uncletopia | Sydney | 2 | All Maps","protocol":17,"map":"pl_barnblitz","folder":"tf","game":"Team Fortress","app_id":440,"player_count":24,"max_players":24,"Bots":0,"server_type":"Dedicated","server_os":"Linux","password":true,"vac":true,"version":"7961495","steam_id":85568392924470002,"keywords":["nocrits","nodmgspread","payload","uncletopia"],"game_id":440,"stv_port":27026,"stv_name":"Uncletopia | Sydney | 2 | All Maps | STV","players":[{"user_id":10,"name":"reginald spoingus jr.","steam_id":76561198079351541,"connected_time":2780000000000,"state":"active","ping":37},{"user_id":9,"name":"webbadon, the horrid ᘛ⁐̤\ufffd\ufffd","steam_id":76561198061998379,"connected_time":2964000000000,"state":"active","ping":44},{"user_id":16,"name":"Emerald the Snake","steam_id":76561199013344853,"connected_time":2234000000000,"state":"active","ping":54},{"user_id":40,"name":"Cool Wizard","steam_id":76561199161637215,"connected_time":39000000000,"state":"active","ping":90},{"user_id":13,"name":"LeoJoeD","steam_id":76561198161848749,"connected_time":2446000000000,"state":"active","ping":44},{"user_id":39,"name":"Sherpa","steam_id":76561198018913829,"connected_time":494000000000,"state":"active","ping":51},{"user_id":15,"name":"I Only Use A Shotgun","steam_id":76561199330376529,"connected_time":2257000000000,"state":"active","ping":87},{"user_id":17,"name":"Tantei Rotana","steam_id":76561198041204323,"connected_time":2208000000000,"state":"active","ping":64},{"user_id":18,"name":"JGuy_850","steam_id":76561199157185906,"connected_time":1960000000000,"state":"active","ping":42},{"user_id":24,"name":"soupy","steam_id":76561198073734936,"connected_time":1161000000000,"state":"active","ping":89},{"user_id":21,"name":"sav","steam_id":76561198058760041,"connected_time":1518000000000,"state":"active","ping":71},{"user_id":22,"name":"APVC","steam_id":76561199090168813,"connected_time":1407000000000,"state":"active","ping":56},{"user_id":23,"name":"ph03b3","steam_id":76561198031211855,"connected_time":1230000000000,"state":"active","ping":54},{"user_id":25,"name":"Wonk","steam_id":76561198153116520,"connected_time":1155000000000,"state":"active","ping":60},{"user_id":26,"name":"soup","steam_id":76561198094520079,"connected_time":1081000000000,"state":"active","ping":64},{"user_id":36,"name":"zinks","steam_id":76561198338774398,"connected_time":784000000000,"state":"active","ping":91},{"user_id":28,"name":"gnome slayer","steam_id":76561198048064049,"connected_time":979000000000,"state":"active","ping":74},{"user_id":29,"name":"LAW","steam_id":76561198181119629,"connected_time":963000000000,"state":"active","ping":60},{"user_id":30,"name":"Guardian Hoot","steam_id":76561198293010780,"connected_time":947000000000,"state":"active","ping":45},{"user_id":31,"name":"Sover blw.tf","steam_id":76561198136347837,"connected_time":901000000000,"state":"active","ping":120},{"user_id":37,"name":"monkey (with spoon)","steam_id":76561198301254663,"connected_time":521000000000,"state":"active","ping":51},{"user_id":33,"name":"Kefhau","steam_id":76561198254519810,"connected_time":871000000000,"state":"active","ping":46},{"user_id":34,"name":"TheGoodGuy","steam_id":76561197994105505,"connected_time":838000000000,"state":"active","ping":43},{"user_id":41,"name":"Orewell","steam_id":76561198013119116,"connected_time":20000000000,"state":"spawning","ping":61}]},{"server_id":395,"name":"Uncletopia | Sydney | 3 | All Maps","name_short":"syd-3","host":"syd-1.au.uncletopia.com","port":27035,"enabled":true,"region":"au","cc":"au","latitude":-33.865143,"longitude":151.2099,"reserved":0,"last_update":"0001-01-01T00:00:00Z","name_a2s":"Uncletopia | Sydney | 3 | All Maps","protocol":17,"map":"cp_metalworks","folder":"tf","game":"Team Fortress","app_id":440,"player_count":0,"max_players":24,"Bots":0,"server_type":"Dedicated","server_os":"Linux","password":true,"vac":true,"version":"7961495","steam_id":85568392925194467,"keywords":["cp","nocrits","nodmgspread","uncletopia"],"game_id":440,"stv_port":27036,"stv_name":"Uncletopia | Sydney | 3 | All Maps | STV","players":null},{"server_id":396,"name":"Uncletopia | Sydney | 4 | All Maps","name_short":"syd-4","host":"syd-1.au.uncletopia.com","port":27045,"enabled":true,"region":"au","cc":"au","latitude":-33.865143,"longitude":151.2099,"reserved":0,"last_update":"0001-01-01T00:00:00Z","name_a2s":"Uncletopia | Sydney | 4 | All Maps","protocol":17,"map":"koth_cascade","folder":"tf","game":"Team Fortress","app_id":440,"player_count":0,"max_players":24,"Bots":0,"server_type":"Dedicated","server_os":"Linux","password":true,"vac":true,"version":"7961495","steam_id":85568392925397958,"keywords":["cp","nocrits","nodmgspread","uncletopia"],"game_id":440,"stv_port":27046,"stv_name":"Uncletopia | Sydney | 4 | All Maps | STV","players":null},{"server_id":58,"name":"Uncletopia | Sydney | 5 | Stopwatch","name_short":"syd-5","host":"syd-1.au.uncletopia.com","port":27055,"enabled":true,"region":"au","cc":"au","latitude":-33.865143,"longitude":151.2099,"reserved":0,"last_update":"0001-01-01T00:00:00Z","name_a2s":"Uncletopia | Sydney | 5 | Stopwatch","protocol":17,"map":"workshop/koth_product_final.ugc454272353","folder":"tf","game":"Team Fortress","app_id":440,"player_count":0,"max_players":24,"Bots":0,"server_type":"Dedicated","server_os":"Linux","password":true,"vac":true,"version":"7961495","steam_id":85568392925397959,"keywords":["cp","nocrits","nodmgspread","uncletopia"],"game_id":440,"stv_port":27056,"stv_name":"Uncletopia | Sydney | 5 | Stopwatch | STV","players":null},{"server_id":59,"name":"Uncletopia | Sydney | 6 | Community","name_short":"syd-6","host":"syd-1.au.uncletopia.com","port":27065,"enabled":true,"region":"au","cc":"au","latitude":-33.865143,"longitude":151.2099,"reserved":0,"last_update":"0001-01-01T00:00:00Z","name_a2s":"Uncletopia | Sydney | 6 | Community","protocol":17,"map":"workshop/cp_hazyfort_rc6.ugc1365963729","folder":"tf","game":"Team Fortress","app_id":440,"player_count":0,"max_players":24,"Bots":0,"server_type":"Dedicated","server_os":"Linux","password":true,"vac":true,"version":"7961495","steam_id":85568392925397960,"keywords":["cp","nocrits","nodmgspread","uncletopia"],"game_id":440,"stv_port":27066,"stv_name":"Uncletopia | Sydney | 6 | Community | STV","players":null},{"server_id":49,"name":"Uncletopia | Warsaw | 1 | One Thousand Uncles","name_short":"waw-1","host":"waw-1.pl.uncletopia.com","port":27015,"enabled":true,"region":"eu","cc":"pl","latitude":52.2297,"longitude":21.017532,"reserved":0,"last_update":"0001-01-01T00:00:00Z","name_a2s":"Uncletopia | Warsaw | 1 | One Thousand Uncles","protocol":17,"map":"cp_mossrock","folder":"tf","game":"Team Fortress","app_id":440,"player_count":17,"max_players":32,"Bots":16,"server_type":"Dedicated","server_os":"Linux","password":true,"vac":true,"version":"7961495","steam_id":85568392925397850,"keywords":["alltalk","bots","cp","danepve","increased_maxplayers","norespawntime","uncletopia"],"game_id":440,"stv_port":0,"stv_name":"","players":[{"user_id":55,"name":"Zulik92","steam_id":76561198152442373,"connected_time":553000000000,"state":"active","ping":52}]},{"server_id":50,"name":"Uncletopia | Warsaw | 2 | One Thousand Uncles","name_short":"waw-2","host":"waw-1.pl.uncletopia.com","port":27025,"enabled":true,"region":"eu","cc":"pl","latitude":52.2297,"longitude":21.017532,"reserved":0,"last_update":"0001-01-01T00:00:00Z","name_a2s":"Uncletopia | Warsaw | 2 | One Thousand Uncles","protocol":17,"map":"cp_egypt_final","folder":"tf","game":"Team Fortress","app_id":440,"player_count":0,"max_players":32,"Bots":0,"server_type":"Dedicated","server_os":"Linux","password":true,"vac":true,"version":"7961495","steam_id":85568392925397851,"keywords":["alltalk","cp","danepve","increased_maxplayers","norespawntime","uncletopia"],"game_id":440,"stv_port":0,"stv_name":"","players":null},{"server_id":51,"name":"Uncletopia | Warsaw | 3 | All Maps","name_short":"waw-3","host":"waw-1.pl.uncletopia.com","port":27035,"enabled":true,"region":"eu","cc":"pl","latitude":52.2297,"longitude":21.017532,"reserved":0,"last_update":"0001-01-01T00:00:00Z","name_a2s":"Uncletopia | Warsaw | 3 | All Maps","protocol":17,"map":"pl_snowycoast","folder":"tf","game":"Team Fortress","app_id":440,"player_count":0,"max_players":24,"Bots":0,"server_type":"Dedicated","server_os":"Linux","password":true,"vac":true,"version":"7961495","steam_id":85568392925397852,"keywords":["nocrits","nodmgspread","payload","uncletopia"],"game_id":440,"stv_port":27036,"stv_name":"Uncletopia | Warsaw | 3 | All Maps | STV","players":null},{"server_id":52,"name":"Uncletopia | Warsaw | 4 | All Maps","name_short":"waw-4","host":"waw-1.pl.uncletopia.com","port":27045,"enabled":true,"region":"eu","cc":"pl","latitude":52.2297,"longitude":21.017532,"reserved":0,"last_update":"0001-01-01T00:00:00Z","name_a2s":"Uncletopia | Warsaw | 4 | All Maps","protocol":17,"map":"cp_fastlane","folder":"tf","game":"Team Fortress","app_id":440,"player_count":0,"max_players":24,"Bots":0,"server_type":"Dedicated","server_os":"Linux","password":true,"vac":true,"version":"7961495","steam_id":85568392925397853,"keywords":["cp","nocrits","nodmgspread","uncletopia"],"game_id":440,"stv_port":27046,"stv_name":"Uncletopia | Warsaw | 4 | All Maps | STV","players":null},{"server_id":53,"name":"Uncletopia | Warsaw | 5 | Stopwatch","name_short":"waw-5","host":"waw-1.pl.uncletopia.com","port":27055,"enabled":true,"region":"eu","cc":"pl","latitude":52.2297,"longitude":21.017532,"reserved":0,"last_update":"0001-01-01T00:00:00Z","name_a2s":"Uncletopia | Warsaw | 5 | Stopwatch","protocol":17,"map":"koth_highpass","folder":"tf","game":"Team Fortress","app_id":440,"player_count":0,"max_players":24,"Bots":0,"server_type":"Dedicated","server_os":"Linux","password":true,"vac":true,"version":"7961495","steam_id":85568392925397854,"keywords":["cp","nocrits","nodmgspread","uncletopia"],"game_id":440,"stv_port":27056,"stv_name":"Uncletopia | Warsaw | 5 | Stopwatch | STV","players":null},{"server_id":54,"name":"Uncletopia | Warsaw | 6 | Community","name_short":"waw-6","host":"waw-1.pl.uncletopia.com","port":27065,"enabled":true,"region":"eu","cc":"pl","latitude":52.2297,"longitude":21.017532,"reserved":0,"last_update":"0001-01-01T00:00:00Z","name_a2s":"Uncletopia | Warsaw | 6 | Community","protocol":17,"map":"workshop/cp_fulgur_rc2a.ugc2068252300","folder":"tf","game":"Team Fortress","app_id":440,"player_count":0,"max_players":24,"Bots":0,"server_type":"Dedicated","server_os":"Linux","password":true,"vac":true,"version":"7961495","steam_id":85568392925397856,"keywords":["cp","nocrits","nodmgspread","uncletopia"],"game_id":440,"stv_port":27066,"stv_name":"Uncletopia | Warsaw | 6 | Community | STV","players":null}]}