{"status":true,"message":"","result":[{"server_id":9,"name":"Uncletopia | Atlanta | 1 | All Maps","name_short":"atl-1","host":"atl-1.us.uncletopia.com","port":27015,"enabled":true,"region":"us-east","cc":"us","latitude":33.753746,"longitude":-84.38633,"reserved":0,"last_update":"0001-01-01T00:00:00Z","name_a2s":"Uncletopia | Atlanta | 1 | All Maps","protocol":17,"map":"pl_swiftwater_final1","folder":"tf","game":"Team Fortress","app_id":440,"player_count":24,"max_players":24,"Bots":0,"server_type":"Dedicated","server_os":"Linux","password":true,"vac":true,"version":"7882260","steam_id":85568392924469982,"keywords":["nocrits","nodmgspread","payload","uncletopia"],"game_id":440,"stv_port":27016,"stv_name":"Uncletopia | Atlanta | 1 | All Maps | STV","players":[{"user_id":627,"name":"kite","steam_id":76561198346516392,"connected_time":3275000000000,"state":"active","ping":82},{"user_id":644,"name":"ash","steam_id":76561198127890645,"connected_time":1648000000000,"state":"active","ping":67},{"user_id":400,"name":"eish","steam_id":76561198089463603,"connected_time":16027000000000,"state":"active","ping":118},{"user_id":655,"name":"Im High","steam_id":76561198049954886,"connected_time":1327000000000,"state":"active","ping":72},{"user_id":666,"name":"DJ Pierce","steam_id":76561198394241466,"connected_time":616000000000,"state":"active","ping":73},{"user_id":634,"name":"WhoIsFrosty","steam_id":76561198880588117,"connected_time":2930000000000,"state":"active","ping":72},{"user_id":667,"name":"Boter","steam_id":76561198066994093,"connected_time":611000000000,"state":"active","ping":83},{"user_id":663,"name":"crouton","steam_id":76561198828709358,"connected_time":904000000000,"state":"active","ping":44},{"user_id":664,"name":"Restricted_Files","steam_id":76561199448121007,"connected_time":756000000000,"state":"active","ping":121},{"user_id":596,"name":"cola","steam_id":76561198374390458,"connected_time":5477000000000,"state":"active","ping":61},{"user_id":626,"name":"bencil sharpinero","steam_id":76561198381136912,"connected_time":3283000000000,"state":"active","ping":80},{"user_id":647,"name":"Keirb","steam_id":76561198027031567,"connected_time":1629000000000,"state":"active","ping":97},{"user_id":661,"name":"DuckMann","steam_id":76561198197058638,"connected_time":918000000000,"state":"active","ping":48},{"user_id":619,"name":"hidden_games","steam_id":76561198149683392,"connected_time":3837000000000,"state":"active","ping":60},{"user_id":625,"name":"emily","steam_id":76561198148132163,"connected_time":3618000000000,"state":"active","ping":81},{"user_id":652,"name":"girthmilk","steam_id":76561198054799782,"connected_time":1375000000000,"state":"active","ping":63},{"user_id":595,"name":"morphine","steam_id":76561198072124799,"connected_time":5493000000000,"state":"active","ping":98},{"user_id":665,"name":"Socialism Enjoyer","steam_id":76561197991817974,"connected_time":690000000000,"state":"active","ping":115},{"user_id":668,"name":"Applesauce","steam_id":76561198049642811,"connected_time":609000000000,"state":"active","ping":54},{"user_id":657,"name":"z","steam_id":76561198126358045,"connected_time":1322000000000,"state":"active","ping":74},{"user_id":642,"name":"Ramin Jamin","steam_id":76561198086516541,"connected_time":2028000000000,"state":"active","ping":89},{"user_id":643,"name":"Onyx","steam_id":76561198275349640,"connected_time":1811000000000,"state":"active","ping":75},{"user_id":646,"name":"Pulp Free Fiction","steam_id":76561198095396514,"connected_time":1643000000000,"state":"active","ping":103},{"user_id":662,"name":"meownt evewest :3","steam_id":76561198017686306,"connected_time":917000000000,"state":"active","ping":152}]},{"server_id":104,"name":"Uncletopia | Atlanta | 2 | All Maps","name_short":"atl-2","host":"atl-1.us.uncletopia.com","port":27025,"enabled":true,"region":"us-east","cc":"us","latitude":33.753746,"longitude":-84.38633,"reserved":0,"last_update":"0001-01-01T00:00:00Z","name_a2s":"Uncletopia | Atlanta | 2 | All Maps","protocol":17,"map":"pl_borneo","folder":"tf","game":"Team Fortress","app_id":440,"player_count":21,"max_players":24,"Bots":0,"server_type":"Dedicated","server_os":"Linux","password":true,"vac":true,"version":"7882260","steam_id":85568392924469983,"keywords":["nocrits","nodmgspread","payload","uncletopia"],"game_id":440,"stv_port":27026,"stv_name":"Uncletopia | Atlanta | 2 | All Maps | STV","players":[{"user_id":333,"name":"Kuwait Grips","steam_id":76561198292689973,"connected_time":52000000000,"state":"active","ping":62},{"user_id":263,"name":"Oopsie Daisy ‚ùã","steam_id":76561198042144492,"connected_time":4574000000000,"state":"active","ping":54},{"user_id":327,"name":"gon","steam_id":76561198341171295,"connected_time":531000000000,"state":"active","ping":91},{"user_id":284,"name":"hashmap","steam_id":76561198043794014,"connected_time":2888000000000,"state":"active","ping":74},{"user_id":331,"name":"sumerian death metal warrior","steam_id":76561198997380708,"connected_time":91000000000,"state":"active","ping":115},{"user_id":305,"name":"Neophyte","steam_id":76561198027183394,"connected_time":1857000000000,"state":"active","ping":102},{"user_id":328,"name":"AlcoholicDad454","steam_id":76561198157414556,"connected_time":300000000000,"state":"active","ping":66},{"user_id":332,"name":"BANGARANG","steam_id":76561198816597453,"connected_time":79000000000,"state":"active","ping":78},{"user_id":307,"name":"sans undertale","steam_id":76561199128903858,"connected_time":1771000000000,"state":"active","ping":139},{"user_id":334,"name":"EvilMrPotoo ÔΩ°‚óï‚Äø‚óïÔΩ°","steam_id":76561198012566870,"connected_time":9000000000,"state":"active","ping":151},{"user_id":309,"name":"Not Guztaf","steam_id":76561198334924763,"connected_time":1751000000000,"state":"active","ping":68},{"user_id":335,"name":"Mathatguy","steam_id":76561198225432188,"connected_time":1000000000,"state":"spawning","ping":30},{"user_id":310,"name":"Tara","steam_id":76561198020696265,"connected_time":1745000000000,"state":"active","ping":81},{"user_id":290,"name":"getback","steam_id":76561198185115143,"connected_time":2746000000000,"state":"active","ping":81},{"user_id":329,"name":"I \u003c3 Vore","steam_id":76561198980062131,"connected_time":298000000000,"state":"active","ping":74},{"user_id":225,"name":"Chhaam","steam_id":76561198058508132,"connected_time":7343000000000,"state":"active","ping":46},{"user_id":326,"name":"Cheese","steam_id":76561199207081299,"connected_time":642000000000,"state":"spawning","ping":99},{"user_id":320,"name":"Sprinklze","steam_id":76561198163562681,"connected_time":837000000000,"state":"active","ping":52},{"user_id":311,"name":"Michaelpc1","steam_id":76561198088365519,"connected_time":1738000000000,"state":"active","ping":69},{"user_id":312,"name":"Caustic","steam_id":76561198004802198,"connected_time":1734000000000,"state":"active","ping":48},{"user_id":321,"name":"DJ-Whatchya #rEtiReD","steam_id":76561198060355298,"connected_time":837000000000,"state":"active","ping":70}]},{"server_id":400,"name":"Uncletopia | Atlanta | 3 | Community","name_short":"atl-3","host":"atl-1.us.uncletopia.com","port":27035,"enabled":true,"region":"us-east","cc":"us","latitude":33.753746,"longitude":-84.38633,"reserved":0,"last_update":"0001-01-01T00:00:00Z","name_a2s":"Uncletopia | Atlanta | 3 | Community","protocol":17,"map":"workshop/pl_divulgence_b4b.ugc2884808746","folder":"tf","game":"Team Fortress","app_id":440,"player_count":24,"max_players":24,"Bots":0,"server_type":"Dedicated","server_os":"Linux","password":true,"vac":true,"version":"7882260","steam_id":85568392924515187,"keywords":["nocrits","nodmgspread","payload","uncletopia"],"game_id":440,"stv_port":27036,"stv_name":"Uncletopia | Atlanta | 3 | Community | STV","players":[{"user_id":43,"name":"legowizdude","steam_id":76561198086688058,"connected_time":2225000000000,"state":"active","ping":82},{"user_id":42,"name":"Esoteric Death","steam_id":76561198168686614,"connected_time":2257000000000,"state":"active","ping":113},{"user_id":50,"name":"Rottleknocket Whiz","steam_id":76561198811544339,"connected_time":1187000000000,"state":"active","ping":68},{"user_id":60,"name":"Elena Manetta","steam_id":76561197998344054,"connected_time":933000000000,"state":"active","ping":60},{"user_id":64,"name":"The Crimson Chin","steam_id":76561198080169497,"connected_time":839000000000,"state":"active","ping":42},{"user_id":49,"name":"Wiggee","steam_id":76561197972792989,"connected_time":1564000000000,"state":"active","ping":67},{"user_id":52,"name":"Pops","steam_id":76561198058076777,"connected_time":1122000000000,"state":"active","ping":103},{"user_id":53,"name":"Cheesemelt","steam_id":76561198008221847,"connected_time":1105000000000,"state":"active","ping":78},{"user_id":54,"name":"PootisPowHAHA","steam_id":76561199023536209,"connected_time":1085000000000,"state":"active","ping":67},{"user_id":56,"name":"Punished Shitster","steam_id":76561198150452857,"connected_time":1074000000000,"state":"active","ping":80},{"user_id":57,"name":"Rin \"Hindwing\" Redtail","steam_id":76561199074865638,"connected_time":1015000000000,"state":"active","ping":61},{"user_id":58,"name":"Derplish","steam_id":76561198831714443,"connected_time":997000000000,"state":"active","ping":80},{"user_id":59,"name":"PinHeadLarry","steam_id":76561198055672706,"connected_time":973000000000,"state":"active","ping":101},{"user_id":75,"name":"Gr4yy„ÉÉ","steam_id":76561198126936736,"connected_time":544000000000,"state":"active","ping":81},{"user_id":62,"name":"PigPig","steam_id":76561198068190834,"connected_time":879000000000,"state":"active","ping":121},{"user_id":66,"name":"BluCoffee","steam_id":76561198214995967,"connected_time":803000000000,"state":"active","ping":94},{"user_id":67,"name":"seats","steam_id":76561197998756039,"connected_time":758000000000,"state":"active","ping":108},{"user_id":68,"name":"Comfy Monkey","steam_id":76561197998434936,"connected_time":758000000000,"state":"active","ping":78},{"user_id":69,"name":"Balls‚Ñ¢","steam_id":76561198057538549,"connected_time":693000000000,"state":"active","ping":74},{"user_id":70,"name":"MaximumEffortX5","steam_id":76561199478262054,"connected_time":609000000000,"state":"active","ping":73},{"user_id":71,"name":"Fermenting Kiwi","steam_id":76561198253303497,"connected_time":597000000000,"state":"active","ping":91},{"user_id":72,"name":"beguilingfool","steam_id":76561199128745972,"connected_time":576000000000,"state":"active","ping":117},{"user_id":73,"name":"Elflocky","steam_id":76561199096852639,"connected_time":571000000000,"state":"active","ping":74},{"user_id":74,"name":"C O M F Y","steam_id":76561198072101210,"connected_time":566000000000,"state":"active","ping":73}]},{"server_id":401,"name":"Uncletopia | Atlanta | 4 | No Payload","name_short":"atl-4","host":"atl-1.us.uncletopia.com","port":27045,"enabled":true,"region":"us-east","cc":"us","latitude":33.753746,"longitude":-84.38633,"reserved":0,"last_update":"0001-01-01T00:00:00Z","name_a2s":"","protocol":0,"map":"","folder":"","game":"","app_id":0,"player_count":0,"max_players":0,"Bots":0,"server_type":"","server_os":"","password":false,"vac":false,"version":"","steam_id":0,"keywords":null,"game_id":0,"stv_port":0,"stv_name":"","players":null},{"server_id":2,"name":"Uncletopia | Chicago | 1 | All Maps","name_short":"chi-1","host":"chi-1.us.uncletopia.com","port":27015,"enabled":true,"region":"us-central","cc":"us","latitude":41.881832,"longitude":-87.62318,"reserved":0,"last_update":"0001-01-01T00:00:00Z","name_a2s":"Uncletopia | Chicago | 1 | All Maps","protocol":17,"map":"cp_process_final","folder":"tf","game":"Team Fortress","app_id":440,"player_count":24,"max_players":24,"Bots":0,"server_type":"Dedicated","server_os":"Linux","password":true,"vac":true,"version":"7882260","steam_id":85568392924469984,"keywords":["cp","nocrits","nodmgspread","uncletopia"],"game_id":440,"stv_port":27016,"stv_name":"Uncletopia | Chicago | 1 | All Maps | STV","players":[{"user_id":722,"name":"HOTA","steam_id":76561199002778841,"connected_time":3138000000000,"state":"active","ping":69},{"user_id":754,"name":"boombox","steam_id":76561198237013798,"connected_time":1085000000000,"state":"active","ping":78},{"user_id":686,"name":".JIFF","steam_id":76561198045181760,"connected_time":6148000000000,"state":"active","ping":62},{"user_id":748,"name":"ae","steam_id":76561198185490827,"connected_time":1287000000000,"state":"active","ping":87},{"user_id":747,"name":"Iceman10a","steam_id":76561198171922098,"connected_time":1293000000000,"state":"active","ping":112},{"user_id":678,"name":"x‚ù§x_1337_VVeed_VVizard_x‚ù§x","steam_id":76561198067436825,"connected_time":7054000000000,"state":"active","ping":85},{"user_id":661,"name":"Protato","steam_id":76561198061182563,"connected_time":7375000000000,"state":"active","ping":68},{"user_id":717,"name":"Shakey","steam_id":76561198012340821,"connected_time":3488000000000,"state":"active","ping":145},{"user_id":712,"name":"Drewp","steam_id":76561198856700517,"connected_time":4063000000000,"state":"active","ping":72},{"user_id":728,"name":"Dr. Dick","steam_id":76561198138011922,"connected_time":2897000000000,"state":"active","ping":73},{"user_id":635,"name":"Zoot","steam_id":76561198121944243,"connected_time":8973000000000,"state":"active","ping":72},{"user_id":724,"name":"artichoke","steam_id":76561198980994364,"connected_time":3125000000000,"state":"active","ping":86},{"user_id":759,"name":"feliser","steam_id":76561198084336096,"connected_time":6000000000,"state":"spawning","ping":47},{"user_id":757,"name":"Your Local Queer Librarian","steam_id":76561198013077080,"connected_time":613000000000,"state":"active","ping":60},{"user_id":758,"name":"eat Pant","steam_id":76561197974965536,"connected_time":239000000000,"state":"active","ping":59},{"user_id":709,"name":"herb","steam_id":76561198185980055,"connected_time":4237000000000,"state":"active","ping":57},{"user_id":750,"name":"RichardV","steam_id":76561197985772809,"connected_time":1182000000000,"state":"active","ping":64},{"user_id":736,"name":"Caterpillar Friend","steam_id":76561198044298346,"connected_time":1472000000000,"state":"active","ping":82},{"user_id":706,"name":"Takyon","steam_id":76561198172075186,"connected_time":4325000000000,"state":"active","ping":322},{"user_id":737,"name":"TheGreyHatüíÄüíÄüíÄ","steam_id":76561198235851604,"connected_time":1470000000000,"state":"active","ping":142},{"user_id":738,"name":"Captain S. Forrest","steam_id":76561198062463029,"connected_time":1468000000000,"state":"active","ping":91},{"user_id":739,"name":"Astoriae!","steam_id":76561199090168858,"connected_time":1468000000000,"state":"active","ping":65},{"user_id":721,"name":"Maverick","steam_id":76561198322829814,"connected_time":3152000000000,"state":"active","ping":78},{"user_id":734,"name":"Blackbird","steam_id":76561198127818333,"connected_time":2119000000000,"state":"active","ping":59}]},{"server_id":106,"name":"Uncletopia | Chicago | 2 | All Maps","name_short":"chi-2","host":"chi-1.us.uncletopia.com","port":27025,"enabled":true,"region":"us-central","cc":"us","latitude":41.881832,"longitude":-87.62318,"reserved":0,"last_update":"0001-01-01T00:00:00Z","name_a2s":"Uncletopia | Chicago | 2 | All Maps","protocol":17,"map":"pl_barnblitz","folder":"tf","game":"Team Fortress","app_id":440,"player_count":24,"max_players":24,"Bots":0,"server_type":"Dedicated","server_os":"Linux","password":true,"vac":true,"version":"7882260","steam_id":85568392924469985,"keywords":["nocrits","nodmgspread","payload","uncletopia"],"game_id":440,"stv_port":27026,"stv_name":"Uncletopia | Chicago | 2 | All Maps | STV","players":[{"user_id":452,"name":"ATastyDonut","steam_id":76561198984819894,"connected_time":2910000000000,"state":"active","ping":59},{"user_id":455,"name":"Lord TriM","steam_id":76561198048332533,"connected_time":1840000000000,"state":"active","ping":59},{"user_id":431,"name":"Holp","steam_id":76561199019186848,"connected_time":4103000000000,"state":"active","ping":113},{"user_id":497,"name":"Also Known As Assteeth","steam_id":76561198049837377,"connected_time":638000000000,"state":"active","ping":47},{"user_id":518,"name":"Sniper","steam_id":76561199482262282,"connected_time":184000000000,"state":"active","ping":97},{"user_id":412,"name":"Famelegion","steam_id":76561198958341424,"connected_time":5782000000000,"state":"active","ping":97},{"user_id":467,"name":"Reverie","steam_id":76561198987005784,"connected_time":1290000000000,"state":"active","ping":63},{"user_id":476,"name":"Logic is a Good Rapper","steam_id":76561198976821898,"connected_time":1179000000000,"state":"active","ping":100},{"user_id":478,"name":"mashallah","steam_id":76561198075111427,"connected_time":1134000000000,"state":"active","ping":56},{"user_id":510,"name":"his largeness","steam_id":76561197977182378,"connected_time":292000000000,"state":"active","ping":56},{"user_id":468,"name":"Poof","steam_id":76561198325980914,"connected_time":1282000000000,"state":"active","ping":85},{"user_id":445,"name":"Lightish Red","steam_id":76561198060879701,"connected_time":3096000000000,"state":"active","ping":46},{"user_id":474,"name":"Ceiling Man","steam_id":76561198003959902,"connected_time":1213000000000,"state":"active","ping":65},{"user_id":463,"name":"Bananaramagrams","steam_id":76561198084429090,"connected_time":1561000000000,"state":"active","ping":85},{"user_id":376,"name":"the real babytron","steam_id":76561197989627918,"connected_time":9066000000000,"state":"active","ping":89},{"user_id":507,"name":"tacoodoom","steam_id":76561199123075248,"connected_time":382000000000,"state":"active","ping":76},{"user_id":423,"name":"Walkiing","steam_id":76561198074473413,"connected_time":4469000000000,"state":"active","ping":45},{"user_id":454,"name":"A Duck Phone!?","steam_id":76561198044707749,"connected_time":2797000000000,"state":"active","ping":60},{"user_id":469,"name":"selarom | trade.tf |","steam_id":76561199069219350,"connected_time":1265000000000,"state":"active","ping":66},{"user_id":449,"name":"LIL BEAN","steam_id":76561198115403223,"connected_time":3038000000000,"state":"active","ping":66},{"user_id":472,"name":"emily","steam_id":76561198051872256,"connected_time":1237000000000,"state":"active","ping":65},{"user_id":520,"name":"Veridian","steam_id":76561198096334078,"connected_time":171000000000,"state":"active","ping":69},{"user_id":517,"name":"Old Man Tricks","steam_id":76561197984526216,"connected_time":191000000000,"state":"active","ping":115},{"user_id":481,"name":"NoSignal","steam_id":76561198094723903,"connected_time":965000000000,"state":"active","ping":61}]},{"server_id":402,"name":"Uncletopia | Chicago | 3 | All Maps","name_short":"chi-3","host":"chi-1.us.uncletopia.com","port":27035,"enabled":true,"region":"us-central","cc":"us","latitude":41.881832,"longitude":-87.62318,"reserved":0,"last_update":"0001-01-01T00:00:00Z","name_a2s":"Uncletopia | Chicago | 3 | All Maps","protocol":17,"map":"pl_pier","folder":"tf","game":"Team Fortress","app_id":440,"player_count":23,"max_players":24,"Bots":0,"server_type":"Dedicated","server_os":"Linux","password":true,"vac":true,"version":"7882260","steam_id":85568392924515191,"keywords":["nocrits","nodmgspread","payload","uncletopia"],"game_id":440,"stv_port":27036,"stv_name":"Uncletopia | Chicago | 3 | All Maps | STV","players":[{"user_id":610,"name":"Starkiller","steam_id":76561198101643120,"connected_time":969000000000,"state":"active","ping":67},{"user_id":614,"name":"Noid","steam_id":76561198227804500,"connected_time":485000000000,"state":"active","ping":86},{"user_id":573,"name":"Emder","steam_id":76561198260747931,"connected_time":3103000000000,"state":"active","ping":62},{"user_id":613,"name":"SomeFuckingGuy #SAVETF2","steam_id":76561199239165015,"connected_time":706000000000,"state":"active","ping":76},{"user_id":620,"name":"Ping","steam_id":76561198072947773,"connected_time":303000000000,"state":"active","ping":55},{"user_id":618,"name":"Chap","steam_id":76561198294226443,"connected_time":331000000000,"state":"active","ping":110},{"user_id":619,"name":"Mix","steam_id":76561198835593895,"connected_time":318000000000,"state":"active","ping":67},{"user_id":607,"name":"JetZ","steam_id":76561199122488957,"connected_time":1267000000000,"state":"active","ping":66},{"user_id":594,"name":"ole_diggy","steam_id":76561198970212746,"connected_time":2249000000000,"state":"active","ping":73},{"user_id":609,"name":"cold spaghetti","steam_id":76561198983037944,"connected_time":977000000000,"state":"active","ping":57},{"user_id":621,"name":"ryghehn","steam_id":76561198195359229,"connected_time":272000000000,"state":"active","ping":75},{"user_id":595,"name":"_Lusty_","steam_id":76561198876948142,"connected_time":2241000000000,"state":"active","ping":64},{"user_id":622,"name":"AmBoxReally","steam_id":76561198200640118,"connected_time":262000000000,"state":"active","ping":61},{"user_id":623,"name":"yaoi 2.0","steam_id":76561198123527383,"connected_time":259000000000,"state":"active","ping":59},{"user_id":556,"name":"Peter Popoff","steam_id":76561198027171160,"connected_time":4683000000000,"state":"active","ping":31},{"user_id":558,"name":"Fredfredfood","steam_id":76561198072824802,"connected_time":3933000000000,"state":"active","ping":55},{"user_id":624,"name":"slep.py","steam_id":76561197988287144,"connected_time":248000000000,"state":"active","ping":56},{"user_id":625,"name":"Rudy","steam_id":76561198013456828,"connected_time":220000000000,"state":"active","ping":70},{"user_id":606,"name":"Rein","steam_id":76561198300340427,"connected_time":1394000000000,"state":"active","ping":62},{"user_id":626,"name":"An Unhinged Meat Bicycle","steam_id":76561198358757709,"connected_time":220000000000,"state":"active","ping":101},{"user_id":627,"name":"guac","steam_id":76561198070305720,"connected_time":209000000000,"state":"active","ping":82},{"user_id":630,"name":"dirty30","steam_id":76561198021226566,"connected_time":30000000000,"state":"active","ping":95},{"user_id":629,"name":"Joker","steam_id":76561198251373190,"connected_time":184000000000,"state":"active","ping":79}]},{"server_id":403,"name":"Uncletopia | Chicago | 4 | All Maps","name_short":"chi-4","host":"chi-1.us.uncletopia.com","port":27045,"enabled":true,"region":"us-central","cc":"us","latitude":41.881832,"longitude":-87.62318,"reserved":0,"last_update":"0001-01-01T00:00:00Z","name_a2s":"Uncletopia | Chicago | 4 | All Maps","protocol":17,"map":"pl_borneo","folder":"tf","game":"Team Fortress","app_id":440,"player_count":24,"max_players":24,"Bots":0,"server_type":"Dedicated","server_os":"Linux","password":true,"vac":true,"version":"7882260","steam_id":85568392924515193,"keywords":["nocrits","nodmgspread","payload","uncletopia"],"game_id":440,"stv_port":27046,"stv_name":"Uncletopia | Chicago | 4 | All Maps | STV","players":[{"user_id":709,"name":"Blud done walked 0 miles","steam_id":76561199285074344,"connected_time":1331000000000,"state":"active","ping":60},{"user_id":725,"name":"MankTKO","steam_id":76561198189421005,"connected_time":461000000000,"state":"active","ping":48},{"user_id":699,"name":"graggle simpson","steam_id":76561198840210218,"connected_time":3224000000000,"state":"active","ping":106},{"user_id":718,"name":"M√£…æ û√≥≈¶ƒß","steam_id":76561198819418878,"connected_time":922000000000,"state":"active","ping":73},{"user_id":723,"name":"DoxPlaysGames","steam_id":76561198240339332,"connected_time":806000000000,"state":"active","ping":76},{"user_id":727,"name":"uuurrrr","steam_id":76561198028572994,"connected_time":54000000000,"state":"active","ping":60},{"user_id":407,"name":"WALL-E","steam_id":76561198154701370,"connected_time":26635000000000,"state":"active","ping":85},{"user_id":685,"name":"Erectile Dysfunction Gaming","steam_id":76561198349437251,"connected_time":4605000000000,"state":"active","ping":72},{"user_id":710,"name":"BatJet","steam_id":76561198147738441,"connected_time":982000000000,"state":"active","ping":111},{"user_id":675,"name":"TURTLEPOOL21","steam_id":76561198278212264,"connected_time":6221000000000,"state":"active","ping":59},{"user_id":636,"name":"‚ô¶‚ô£Quadric‚ô•‚ô†","steam_id":76561198061003853,"connected_time":8868000000000,"state":"active","ping":69},{"user_id":691,"name":"canakblasteran","steam_id":76561199472518822,"connected_time":4389000000000,"state":"active","ping":106},{"user_id":719,"name":"Crossing Jupiter","steam_id":76561198030126031,"connected_time":915000000000,"state":"active","ping":67},{"user_id":686,"name":"JayArr","steam_id":76561198124371253,"connected_time":4598000000000,"state":"active","ping":47},{"user_id":683,"name":"Nate_Bit","steam_id":76561198302313038,"connected_time":4659000000000,"state":"active","ping":78},{"user_id":721,"name":"VerdantSunset","steam_id":76561198062313478,"connected_time":874000000000,"state":"active","ping":81},{"user_id":713,"name":"The local hobo","steam_id":76561198289650060,"connected_time":961000000000,"state":"active","ping":405},{"user_id":726,"name":"Castroy","steam_id":76561198108160099,"connected_time":145000000000,"state":"active","ping":62},{"user_id":708,"name":"The Cleaner","steam_id":76561198066174041,"connected_time":1456000000000,"state":"active","ping":65},{"user_id":722,"name":"AreYouMyMummy?","steam_id":76561197995101745,"connected_time":873000000000,"state":"active","ping":63},{"user_id":693,"name":"JACOB","steam_id":76561198211874895,"connected_time":4156000000000,"state":"active","ping":79},{"user_id":715,"name":"roma","steam_id":76561198028811916,"connected_time":954000000000,"state":"active","ping":60},{"user_id":720,"name":"MoKo","steam_id":76561198025808618,"connected_time":913000000000,"state":"active","ping":78},{"user_id":696,"name":"Harpua","steam_id":76561197988020228,"connected_time":3662000000000,"state":"active","ping":68}]},{"server_id":36,"name":"Uncletopia | Chicago | 5 | All Maps","name_short":"chi-5","host":"chi-2.us.uncletopia.com","port":27015,"enabled":true,"region":"us-central","cc":"us","latitude":41.881832,"longitude":-87.62318,"reserved":0,"last_update":"0001-01-01T00:00:00Z","name_a2s":"Uncletopia | Chicago | 5 | All Maps","protocol":17,"map":"pl_barnblitz","folder":"tf","game":"Team Fortress","app_id":440,"player_count":24,"max_players":24,"Bots":0,"server_type":"Dedicated","server_os":"Linux","password":true,"vac":true,"version":"7882260","steam_id":85568392924866362,"keywords":["nocrits","nodmgspread","payload","uncletopia"],"game_id":440,"stv_port":27016,"stv_name":"Uncletopia | Chicago | 5 | All Maps | STV","players":[{"user_id":436,"name":"Strangelove","steam_id":76561198353773611,"connected_time":970000000000,"state":"active","ping":71},{"user_id":413,"name":"AceRepublicRT","steam_id":76561198362676166,"connected_time":2123000000000,"state":"active","ping":113},{"user_id":434,"name":"RoFrogle","steam_id":76561199078941377,"connected_time":1052000000000,"state":"active","ping":75},{"user_id":398,"name":"Dededoo","steam_id":76561198279033471,"connected_time":2762000000000,"state":"active","ping":93},{"user_id":406,"name":"Coup de Grass","steam_id":76561198011643226,"connected_time":2615000000000,"state":"active","ping":75},{"user_id":394,"name":"huh6750","steam_id":76561199094058555,"connected_time":3203000000000,"state":"active","ping":54},{"user_id":409,"name":"Fraglin","steam_id":76561198124964000,"connected_time":2458000000000,"state":"active","ping":70},{"user_id":372,"name":"Sentry Gun Main Man","steam_id":76561198327938247,"connected_time":3855000000000,"state":"active","ping":88},{"user_id":407,"name":"Saschuh","steam_id":76561198202188972,"connected_time":2614000000000,"state":"active","ping":71},{"user_id":399,"name":"Literally a Trans Woman","steam_id":76561198054639925,"connected_time":2740000000000,"state":"active","ping":61},{"user_id":422,"name":"warrior","steam_id":76561198074500319,"connected_time":1491000000000,"state":"active","ping":100},{"user_id":386,"name":"5$ Biggie Bag","steam_id":76561198298310744,"connected_time":3573000000000,"state":"active","ping":70},{"user_id":387,"name":"LooperDooper","steam_id":76561198162464484,"connected_time":3563000000000,"state":"active","ping":87},{"user_id":435,"name":"MasterCrafter27","steam_id":76561198151035981,"connected_time":990000000000,"state":"active","ping":107},{"user_id":424,"name":"Wan Shi Tong","steam_id":76561198076441225,"connected_time":1489000000000,"state":"active","ping":62},{"user_id":426,"name":"Ta5K","steam_id":76561198939558155,"connected_time":1478000000000,"state":"active","ping":44},{"user_id":416,"name":"p1zza","steam_id":76561197967631939,"connected_time":1838000000000,"state":"active","ping":56},{"user_id":427,"name":"hopeless","steam_id":76561198305056374,"connected_time":1441000000000,"state":"active","ping":73},{"user_id":428,"name":"catrinaisahuman","steam_id":76561198281355729,"connected_time":1370000000000,"state":"active","ping":74},{"user_id":432,"name":"vv","steam_id":76561198134813102,"connected_time":1079000000000,"state":"active","ping":61},{"user_id":429,"name":"Captain Zyrin","steam_id":76561197983121824,"connected_time":1351000000000,"state":"active","ping":71},{"user_id":308,"name":"[GUT] RiDiK¬Æ","steam_id":76561197969756446,"connected_time":10023000000000,"state":"active","ping":58},{"user_id":379,"name":"Pika","steam_id":76561198068063436,"connected_time":3727000000000,"state":"active","ping":58},{"user_id":412,"name":"Spazz","steam_id":76561198036167494,"connected_time":2289000000000,"state":"active","ping":39}]},{"server_id":37,"name":"Uncletopia | Chicago | 6 | All Maps","name_short":"chi-6","host":"chi-2.us.uncletopia.com","port":27025,"enabled":true,"region":"us-central","cc":"us","latitude":41.881832,"longitude":-87.62318,"reserved":0,"last_update":"0001-01-01T00:00:00Z","name_a2s":"Uncletopia | Chicago | 6 | All Maps","protocol":17,"map":"pl_upward","folder":"tf","game":"Team Fortress","app_id":440,"player_count":23,"max_players":24,"Bots":0,"server_type":"Dedicated","server_os":"Linux","password":true,"vac":true,"version":"7882260","steam_id":85568392924866363,"keywords":["nocrits","nodmgspread","payload","uncletopia"],"game_id":440,"stv_port":27026,"stv_name":"Uncletopia | Chicago | 6 | All Maps | STV","players":[{"user_id":271,"name":"sky walker","steam_id":76561198937717599,"connected_time":857000000000,"state":"active","ping":61},{"user_id":272,"name":"wm1","steam_id":76561198265522923,"connected_time":848000000000,"state":"active","ping":69},{"user_id":286,"name":"Mysterious Stranger","steam_id":76561198074990070,"connected_time":354000000000,"state":"active","ping":32},{"user_id":250,"name":"jimmyfnaf172198yay","steam_id":76561198311446636,"connected_time":1898000000000,"state":"active","ping":61},{"user_id":218,"name":"Person","steam_id":76561198093244204,"connected_time":3590000000000,"state":"active","ping":67},{"user_id":273,"name":"Soju","steam_id":76561198044130442,"connected_time":819000000000,"state":"active","ping":75},{"user_id":164,"name":"SpecialForce19","steam_id":76561198120974644,"connected_time":7474000000000,"state":"active","ping":73},{"user_id":269,"name":"FoodzAreGoodz","steam_id":76561198309262052,"connected_time":919000000000,"state":"active","ping":112},{"user_id":292,"name":"Blargh","steam_id":76561198044095816,"connected_time":85000000000,"state":"active","ping":60},{"user_id":246,"name":"Spicy Jumbo Big Daddy","steam_id":76561198076364318,"connected_time":1916000000000,"state":"active","ping":52},{"user_id":275,"name":"Mr.Silver","steam_id":76561198156382508,"connected_time":810000000000,"state":"active","ping":55},{"user_id":149,"name":"Blue-Lobster-Gaming","steam_id":76561199220578772,"connected_time":8415000000000,"state":"active","ping":102},{"user_id":265,"name":"gamer rat","steam_id":76561199278864569,"connected_time":1366000000000,"state":"active","ping":112},{"user_id":290,"name":"indust","steam_id":76561198007456119,"connected_time":240000000000,"state":"active","ping":40},{"user_id":262,"name":"Butters495","steam_id":76561197998689042,"connected_time":1511000000000,"state":"active","ping":76},{"user_id":284,"name":"Lunacy","steam_id":76561199386273760,"connected_time":620000000000,"state":"active","ping":108},{"user_id":263,"name":"DeadErebus","steam_id":76561198286117045,"connected_time":1487000000000,"state":"active","ping":30},{"user_id":280,"name":"Black Dynamite","steam_id":76561198142105768,"connected_time":795000000000,"state":"active","ping":99},{"user_id":289,"name":"wildpiercy","steam_id":76561198067760414,"connected_time":263000000000,"state":"active","ping":96},{"user_id":291,"name":"HK‚Ñ¢","steam_id":76561198196793415,"connected_time":187000000000,"state":"active","ping":100},{"user_id":196,"name":"giver of titanium armor","steam_id":76561199039152146,"connected_time":5417000000000,"state":"active","ping":67},{"user_id":293,"name":"CheeseLikeSubstance","steam_id":76561197977170646,"connected_time":65000000000,"state":"active","ping":47},{"user_id":282,"name":" ï‚Ä¢·¥•‚Ä¢ î the bear","steam_id":76561197989591976,"connected_time":790000000000,"state":"active","ping":80}]},{"server_id":38,"name":"Uncletopia | Chicago | 7 | Stopwatch Beta","name_short":"chi-7","host":"chi-2.us.uncletopia.com","port":27035,"enabled":true,"region":"us-central","cc":"us","latitude":41.881832,"longitude":-87.62318,"reserved":0,"last_update":"0001-01-01T00:00:00Z","name_a2s":"Uncletopia | Chicago | 7 | Stopwatch Beta","protocol":17,"map":"pl_borneo","folder":"tf","game":"Team Fortress","app_id":440,"player_count":0,"max_players":24,"Bots":0,"server_type":"Dedicated","server_os":"Linux","password":true,"vac":true,"version":"7882260","steam_id":85568392924866364,"keywords":["nocrits","nodmgspread","payload","uncletopia"],"game_id":440,"stv_port":27036,"stv_name":"Uncletopia | Chicago | 7 | Stopwatch Beta | STV","players":null},{"server_id":39,"name":"Uncletopia | Chicago | 8 | Community","name_short":"chi-8","host":"chi-2.us.uncletopia.com","port":27045,"enabled":true,"region":"us-central","cc":"us","latitude":41.881832,"longitude":-87.62318,"reserved":0,"last_update":"0001-01-01T00:00:00Z","name_a2s":"Uncletopia | Chicago | 8 | Community","protocol":17,"map":"workshop/koth_synthetic_rc6a.ugc1549817316","folder":"tf","game":"Team Fortress","app_id":440,"player_count":0,"max_players":24,"Bots":0,"server_type":"Dedicated","server_os":"Linux","password":true,"vac":true,"version":"7882260","steam_id":85568392924866365,"keywords":["cp","nocrits","nodmgspread","uncletopia"],"game_id":440,"stv_port":27046,"stv_name":"Uncletopia | Chicago | 8 | Community | STV","players":null},{"server_id":8,"name":"Uncletopia | Dallas | 1 | All Maps","name_short":"dal-1","host":"dal-1.us.uncletopia.com","port":27015,"enabled":true,"region":"us-central","cc":"us","latitude":32.779167,"longitude":-96.80889,"reserved":0,"last_update":"0001-01-01T00:00:00Z","name_a2s":"Uncletopia | Dallas | 1 | All Maps","protocol":17,"map":"pl_swiftwater_final1","folder":"tf","game":"Team Fortress","app_id":440,"player_count":24,"max_players":24,"Bots":0,"server_type":"Dedicated","server_os":"Linux","password":true,"vac":true,"version":"7882260","steam_id":85568392924469986,"keywords":["nocrits","nodmgspread","payload","uncletopia"],"game_id":440,"stv_port":27016,"stv_name":"Uncletopia | Dallas | 1 | All Maps | STV","players":[{"user_id":583,"name":"sebjzy ‚ô•","steam_id":76561198009959034,"connected_time":497000000000,"state":"active","ping":60},{"user_id":455,"name":"MEOW!MEOW!MEOW!OORAH!","steam_id":76561198105359319,"connected_time":6034000000000,"state":"active","ping":72},{"user_id":538,"name":"EvilPigglet","steam_id":76561197987243470,"connected_time":2764000000000,"state":"active","ping":75},{"user_id":565,"name":"max poop retention","steam_id":76561199050461421,"connected_time":1731000000000,"state":"active","ping":83},{"user_id":580,"name":"Kenji","steam_id":76561198219072892,"connected_time":516000000000,"state":"active","ping":76},{"user_id":535,"name":"Xeno808","steam_id":76561198103758081,"connected_time":2928000000000,"state":"active","ping":39},{"user_id":572,"name":"PlugFromBehind","steam_id":76561198143283800,"connected_time":1065000000000,"state":"active","ping":58},{"user_id":581,"name":"Kazmirl | Youtuber","steam_id":76561198116008410,"connected_time":508000000000,"state":"active","ping":106},{"user_id":582,"name":"fry","steam_id":76561199122083047,"connected_time":504000000000,"state":"active","ping":92},{"user_id":584,"name":"Surly Joe","steam_id":76561199150833796,"connected_time":474000000000,"state":"active","ping":92},{"user_id":566,"name":"shoxidizer","steam_id":76561198981983698,"connected_time":1708000000000,"state":"active","ping":96},{"user_id":495,"name":"Ballista","steam_id":76561197983182562,"connected_time":4349000000000,"state":"active","ping":57},{"user_id":531,"name":"Vit","steam_id":76561198044101991,"connected_time":3347000000000,"state":"active","ping":69},{"user_id":571,"name":"¬øsoup?","steam_id":76561198121042852,"connected_time":1322000000000,"state":"active","ping":102},{"user_id":564,"name":"DoctorDucky","steam_id":76561198356434380,"connected_time":1747000000000,"state":"active","ping":64},{"user_id":578,"name":"Farm3rJh0nson","steam_id":76561199166153873,"connected_time":523000000000,"state":"active","ping":110},{"user_id":576,"name":"barker bill","steam_id":76561198018451994,"connected_time":871000000000,"state":"active","ping":67},{"user_id":528,"name":"Sup m8","steam_id":76561198081659121,"connected_time":3464000000000,"state":"active","ping":44},{"user_id":573,"name":"Crispy","steam_id":76561198037481161,"connected_time":1043000000000,"state":"active","ping":70},{"user_id":585,"name":"Dinofire","steam_id":76561198147468271,"connected_time":458000000000,"state":"active","ping":97},{"user_id":577,"name":"charm","steam_id":76561198126751384,"connected_time":868000000000,"state":"active","ping":70},{"user_id":586,"name":"faka","steam_id":76561199093280815,"connected_time":287000000000,"state":"active","ping":112},{"user_id":540,"name":"Cofi","steam_id":76561199026721822,"connected_time":2725000000000,"state":"active","ping":92},{"user_id":568,"name":"Sableye","steam_id":76561198061247147,"connected_time":1706000000000,"state":"active","ping":76}]},{"server_id":108,"name":"Uncletopia | Dallas | 2 | All Maps","name_short":"dal-2","host":"dal-1.us.uncletopia.com","port":27025,"enabled":true,"region":"us-central","cc":"us","latitude":32.779167,"longitude":-96.80889,"reserved":0,"last_update":"0001-01-01T00:00:00Z","name_a2s":"Uncletopia | Dallas | 2 | All Maps","protocol":17,"map":"pl_borneo","folder":"tf","game":"Team Fortress","app_id":440,"player_count":19,"max_players":24,"Bots":0,"server_type":"Dedicated","server_os":"Linux","password":true,"vac":true,"version":"7882260","steam_id":85568392924469988,"keywords":["nocrits","nodmgspread","payload","uncletopia"],"game_id":440,"stv_port":27026,"stv_name":"Uncletopia | Dallas | 2 | All Maps | STV","players":[{"user_id":396,"name":"J.G. Klaus","steam_id":76561198001111196,"connected_time":3304000000000,"state":"spawning","ping":47},{"user_id":428,"name":"Grilled Jizo","steam_id":76561199250875340,"connected_time":8000000000,"state":"spawning","ping":114},{"user_id":387,"name":"DylChill616","steam_id":76561198194576953,"connected_time":3658000000000,"state":"spawning","ping":101},{"user_id":409,"name":"xZackAttack27x","steam_id":76561198035446639,"connected_time":1655000000000,"state":"spawning","ping":29},{"user_id":426,"name":"Octy","steam_id":76561198046430524,"connected_time":224000000000,"state":"spawning","ping":83},{"user_id":355,"name":"Boomer Gaming","steam_id":76561198037803087,"connected_time":5575000000000,"state":"spawning","ping":58},{"user_id":418,"name":"—Å—á–∏–∑—è—≥","steam_id":76561199182960322,"connected_time":1271000000000,"state":"spawning","ping":50},{"user_id":423,"name":"poke_ravi","steam_id":76561198006619886,"connected_time":629000000000,"state":"spawning","ping":81},{"user_id":425,"name":"ShapedSilver","steam_id":76561199073305310,"connected_time":312000000000,"state":"spawning","ping":45},{"user_id":419,"name":"meggie","steam_id":76561198038291026,"connected_time":1164000000000,"state":"spawning","ping":29},{"user_id":420,"name":"Queen Frau the Round","steam_id":76561197999942134,"connected_time":1033000000000,"state":"spawning","ping":74},{"user_id":417,"name":"kry lol","steam_id":76561199414292856,"connected_time":1374000000000,"state":"spawning","ping":42},{"user_id":414,"name":"chucknut","steam_id":76561199329553584,"connected_time":1579000000000,"state":"spawning","ping":109},{"user_id":427,"name":"GotYourGoat","steam_id":76561197995171850,"connected_time":27000000000,"state":"connecting","ping":82},{"user_id":272,"name":"Glaceon","steam_id":76561198177715869,"connected_time":10023000000000,"state":"spawning","ping":47},{"user_id":421,"name":"King Cotton","steam_id":76561198292444376,"connected_time":729000000000,"state":"spawning","ping":50},{"user_id":366,"name":"I am a mooshroom","steam_id":76561198104198295,"connected_time":4723000000000,"state":"spawning","ping":67},{"user_id":413,"name":"Dandy Chiggins","steam_id":76561198106046107,"connected_time":1615000000000,"state":"spawning","ping":78},{"user_id":397,"name":"nothowon","steam_id":76561198937601452,"connected_time":3256000000000,"state":"spawning","ping":52}]},{"server_id":5,"name":"Uncletopia | Frankfurt | 1 | All Maps","name_short":"frk-1","host":"frk-1.de.uncletopia.com","port":27015,"enabled":true,"region":"eu","cc":"de","latitude":50.110924,"longitude":8.682127,"reserved":0,"last_update":"0001-01-01T00:00:00Z","name_a2s":"Uncletopia | Frankfurt | 1 | All Maps","protocol":17,"map":"koth_cascade","folder":"tf","game":"Team Fortress","app_id":440,"player_count":0,"max_players":24,"Bots":0,"server_type":"Dedicated","server_os":"Linux","password":true,"vac":true,"version":"7882260","steam_id":85568392924469989,"keywords":["cp","nocrits","nodmgspread","uncletopia"],"game_id":440,"stv_port":27016,"stv_name":"Uncletopia | Frankfurt | 1 | All Maps | STV","players":null},{"server_id":110,"name":"Uncletopia | Frankfurt | 2 | All Maps","name_short":"frk-2","host":"frk-1.de.uncletopia.com","port":27025,"enabled":true,"region":"eu","cc":"de","latitude":50.110924,"longitude":8.682127,"reserved":0,"last_update":"0001-01-01T00:00:00Z","name_a2s":"Uncletopia | Frankfurt | 2 | All Maps","protocol":17,"map":"pl_snowycoast","folder":"tf","game":"Team Fortress","app_id":440,"player_count":10,"max_players":24,"Bots":0,"server_type":"Dedicated","server_os":"Linux","password":true,"vac":true,"version":"7882260","steam_id":85568392924469990,"keywords":["nocrits","nodmgspread","payload","uncletopia"],"game_id":440,"stv_port":27026,"stv_name":"Uncletopia | Frankfurt | 2 | All Maps | STV","players":[{"user_id":725,"name":"Victoria NyaNya","steam_id":76561198386462300,"connected_time":1039000000000,"state":"active","ping":104},{"user_id":723,"name":"ja","steam_id":76561199228540618,"connected_time":2248000000000,"state":"active","ping":66},{"user_id":726,"name":"zoinks!","steam_id":76561198068645362,"connected_time":987000000000,"state":"active","ping":46},{"user_id":715,"name":"Devious","steam_id":76561198035576811,"connected_time":3080000000000,"state":"active","ping":47},{"user_id":729,"name":"wide appreciator","steam_id":76561198083286511,"connected_time":608000000000,"state":"active","ping":46},{"user_id":728,"name":"FanFish","steam_id":76561199389558024,"connected_time":699000000000,"state":"active","ping":67},{"user_id":733,"name":"dj paradise","steam_id":76561198031325797,"connected_time":46000000000,"state":"spawning","ping":90},{"user_id":731,"name":"Û†Ä°Û†Ä°","steam_id":76561198399390201,"connected_time":258000000000,"state":"active","ping":89},{"user_id":732,"name":"highschool drop-out","steam_id":76561198366299848,"connected_time":150000000000,"state":"active","ping":176},{"user_id":655,"name":"fb","steam_id":76561197988802856,"connected_time":8954000000000,"state":"active","ping":58}]},{"server_id":308,"name":"Uncletopia | Frankfurt | 3 | All Maps","name_short":"frk-3","host":"frk-1.de.uncletopia.com","port":27035,"enabled":true,"region":"eu","cc":"de","latitude":50.110924,"longitude":8.682127,"reserved":0,"last_update":"0001-01-01T00:00:00Z","name_a2s":"Uncletopia | Frankfurt | 3 | All Maps","protocol":17,"map":"koth_viaduct","folder":"tf","game":"Team Fortress","app_id":440,"player_count":0,"max_players":24,"Bots":0,"server_type":"Dedicated","server_os":"Linux","password":true,"vac":true,"version":"7882260","steam_id":85568392924504274,"keywords":["cp","nocrits","nodmgspread","uncletopia"],"game_id":440,"stv_port":27036,"stv_name":"Uncletopia | Frankfurt | 3 | All Maps | STV","players":null},{"server_id":309,"name":"Uncletopia | Frankfurt | 4 | All Maps","name_short":"frk-4","host":"frk-1.de.uncletopia.com","port":27045,"enabled":true,"region":"eu","cc":"de","latitude":50.110924,"longitude":8.682127,"reserved":0,"last_update":"0001-01-01T00:00:00Z","name_a2s":"Uncletopia | Frankfurt | 4 | All Maps","protocol":17,"map":"pl_upward","folder":"tf","game":"Team Fortress","app_id":440,"player_count":0,"max_players":24,"Bots":0,"server_type":"Dedicated","server_os":"Linux","password":true,"vac":true,"version":"7882260","steam_id":85568392924504275,"keywords":["nocrits","nodmgspread","payload","uncletopia"],"game_id":440,"stv_port":27046,"stv_name":"Uncletopia | Frankfurt | 4 | All Maps | STV","players":null},{"server_id":310,"name":"Uncletopia | Frankfurt | 5 | All Maps","name_short":"frk-5","host":"frk-1.de.uncletopia.com","port":27055,"enabled":true,"region":"eu","cc":"de","latitude":50.110924,"longitude":8.682127,"reserved":0,"last_update":"0001-01-01T00:00:00Z","name_a2s":"Uncletopia | Frankfurt | 5 | All Maps","protocol":17,"map":"cp_mountainlab","folder":"tf","game":"Team Fortress","app_id":440,"player_count":1,"max_players":24,"Bots":0,"server_type":"Dedicated","server_os":"Linux","password":true,"vac":true,"version":"7882260","steam_id":85568392924504277,"keywords":["cp","nocrits","nodmgspread","uncletopia"],"game_id":440,"stv_port":27056,"stv_name":"Uncletopia | Frankfurt | 5 | All Maps | STV","players":[{"user_id":688,"name":"Laz_Duck2704","steam_id":76561199012951261,"connected_time":163000000000,"state":"active","ping":107}]},{"server_id":311,"name":"Uncletopia | Frankfurt | 6 | All Maps","name_short":"frk-6","host":"frk-1.de.uncletopia.com","port":27065,"enabled":true,"region":"eu","cc":"de","latitude":50.110924,"longitude":8.682127,"reserved":0,"last_update":"0001-01-01T00:00:00Z","name_a2s":"Uncletopia | Frankfurt | 6 | All Maps","protocol":17,"map":"pl_barnblitz","folder":"tf","game":"Team Fortress","app_id":440,"player_count":0,"max_players":24,"Bots":0,"server_type":"Dedicated","server_os":"Linux","password":true,"vac":true,"version":"7882260","steam_id":85568392924504278,"keywords":["nocrits","nodmgspread","payload","uncletopia"],"game_id":440,"stv_port":27066,"stv_name":"Uncletopia | Frankfurt | 6 | All Maps | STV","players":null},{"server_id":23,"name":"Uncletopia | Frankfurt | 7 | Stopwatch Beta","name_short":"frk-7","host":"frk-1.de.uncletopia.com","port":27075,"enabled":true,"region":"eu","cc":"de","latitude":50.110924,"longitude":8.682127,"reserved":0,"last_update":"0001-01-01T00:00:00Z","name_a2s":"Uncletopia | Frankfurt | 7 | Stopwatch Beta","protocol":17,"map":"workshop/pl_badwater_pro_v12.ugc2142942074","folder":"tf","game":"Team Fortress","app_id":440,"player_count":0,"max_players":24,"Bots":0,"server_type":"Dedicated","server_os":"Linux","password":true,"vac":true,"version":"7882260","steam_id":85568392924742827,"keywords":["nocrits","nodmgspread","payload","uncletopia"],"game_id":440,"stv_port":27076,"stv_name":"Uncletopia | Frankfurt | 7 | Stopwatch Beta | STV","players":null},{"server_id":24,"name":"Uncletopia | Frankfurt | 8 | Community","name_short":"frk-8","host":"frk-1.de.uncletopia.com","port":27085,"enabled":true,"region":"eu","cc":"de","latitude":50.110924,"longitude":8.682127,"reserved":0,"last_update":"0001-01-01T00:00:00Z","name_a2s":"Uncletopia | Frankfurt | 8 | Community","protocol":17,"map":"workshop/koth_trenchfoot_b1a.ugc731436616","folder":"tf","game":"Team Fortress","app_id":440,"player_count":0,"max_players":24,"Bots":0,"server_type":"Dedicated","server_os":"Linux","password":true,"vac":true,"version":"7882260","steam_id":85568392924742828,"keywords":["cp","nocrits","nodmgspread","uncletopia"],"game_id":440,"stv_port":27086,"stv_name":"Uncletopia | Frankfurt | 8 | Community | STV","players":null},{"server_id":202,"name":"Uncletopia | Hong Kong | 1 | All Maps","name_short":"hgk-1","host":"hgk-1.hk.uncletopia.com","port":27015,"enabled":true,"region":"asia","cc":"hk","latitude":22.302711,"longitude":114.177216,"reserved":0,"last_update":"0001-01-01T00:00:00Z","name_a2s":"Uncletopia | Hong Kong | 1 | All Maps","protocol":17,"map":"cp_process_final","folder":"tf","game":"Team Fortress","app_id":440,"player_count":0,"max_players":24,"Bots":0,"server_type":"Dedicated","server_os":"Linux","password":true,"vac":true,"version":"7882260","steam_id":85568392924494504,"keywords":["cp","nocrits","nodmgspread","uncletopia"],"game_id":440,"stv_port":27016,"stv_name":"Uncletopia | Hong Kong | 1 | All Maps | STV","players":null},{"server_id":1,"name":"Uncletopia | Los Angeles | 1 | All Maps","name_short":"lax-1","host":"lax-1.us.uncletopia.com","port":27015,"enabled":true,"region":"us-west","cc":"us","latitude":33.94279,"longitude":-118.41004,"reserved":0,"last_update":"0001-01-01T00:00:00Z","name_a2s":"Uncletopia | Los Angeles | 1 | All Maps","protocol":17,"map":"koth_nucleus","folder":"tf","game":"Team Fortress","app_id":440,"player_count":24,"max_players":24,"Bots":0,"server_type":"Dedicated","server_os":"Linux","password":true,"vac":true,"version":"7882260","steam_id":85568392924469991,"keywords":["cp","nocrits","nodmgspread","uncletopia"],"game_id":440,"stv_port":27016,"stv_name":"Uncletopia | Los Angeles | 1 | All Maps | STV","players":[{"user_id":538,"name":"SilentScott","steam_id":76561198236688652,"connected_time":634000000000,"state":"active","ping":85},{"user_id":520,"name":"Mom","steam_id":76561198207936000,"connected_time":1632000000000,"state":"active","ping":45},{"user_id":512,"name":"Avem","steam_id":76561198058763710,"connected_time":2820000000000,"state":"active","ping":44},{"user_id":544,"name":"Purple potato","steam_id":76561198932276149,"connected_time":249000000000,"state":"active","ping":68},{"user_id":521,"name":"LeNoobe","steam_id":76561199092079229,"connected_time":1611000000000,"state":"active","ping":70},{"user_id":548,"name":"FI LO","steam_id":76561198976530881,"connected_time":197000000000,"state":"active","ping":42},{"user_id":537,"name":"Lukut","steam_id":76561198041273515,"connected_time":753000000000,"state":"active","ping":110},{"user_id":522,"name":"Da Bird","steam_id":76561198215677985,"connected_time":1607000000000,"state":"active","ping":66},{"user_id":542,"name":"‚õß‚∏∏‚õß‚∏∏‚õß‚∏∏","steam_id":76561198007051179,"connected_time":504000000000,"state":"active","ping":40},{"user_id":545,"name":"Moomin","steam_id":76561198072726213,"connected_time":243000000000,"state":"active","ping":47},{"user_id":493,"name":"Spectre1578","steam_id":76561198953243633,"connected_time":4169000000000,"state":"active","ping":73},{"user_id":472,"name":"Sgt. Satire","steam_id":76561198104193483,"connected_time":4523000000000,"state":"active","ping":66},{"user_id":543,"name":"Surprise Garlic Bread Party","steam_id":76561197995246546,"connected_time":488000000000,"state":"active","ping":55},{"user_id":495,"name":"Benis Gonzalez","steam_id":76561198799391259,"connected_time":4122000000000,"state":"active","ping":57},{"user_id":530,"name":"Separable Differential Equation","steam_id":76561198051699904,"connected_time":1419000000000,"state":"active","ping":48},{"user_id":518,"name":"DaToasterKing","steam_id":76561199074553021,"connected_time":2094000000000,"state":"active","ping":55},{"user_id":546,"name":"CR3EP","steam_id":76561198071554862,"connected_time":229000000000,"state":"active","ping":57},{"user_id":549,"name":"nescoceo","steam_id":76561198040801160,"connected_time":163000000000,"state":"active","ping":51},{"user_id":525,"name":"2 for $3.50 McChickens","steam_id":76561198089908660,"connected_time":1566000000000,"state":"active","ping":59},{"user_id":551,"name":"ExplosiveGamer21","steam_id":76561198132370955,"connected_time":61000000000,"state":"active","ping":90},{"user_id":550,"name":"soapboxracer360","steam_id":76561198316394688,"connected_time":159000000000,"state":"active","ping":56},{"user_id":541,"name":"Overmeme","steam_id":76561199455124144,"connected_time":623000000000,"state":"active","ping":86},{"user_id":532,"name":"onisock","steam_id":76561198166589402,"connected_time":1388000000000,"state":"active","ping":52},{"user_id":536,"name":"[ G R * T T Y ]","steam_id":76561198048986218,"connected_time":819000000000,"state":"active","ping":65}]},{"server_id":112,"name":"Uncletopia | Los Angeles | 2 | All Maps","name_short":"lax-2","host":"lax-1.us.uncletopia.com","port":27025,"enabled":true,"region":"us-west","cc":"us","latitude":33.94279,"longitude":-118.41004,"reserved":0,"last_update":"0001-01-01T00:00:00Z","name_a2s":"Uncletopia | Los Angeles | 2 | All Maps","protocol":17,"map":"cp_sunshine","folder":"tf","game":"Team Fortress","app_id":440,"player_count":19,"max_players":24,"Bots":0,"server_type":"Dedicated","server_os":"Linux","password":true,"vac":true,"version":"7882260","steam_id":85568392924469992,"keywords":["cp","nocrits","nodmgspread","uncletopia"],"game_id":440,"stv_port":27026,"stv_name":"Uncletopia | Los Angeles | 2 | All Maps | STV","players":[{"user_id":227,"name":"Skarp129","steam_id":76561198108679057,"connected_time":443000000000,"state":"spawning","ping":110},{"user_id":186,"name":"Manchurian Bandit","steam_id":76561198072410042,"connected_time":3482000000000,"state":"spawning","ping":129},{"user_id":159,"name":"REALLINUSJEWTIP.","steam_id":76561198056647983,"connected_time":5735000000000,"state":"spawning","ping":285},{"user_id":233,"name":"shoebill bird","steam_id":76561198183266525,"connected_time":29000000000,"state":"spawning","ping":191},{"user_id":220,"name":"Walrus","steam_id":76561198001799905,"connected_time":1084000000000,"state":"spawning","ping":106},{"user_id":222,"name":"Starfruit66","steam_id":76561198069917277,"connected_time":987000000000,"state":"spawning","ping":103},{"user_id":232,"name":"confused","steam_id":76561199391930993,"connected_time":64000000000,"state":"spawning","ping":177},{"user_id":215,"name":"Sigmer","steam_id":76561198397023567,"connected_time":1142000000000,"state":"spawning","ping":85},{"user_id":223,"name":"The King of Existing","steam_id":76561199473068279,"connected_time":842000000000,"state":"spawning","ping":228},{"user_id":234,"name":"mr_angry_guy","steam_id":76561199365643094,"connected_time":29000000000,"state":"connecting","ping":676},{"user_id":224,"name":"Doombob Slayerpants","steam_id":76561198084786241,"connected_time":841000000000,"state":"spawning","ping":182},{"user_id":193,"name":"Knight","steam_id":76561198154529952,"connected_time":2317000000000,"state":"spawning","ping":223},{"user_id":213,"name":"Fiestaknight","steam_id":76561198037847385,"connected_time":1177000000000,"state":"spawning","ping":259},{"user_id":207,"name":"KonJac","steam_id":76561198027812652,"connected_time":1533000000000,"state":"spawning","ping":146},{"user_id":160,"name":"pai-sano","steam_id":76561198065575472,"connected_time":5729000000000,"state":"spawning","ping":267},{"user_id":206,"name":"Ferris Argyle","steam_id":76561198221760000,"connected_time":1640000000000,"state":"spawning","ping":183},{"user_id":167,"name":"G. Howard Dee","steam_id":76561198058382812,"connected_time":5594000000000,"state":"spawning","ping":112},{"user_id":228,"name":"Cool Ghost","steam_id":76561198440103807,"connected_time":430000000000,"state":"spawning","ping":139},{"user_id":225,"name":"stboncho","steam_id":76561198172275301,"connected_time":729000000000,"state":"spawning","ping":109}]},{"server_id":324,"name":"Uncletopia | Los Angeles | 3 | All Maps","name_short":"lax-3","host":"lax-1.us.uncletopia.com","port":27035,"enabled":true,"region":"us-west","cc":"us","latitude":33.94279,"longitude":-118.41004,"reserved":0,"last_update":"0001-01-01T00:00:00Z","name_a2s":"Uncletopia | Los Angeles | 3 | All Maps","protocol":17,"map":"cp_snakewater_final1","folder":"tf","game":"Team Fortress","app_id":440,"player_count":24,"max_players":24,"Bots":0,"server_type":"Dedicated","server_os":"Linux","password":true,"vac":true,"version":"7882260","steam_id":85568392924510198,"keywords":["cp","nocrits","nodmgspread","uncletopia"],"game_id":440,"stv_port":27036,"stv_name":"Uncletopia | Los Angeles | 3 | All Maps | STV","players":[{"user_id":207,"name":"NoExit","steam_id":76561198065725996,"connected_time":36000000000,"state":"active","ping":137},{"user_id":167,"name":"Peter, what are you doing?","steam_id":76561198066452726,"connected_time":2214000000000,"state":"active","ping":48},{"user_id":206,"name":"Cortana's Package","steam_id":76561198011398519,"connected_time":69000000000,"state":"active","ping":101},{"user_id":191,"name":"Jango","steam_id":76561198084589742,"connected_time":722000000000,"state":"active","ping":106},{"user_id":184,"name":"Awenova","steam_id":76561198322928940,"connected_time":1159000000000,"state":"active","ping":107},{"user_id":173,"name":"OminousNoises","steam_id":76561198263320321,"connected_time":1555000000000,"state":"active","ping":132},{"user_id":172,"name":"John Wick's puppy","steam_id":76561198064662875,"connected_time":1645000000000,"state":"active","ping":49},{"user_id":204,"name":"_D_I_S_P_E_N_S_E_R_","steam_id":76561199383097700,"connected_time":99000000000,"state":"active","ping":84},{"user_id":186,"name":"Doppelg√§nger","steam_id":76561198036730436,"connected_time":1028000000000,"state":"active","ping":54},{"user_id":200,"name":"Green_GarBear","steam_id":76561199468912415,"connected_time":199000000000,"state":"active","ping":62},{"user_id":129,"name":"blossomdemoman","steam_id":76561198042735130,"connected_time":5332000000000,"state":"active","ping":83},{"user_id":199,"name":"Big Oil","steam_id":76561199238964574,"connected_time":302000000000,"state":"active","ping":74},{"user_id":194,"name":"Balerion the Black Dread","steam_id":76561198003728369,"connected_time":605000000000,"state":"active","ping":58},{"user_id":197,"name":"Objectionist","steam_id":76561199006818518,"connected_time":489000000000,"state":"active","ping":90},{"user_id":157,"name":"Tech Deck","steam_id":76561199070437675,"connected_time":3143000000000,"state":"active","ping":56},{"user_id":165,"name":"Power Jake","steam_id":76561198051510260,"connected_time":2626000000000,"state":"active","ping":60},{"user_id":132,"name":"TheRealChizz","steam_id":76561198016055769,"connected_time":5211000000000,"state":"active","ping":66},{"user_id":205,"name":"Big boned","steam_id":76561198046056717,"connected_time":99000000000,"state":"active","ping":46},{"user_id":193,"name":"MayaBon","steam_id":76561198797968261,"connected_time":629000000000,"state":"active","ping":85},{"user_id":189,"name":"precious","steam_id":76561198224614084,"connected_time":908000000000,"state":"active","ping":90},{"user_id":187,"name":"Dom","steam_id":76561198156431338,"connected_time":929000000000,"state":"active","ping":114},{"user_id":133,"name":"JeffNotGeoff","steam_id":76561198088656972,"connected_time":4989000000000,"state":"active","ping":72},{"user_id":192,"name":"rimble","steam_id":76561198150137369,"connected_time":715000000000,"state":"active","ping":48},{"user_id":196,"name":"AbbyRoads","steam_id":76561198868564212,"connected_time":513000000000,"state":"active","ping":123}]},{"server_id":25,"name":"Uncletopia | Los Angeles | 4 | Stopwatch Beta","name_short":"lax-4","host":"lax-1.us.uncletopia.com","port":27045,"enabled":true,"region":"us-west","cc":"us","latitude":33.94279,"longitude":-118.41004,"reserved":0,"last_update":"0001-01-01T00:00:00Z","name_a2s":"Uncletopia | Los Angeles | 4 | Stopwatch Beta","protocol":17,"map":"koth_highpass","folder":"tf","game":"Team Fortress","app_id":440,"player_count":24,"max_players":24,"Bots":0,"server_type":"Dedicated","server_os":"Linux","password":true,"vac":true,"version":"7882260","steam_id":85568392924510199,"keywords":["cp","nocrits","nodmgspread","uncletopia"],"game_id":440,"stv_port":27046,"stv_name":"Uncletopia | Los Angeles | 4 | Stopwatch Beta | STV","players":[{"user_id":155,"name":"BallBreaker","steam_id":76561198237263498,"connected_time":730000000000,"state":"active","ping":113},{"user_id":165,"name":"Clorox Bleachman","steam_id":76561199473349007,"connected_time":182000000000,"state":"active","ping":82},{"user_id":159,"name":"OmniMoto","steam_id":76561198091298557,"connected_time":441000000000,"state":"active","ping":73},{"user_id":145,"name":"Nekro Kitty","steam_id":76561198025054596,"connected_time":1528000000000,"state":"active","ping":95},{"user_id":154,"name":"Rocky","steam_id":76561198048158539,"connected_time":851000000000,"state":"active","ping":85},{"user_id":136,"name":"mkl","steam_id":76561197986401685,"connected_time":1905000000000,"state":"active","ping":85},{"user_id":130,"name":"I LOVE MEN","steam_id":76561199055667840,"connected_time":2040000000000,"state":"active","ping":126},{"user_id":83,"name":"enderlaptop_minecrafter3","steam_id":76561199161322235,"connected_time":5252000000000,"state":"active","ping":47},{"user_id":110,"name":"TractorKid45","steam_id":76561198087472085,"connected_time":3383000000000,"state":"active","ping":57},{"user_id":142,"name":"Acto","steam_id":76561198043025164,"connected_time":1626000000000,"state":"active","ping":89},{"user_id":156,"name":"Nano","steam_id":76561199009634635,"connected_time":715000000000,"state":"active","ping":55},{"user_id":164,"name":"birthday jorts","steam_id":76561199041179985,"connected_time":212000000000,"state":"active","ping":86},{"user_id":143,"name":"Billy McWilly","steam_id":76561198002882318,"connected_time":1616000000000,"state":"active","ping":76},{"user_id":129,"name":"StarLy","steam_id":76561198174428289,"connected_time":2056000000000,"state":"active","ping":111},{"user_id":39,"name":"neet","steam_id":76561197968115168,"connected_time":6264000000000,"state":"active","ping":95},{"user_id":40,"name":"orio","steam_id":76561198116550170,"connected_time":6176000000000,"state":"active","ping":52},{"user_id":131,"name":"FRED.JOHNSHON2007","steam_id":76561198138221795,"connected_time":2036000000000,"state":"active","ping":101},{"user_id":161,"name":"BAD TO THE BONE","steam_id":76561199059733640,"connected_time":274000000000,"state":"active","ping":65},{"user_id":162,"name":"womenobtainer39","steam_id":76561199236568388,"connected_time":256000000000,"state":"active","ping":70},{"user_id":163,"name":"oil","steam_id":76561198099980149,"connected_time":230000000000,"state":"active","ping":53},{"user_id":166,"name":"Spirit","steam_id":76561198026245914,"connected_time":102000000000,"state":"active","ping":86},{"user_id":167,"name":"Wizard","steam_id":76561199002653293,"connected_time":25000000000,"state":"active","ping":134},{"user_id":149,"name":"nory","steam_id":76561198031819070,"connected_time":1328000000000,"state":"active","ping":58},{"user_id":153,"name":"Floaty","steam_id":76561198100029503,"connected_time":1056000000000,"state":"active","ping":84}]},{"server_id":11,"name":"Uncletopia | London | 1 | All Maps","name_short":"lon-1","host":"lon-1.uk.uncletopia.com","port":27015,"enabled":true,"region":"eu","cc":"gb","latitude":51.509865,"longitude":-0.118092,"reserved":0,"last_update":"0001-01-01T00:00:00Z","name_a2s":"Uncletopia | London | 1 | All Maps","protocol":17,"map":"koth_nucleus","folder":"tf","game":"Team Fortress","app_id":440,"player_count":0,"max_players":24,"Bots":0,"server_type":"Dedicated","server_os":"Linux","password":true,"vac":true,"version":"7882260","steam_id":85568392924367362,"keywords":["cp","nocrits","nodmgspread","uncletopia"],"game_id":440,"stv_port":27016,"stv_name":"Uncletopia | London | 1 | All Maps | STV","players":null},{"server_id":114,"name":"Uncletopia | London | 2 | All Maps","name_short":"lon-2","host":"lon-1.uk.uncletopia.com","port":27025,"enabled":true,"region":"eu","cc":"gb","latitude":51.509865,"longitude":-0.118092,"reserved":0,"last_update":"0001-01-01T00:00:00Z","name_a2s":"Uncletopia | London | 2 | All Maps","protocol":17,"map":"koth_cascade","folder":"tf","game":"Team Fortress","app_id":440,"player_count":0,"max_players":24,"Bots":0,"server_type":"Dedicated","server_os":"Linux","password":true,"vac":true,"version":"7882260","steam_id":85568392924470941,"keywords":["cp","nocrits","nodmgspread","uncletopia"],"game_id":440,"stv_port":27026,"stv_name":"Uncletopia | London | 2 | All Maps | STV","players":null},{"server_id":320,"name":"Uncletopia | London | 3 | All Maps","name_short":"lon-3","host":"lon-1.uk.uncletopia.com","port":27035,"enabled":true,"region":"eu","cc":"gb","latitude":51.509865,"longitude":-0.118092,"reserved":0,"last_update":"0001-01-01T00:00:00Z","name_a2s":"Uncletopia | London | 3 | All Maps","protocol":17,"map":"cp_mountainlab","folder":"tf","game":"Team Fortress","app_id":440,"player_count":0,"max_players":24,"Bots":0,"server_type":"Dedicated","server_os":"Linux","password":true,"vac":true,"version":"7882260","steam_id":85568392924510192,"keywords":["cp","nocrits","nodmgspread","uncletopia"],"game_id":440,"stv_port":27036,"stv_name":"Uncletopia | London | 3 | All Maps | STV","players":null},{"server_id":321,"name":"Uncletopia | London | 4 | All Maps","name_short":"lon-4","host":"lon-1.uk.uncletopia.com","port":27045,"enabled":true,"region":"eu","cc":"gb","latitude":51.509865,"longitude":-0.118092,"reserved":0,"last_update":"0001-01-01T00:00:00Z","name_a2s":"Uncletopia | London | 4 | All Maps","protocol":17,"map":"pl_swiftwater_final1","folder":"tf","game":"Team Fortress","app_id":440,"player_count":20,"max_players":24,"Bots":0,"server_type":"Dedicated","server_os":"Linux","password":true,"vac":true,"version":"7882260","steam_id":85568392924510193,"keywords":["nocrits","nodmgspread","payload","uncletopia"],"game_id":440,"stv_port":27046,"stv_name":"Uncletopia | London | 4 | All Maps | STV","players":[{"user_id":444,"name":"reformed i swear","steam_id":76561198152392309,"connected_time":4994000000000,"state":"active","ping":44},{"user_id":496,"name":"Corpus Christi","steam_id":76561198417999443,"connected_time":112000000000,"state":"active","ping":110},{"user_id":494,"name":"Controller Gaming","steam_id":76561198134805479,"connected_time":1074000000000,"state":"active","ping":50},{"user_id":497,"name":"supersage","steam_id":76561198360859488,"connected_time":63000000000,"state":"active","ping":116},{"user_id":484,"name":"Pootis.gov.uk","steam_id":76561197970114051,"connected_time":1721000000000,"state":"active","ping":41},{"user_id":482,"name":"jigen","steam_id":76561198168270939,"connected_time":1761000000000,"state":"active","ping":74},{"user_id":462,"name":"shits in urinals","steam_id":76561199480942903,"connected_time":3394000000000,"state":"active","ping":75},{"user_id":498,"name":"4lq","steam_id":76561198414299782,"connected_time":18000000000,"state":"active","ping":105},{"user_id":481,"name":"DDUUCCKK","steam_id":76561198141953050,"connected_time":2099000000000,"state":"active","ping":57},{"user_id":442,"name":"I'm not gonna sugarcoat it","steam_id":76561198144597089,"connected_time":5302000000000,"state":"active","ping":48},{"user_id":477,"name":"‚ôõperry the platypus‚ôõ","steam_id":76561199379159771,"connected_time":2573000000000,"state":"active","ping":147},{"user_id":489,"name":"mas","steam_id":76561198145465595,"connected_time":1630000000000,"state":"active","ping":34},{"user_id":453,"name":"Mr. Fox","steam_id":76561198803610709,"connected_time":4297000000000,"state":"active","ping":105},{"user_id":469,"name":"Melford","steam_id":76561198319650677,"connected_time":3068000000000,"state":"active","ping":147},{"user_id":475,"name":"Hoxton","steam_id":76561198129209505,"connected_time":2842000000000,"state":"active","ping":70},{"user_id":490,"name":":P","steam_id":76561198106399430,"connected_time":1296000000000,"state":"active","ping":44},{"user_id":479,"name":"SuperBob103","steam_id":76561199175360012,"connected_time":2456000000000,"state":"active","ping":89},{"user_id":491,"name":"Gozzer","steam_id":76561197984155185,"connected_time":1241000000000,"state":"active","ping":74},{"user_id":476,"name":"i n n o","steam_id":76561199230689289,"connected_time":2789000000000,"state":"active","ping":88},{"user_id":495,"name":"–¢—Ä—É–ø –í–æ–ª–æ–¥—è","steam_id":76561198035718457,"connected_time":690000000000,"state":"active","ping":80}]},{"server_id":21,"name":"Uncletopia | London | 5 | All Maps","name_short":"lon-5","host":"lon-1.uk.uncletopia.com","port":27055,"enabled":true,"region":"eu","cc":"gb","latitude":51.509865,"longitude":-0.118092,"reserved":0,"last_update":"0001-01-01T00:00:00Z","name_a2s":"Uncletopia | London | 5 | All Maps","protocol":17,"map":"koth_lakeside_final","folder":"tf","game":"Team Fortress","app_id":440,"player_count":0,"max_players":24,"Bots":0,"server_type":"Dedicated","server_os":"Linux","password":true,"vac":true,"version":"7882260","steam_id":85568392924742829,"keywords":["cp","nocrits","nodmgspread","uncletopia"],"game_id":440,"stv_port":27056,"stv_name":"Uncletopia | London | 5 | All Maps | STV","players":null},{"server_id":22,"name":"Uncletopia | London | 6 | All Maps","name_short":"lon-6","host":"lon-1.uk.uncletopia.com","port":27065,"enabled":true,"region":"eu","cc":"gb","latitude":51.509865,"longitude":-0.118092,"reserved":0,"last_update":"0001-01-01T00:00:00Z","name_a2s":"Uncletopia | London | 6 | All Maps","protocol":17,"map":"koth_harvest_final","folder":"tf","game":"Team Fortress","app_id":440,"player_count":0,"max_players":24,"Bots":0,"server_type":"Dedicated","server_os":"Linux","password":true,"vac":true,"version":"7882260","steam_id":85568392924742830,"keywords":["cp","nocrits","nodmgspread","uncletopia"],"game_id":440,"stv_port":27066,"stv_name":"Uncletopia | London | 6 | All Maps | STV","players":null},{"server_id":40,"name":"Uncletopia | London | 7 | No Payload","name_short":"lon-7","host":"lon-1.uk.uncletopia.com","port":27075,"enabled":true,"region":"eu","cc":"gb","latitude":51.509865,"longitude":-0.118092,"reserved":0,"last_update":"0001-01-01T00:00:00Z","name_a2s":"Uncletopia | London | 7 | No Payload","protocol":17,"map":"koth_viaduct","folder":"tf","game":"Team Fortress","app_id":440,"player_count":0,"max_players":24,"Bots":0,"server_type":"Dedicated","server_os":"Linux","password":true,"vac":true,"version":"7882260","steam_id":85568392924964314,"keywords":["cp","nocrits","nodmgspread","uncletopia"],"game_id":440,"stv_port":27076,"stv_name":"Uncletopia | London | 7 | No Payload | STV","players":null},{"server_id":41,"name":"Uncletopia | London | 8 | Community","name_short":"lon-8","host":"lon-1.uk.uncletopia.com","port":27085,"enabled":true,"region":"eu","cc":"gb","latitude":51.509865,"longitude":-0.118092,"reserved":0,"last_update":"0001-01-01T00:00:00Z","name_a2s":"Uncletopia | London | 8 | Community","protocol":17,"map":"workshop/koth_kemptown_rc1.ugc767410655","folder":"tf","game":"Team Fortress","app_id":440,"player_count":0,"max_players":24,"Bots":0,"server_type":"Dedicated","server_os":"Linux","password":true,"vac":true,"version":"7882260","steam_id":85568392924964315,"keywords":["cp","nocrits","nodmgspread","uncletopia"],"game_id":440,"stv_port":27086,"stv_name":"Uncletopia | London | 8 | Community | STV","players":null},{"server_id":300,"name":"Uncletopia | Montr√©al | 1 | All Maps","name_short":"mtl-1","host":"mtl-1.ca.uncletopia.com","port":27015,"enabled":true,"region":"us-east","cc":"ca","latitude":45.50889,"longitude":-73.56167,"reserved":0,"last_update":"0001-01-01T00:00:00Z","name_a2s":"Uncletopia | Montr√©al | 1 | All Maps","protocol":17,"map":"pl_badwater","folder":"tf","game":"Team Fortress","app_id":440,"player_count":24,"max_players":24,"Bots":0,"server_type":"Dedicated","server_os":"Linux","password":true,"vac":true,"version":"7882260","steam_id":85568392924500087,"keywords":["nocrits","nodmgspread","payload","uncletopia"],"game_id":440,"stv_port":27016,"stv_name":"Uncletopia | Montr√©al | 1 | All Maps | STV","players":[{"user_id":137,"name":"grate_warior-232","steam_id":76561198073424589,"connected_time":840000000000,"state":"active","ping":58},{"user_id":98,"name":"Mediocre Gaming","steam_id":76561199230467980,"connected_time":2977000000000,"state":"active","ping":91},{"user_id":122,"name":"StupidMemes","steam_id":76561198253547727,"connected_time":1795000000000,"state":"active","ping":46},{"user_id":115,"name":"Malmart_Employee","steam_id":76561198320388704,"connected_time":2045000000000,"state":"active","ping":142},{"user_id":134,"name":"j1mmy","steam_id":76561198098554331,"connected_time":882000000000,"state":"active","ping":66},{"user_id":101,"name":"Potato","steam_id":76561198115604238,"connected_time":2688000000000,"state":"active","ping":120},{"user_id":144,"name":"Lore","steam_id":76561198098407538,"connected_time":661000000000,"state":"active","ping":78},{"user_id":145,"name":"Mr. Garfield","steam_id":76561198357316376,"connected_time":655000000000,"state":"active","ping":108},{"user_id":133,"name":"Elite_Friendly","steam_id":76561198819972127,"connected_time":918000000000,"state":"active","ping":142},{"user_id":146,"name":"leumas","steam_id":76561198240408540,"connected_time":623000000000,"state":"active","ping":48},{"user_id":117,"name":"abcdefghijklmnopqrstuvwxyz","steam_id":76561198175741741,"connected_time":1896000000000,"state":"active","ping":105},{"user_id":136,"name":"frank","steam_id":76561198045436159,"connected_time":851000000000,"state":"active","ping":65},{"user_id":114,"name":"ClericsRose","steam_id":76561198011013806,"connected_time":2131000000000,"state":"active","ping":68},{"user_id":147,"name":"Tenna","steam_id":76561198052020077,"connected_time":569000000000,"state":"active","ping":120},{"user_id":138,"name":"JustLooking","steam_id":76561198207877387,"connected_time":836000000000,"state":"active","ping":62},{"user_id":118,"name":"R33se","steam_id":76561198296531992,"connected_time":1847000000000,"state":"active","ping":84},{"user_id":140,"name":"‚ù§ Ashley ‚ù§","steam_id":76561198056428303,"connected_time":826000000000,"state":"active","ping":130},{"user_id":148,"name":"Orga","steam_id":76561198062321195,"connected_time":199000000000,"state":"active","ping":92},{"user_id":112,"name":"Viennetta","steam_id":76561198044088335,"connected_time":2194000000000,"state":"active","ping":94},{"user_id":58,"name":"bobbymcbobington","steam_id":76561199089411172,"connected_time":6431000000000,"state":"active","ping":138},{"user_id":113,"name":"thai","steam_id":76561198052462287,"connected_time":2185000000000,"state":"active","ping":154},{"user_id":69,"name":"1001NinjaDucks","steam_id":76561198058169660,"connected_time":5431000000000,"state":"active","ping":59},{"user_id":120,"name":"conner","steam_id":76561198052911241,"connected_time":1826000000000,"state":"active","ping":65},{"user_id":143,"name":"Yeahboiiii","steam_id":76561198390325068,"connected_time":768000000000,"state":"active","ping":58}]},{"server_id":301,"name":"Uncletopia | Montr√©al | 2 | All Maps","name_short":"mtl-2","host":"mtl-1.ca.uncletopia.com","port":27025,"enabled":true,"region":"us-east","cc":"ca","latitude":45.50889,"longitude":-73.56167,"reserved":0,"last_update":"0001-01-01T00:00:00Z","name_a2s":"Uncletopia | Montr√©al | 2 | All Maps","protocol":17,"map":"pl_badwater","folder":"tf","game":"Team Fortress","app_id":440,"player_count":7,"max_players":24,"Bots":0,"server_type":"Dedicated","server_os":"Linux","password":true,"vac":true,"version":"7882260","steam_id":85568392924500088,"keywords":["nocrits","nodmgspread","payload","uncletopia"],"game_id":440,"stv_port":27026,"stv_name":"Uncletopia | Montr√©al | 2 | All Maps | STV","players":[{"user_id":195,"name":"TJThomas","steam_id":76561198038292405,"connected_time":4556000000000,"state":"active","ping":56},{"user_id":244,"name":"Warpy","steam_id":76561198055852599,"connected_time":534000000000,"state":"active","ping":72},{"user_id":249,"name":"thatbedrockblock","steam_id":76561199069286524,"connected_time":432000000000,"state":"active","ping":137},{"user_id":246,"name":"Your Local NPR Station","steam_id":76561198143830279,"connected_time":478000000000,"state":"active","ping":61},{"user_id":224,"name":"Ka Xin Yu","steam_id":76561198057116531,"connected_time":2517000000000,"state":"active","ping":45},{"user_id":248,"name":"manbearswineflu","steam_id":76561198083945137,"connected_time":468000000000,"state":"active","ping":95}]},{"server_id":302,"name":"Uncletopia | Montr√©al | 3 | All Maps","name_short":"mtl-3","host":"mtl-1.ca.uncletopia.com","port":27035,"enabled":true,"region":"us-east","cc":"ca","latitude":45.50889,"longitude":-73.56167,"reserved":0,"last_update":"0001-01-01T00:00:00Z","name_a2s":"Uncletopia | Montr√©al | 3 | All Maps","protocol":17,"map":"cp_process_final","folder":"tf","game":"Team Fortress","app_id":440,"player_count":12,"max_players":24,"Bots":0,"server_type":"Dedicated","server_os":"Linux","password":true,"vac":true,"version":"7882260","steam_id":85568392924500089,"keywords":["cp","nocrits","nodmgspread","uncletopia"],"game_id":440,"stv_port":27036,"stv_name":"Uncletopia | Montr√©al | 3 | All Maps | STV","players":[{"user_id":14,"name":"LlamaIron","steam_id":76561198196071490,"connected_time":950000000000,"state":"active","ping":89},{"user_id":15,"name":"Rukir","steam_id":76561198275743642,"connected_time":945000000000,"state":"active","ping":85},{"user_id":16,"name":"Sam ‚∏∏","steam_id":76561198447716360,"connected_time":915000000000,"state":"active","ping":323},{"user_id":17,"name":"REPL1C4TE","steam_id":76561198799184324,"connected_time":906000000000,"state":"active","ping":113},{"user_id":18,"name":"odacovA","steam_id":76561199383345208,"connected_time":802000000000,"state":"active","ping":80},{"user_id":19,"name":"Aisforlike","steam_id":76561199482110668,"connected_time":798000000000,"state":"active","ping":77},{"user_id":20,"name":"Sammich","steam_id":76561198010543087,"connected_time":560000000000,"state":"active","ping":75},{"user_id":21,"name":"RokkitFrog","steam_id":76561198046465850,"connected_time":556000000000,"state":"active","ping":92},{"user_id":22,"name":"TrickyTilly","steam_id":76561198068636015,"connected_time":524000000000,"state":"active","ping":101},{"user_id":23,"name":"Daubee","steam_id":76561198004385130,"connected_time":511000000000,"state":"active","ping":90},{"user_id":24,"name":"Lily Penguin","steam_id":76561198031906401,"connected_time":507000000000,"state":"active","ping":107},{"user_id":25,"name":"Peri","steam_id":76561198255311543,"connected_time":206000000000,"state":"active","ping":67}]},{"server_id":303,"name":"Uncletopia | Montr√©al | 4 | No Payload","name_short":"mtl-4","host":"mtl-1.ca.uncletopia.com","port":27045,"enabled":true,"region":"us-east","cc":"ca","latitude":45.50889,"longitude":-73.56167,"reserved":0,"last_update":"0001-01-01T00:00:00Z","name_a2s":"Uncletopia | Montr√©al | 4 | No Payload","protocol":17,"map":"cp_altitude","folder":"tf","game":"Team Fortress","app_id":440,"player_count":0,"max_players":24,"Bots":0,"server_type":"Dedicated","server_os":"Linux","password":true,"vac":true,"version":"7882260","steam_id":85568392924500090,"keywords":["cp","nocrits","nodmgspread","uncletopia"],"game_id":440,"stv_port":27046,"stv_name":"Uncletopia | Montr√©al | 4 | No Payload | STV","players":null},{"server_id":13,"name":"Uncletopia | New York City | 1 | All Maps","name_short":"nyc-1","host":"nyc-1.us.uncletopia.com","port":27015,"enabled":true,"region":"us-east","cc":"us","latitude":40.73061,"longitude":-73.93524,"reserved":0,"last_update":"0001-01-01T00:00:00Z","name_a2s":"Uncletopia | New York City | 1 | All Maps","protocol":17,"map":"pl_badwater","folder":"tf","game":"Team Fortress","app_id":440,"player_count":23,"max_players":24,"Bots":0,"server_type":"Dedicated","server_os":"Linux","password":true,"vac":true,"version":"7882260","steam_id":85568392924469993,"keywords":["nocrits","nodmgspread","payload","uncletopia"],"game_id":440,"stv_port":27016,"stv_name":"Uncletopia | New York City | 1 | All Maps | STV","players":[{"user_id":259,"name":"tesagi","steam_id":76561198026664629,"connected_time":7476000000000,"state":"active","ping":45},{"user_id":363,"name":"The destroyer of foreskin","steam_id":76561198135275966,"connected_time":606000000000,"state":"active","ping":75},{"user_id":353,"name":"‚ô°Alyx‚ô°","steam_id":76561198024303978,"connected_time":1815000000000,"state":"active","ping":48},{"user_id":368,"name":"Pasta Enthusiast","steam_id":76561198306393090,"connected_time":112000000000,"state":"active","ping":47},{"user_id":308,"name":"Wique","steam_id":76561198071217597,"connected_time":4355000000000,"state":"active","ping":72},{"user_id":335,"name":"CorruptedWrath","steam_id":76561198021952400,"connected_time":2874000000000,"state":"active","ping":80},{"user_id":348,"name":"Fodder","steam_id":76561198000827769,"connected_time":2469000000000,"state":"active","ping":81},{"user_id":318,"name":"turd ferguson","steam_id":76561198071620782,"connected_time":3666000000000,"state":"active","ping":60},{"user_id":369,"name":"Jack","steam_id":76561198254716942,"connected_time":45000000000,"state":"active","ping":71},{"user_id":359,"name":"the viber","steam_id":76561198392539722,"connected_time":860000000000,"state":"active","ping":104},{"user_id":350,"name":"Menacing Pile of Frogs","steam_id":76561198360134800,"connected_time":2274000000000,"state":"active","ping":60},{"user_id":315,"name":"Havok","steam_id":76561198063455003,"connected_time":3767000000000,"state":"active","ping":56},{"user_id":364,"name":"Battery Acid Slurper","steam_id":76561198439793697,"connected_time":510000000000,"state":"active","ping":84},{"user_id":351,"name":"stink","steam_id":76561198099318923,"connected_time":2024000000000,"state":"active","ping":66},{"user_id":370,"name":"AllPantsNoSkill","steam_id":76561198049655464,"connected_time":35000000000,"state":"active","ping":87},{"user_id":365,"name":"Ground Control to Majortom","steam_id":76561198065589126,"connected_time":472000000000,"state":"active","ping":82},{"user_id":366,"name":"Littlebit","steam_id":76561199485086969,"connected_time":448000000000,"state":"active","ping":127},{"user_id":354,"name":"Brynjolf","steam_id":76561198051695772,"connected_time":1487000000000,"state":"active","ping":78},{"user_id":355,"name":"Crystron","steam_id":76561198880437428,"connected_time":1487000000000,"state":"active","ping":90},{"user_id":357,"name":"Chewbacca","steam_id":76561198041927925,"connected_time":1150000000000,"state":"active","ping":51},{"user_id":367,"name":"Wutzitmatter","steam_id":76561198067140513,"connected_time":445000000000,"state":"active","ping":108},{"user_id":233,"name":"Baron von Whoopsie","steam_id":76561197996691013,"connected_time":8521000000000,"state":"active","ping":60},{"user_id":263,"name":"Yoshimelon","steam_id":76561198253054325,"connected_time":7437000000000,"state":"active","ping":75}]},{"server_id":14,"name":"Uncletopia | New York City | 2 | All Maps","name_short":"nyc-2","host":"nyc-1.us.uncletopia.com","port":27025,"enabled":true,"region":"us-east","cc":"us","latitude":40.73061,"longitude":-73.93524,"reserved":0,"last_update":"0001-01-01T00:00:00Z","name_a2s":"Uncletopia | New York City | 2 | All Maps","protocol":17,"map":"pl_barnblitz","folder":"tf","game":"Team Fortress","app_id":440,"player_count":24,"max_players":24,"Bots":0,"server_type":"Dedicated","server_os":"Linux","password":true,"vac":true,"version":"7882260","steam_id":85568392924469994,"keywords":["nocrits","nodmgspread","payload","uncletopia"],"game_id":440,"stv_port":27026,"stv_name":"Uncletopia | New York City | 2 | All Maps | STV","players":[{"user_id":233,"name":"LocaKola","steam_id":76561198173435430,"connected_time":180000000000,"state":"active","ping":71},{"user_id":226,"name":"dddumb510","steam_id":76561198030793492,"connected_time":826000000000,"state":"active","ping":168},{"user_id":234,"name":"aiming with drawing tablet","steam_id":76561198397662124,"connected_time":137000000000,"state":"active","ping":97},{"user_id":200,"name":"SnareString","steam_id":76561199082119457,"connected_time":2099000000000,"state":"active","ping":125},{"user_id":201,"name":"SHADY SWEATER SALESMAN","steam_id":76561198014616865,"connected_time":2072000000000,"state":"active","ping":59},{"user_id":228,"name":"Banana Dispenser","steam_id":76561198446549451,"connected_time":788000000000,"state":"active","ping":121},{"user_id":217,"name":"(TTV) The_Astrum_Guardian","steam_id":76561198130134103,"connected_time":1384000000000,"state":"active","ping":60},{"user_id":225,"name":"Braamklauw","steam_id":76561198283287697,"connected_time":887000000000,"state":"active","ping":136},{"user_id":235,"name":"Ga Blun","steam_id":76561198865908327,"connected_time":137000000000,"state":"active","ping":70},{"user_id":218,"name":"Tacobell_nugget","steam_id":76561199248567851,"connected_time":1377000000000,"state":"active","ping":112},{"user_id":184,"name":"Blobbyfish","steam_id":76561198822962650,"connected_time":2946000000000,"state":"active","ping":53},{"user_id":236,"name":"nekoknight tf2","steam_id":76561198400058665,"connected_time":95000000000,"state":"active","ping":64},{"user_id":229,"name":"Guil","steam_id":76561197993289176,"connected_time":783000000000,"state":"active","ping":64},{"user_id":238,"name":"nile","steam_id":76561197980035714,"connected_time":32000000000,"state":"active","ping":92},{"user_id":159,"name":"riSygneD","steam_id":76561198331618687,"connected_time":4570000000000,"state":"active","ping":107},{"user_id":231,"name":"whoopsydoodle","steam_id":76561198045145360,"connected_time":372000000000,"state":"active","ping":48},{"user_id":230,"name":"Mythical Lag","steam_id":76561198347031281,"connected_time":735000000000,"state":"active","ping":89},{"user_id":239,"name":"Snoman","steam_id":76561197969248675,"connected_time":22000000000,"state":"active","ping":58},{"user_id":220,"name":"ArrSayingPirate","steam_id":76561197997567278,"connected_time":1361000000000,"state":"active","ping":72},{"user_id":221,"name":"AlmondMilk","steam_id":76561198151229725,"connected_time":1359000000000,"state":"active","ping":72},{"user_id":222,"name":"Racer X","steam_id":76561198073613932,"connected_time":1357000000000,"state":"active","ping":84},{"user_id":195,"name":"The Notorious P.U.E.R.","steam_id":76561198046715542,"connected_time":2780000000000,"state":"active","ping":57},{"user_id":198,"name":"b4rry","steam_id":76561198365887154,"connected_time":2703000000000,"state":"active","ping":50},{"user_id":224,"name":"Mecha Sonic","steam_id":76561198327063410,"connected_time":1343000000000,"state":"active","ping":96}]},{"server_id":15,"name":"Uncletopia | New York City | 3 | Stopwatch Beta","name_short":"nyc-3","host":"nyc-1.us.uncletopia.com","port":27035,"enabled":true,"region":"us-east","cc":"us","latitude":40.73061,"longitude":-73.93524,"reserved":0,"last_update":"0001-01-01T00:00:00Z","name_a2s":"Uncletopia | New York City | 3 | Stopwatch Beta","protocol":17,"map":"cp_metalworks","folder":"tf","game":"Team Fortress","app_id":440,"player_count":20,"max_players":24,"Bots":0,"server_type":"Dedicated","server_os":"Linux","password":true,"vac":true,"version":"7882260","steam_id":85568392924742820,"keywords":["cp","nocrits","nodmgspread","uncletopia"],"game_id":440,"stv_port":27036,"stv_name":"Uncletopia | New York City | 3 | Stopwatch Beta | STV","players":[{"user_id":53,"name":"SwagMaster777","steam_id":76561199328301077,"connected_time":385000000000,"state":"active","ping":124},{"user_id":55,"name":"sunny","steam_id":76561198069380992,"connected_time":333000000000,"state":"active","ping":79},{"user_id":56,"name":"Dr.Holiday","steam_id":76561198353465692,"connected_time":250000000000,"state":"active","ping":59},{"user_id":48,"name":"MooseGoose82","steam_id":76561199123118241,"connected_time":641000000000,"state":"active","ping":125},{"user_id":52,"name":"Streesil","steam_id":76561198008931880,"connected_time":395000000000,"state":"active","ping":50},{"user_id":54,"name":"orange","steam_id":76561198272694642,"connected_time":365000000000,"state":"active","ping":89},{"user_id":49,"name":"heritage","steam_id":76561198108685037,"connected_time":622000000000,"state":"active","ping":86},{"user_id":30,"name":"St. Michael","steam_id":76561198037611052,"connected_time":2367000000000,"state":"active","ping":78},{"user_id":22,"name":"MondoDong","steam_id":76561197991400109,"connected_time":2877000000000,"state":"active","ping":55},{"user_id":21,"name":"too deep for most to understand","steam_id":76561198022636144,"connected_time":2978000000000,"state":"active","ping":51},{"user_id":31,"name":"craven","steam_id":76561198088191503,"connected_time":2306000000000,"state":"active","ping":71},{"user_id":26,"name":"SoundslikeJustice","steam_id":76561198963640645,"connected_time":2547000000000,"state":"active","ping":62},{"user_id":27,"name":"Moonthief","steam_id":76561198011908428,"connected_time":2469000000000,"state":"active","ping":44},{"user_id":47,"name":"hybriD^o0","steam_id":76561197977313486,"connected_time":927000000000,"state":"active","ping":54},{"user_id":57,"name":"RickyGangs26","steam_id":76561198351453925,"connected_time":132000000000,"state":"active","ping":98},{"user_id":35,"name":"souljaboytellem.com","steam_id":76561198111975583,"connected_time":2247000000000,"state":"active","ping":89},{"user_id":58,"name":"i love the government :)","steam_id":76561199015353035,"connected_time":118000000000,"state":"active","ping":57},{"user_id":38,"name":"Don Schizzdum","steam_id":76561198444378507,"connected_time":2101000000000,"state":"active","ping":87},{"user_id":46,"name":"sasharudzik","steam_id":76561199126617781,"connected_time":1629000000000,"state":"active","ping":73},{"user_id":41,"name":"Ciggy Stardust","steam_id":76561198061770842,"connected_time":1971000000000,"state":"active","ping":56}]},{"server_id":16,"name":"Uncletopia | New York City | 4 | Community","name_short":"nyc-4","host":"nyc-1.us.uncletopia.com","port":27045,"enabled":true,"region":"us-east","cc":"us","latitude":40.73061,"longitude":-73.93524,"reserved":0,"last_update":"0001-01-01T00:00:00Z","name_a2s":"Uncletopia | New York City | 4 | Community","protocol":17,"map":"workshop/pl_eruption_b9a.ugc2807898013","folder":"tf","game":"Team Fortress","app_id":440,"player_count":24,"max_players":24,"Bots":0,"server_type":"Dedicated","server_os":"Linux","password":true,"vac":true,"version":"7882260","steam_id":85568392924742821,"keywords":["nocrits","nodmgspread","payload","uncletopia"],"game_id":440,"stv_port":27046,"stv_name":"Uncletopia | New York City | 4 | Community | STV","players":[{"user_id":225,"name":"Dylanxp300","steam_id":76561198271974937,"connected_time":497000000000,"state":"active","ping":60},{"user_id":166,"name":"crashymicsplody","steam_id":76561198213916765,"connected_time":4102000000000,"state":"active","ping":78},{"user_id":155,"name":"DeckofDragons","steam_id":76561198057398213,"connected_time":4844000000000,"state":"active","ping":91},{"user_id":167,"name":"Ginger Jesus","steam_id":76561198052386458,"connected_time":4063000000000,"state":"active","ping":44},{"user_id":157,"name":"VexT","steam_id":76561199471734115,"connected_time":4691000000000,"state":"active","ping":98},{"user_id":212,"name":"VelocityMagnet","steam_id":76561199097484065,"connected_time":1537000000000,"state":"active","ping":51},{"user_id":191,"name":"batasy","steam_id":76561198044767185,"connected_time":3226000000000,"state":"active","ping":74},{"user_id":216,"name":"GuyGoom","steam_id":76561198254522178,"connected_time":907000000000,"state":"active","ping":74},{"user_id":232,"name":"Asanez3","steam_id":76561198037381436,"connected_time":91000000000,"state":"active","ping":57},{"user_id":214,"name":"TransientPoe","steam_id":76561198028957025,"connected_time":1259000000000,"state":"active","ping":63},{"user_id":222,"name":"Constipated Barry","steam_id":76561198004482269,"connected_time":656000000000,"state":"active","ping":114},{"user_id":217,"name":"Peepster","steam_id":76561198297854733,"connected_time":890000000000,"state":"active","ping":81},{"user_id":230,"name":"Atrain_","steam_id":76561198097007668,"connected_time":259000000000,"state":"active","ping":55},{"user_id":226,"name":"JohnnyGitGud","steam_id":76561198401455467,"connected_time":435000000000,"state":"active","ping":130},{"user_id":190,"name":"nothing burger eater","steam_id":76561198046201690,"connected_time":3271000000000,"state":"active","ping":136},{"user_id":179,"name":"Zelith","steam_id":76561198234980480,"connected_time":3638000000000,"state":"active","ping":56},{"user_id":224,"name":"chuck","steam_id":76561198102300433,"connected_time":553000000000,"state":"active","ping":65},{"user_id":206,"name":"Fostrel","steam_id":76561198152160601,"connected_time":1811000000000,"state":"active","ping":95},{"user_id":231,"name":"Goofball","steam_id":76561198061211537,"connected_time":240000000000,"state":"active","ping":75},{"user_id":215,"name":"Obelix","steam_id":76561198274715109,"connected_time":1246000000000,"state":"active","ping":59},{"user_id":228,"name":"Shinies","steam_id":76561198169459631,"connected_time":377000000000,"state":"active","ping":79},{"user_id":192,"name":"SentientKitKatBar(F2P)","steam_id":76561198842149924,"connected_time":3224000000000,"state":"active","ping":193},{"user_id":208,"name":"big stank dick dad","steam_id":76561198121561534,"connected_time":1797000000000,"state":"active","ping":72},{"user_id":233,"name":"G.bo","steam_id":76561198085176270,"connected_time":86000000000,"state":"active","ping":128}]},{"server_id":142,"name":"Uncletopia | S√£o Paulo | 1 | All Maps","name_short":"sao-1","host":"sao-1.br.uncletopia.com","port":27015,"enabled":true,"region":"sa","cc":"br","latitude":-23.533773,"longitude":-46.62529,"reserved":0,"last_update":"0001-01-01T00:00:00Z","name_a2s":"Uncletopia | S√£o Paulo | 1 | All Maps","protocol":17,"map":"koth_viaduct","folder":"tf","game":"Team Fortress","app_id":440,"player_count":0,"max_players":24,"Bots":0,"server_type":"Dedicated","server_os":"Linux","password":true,"vac":true,"version":"7882260","steam_id":85568392924469996,"keywords":["cp","nocrits","nodmgspread","uncletopia"],"game_id":440,"stv_port":27016,"stv_name":"Uncletopia | S√£o Paulo | 1 | All Maps | STV","players":null},{"server_id":143,"name":"Uncletopia | S√£o Paulo | 2 | All Maps","name_short":"sao-2","host":"sao-2.br.uncletopia.com","port":27015,"enabled":true,"region":"sa","cc":"br","latitude":-23.533773,"longitude":-46.62529,"reserved":0,"last_update":"0001-01-01T00:00:00Z","name_a2s":"Uncletopia | S√£o Paulo | 2 | All Maps","protocol":17,"map":"pl_snowycoast","folder":"tf","game":"Team Fortress","app_id":440,"player_count":3,"max_players":24,"Bots":0,"server_type":"Dedicated","server_os":"Linux","password":true,"vac":true,"version":"7882260","steam_id":85568392924485349,"keywords":["nocrits","nodmgspread","payload","uncletopia"],"game_id":440,"stv_port":27016,"stv_name":"Uncletopia | S√£o Paulo | 2 | All Maps | STV","players":[{"user_id":253,"name":"Ambassadress Wolfina","steam_id":76561198067075413,"connected_time":633000000000,"state":"active","ping":178},{"user_id":251,"name":"Punga","steam_id":76561198083529226,"connected_time":1575000000000,"state":"active","ping":42},{"user_id":195,"name":"Kakaroto 286","steam_id":76561199006539437,"connected_time":4969000000000,"state":"active","ping":49}]},{"server_id":7,"name":"Uncletopia | Seattle | 1 | All Maps","name_short":"sea-1","host":"sea-1.us.uncletopia.com","port":27015,"enabled":true,"region":"us-west","cc":"us","latitude":47.608013,"longitude":-122.33517,"reserved":0,"last_update":"0001-01-01T00:00:00Z","name_a2s":"Uncletopia | Seattle | 1 | All Maps","protocol":17,"map":"pl_badwater","folder":"tf","game":"Team Fortress","app_id":440,"player_count":24,"max_players":24,"Bots":0,"server_type":"Dedicated","server_os":"Linux","password":true,"vac":true,"version":"7882260","steam_id":85568392924469997,"keywords":["nocrits","nodmgspread","payload","uncletopia"],"game_id":440,"stv_port":27016,"stv_name":"Uncletopia | Seattle | 1 | All Maps | STV","players":[{"user_id":541,"name":"BlazedBunny","steam_id":76561198243610560,"connected_time":1989000000000,"state":"active","ping":76},{"user_id":560,"name":"goldhed","steam_id":76561198051751133,"connected_time":654000000000,"state":"active","ping":58},{"user_id":552,"name":"Smellbow McArmpit","steam_id":76561198109445099,"connected_time":1162000000000,"state":"active","ping":50},{"user_id":558,"name":"BOTBOT","steam_id":76561198271928618,"connected_time":841000000000,"state":"active","ping":120},{"user_id":547,"name":"tiananmensquare1989","steam_id":76561199076837870,"connected_time":1468000000000,"state":"active","ping":154},{"user_id":551,"name":"[DEEP] Danmar33","steam_id":76561198056453091,"connected_time":1383000000000,"state":"active","ping":91},{"user_id":443,"name":"MCman","steam_id":76561198412110305,"connected_time":10778000000000,"state":"active","ping":73},{"user_id":509,"name":"lil uzi vert","steam_id":76561198326466375,"connected_time":5103000000000,"state":"active","ping":84},{"user_id":459,"name":"jacix3 [gay wolfgirl]{she/it}","steam_id":76561198205004165,"connected_time":9785000000000,"state":"active","ping":68},{"user_id":497,"name":"Strikerbolt","steam_id":76561199095622897,"connected_time":6821000000000,"state":"active","ping":79},{"user_id":543,"name":"dash","steam_id":76561198043889548,"connected_time":1964000000000,"state":"active","ping":70},{"user_id":529,"name":"HiFivr","steam_id":76561198285190162,"connected_time":3173000000000,"state":"active","ping":71},{"user_id":555,"name":"ColSnugglebugs","steam_id":76561197997121141,"connected_time":880000000000,"state":"active","ping":64},{"user_id":514,"name":"PopcornBucketGames","steam_id":76561199089562026,"connected_time":4869000000000,"state":"active","ping":51},{"user_id":542,"name":"Crake","steam_id":76561198001959071,"connected_time":1971000000000,"state":"active","ping":60},{"user_id":511,"name":"Fh","steam_id":76561198000903511,"connected_time":5078000000000,"state":"active","ping":66},{"user_id":556,"name":"o o o o o o o o o","steam_id":76561197993757506,"connected_time":864000000000,"state":"active","ping":72},{"user_id":544,"name":"DrStarBucksCoffee","steam_id":76561198037372470,"connected_time":1960000000000,"state":"active","ping":79},{"user_id":561,"name":"An Old Lady","steam_id":76561198047480318,"connected_time":617000000000,"state":"active","ping":75},{"user_id":563,"name":"evilOlive","steam_id":76561198106222025,"connected_time":283000000000,"state":"active","ping":75},{"user_id":554,"name":"jar","steam_id":76561198115553338,"connected_time":1083000000000,"state":"active","ping":58},{"user_id":546,"name":"Username","steam_id":76561199033122306,"connected_time":1673000000000,"state":"active","ping":158},{"user_id":539,"name":"[DEEP] Roz257","steam_id":76561198842844532,"connected_time":2187000000000,"state":"active","ping":132},{"user_id":549,"name":"some nerd","steam_id":76561198297272878,"connected_time":1467000000000,"state":"active","ping":64}]},{"server_id":119,"name":"Uncletopia | Seattle | 2 | All Maps","name_short":"sea-2","host":"sea-1.us.uncletopia.com","port":27025,"enabled":true,"region":"us-west","cc":"us","latitude":47.608013,"longitude":-122.33517,"reserved":0,"last_update":"0001-01-01T00:00:00Z","name_a2s":"Uncletopia | Seattle | 2 | All Maps","protocol":17,"map":"cp_dustbowl","folder":"tf","game":"Team Fortress","app_id":440,"player_count":24,"max_players":24,"Bots":0,"server_type":"Dedicated","server_os":"Linux","password":true,"vac":true,"version":"7882260","steam_id":85568392924469998,"keywords":["cp","nocrits","nodmgspread","uncletopia"],"game_id":440,"stv_port":27026,"stv_name":"Uncletopia | Seattle | 2 | All Maps | STV","players":[{"user_id":485,"name":"Magikarp_Gamer","steam_id":76561198143910511,"connected_time":1279000000000,"state":"active","ping":49},{"user_id":486,"name":"Surfing Garchomp","steam_id":76561199107236884,"connected_time":1273000000000,"state":"active","ping":53},{"user_id":495,"name":"AvocadoUnderwearA27","steam_id":76561199217910435,"connected_time":285000000000,"state":"active","ping":111},{"user_id":477,"name":"Day Man","steam_id":76561198067154807,"connected_time":1358000000000,"state":"active","ping":45},{"user_id":457,"name":"SHADOW (he/him)","steam_id":76561198207768148,"connected_time":2734000000000,"state":"active","ping":72},{"user_id":465,"name":"Un_Zipped","steam_id":76561197990111649,"connected_time":2228000000000,"state":"active","ping":113},{"user_id":488,"name":"Locrian","steam_id":76561198356159602,"connected_time":1200000000000,"state":"active","ping":47},{"user_id":471,"name":"Frogzilla","steam_id":76561198077657538,"connected_time":1492000000000,"state":"active","ping":68},{"user_id":478,"name":"WaitingTrout3","steam_id":76561198140231083,"connected_time":1356000000000,"state":"active","ping":65},{"user_id":494,"name":"AmiableNebula","steam_id":76561198094306627,"connected_time":339000000000,"state":"active","ping":74},{"user_id":401,"name":"chunkysquare","steam_id":76561199076468383,"connected_time":6803000000000,"state":"active","ping":56},{"user_id":467,"name":"cob","steam_id":76561198040642125,"connected_time":2043000000000,"state":"active","ping":80},{"user_id":461,"name":"TommoSFMO","steam_id":76561198855070608,"connected_time":2569000000000,"state":"active","ping":137},{"user_id":444,"name":"Keamy","steam_id":76561199471434875,"connected_time":3799000000000,"state":"active","ping":41},{"user_id":380,"name":"carpet","steam_id":76561198207881077,"connected_time":8372000000000,"state":"active","ping":103},{"user_id":482,"name":"Snippykeegan","steam_id":76561198274529343,"connected_time":1332000000000,"state":"active","ping":71},{"user_id":491,"name":"Love Waffle","steam_id":76561197990077189,"connected_time":965000000000,"state":"active","ping":112},{"user_id":481,"name":"Tuba","steam_id":76561198209166329,"connected_time":1336000000000,"state":"active","ping":84},{"user_id":483,"name":"Ranger Lugi","steam_id":76561198143611016,"connected_time":1332000000000,"state":"active","ping":53},{"user_id":484,"name":"lolgamer247","steam_id":76561198974645534,"connected_time":1326000000000,"state":"active","ping":67},{"user_id":473,"name":"Dimple #TF2Center","steam_id":76561198980324190,"connected_time":1489000000000,"state":"active","ping":58},{"user_id":492,"name":"s·¥Ä ô ü·¥á è·¥á","steam_id":76561198084639079,"connected_time":964000000000,"state":"active","ping":45},{"user_id":493,"name":"dougrocks421","steam_id":76561198165063918,"connected_time":740000000000,"state":"active","ping":43},{"user_id":496,"name":"dairy delinquent","steam_id":76561198971552734,"connected_time":164000000000,"state":"active","ping":101}]},{"server_id":406,"name":"Uncletopia | Seattle | 3 | Stopwatch Beta","name_short":"sea-3","host":"sea-1.us.uncletopia.com","port":27035,"enabled":true,"region":"us-west","cc":"us","latitude":47.608013,"longitude":-122.33517,"reserved":0,"last_update":"0001-01-01T00:00:00Z","name_a2s":"Uncletopia | Seattle | 3 | Stopwatch Beta","protocol":17,"map":"pl_upward","folder":"tf","game":"Team Fortress","app_id":440,"player_count":0,"max_players":24,"Bots":0,"server_type":"Dedicated","server_os":"Linux","password":true,"vac":true,"version":"7882260","steam_id":85568392924515217,"keywords":["nocrits","nodmgspread","payload","uncletopia"],"game_id":440,"stv_port":27036,"stv_name":"Uncletopia | Seattle | 3 | Stopwatch Beta | STV","players":null},{"server_id":17,"name":"Uncletopia | San Francisco | 1 | All Maps","name_short":"sfo-1","host":"sfo-1.us.uncletopia.com","port":27015,"enabled":true,"region":"us-west","cc":"us","latitude":37.77397,"longitude":-122.4313,"reserved":0,"last_update":"0001-01-01T00:00:00Z","name_a2s":"Uncletopia | San Francisco | 1 | All Maps","protocol":17,"map":"cp_process_final","folder":"tf","game":"Team Fortress","app_id":440,"player_count":0,"max_players":24,"Bots":0,"server_type":"Dedicated","server_os":"Linux","password":true,"vac":true,"version":"7757534","steam_id":85568392924469999,"keywords":["cp","nocrits","nodmgspread","uncletopia"],"game_id":440,"stv_port":27016,"stv_name":"Uncletopia | San Francisco | 1 | All Maps | STV","players":null},{"server_id":18,"name":"Uncletopia | San Francisco | 2 | All Maps","name_short":"sfo-2","host":"sfo-1.us.uncletopia.com","port":27025,"enabled":true,"region":"us-west","cc":"us","latitude":37.77397,"longitude":-122.4313,"reserved":0,"last_update":"0001-01-01T00:00:00Z","name_a2s":"Uncletopia | San Francisco | 2 | All Maps","protocol":17,"map":"koth_highpass","folder":"tf","game":"Team Fortress","app_id":440,"player_count":0,"max_players":24,"Bots":0,"server_type":"Dedicated","server_os":"Linux","password":true,"vac":true,"version":"7757534","steam_id":85568392924470000,"keywords":["cp","nocrits","nodmgspread","uncletopia"],"game_id":440,"stv_port":27026,"stv_name":"Uncletopia | San Francisco | 2 | All Maps | STV","players":null},{"server_id":19,"name":"Uncletopia | San Francisco | 3 | Stopwatch Beta","name_short":"sfo-3","host":"sfo-1.us.uncletopia.com","port":27035,"enabled":true,"region":"us-west","cc":"us","latitude":37.77397,"longitude":-122.4313,"reserved":0,"last_update":"0001-01-01T00:00:00Z","name_a2s":"Uncletopia | San Francisco | 3 | Stopwatch Beta","protocol":17,"map":"koth_lakeside_final","folder":"tf","game":"Team Fortress","app_id":440,"player_count":0,"max_players":24,"Bots":0,"server_type":"Dedicated","server_os":"Linux","password":true,"vac":true,"version":"7757534","steam_id":85568392924742824,"keywords":["cp","nocrits","nodmgspread","uncletopia"],"game_id":440,"stv_port":27036,"stv_name":"Uncletopia | San Francisco | 3 | Stopwatch Beta | STV","players":null},{"server_id":20,"name":"Uncletopia | San Francisco | 4 | Community","name_short":"sfo-4","host":"sfo-1.us.uncletopia.com","port":27045,"enabled":true,"region":"us-west","cc":"us","latitude":37.77397,"longitude":-122.4313,"reserved":0,"last_update":"0001-01-01T00:00:00Z","name_a2s":"Uncletopia | San Francisco | 4 | Community","protocol":17,"map":"cp_altitude","folder":"tf","game":"Team Fortress","app_id":440,"player_count":0,"max_players":24,"Bots":0,"server_type":"Dedicated","server_os":"Linux","password":true,"vac":true,"version":"7757534","steam_id":85568392924742826,"keywords":["cp","nocrits","nodmgspread","uncletopia"],"game_id":440,"stv_port":27046,"stv_name":"Uncletopia | San Francisco | 4 | Community | STV","players":null},{"server_id":141,"name":"Uncletopia | Sydney | 1 | All Maps","name_short":"syd-1","host":"syd-1.au.uncletopia.com","port":27015,"enabled":true,"region":"au","cc":"au","latitude":-33.865143,"longitude":151.2099,"reserved":0,"last_update":"0001-01-01T00:00:00Z","name_a2s":"Uncletopia | Sydney | 1 | All Maps","protocol":17,"map":"koth_viaduct","folder":"tf","game":"Team Fortress","app_id":440,"player_count":3,"max_players":24,"Bots":0,"server_type":"Dedicated","server_os":"Linux","password":true,"vac":true,"version":"7882260","steam_id":85568392924470001,"keywords":["cp","nocrits","nodmgspread","uncletopia"],"game_id":440,"stv_port":27016,"stv_name":"Uncletopia | Sydney | 1 | All Maps | STV","players":[{"user_id":62,"name":"the presence","steam_id":76561198025099660,"connected_time":199000000000,"state":"active","ping":44},{"user_id":63,"name":"absolute schmeater","steam_id":76561198048064049,"connected_time":189000000000,"state":"active","ping":74},{"user_id":64,"name":"garnish master","steam_id":76561197996551827,"connected_time":182000000000,"state":"active","ping":46}]},{"server_id":123,"name":"Uncletopia | Sydney | 2 | All Maps","name_short":"syd-2","host":"syd-1.au.uncletopia.com","port":27025,"enabled":true,"region":"au","cc":"au","latitude":-33.865143,"longitude":151.2099,"reserved":0,"last_update":"0001-01-01T00:00:00Z","name_a2s":"Uncletopia | Sydney | 2 | All Maps","protocol":17,"map":"koth_viaduct","folder":"tf","game":"Team Fortress","app_id":440,"player_count":0,"max_players":24,"Bots":0,"server_type":"Dedicated","server_os":"Linux","password":true,"vac":true,"version":"7882260","steam_id":85568392924470002,"keywords":["cp","nocrits","nodmgspread","uncletopia"],"game_id":440,"stv_port":27026,"stv_name":"Uncletopia | Sydney | 2 | All Maps | STV","players":null},{"server_id":395,"name":"Uncletopia | Sydney | 3 | All Maps","name_short":"syd-3","host":"syd-1.au.uncletopia.com","port":27035,"enabled":true,"region":"au","cc":"au","latitude":-33.865143,"longitude":151.2099,"reserved":0,"last_update":"0001-01-01T00:00:00Z","name_a2s":"Uncletopia | Sydney | 3 | All Maps","protocol":17,"map":"pl_badwater","folder":"tf","game":"Team Fortress","app_id":440,"player_count":0,"max_players":24,"Bots":0,"server_type":"Dedicated","server_os":"Linux","password":true,"vac":true,"version":"7882260","steam_id":85568392925194467,"keywords":["nocrits","nodmgspread","payload","uncletopia"],"game_id":440,"stv_port":27036,"stv_name":"Uncletopia | Sydney | 3 | All Maps | STV","players":null},{"server_id":396,"name":"Uncletopia | Sydney | 4 | All Maps","name_short":"syd-4","host":"syd-1.au.uncletopia.com","port":27045,"enabled":true,"region":"au","cc":"au","latitude":-33.865143,"longitude":151.2099,"reserved":0,"last_update":"0001-01-01T00:00:00Z","name_a2s":"Uncletopia | Sydney | 4 | All Maps","protocol":17,"map":"cp_dustbowl","folder":"tf","game":"Team Fortress","app_id":440,"player_count":0,"max_players":24,"Bots":0,"server_type":"Dedicated","server_os":"Linux","password":true,"vac":true,"version":"7882260","steam_id":85568392925397958,"keywords":["cp","nocrits","nodmgspread","uncletopia"],"game_id":440,"stv_port":27046,"stv_name":"Uncletopia | Sydney | 4 | All Maps | STV","players":null},{"server_id":58,"name":"Uncletopia | Sydney | 5 | Stopwatch Beta","name_short":"syd-5","host":"syd-1.au.uncletopia.com","port":27055,"enabled":true,"region":"au","cc":"au","latitude":-33.865143,"longitude":151.2099,"reserved":0,"last_update":"0001-01-01T00:00:00Z","name_a2s":"Uncletopia | Sydney | 5 | Stopwatch Beta","protocol":17,"map":"cp_snakewater_final1","folder":"tf","game":"Team Fortress","app_id":440,"player_count":0,"max_players":24,"Bots":0,"server_type":"Dedicated","server_os":"Linux","password":true,"vac":true,"version":"7882260","steam_id":85568392925397959,"keywords":["cp","nocrits","nodmgspread","uncletopia"],"game_id":440,"stv_port":27056,"stv_name":"Uncletopia | Sydney | 5 | Stopwatch Beta | STV","players":null},{"server_id":59,"name":"Uncletopia | Sydney | 6 | Community","name_short":"syd-6","host":"syd-1.au.uncletopia.com","port":27065,"enabled":true,"region":"au","cc":"au","latitude":-33.865143,"longitude":151.2099,"reserved":0,"last_update":"0001-01-01T00:00:00Z","name_a2s":"Uncletopia | Sydney | 6 | Community","protocol":17,"map":"workshop/koth_ramjam_rc1.ugc459778887","folder":"tf","game":"Team Fortress","app_id":440,"player_count":0,"max_players":24,"Bots":0,"server_type":"Dedicated","server_os":"Linux","password":true,"vac":true,"version":"7882260","steam_id":85568392925397960,"keywords":["cp","nocrits","nodmgspread","uncletopia"],"game_id":440,"stv_port":27066,"stv_name":"Uncletopia | Sydney | 6 | Community | STV","players":null},{"server_id":49,"name":"Uncletopia | Warsaw | 1 | All Maps","name_short":"waw-1","host":"waw-1.pl.uncletopia.com","port":27015,"enabled":true,"region":"eu","cc":"pl","latitude":52.2297,"longitude":21.017532,"reserved":0,"last_update":"0001-01-01T00:00:00Z","name_a2s":"","protocol":0,"map":"","folder":"","game":"","app_id":0,"player_count":0,"max_players":0,"Bots":0,"server_type":"","server_os":"","password":false,"vac":false,"version":"","steam_id":0,"keywords":null,"game_id":0,"stv_port":0,"stv_name":"","players":null},{"server_id":50,"name":"Uncletopia | Warsaw | 2 | All Maps","name_short":"waw-2","host":"waw-1.pl.uncletopia.com","port":27025,"enabled":true,"region":"eu","cc":"pl","latitude":52.2297,"longitude":21.017532,"reserved":0,"last_update":"0001-01-01T00:00:00Z","name_a2s":"Uncletopia | Warsaw | 2 | All Maps","protocol":17,"map":"cp_snakewater_final1","folder":"tf","game":"Team Fortress","app_id":440,"player_count":0,"max_players":24,"Bots":0,"server_type":"Dedicated","server_os":"Linux","password":true,"vac":true,"version":"7882260","steam_id":85568392925397851,"keywords":["cp","nocrits","nodmgspread","uncletopia"],"game_id":440,"stv_port":27026,"stv_name":"Uncletopia | Warsaw | 2 | All Maps | STV","players":null},{"server_id":51,"name":"Uncletopia | Warsaw | 3 | All Maps","name_short":"waw-3","host":"waw-1.pl.uncletopia.com","port":27035,"enabled":true,"region":"eu","cc":"pl","latitude":52.2297,"longitude":21.017532,"reserved":0,"last_update":"0001-01-01T00:00:00Z","name_a2s":"Uncletopia | Warsaw | 3 | All Maps","protocol":17,"map":"koth_lakeside_final","folder":"tf","game":"Team Fortress","app_id":440,"player_count":0,"max_players":24,"Bots":0,"server_type":"Dedicated","server_os":"Linux","password":true,"vac":true,"version":"7882260","steam_id":85568392925397852,"keywords":["cp","nocrits","nodmgspread","uncletopia"],"game_id":440,"stv_port":27036,"stv_name":"Uncletopia | Warsaw | 3 | All Maps | STV","players":null},{"server_id":52,"name":"Uncletopia | Warsaw | 4 | All Maps","name_short":"waw-4","host":"waw-1.pl.uncletopia.com","port":27045,"enabled":true,"region":"eu","cc":"pl","latitude":52.2297,"longitude":21.017532,"reserved":0,"last_update":"0001-01-01T00:00:00Z","name_a2s":"Uncletopia | Warsaw | 4 | All Maps","protocol":17,"map":"koth_highpass","folder":"tf","game":"Team Fortress","app_id":440,"player_count":0,"max_players":24,"Bots":0,"server_type":"Dedicated","server_os":"Linux","password":true,"vac":true,"version":"7882260","steam_id":85568392925397853,"keywords":["cp","nocrits","nodmgspread","uncletopia"],"game_id":440,"stv_port":27046,"stv_name":"Uncletopia | Warsaw | 4 | All Maps | STV","players":null},{"server_id":53,"name":"Uncletopia | Warsaw | 5 | Stopwatch Beta","name_short":"waw-5","host":"waw-1.pl.uncletopia.com","port":27055,"enabled":true,"region":"eu","cc":"pl","latitude":52.2297,"longitude":21.017532,"reserved":0,"last_update":"0001-01-01T00:00:00Z","name_a2s":"Uncletopia | Warsaw | 5 | Stopwatch Beta","protocol":17,"map":"cp_mountainlab","folder":"tf","game":"Team Fortress","app_id":440,"player_count":0,"max_players":24,"Bots":0,"server_type":"Dedicated","server_os":"Linux","password":true,"vac":true,"version":"7882260","steam_id":85568392925397854,"keywords":["cp","nocrits","nodmgspread","uncletopia"],"game_id":440,"stv_port":27056,"stv_name":"Uncletopia | Warsaw | 5 | Stopwatch Beta | STV","players":null},{"server_id":54,"name":"Uncletopia | Warsaw | 6 | Community","name_short":"waw-6","host":"waw-1.pl.uncletopia.com","port":27065,"enabled":true,"region":"eu","cc":"pl","latitude":52.2297,"longitude":21.017532,"reserved":0,"last_update":"0001-01-01T00:00:00Z","name_a2s":"Uncletopia | Warsaw | 6 | Community","protocol":17,"map":"workshop/cp_villa_b19.ugc2113052569","folder":"tf","game":"Team Fortress","app_id":440,"player_count":0,"max_players":24,"Bots":0,"server_type":"Dedicated","server_os":"Linux","password":true,"vac":true,"version":"7882260","steam_id":85568392925397856,"keywords":["cp","nocrits","nodmgspread","uncletopia"],"game_id":440,"stv_port":27066,"stv_name":"Uncletopia | Warsaw | 6 | Community | STV","players":null}]}