{"status":true,"message":"","result":[{"server_id":9,"name":"Uncletopia | Atlanta | 1 | All Maps","name_short":"atl-1","host":"atl-1.us.uncletopia.com","port":27015,"enabled":true,"region":"us-east","cc":"us","latitude":33.753746,"longitude":-84.38633,"reserved":0,"last_update":"0001-01-01T00:00:00Z","name_a2s":"Uncletopia | Atlanta | 1 | All Maps","protocol":17,"map":"pl_badwater","folder":"tf","game":"Team Fortress","app_id":440,"player_count":24,"max_players":24,"Bots":0,"server_type":"Dedicated","server_os":"Linux","password":true,"vac":true,"version":"7757534","steam_id":85568392924469982,"keywords":["nocrits","nodmgspread","payload","uncletopia"],"game_id":440,"stv_port":27016,"stv_name":"Uncletopia | Atlanta | 1 | All Maps | STV","players":[{"user_id":530,"name":"DuckMann","steam_id":76561198197058638,"connected_time":3680000000000,"state":"active","ping":47},{"user_id":569,"name":"火星 | Marsy","steam_id":76561198014979892,"connected_time":1159000000000,"state":"active","ping":71},{"user_id":570,"name":"OrangeCrab","steam_id":76561198982248872,"connected_time":1159000000000,"state":"active","ping":61},{"user_id":527,"name":"PerpetuaForever","steam_id":76561198347444353,"connected_time":4698000000000,"state":"active","ping":70},{"user_id":537,"name":"uhooter","steam_id":76561198007829078,"connected_time":3661000000000,"state":"active","ping":70},{"user_id":573,"name":"BLU1 | Shame","steam_id":76561198100490994,"connected_time":127000000000,"state":"active","ping":60},{"user_id":561,"name":"com lag","steam_id":76561198019019392,"connected_time":1723000000000,"state":"active","ping":72},{"user_id":564,"name":"nemo","steam_id":76561198319990195,"connected_time":1248000000000,"state":"active","ping":85},{"user_id":560,"name":"cheeks","steam_id":76561197993371179,"connected_time":2172000000000,"state":"active","ping":54},{"user_id":572,"name":"ADGSRJRDKDTYKYRDJTJTJRT","steam_id":76561198822069026,"connected_time":245000000000,"state":"active","ping":101},{"user_id":528,"name":"Straight White Mail","steam_id":76561198182813630,"connected_time":3691000000000,"state":"active","ping":115},{"user_id":565,"name":"Troy","steam_id":76561198005572722,"connected_time":1248000000000,"state":"active","ping":71},{"user_id":533,"name":"Wingm4n","steam_id":76561198064127012,"connected_time":3679000000000,"state":"active","ping":50},{"user_id":546,"name":"zefir","steam_id":76561198041348890,"connected_time":3541000000000,"state":"active","ping":71},{"user_id":511,"name":"Maet","steam_id":76561198030208485,"connected_time":6537000000000,"state":"active","ping":95},{"user_id":554,"name":"Im High","steam_id":76561198049954886,"connected_time":2777000000000,"state":"active","ping":72},{"user_id":553,"name":"♡Alyx♡","steam_id":76561198024303978,"connected_time":2952000000000,"state":"active","ping":60},{"user_id":552,"name":"Karma","steam_id":76561198030565234,"connected_time":3088000000000,"state":"active","ping":77},{"user_id":523,"name":"Oddball","steam_id":76561198040440984,"connected_time":5447000000000,"state":"active","ping":87},{"user_id":566,"name":"ATL1 | Bandi","steam_id":76561198432036026,"connected_time":1214000000000,"state":"active","ping":55},{"user_id":545,"name":"MC-ReN™","steam_id":76561197974243668,"connected_time":3608000000000,"state":"active","ping":62},{"user_id":567,"name":"98","steam_id":76561198134813102,"connected_time":1214000000000,"state":"active","ping":81},{"user_id":558,"name":"RED1 | snoops","steam_id":76561197986760351,"connected_time":2405000000000,"state":"active","ping":77},{"user_id":563,"name":"atl1 Quality","steam_id":76561198361132101,"connected_time":1720000000000,"state":"active","ping":92}]},{"server_id":400,"name":"Uncletopia | Atlanta | 3 | Community","name_short":"atl-3","host":"atl-1.us.uncletopia.com","port":27035,"enabled":true,"region":"us-east","cc":"us","latitude":33.753746,"longitude":-84.38633,"reserved":0,"last_update":"0001-01-01T00:00:00Z","name_a2s":"Uncletopia | Atlanta | 3 | Community","protocol":17,"map":"workshop/cp_indulge.ugc528106646","folder":"tf","game":"Team Fortress","app_id":440,"player_count":0,"max_players":32,"Bots":0,"server_type":"Dedicated","server_os":"Linux","password":true,"vac":true,"version":"7757534","steam_id":85568392924515187,"keywords":["cp","increased_maxplayers","nocrits","nodmgspread","uncletopia"],"game_id":440,"stv_port":27036,"stv_name":"Uncletopia | Atlanta | 3 | Community | STV","players":null},{"server_id":401,"name":"Uncletopia | Atlanta | 4 | No Payload","name_short":"atl-4","host":"atl-1.us.uncletopia.com","port":27045,"enabled":true,"region":"us-east","cc":"us","latitude":33.753746,"longitude":-84.38633,"reserved":0,"last_update":"0001-01-01T00:00:00Z","name_a2s":"","protocol":0,"map":"","folder":"","game":"","app_id":0,"player_count":0,"max_players":0,"Bots":0,"server_type":"","server_os":"","password":false,"vac":false,"version":"","steam_id":0,"keywords":null,"game_id":0,"stv_port":0,"stv_name":"","players":null},{"server_id":2,"name":"Uncletopia | Chicago | 1 | All Maps","name_short":"chi-1","host":"chi-1.us.uncletopia.com","port":27015,"enabled":true,"region":"us-central","cc":"us","latitude":41.881832,"longitude":-87.62318,"reserved":0,"last_update":"0001-01-01T00:00:00Z","name_a2s":"Uncletopia | Chicago | 1 | All Maps","protocol":17,"map":"pl_goldrush","folder":"tf","game":"Team Fortress","app_id":440,"player_count":24,"max_players":24,"Bots":0,"server_type":"Dedicated","server_os":"Linux","password":true,"vac":true,"version":"7757534","steam_id":85568392924469984,"keywords":["nocrits","nodmgspread","payload","uncletopia"],"game_id":440,"stv_port":27016,"stv_name":"Uncletopia | Chicago | 1 | All Maps | STV","players":[{"user_id":806,"name":"edwinbrood","steam_id":76561198044848769,"connected_time":2989000000000,"state":"active","ping":61},{"user_id":810,"name":"Butter Beyond The Binary","steam_id":76561198128408544,"connected_time":2356000000000,"state":"active","ping":71},{"user_id":816,"name":"Rec","steam_id":76561198022813906,"connected_time":760000000000,"state":"active","ping":49},{"user_id":680,"name":"HumFreY","steam_id":76561198076639682,"connected_time":14929000000000,"state":"active","ping":76},{"user_id":821,"name":"radical larry","steam_id":76561198172246829,"connected_time":746000000000,"state":"active","ping":38},{"user_id":834,"name":"GuineaDuke","steam_id":76561198151139150,"connected_time":5000000000,"state":"spawning","ping":72},{"user_id":725,"name":"Hooked","steam_id":76561198007302139,"connected_time":11254000000000,"state":"active","ping":71},{"user_id":679,"name":"Anthid","steam_id":76561198074493797,"connected_time":15142000000000,"state":"active","ping":62},{"user_id":832,"name":"Tommy Pickles (Very Cool)","steam_id":76561198391261463,"connected_time":202000000000,"state":"active","ping":75},{"user_id":831,"name":"License","steam_id":76561197967501494,"connected_time":548000000000,"state":"active","ping":96},{"user_id":823,"name":"aaaaAAAAA (taking poison damage","steam_id":76561198117139659,"connected_time":713000000000,"state":"active","ping":73},{"user_id":825,"name":"hooley","steam_id":76561198041923067,"connected_time":694000000000,"state":"active","ping":75},{"user_id":795,"name":"Bungalow Bill","steam_id":76561198033536404,"connected_time":3925000000000,"state":"active","ping":85},{"user_id":828,"name":"NecroticHealer","steam_id":76561198031329332,"connected_time":656000000000,"state":"active","ping":60},{"user_id":818,"name":"Hurricane Bady (Meth Head)","steam_id":76561198253539262,"connected_time":758000000000,"state":"active","ping":51},{"user_id":804,"name":"disengage","steam_id":76561197992499738,"connected_time":3138000000000,"state":"active","ping":91},{"user_id":802,"name":"finger","steam_id":76561198068558572,"connected_time":3867000000000,"state":"active","ping":88},{"user_id":827,"name":"Sex Ed Clown","steam_id":76561198366893329,"connected_time":691000000000,"state":"active","ping":86},{"user_id":807,"name":"leumas","steam_id":76561198240408540,"connected_time":2651000000000,"state":"active","ping":58},{"user_id":803,"name":"Word To Your Mothership","steam_id":76561198034329138,"connected_time":3831000000000,"state":"active","ping":90},{"user_id":813,"name":"Duckywinner","steam_id":76561198254828139,"connected_time":2332000000000,"state":"active","ping":90},{"user_id":814,"name":"t.tv/FamilyGuyFunnyMoments277","steam_id":76561198416047580,"connected_time":2332000000000,"state":"active","ping":97},{"user_id":830,"name":"FrostyFrontier","steam_id":76561198370530394,"connected_time":652000000000,"state":"active","ping":61},{"user_id":677,"name":"Slick Lia","steam_id":76561198151569597,"connected_time":15506000000000,"state":"active","ping":145}]},{"server_id":106,"name":"Uncletopia | Chicago | 2 | All Maps","name_short":"chi-2","host":"chi-1.us.uncletopia.com","port":27025,"enabled":true,"region":"us-central","cc":"us","latitude":41.881832,"longitude":-87.62318,"reserved":0,"last_update":"0001-01-01T00:00:00Z","name_a2s":"Uncletopia | Chicago | 2 | All Maps","protocol":17,"map":"pl_swiftwater_final1","folder":"tf","game":"Team Fortress","app_id":440,"player_count":24,"max_players":24,"Bots":0,"server_type":"Dedicated","server_os":"Linux","password":true,"vac":true,"version":"7757534","steam_id":85568392924469985,"keywords":["nocrits","nodmgspread","payload","uncletopia"],"game_id":440,"stv_port":27026,"stv_name":"Uncletopia | Chicago | 2 | All Maps | STV","players":[{"user_id":320,"name":"Stormz64","steam_id":76561198239036482,"connected_time":2131000000000,"state":"active","ping":79},{"user_id":315,"name":"H4N-TYUM1","steam_id":76561198069387999,"connected_time":2235000000000,"state":"active","ping":68},{"user_id":343,"name":"IHave2000HoursButPlayLIkeIHave1","steam_id":76561198295280927,"connected_time":958000000000,"state":"active","ping":74},{"user_id":316,"name":"Shichinitzi","steam_id":76561198003833732,"connected_time":2234000000000,"state":"active","ping":48},{"user_id":339,"name":"Mister36","steam_id":76561198019132100,"connected_time":1010000000000,"state":"active","ping":50},{"user_id":314,"name":"CertainlyMe","steam_id":76561198039564401,"connected_time":2258000000000,"state":"active","ping":59},{"user_id":345,"name":"kite","steam_id":76561198346516392,"connected_time":347000000000,"state":"active","ping":66},{"user_id":342,"name":"Furrio","steam_id":76561198174104607,"connected_time":981000000000,"state":"active","ping":73},{"user_id":285,"name":"Cyber Cylon","steam_id":76561198048972781,"connected_time":4908000000000,"state":"active","ping":57},{"user_id":346,"name":"Cousin Corn on the Cob","steam_id":76561198049837377,"connected_time":274000000000,"state":"active","ping":43},{"user_id":347,"name":"wack","steam_id":76561198095697330,"connected_time":244000000000,"state":"active","ping":83},{"user_id":335,"name":"Glad","steam_id":76561199388372220,"connected_time":1708000000000,"state":"active","ping":81},{"user_id":269,"name":"chipmunk in a microwave","steam_id":76561198059535856,"connected_time":6295000000000,"state":"active","ping":76},{"user_id":352,"name":"2 DOGS 1 LEASH","steam_id":76561198083607304,"connected_time":132000000000,"state":"active","ping":70},{"user_id":340,"name":"Viokik","steam_id":76561198408846602,"connected_time":1005000000000,"state":"active","ping":68},{"user_id":312,"name":"eloressa","steam_id":76561198120330867,"connected_time":2267000000000,"state":"active","ping":62},{"user_id":349,"name":"grate_fiter-232","steam_id":76561198073424589,"connected_time":164000000000,"state":"active","ping":74},{"user_id":333,"name":"ඞF-Colombianඞ","steam_id":76561198257720165,"connected_time":1934000000000,"state":"active","ping":114},{"user_id":341,"name":"Pontifex","steam_id":76561198013016489,"connected_time":996000000000,"state":"active","ping":88},{"user_id":324,"name":"Scita","steam_id":76561198066861559,"connected_time":2090000000000,"state":"active","ping":77},{"user_id":332,"name":"yoot","steam_id":76561198354543518,"connected_time":1950000000000,"state":"active","ping":87},{"user_id":328,"name":"pablo","steam_id":76561198395577807,"connected_time":2034000000000,"state":"active","ping":55},{"user_id":351,"name":"An Erect Penis :)","steam_id":76561198086477485,"connected_time":164000000000,"state":"active","ping":50},{"user_id":338,"name":"Milk","steam_id":76561198796215640,"connected_time":1151000000000,"state":"active","ping":93}]},{"server_id":402,"name":"Uncletopia | Chicago | 3 | All Maps","name_short":"chi-3","host":"chi-1.us.uncletopia.com","port":27035,"enabled":true,"region":"us-central","cc":"us","latitude":41.881832,"longitude":-87.62318,"reserved":0,"last_update":"0001-01-01T00:00:00Z","name_a2s":"Uncletopia | Chicago | 3 | All Maps","protocol":17,"map":"pl_borneo","folder":"tf","game":"Team Fortress","app_id":440,"player_count":24,"max_players":24,"Bots":0,"server_type":"Dedicated","server_os":"Linux","password":true,"vac":true,"version":"7757534","steam_id":85568392924515191,"keywords":["nocrits","nodmgspread","payload","uncletopia"],"game_id":440,"stv_port":27036,"stv_name":"Uncletopia | Chicago | 3 | All Maps | STV","players":[{"user_id":362,"name":"drdoofus123","steam_id":76561198016826181,"connected_time":1413000000000,"state":"active","ping":76},{"user_id":372,"name":"wesemii","steam_id":76561198070310826,"connected_time":887000000000,"state":"active","ping":49},{"user_id":324,"name":"Fake Uncle","steam_id":76561198880227689,"connected_time":4392000000000,"state":"active","ping":64},{"user_id":355,"name":"Marisad","steam_id":76561198843890616,"connected_time":1689000000000,"state":"active","ping":89},{"user_id":359,"name":"The strongest ⑨ ball","steam_id":76561198126760743,"connected_time":1427000000000,"state":"active","ping":75},{"user_id":343,"name":"Dispenser (Twan)","steam_id":76561197991064908,"connected_time":2571000000000,"state":"active","ping":73},{"user_id":383,"name":"drain.pablo.2005","steam_id":76561198303963691,"connected_time":344000000000,"state":"active","ping":74},{"user_id":384,"name":"Jango","steam_id":76561198121922413,"connected_time":335000000000,"state":"active","ping":104},{"user_id":385,"name":"Eitior","steam_id":76561198082189916,"connected_time":333000000000,"state":"active","ping":68},{"user_id":300,"name":"the monkey's paw curls","steam_id":76561198039909187,"connected_time":6612000000000,"state":"active","ping":51},{"user_id":294,"name":"Christmas Ham","steam_id":76561198119601623,"connected_time":6718000000000,"state":"active","ping":143},{"user_id":335,"name":"Fatcat.win(false) ;","steam_id":76561198069007806,"connected_time":3749000000000,"state":"active","ping":56},{"user_id":376,"name":"void","steam_id":76561198107501413,"connected_time":661000000000,"state":"active","ping":40},{"user_id":338,"name":"ShitsandGiggles™","steam_id":76561198058708019,"connected_time":3471000000000,"state":"active","ping":55},{"user_id":387,"name":"30 fps gaming","steam_id":76561199216756079,"connected_time":219000000000,"state":"active","ping":81},{"user_id":374,"name":"chiswola","steam_id":76561198046920142,"connected_time":852000000000,"state":"active","ping":87},{"user_id":363,"name":"threethree","steam_id":76561198177354155,"connected_time":1382000000000,"state":"active","ping":70},{"user_id":361,"name":"BannedMist","steam_id":76561198905992575,"connected_time":1422000000000,"state":"active","ping":59},{"user_id":368,"name":"Smittywerbenjager-manjenson","steam_id":76561198067060742,"connected_time":954000000000,"state":"active","ping":60},{"user_id":284,"name":"Deal yo","steam_id":76561198282395338,"connected_time":8488000000000,"state":"active","ping":66},{"user_id":379,"name":"puke","steam_id":76561197999279693,"connected_time":509000000000,"state":"active","ping":75},{"user_id":382,"name":"Lucon","steam_id":76561198067147724,"connected_time":356000000000,"state":"active","ping":59},{"user_id":380,"name":"\u003c blank \u003e","steam_id":76561198012566503,"connected_time":442000000000,"state":"active","ping":110},{"user_id":352,"name":"the lesbianist pyroshark","steam_id":76561198374227766,"connected_time":2094000000000,"state":"active","ping":67}]},{"server_id":403,"name":"Uncletopia | Chicago | 4 | All Maps","name_short":"chi-4","host":"chi-1.us.uncletopia.com","port":27045,"enabled":true,"region":"us-central","cc":"us","latitude":41.881832,"longitude":-87.62318,"reserved":0,"last_update":"0001-01-01T00:00:00Z","name_a2s":"Uncletopia | Chicago | 4 | All Maps","protocol":17,"map":"pl_frontier_final","folder":"tf","game":"Team Fortress","app_id":440,"player_count":25,"max_players":24,"Bots":0,"server_type":"Dedicated","server_os":"Linux","password":true,"vac":true,"version":"7757534","steam_id":85568392924515193,"keywords":["nocrits","nodmgspread","payload","uncletopia"],"game_id":440,"stv_port":27046,"stv_name":"Uncletopia | Chicago | 4 | All Maps | STV","players":[{"user_id":309,"name":"NeoN","steam_id":76561198117608366,"connected_time":908000000000,"state":"active","ping":53},{"user_id":281,"name":"HavocGDI","steam_id":76561199388371914,"connected_time":3578000000000,"state":"active","ping":130},{"user_id":317,"name":"mineblast99","steam_id":76561199065648954,"connected_time":13000000000,"state":"active","ping":79},{"user_id":302,"name":"solitude freak","steam_id":76561198066585785,"connected_time":1699000000000,"state":"active","ping":74},{"user_id":294,"name":"Tusk","steam_id":76561199066977033,"connected_time":2803000000000,"state":"active","ping":71},{"user_id":316,"name":"Cheese","steam_id":76561199207081299,"connected_time":352000000000,"state":"active","ping":115},{"user_id":287,"name":"Feeshy","steam_id":76561198061103166,"connected_time":3500000000000,"state":"active","ping":49},{"user_id":292,"name":"skylerlaber811","steam_id":76561199013737900,"connected_time":2973000000000,"state":"active","ping":70},{"user_id":313,"name":"Donnie Blasto","steam_id":76561198043432005,"connected_time":788000000000,"state":"active","ping":55},{"user_id":318,"name":"no wtf not that","steam_id":76561198461518382,"connected_time":12000000000,"state":"spawning","ping":51},{"user_id":305,"name":"Riske","steam_id":76561198115840568,"connected_time":1545000000000,"state":"active","ping":64},{"user_id":284,"name":"Pennis the Menace","steam_id":76561198254878037,"connected_time":3548000000000,"state":"active","ping":71},{"user_id":312,"name":"Dr. Dick","steam_id":76561198138011922,"connected_time":871000000000,"state":"active","ping":84},{"user_id":306,"name":"Cinnifox","steam_id":76561198068773971,"connected_time":1538000000000,"state":"active","ping":83},{"user_id":319,"name":"fire","steam_id":76561198127149121,"connected_time":4000000000,"state":"spawning","ping":68},{"user_id":293,"name":"HollowMan","steam_id":76561198967266827,"connected_time":2968000000000,"state":"active","ping":85},{"user_id":260,"name":"AJones97","steam_id":76561198028973438,"connected_time":5150000000000,"state":"active","ping":68},{"user_id":285,"name":"cooltool21","steam_id":76561197996817585,"connected_time":3538000000000,"state":"active","ping":78},{"user_id":299,"name":"Predicta","steam_id":76561198017630616,"connected_time":2093000000000,"state":"active","ping":45},{"user_id":286,"name":"Decimus","steam_id":76561198341781527,"connected_time":3526000000000,"state":"active","ping":77},{"user_id":261,"name":"rudy","steam_id":76561198088712799,"connected_time":5082000000000,"state":"active","ping":85},{"user_id":320,"name":"CloudVic","steam_id":76561198118868716,"connected_time":3000000000,"state":"spawning","ping":75},{"user_id":307,"name":"FlexFan420","steam_id":76561198322663988,"connected_time":1505000000000,"state":"active","ping":64},{"user_id":273,"name":"DeckofDragons","steam_id":76561198057398213,"connected_time":4770000000000,"state":"active","ping":80},{"user_id":276,"name":"Gamer9er","steam_id":76561198113637099,"connected_time":4097000000000,"state":"active","ping":67}]},{"server_id":36,"name":"Uncletopia | Chicago | 5 | All Maps","name_short":"chi-5","host":"chi-2.us.uncletopia.com","port":27015,"enabled":true,"region":"us-central","cc":"us","latitude":41.881832,"longitude":-87.62318,"reserved":0,"last_update":"0001-01-01T00:00:00Z","name_a2s":"Uncletopia | Chicago | 5 | All Maps","protocol":17,"map":"pl_pier","folder":"tf","game":"Team Fortress","app_id":440,"player_count":23,"max_players":24,"Bots":0,"server_type":"Dedicated","server_os":"Linux","password":true,"vac":true,"version":"7757534","steam_id":85568392924866362,"keywords":["nocrits","nodmgspread","payload","uncletopia"],"game_id":440,"stv_port":27016,"stv_name":"Uncletopia | Chicago | 5 | All Maps | STV","players":[{"user_id":386,"name":"Warkeidan","steam_id":76561198118805546,"connected_time":1400000000000,"state":"active","ping":65},{"user_id":384,"name":"Rudy","steam_id":76561198013456828,"connected_time":1689000000000,"state":"active","ping":60},{"user_id":385,"name":"glacier!!","steam_id":76561198980301310,"connected_time":1431000000000,"state":"active","ping":73},{"user_id":363,"name":"CeigeBirb","steam_id":76561198068538473,"connected_time":4443000000000,"state":"active","ping":72},{"user_id":387,"name":"flygonboy127","steam_id":76561199105773990,"connected_time":1387000000000,"state":"active","ping":53},{"user_id":399,"name":"Incredible Donk","steam_id":76561198427360423,"connected_time":110000000000,"state":"active","ping":92},{"user_id":394,"name":"garfield","steam_id":76561198114119308,"connected_time":901000000000,"state":"active","ping":62},{"user_id":371,"name":"Carson","steam_id":76561198076771071,"connected_time":3533000000000,"state":"active","ping":42},{"user_id":204,"name":"Mxple.","steam_id":76561199165140868,"connected_time":16187000000000,"state":"active","ping":168},{"user_id":376,"name":"jan kili","steam_id":76561198289894834,"connected_time":2694000000000,"state":"active","ping":62},{"user_id":401,"name":"Доменик","steam_id":76561198795828628,"connected_time":87000000000,"state":"active","ping":184},{"user_id":192,"name":"puppyonline_","steam_id":76561198253574099,"connected_time":16539000000000,"state":"active","ping":57},{"user_id":383,"name":"mcdoubble","steam_id":76561198089126832,"connected_time":2297000000000,"state":"active","ping":80},{"user_id":396,"name":"Turtlin'","steam_id":76561198885096042,"connected_time":347000000000,"state":"active","ping":65},{"user_id":402,"name":"Voodo133","steam_id":76561198042670351,"connected_time":35000000000,"state":"active","ping":90},{"user_id":400,"name":"Wiccaa","steam_id":76561199209580985,"connected_time":99000000000,"state":"active","ping":63},{"user_id":364,"name":"Coober","steam_id":76561199138880533,"connected_time":4430000000000,"state":"active","ping":67},{"user_id":403,"name":"Father Chungus","steam_id":76561198010370396,"connected_time":33000000000,"state":"active","ping":50},{"user_id":346,"name":"A Zoo Keeper","steam_id":76561198013732450,"connected_time":6128000000000,"state":"active","ping":45},{"user_id":357,"name":"The Jar","steam_id":76561198146013385,"connected_time":5376000000000,"state":"active","ping":66},{"user_id":388,"name":"[RE] Oppressor","steam_id":76561198880977190,"connected_time":1346000000000,"state":"active","ping":63},{"user_id":392,"name":"I Am Alpharius","steam_id":76561198033100226,"connected_time":954000000000,"state":"active","ping":75},{"user_id":349,"name":"BearAteMahoney","steam_id":76561198020439356,"connected_time":5838000000000,"state":"active","ping":69}]},{"server_id":37,"name":"Uncletopia | Chicago | 6 | All Maps","name_short":"chi-6","host":"chi-2.us.uncletopia.com","port":27025,"enabled":true,"region":"us-central","cc":"us","latitude":41.881832,"longitude":-87.62318,"reserved":0,"last_update":"0001-01-01T00:00:00Z","name_a2s":"Uncletopia | Chicago | 6 | All Maps","protocol":17,"map":"pl_pier","folder":"tf","game":"Team Fortress","app_id":440,"player_count":23,"max_players":24,"Bots":0,"server_type":"Dedicated","server_os":"Linux","password":true,"vac":true,"version":"7757534","steam_id":85568392924866363,"keywords":["nocrits","nodmgspread","payload","uncletopia"],"game_id":440,"stv_port":27026,"stv_name":"Uncletopia | Chicago | 6 | All Maps | STV","players":[{"user_id":225,"name":"GC.JitKilla","steam_id":76561198053967778,"connected_time":1989000000000,"state":"active","ping":61},{"user_id":244,"name":"Zoom_By_TimAllin","steam_id":76561199387806856,"connected_time":455000000000,"state":"active","ping":100},{"user_id":184,"name":"Ry","steam_id":76561198325802137,"connected_time":5725000000000,"state":"active","ping":69},{"user_id":226,"name":"UNIT 220","steam_id":76561198042243497,"connected_time":1952000000000,"state":"active","ping":67},{"user_id":222,"name":"Fluff","steam_id":76561198255399052,"connected_time":2215000000000,"state":"active","ping":60},{"user_id":223,"name":"Chapter Master","steam_id":76561198799698323,"connected_time":2171000000000,"state":"active","ping":116},{"user_id":239,"name":"Panckakebro","steam_id":76561198106419992,"connected_time":1203000000000,"state":"active","ping":86},{"user_id":228,"name":"toadlet","steam_id":76561198125261443,"connected_time":1891000000000,"state":"active","ping":114},{"user_id":229,"name":"Importality","steam_id":76561198049943127,"connected_time":1883000000000,"state":"active","ping":87},{"user_id":230,"name":"Loudmouthed Fool","steam_id":76561198202018494,"connected_time":1856000000000,"state":"active","ping":92},{"user_id":216,"name":"nastypass","steam_id":76561198002601054,"connected_time":2406000000000,"state":"active","ping":65},{"user_id":240,"name":"prestige worldwide (wide)","steam_id":76561198045655893,"connected_time":1177000000000,"state":"active","ping":61},{"user_id":242,"name":"goopygoose0","steam_id":76561199470026954,"connected_time":1121000000000,"state":"active","ping":84},{"user_id":236,"name":"magickxanadu","steam_id":76561199117360103,"connected_time":1698000000000,"state":"active","ping":77},{"user_id":243,"name":"Smoeker","steam_id":76561198166723053,"connected_time":546000000000,"state":"active","ping":61},{"user_id":174,"name":"Sprucelass","steam_id":76561197998391724,"connected_time":6102000000000,"state":"active","ping":51},{"user_id":237,"name":"Lucille II","steam_id":76561198138543746,"connected_time":1602000000000,"state":"active","ping":84},{"user_id":234,"name":"magical_mage0","steam_id":76561198213271916,"connected_time":1779000000000,"state":"active","ping":64},{"user_id":189,"name":"johnand1214","steam_id":76561199376334629,"connected_time":5665000000000,"state":"active","ping":66},{"user_id":190,"name":"b4rry","steam_id":76561198365887154,"connected_time":5653000000000,"state":"active","ping":69},{"user_id":207,"name":"chicken joe from surfs up 2","steam_id":76561198060807152,"connected_time":4032000000000,"state":"active","ping":73},{"user_id":235,"name":"IGuy","steam_id":76561197996590728,"connected_time":1763000000000,"state":"active","ping":62},{"user_id":248,"name":"Peepster","steam_id":76561198297854733,"connected_time":65000000000,"state":"active","ping":74}]},{"server_id":38,"name":"Uncletopia | Chicago | 7 | Stopwatch Beta","name_short":"chi-7","host":"chi-2.us.uncletopia.com","port":27035,"enabled":true,"region":"us-central","cc":"us","latitude":41.881832,"longitude":-87.62318,"reserved":0,"last_update":"0001-01-01T00:00:00Z","name_a2s":"Uncletopia | Chicago | 7 | Stopwatch Beta","protocol":17,"map":"pl_upward","folder":"tf","game":"Team Fortress","app_id":440,"player_count":0,"max_players":24,"Bots":0,"server_type":"Dedicated","server_os":"Linux","password":true,"vac":true,"version":"7757534","steam_id":85568392924866364,"keywords":["nocrits","nodmgspread","payload","uncletopia"],"game_id":440,"stv_port":27036,"stv_name":"Uncletopia | Chicago | 7 | Stopwatch Beta | STV","players":null},{"server_id":39,"name":"Uncletopia | Chicago | 8 | Community","name_short":"chi-8","host":"chi-2.us.uncletopia.com","port":27045,"enabled":true,"region":"us-central","cc":"us","latitude":41.881832,"longitude":-87.62318,"reserved":0,"last_update":"0001-01-01T00:00:00Z","name_a2s":"Uncletopia | Chicago | 8 | Community","protocol":17,"map":"workshop/pl_fifthcurve_rc1.ugc648227046","folder":"tf","game":"Team Fortress","app_id":440,"player_count":0,"max_players":24,"Bots":0,"server_type":"Dedicated","server_os":"Linux","password":true,"vac":true,"version":"7757534","steam_id":85568392924866365,"keywords":["nocrits","nodmgspread","payload","uncletopia"],"game_id":440,"stv_port":27046,"stv_name":"Uncletopia | Chicago | 8 | Community | STV","players":null},{"server_id":8,"name":"Uncletopia | Dallas | 1 | All Maps","name_short":"dal-1","host":"dal-1.us.uncletopia.com","port":27015,"enabled":true,"region":"us-central","cc":"us","latitude":32.779167,"longitude":-96.80889,"reserved":0,"last_update":"0001-01-01T00:00:00Z","name_a2s":"Uncletopia | Dallas | 1 | All Maps","protocol":17,"map":"pl_swiftwater_final1","folder":"tf","game":"Team Fortress","app_id":440,"player_count":24,"max_players":24,"Bots":0,"server_type":"Dedicated","server_os":"Linux","password":true,"vac":true,"version":"7757534","steam_id":85568392924469986,"keywords":["nocrits","nodmgspread","payload","uncletopia"],"game_id":440,"stv_port":27016,"stv_name":"Uncletopia | Dallas | 1 | All Maps | STV","players":[{"user_id":500,"name":"Tingus Pingus","steam_id":76561198155412348,"connected_time":837000000000,"state":"active","ping":74},{"user_id":487,"name":"The cringefest","steam_id":76561198840872782,"connected_time":2456000000000,"state":"active","ping":92},{"user_id":501,"name":"got dat dawg in me","steam_id":76561198118833685,"connected_time":817000000000,"state":"active","ping":57},{"user_id":497,"name":"Bigfoot ate my ass","steam_id":76561198071605190,"connected_time":869000000000,"state":"active","ping":73},{"user_id":506,"name":"spartanbeast54","steam_id":76561198093870762,"connected_time":275000000000,"state":"active","ping":103},{"user_id":505,"name":"sumo dumplings","steam_id":76561198115553314,"connected_time":518000000000,"state":"active","ping":79},{"user_id":496,"name":"Saulen","steam_id":76561198150726407,"connected_time":1309000000000,"state":"active","ping":65},{"user_id":490,"name":"TaterNoots","steam_id":76561198079513450,"connected_time":1525000000000,"state":"active","ping":58},{"user_id":484,"name":"Ballista","steam_id":76561197983182562,"connected_time":2640000000000,"state":"active","ping":59},{"user_id":510,"name":"nerfington","steam_id":76561198062785419,"connected_time":178000000000,"state":"active","ping":88},{"user_id":477,"name":"Jumpin over your head","steam_id":76561198140517330,"connected_time":4056000000000,"state":"active","ping":78},{"user_id":491,"name":"Mrs. Noots","steam_id":76561198453729283,"connected_time":1458000000000,"state":"active","ping":85},{"user_id":509,"name":"nomandrake","steam_id":76561198407762407,"connected_time":194000000000,"state":"active","ping":72},{"user_id":511,"name":"Skyrim killable children mod","steam_id":76561198862836173,"connected_time":153000000000,"state":"active","ping":118},{"user_id":498,"name":"OddSlaush","steam_id":76561198043898488,"connected_time":852000000000,"state":"active","ping":72},{"user_id":502,"name":"Propaniac Gaming ☑","steam_id":76561198133963270,"connected_time":805000000000,"state":"active","ping":57},{"user_id":311,"name":"Moonflower ✦","steam_id":76561198191782483,"connected_time":15795000000000,"state":"active","ping":53},{"user_id":508,"name":"fashion habits","steam_id":76561198030625151,"connected_time":239000000000,"state":"active","ping":90},{"user_id":514,"name":"Full Throttle Axolotl","steam_id":76561198041836477,"connected_time":117000000000,"state":"active","ping":64},{"user_id":513,"name":"MaximumAce","steam_id":76561198359596849,"connected_time":149000000000,"state":"active","ping":74},{"user_id":515,"name":"GlazingDonut","steam_id":76561198847420641,"connected_time":84000000000,"state":"active","ping":71},{"user_id":495,"name":"Captain MLG","steam_id":76561199183321645,"connected_time":1323000000000,"state":"active","ping":55},{"user_id":493,"name":"Meownsterhunter","steam_id":76561198319992602,"connected_time":1451000000000,"state":"active","ping":58},{"user_id":504,"name":"Ojen","steam_id":76561197998414482,"connected_time":624000000000,"state":"active","ping":97}]},{"server_id":108,"name":"Uncletopia | Dallas | 2 | All Maps","name_short":"dal-2","host":"dal-1.us.uncletopia.com","port":27025,"enabled":true,"region":"us-central","cc":"us","latitude":32.779167,"longitude":-96.80889,"reserved":0,"last_update":"0001-01-01T00:00:00Z","name_a2s":"Uncletopia | Dallas | 2 | All Maps","protocol":17,"map":"pl_swiftwater_final1","folder":"tf","game":"Team Fortress","app_id":440,"player_count":24,"max_players":24,"Bots":0,"server_type":"Dedicated","server_os":"Linux","password":true,"vac":true,"version":"7757534","steam_id":85568392924469988,"keywords":["nocrits","nodmgspread","payload","uncletopia"],"game_id":440,"stv_port":27026,"stv_name":"Uncletopia | Dallas | 2 | All Maps | STV","players":[{"user_id":217,"name":"heiny :3","steam_id":76561197992551013,"connected_time":2309000000000,"state":"active","ping":58},{"user_id":211,"name":"inzang","steam_id":76561198088318074,"connected_time":2582000000000,"state":"active","ping":54},{"user_id":224,"name":"Dragorf2010","steam_id":76561199238402270,"connected_time":276000000000,"state":"active","ping":86},{"user_id":223,"name":"❤ Ashley ❤","steam_id":76561198056428303,"connected_time":942000000000,"state":"active","ping":77},{"user_id":213,"name":"Doom Guy","steam_id":76561198035863569,"connected_time":2515000000000,"state":"active","ping":85},{"user_id":195,"name":"dan","steam_id":76561197984998426,"connected_time":4017000000000,"state":"active","ping":100},{"user_id":212,"name":"MeMyBongusAndTheGreatOutdoors","steam_id":76561198097708978,"connected_time":2581000000000,"state":"active","ping":68},{"user_id":196,"name":"Sammich","steam_id":76561198010543087,"connected_time":3977000000000,"state":"active","ping":59},{"user_id":221,"name":"Cact?","steam_id":76561198378517192,"connected_time":1375000000000,"state":"active","ping":64},{"user_id":191,"name":"plink","steam_id":76561198057829889,"connected_time":4178000000000,"state":"active","ping":110},{"user_id":197,"name":"CakeCadaver","steam_id":76561198080388883,"connected_time":3972000000000,"state":"active","ping":97},{"user_id":188,"name":"orange rind (eating bagels)","steam_id":76561198130242461,"connected_time":4778000000000,"state":"active","ping":54},{"user_id":207,"name":"Nipple Salads","steam_id":76561198358757709,"connected_time":3444000000000,"state":"active","ping":87},{"user_id":225,"name":"lolwut","steam_id":76561198005048232,"connected_time":265000000000,"state":"active","ping":75},{"user_id":208,"name":"half-eaten burnt marshmallow","steam_id":76561198355992431,"connected_time":3109000000000,"state":"active","ping":111},{"user_id":222,"name":"Red","steam_id":76561198031865869,"connected_time":972000000000,"state":"active","ping":67},{"user_id":210,"name":"NOT Susie Deltarune (not real)","steam_id":76561199007365488,"connected_time":2589000000000,"state":"active","ping":67},{"user_id":204,"name":"Killerkarate","steam_id":76561198067533929,"connected_time":3613000000000,"state":"active","ping":76},{"user_id":205,"name":"conscripted monk","steam_id":76561199029246232,"connected_time":3597000000000,"state":"active","ping":50},{"user_id":192,"name":"Tribute","steam_id":76561198081594043,"connected_time":4173000000000,"state":"active","ping":65},{"user_id":216,"name":"JJDrowsy","steam_id":76561198274501963,"connected_time":2325000000000,"state":"active","ping":68},{"user_id":219,"name":"iluvtoust","steam_id":76561198869269207,"connected_time":1444000000000,"state":"active","ping":50},{"user_id":134,"name":"Young-OG","steam_id":76561198058800479,"connected_time":9752000000000,"state":"active","ping":97},{"user_id":215,"name":"cosmology","steam_id":76561198038291026,"connected_time":2442000000000,"state":"active","ping":43}]},{"server_id":5,"name":"Uncletopia | Frankfurt | 1 | All Maps","name_short":"frk-1","host":"frk-1.de.uncletopia.com","port":27015,"enabled":true,"region":"eu","cc":"de","latitude":50.110924,"longitude":8.682127,"reserved":0,"last_update":"0001-01-01T00:00:00Z","name_a2s":"Uncletopia | Frankfurt | 1 | All Maps","protocol":17,"map":"pl_upward","folder":"tf","game":"Team Fortress","app_id":440,"player_count":0,"max_players":24,"Bots":0,"server_type":"Dedicated","server_os":"Linux","password":true,"vac":true,"version":"7757534","steam_id":85568392924469989,"keywords":["nocrits","nodmgspread","payload","uncletopia"],"game_id":440,"stv_port":27016,"stv_name":"Uncletopia | Frankfurt | 1 | All Maps | STV","players":null},{"server_id":110,"name":"Uncletopia | Frankfurt | 2 | All Maps","name_short":"frk-2","host":"frk-1.de.uncletopia.com","port":27025,"enabled":true,"region":"eu","cc":"de","latitude":50.110924,"longitude":8.682127,"reserved":0,"last_update":"0001-01-01T00:00:00Z","name_a2s":"Uncletopia | Frankfurt | 2 | All Maps","protocol":17,"map":"koth_cascade","folder":"tf","game":"Team Fortress","app_id":440,"player_count":0,"max_players":24,"Bots":0,"server_type":"Dedicated","server_os":"Linux","password":true,"vac":true,"version":"7757534","steam_id":85568392924469990,"keywords":["cp","nocrits","nodmgspread","uncletopia"],"game_id":440,"stv_port":27026,"stv_name":"Uncletopia | Frankfurt | 2 | All Maps | STV","players":null},{"server_id":308,"name":"Uncletopia | Frankfurt | 3 | All Maps","name_short":"frk-3","host":"frk-1.de.uncletopia.com","port":27035,"enabled":true,"region":"eu","cc":"de","latitude":50.110924,"longitude":8.682127,"reserved":0,"last_update":"0001-01-01T00:00:00Z","name_a2s":"Uncletopia | Frankfurt | 3 | All Maps","protocol":17,"map":"koth_cascade","folder":"tf","game":"Team Fortress","app_id":440,"player_count":0,"max_players":24,"Bots":0,"server_type":"Dedicated","server_os":"Linux","password":true,"vac":true,"version":"7757534","steam_id":85568392924504274,"keywords":["cp","nocrits","nodmgspread","uncletopia"],"game_id":440,"stv_port":27036,"stv_name":"Uncletopia | Frankfurt | 3 | All Maps | STV","players":null},{"server_id":309,"name":"Uncletopia | Frankfurt | 4 | All Maps","name_short":"frk-4","host":"frk-1.de.uncletopia.com","port":27045,"enabled":true,"region":"eu","cc":"de","latitude":50.110924,"longitude":8.682127,"reserved":0,"last_update":"0001-01-01T00:00:00Z","name_a2s":"Uncletopia | Frankfurt | 4 | All Maps","protocol":17,"map":"koth_highpass","folder":"tf","game":"Team Fortress","app_id":440,"player_count":0,"max_players":24,"Bots":0,"server_type":"Dedicated","server_os":"Linux","password":true,"vac":true,"version":"7757534","steam_id":85568392924504275,"keywords":["cp","nocrits","nodmgspread","uncletopia"],"game_id":440,"stv_port":27046,"stv_name":"Uncletopia | Frankfurt | 4 | All Maps | STV","players":null},{"server_id":310,"name":"Uncletopia | Frankfurt | 5 | All Maps","name_short":"frk-5","host":"frk-1.de.uncletopia.com","port":27055,"enabled":true,"region":"eu","cc":"de","latitude":50.110924,"longitude":8.682127,"reserved":0,"last_update":"0001-01-01T00:00:00Z","name_a2s":"Uncletopia | Frankfurt | 5 | All Maps","protocol":17,"map":"cp_snakewater_final1","folder":"tf","game":"Team Fortress","app_id":440,"player_count":0,"max_players":24,"Bots":0,"server_type":"Dedicated","server_os":"Linux","password":true,"vac":true,"version":"7757534","steam_id":85568392924504277,"keywords":["cp","nocrits","nodmgspread","uncletopia"],"game_id":440,"stv_port":27056,"stv_name":"Uncletopia | Frankfurt | 5 | All Maps | STV","players":null},{"server_id":311,"name":"Uncletopia | Frankfurt | 6 | All Maps","name_short":"frk-6","host":"frk-1.de.uncletopia.com","port":27065,"enabled":true,"region":"eu","cc":"de","latitude":50.110924,"longitude":8.682127,"reserved":0,"last_update":"0001-01-01T00:00:00Z","name_a2s":"Uncletopia | Frankfurt | 6 | All Maps","protocol":17,"map":"cp_dustbowl","folder":"tf","game":"Team Fortress","app_id":440,"player_count":0,"max_players":24,"Bots":0,"server_type":"Dedicated","server_os":"Linux","password":true,"vac":true,"version":"7757534","steam_id":85568392924504278,"keywords":["cp","nocrits","nodmgspread","uncletopia"],"game_id":440,"stv_port":27066,"stv_name":"Uncletopia | Frankfurt | 6 | All Maps | STV","players":null},{"server_id":23,"name":"Uncletopia | Frankfurt | 7 | Stopwatch Beta","name_short":"frk-7","host":"frk-1.de.uncletopia.com","port":27075,"enabled":true,"region":"eu","cc":"de","latitude":50.110924,"longitude":8.682127,"reserved":0,"last_update":"0001-01-01T00:00:00Z","name_a2s":"Uncletopia | Frankfurt | 7 | Stopwatch Beta","protocol":17,"map":"pl_frontier_final","folder":"tf","game":"Team Fortress","app_id":440,"player_count":0,"max_players":24,"Bots":0,"server_type":"Dedicated","server_os":"Linux","password":true,"vac":true,"version":"7757534","steam_id":85568392924742827,"keywords":["nocrits","nodmgspread","payload","uncletopia"],"game_id":440,"stv_port":27076,"stv_name":"Uncletopia | Frankfurt | 7 | Stopwatch Beta | STV","players":null},{"server_id":24,"name":"Uncletopia | Frankfurt | 8 | Community","name_short":"frk-8","host":"frk-1.de.uncletopia.com","port":27085,"enabled":true,"region":"eu","cc":"de","latitude":50.110924,"longitude":8.682127,"reserved":0,"last_update":"0001-01-01T00:00:00Z","name_a2s":"Uncletopia | Frankfurt | 8 | Community","protocol":17,"map":"workshop/koth_product_final.ugc454272353","folder":"tf","game":"Team Fortress","app_id":440,"player_count":0,"max_players":24,"Bots":0,"server_type":"Dedicated","server_os":"Linux","password":true,"vac":true,"version":"7757534","steam_id":85568392924742828,"keywords":["cp","nocrits","nodmgspread","uncletopia"],"game_id":440,"stv_port":27086,"stv_name":"Uncletopia | Frankfurt | 8 | Community | STV","players":null},{"server_id":202,"name":"Uncletopia | Hong Kong | 1 | All Maps","name_short":"hgk-1","host":"hgk-1.hk.uncletopia.com","port":27015,"enabled":true,"region":"asia","cc":"hk","latitude":22.302711,"longitude":114.177216,"reserved":0,"last_update":"0001-01-01T00:00:00Z","name_a2s":"Uncletopia | Hong Kong | 1 | All Maps","protocol":17,"map":"pl_badwater","folder":"tf","game":"Team Fortress","app_id":440,"player_count":17,"max_players":24,"Bots":0,"server_type":"Dedicated","server_os":"Linux","password":true,"vac":true,"version":"7757534","steam_id":85568392924494504,"keywords":["nocrits","nodmgspread","payload","uncletopia"],"game_id":440,"stv_port":27016,"stv_name":"Uncletopia | Hong Kong | 1 | All Maps | STV","players":[{"user_id":26,"name":"milk choco","steam_id":76561199138095456,"connected_time":520000000000,"state":"active","ping":99},{"user_id":14,"name":"善良の墨","steam_id":76561199102754539,"connected_time":2033000000000,"state":"active","ping":87},{"user_id":27,"name":"Cantaloupe","steam_id":76561199158888493,"connected_time":512000000000,"state":"active","ping":75},{"user_id":16,"name":"Compressed","steam_id":76561199230196794,"connected_time":1754000000000,"state":"active","ping":99},{"user_id":20,"name":"Madgoat01","steam_id":76561198438429996,"connected_time":1017000000000,"state":"active","ping":99},{"user_id":18,"name":"David Keithson","steam_id":76561199279393636,"connected_time":1474000000000,"state":"active","ping":69},{"user_id":19,"name":"hasi","steam_id":76561199186771164,"connected_time":1434000000000,"state":"active","ping":74},{"user_id":21,"name":"Walter White (real)","steam_id":76561199221531190,"connected_time":1002000000000,"state":"active","ping":105},{"user_id":23,"name":"doctor morbin' (real)","steam_id":76561199365241695,"connected_time":886000000000,"state":"active","ping":75},{"user_id":24,"name":"Skyrim59","steam_id":76561199022143412,"connected_time":837000000000,"state":"active","ping":76},{"user_id":25,"name":"sterzun","steam_id":76561198300004922,"connected_time":740000000000,"state":"active","ping":114},{"user_id":32,"name":"Hunter64","steam_id":76561199121947938,"connected_time":336000000000,"state":"active","ping":277},{"user_id":29,"name":"aesfg (an idiotic free to play)","steam_id":76561199177781991,"connected_time":457000000000,"state":"active","ping":92},{"user_id":30,"name":"Rebecca, EdgeRunner","steam_id":76561199023086791,"connected_time":404000000000,"state":"active","ping":52},{"user_id":34,"name":"英文大佬[dasabi]","steam_id":76561199231077551,"connected_time":61000000000,"state":"active","ping":70},{"user_id":33,"name":"Milk❤ (UT Enjoyer)","steam_id":76561198163911560,"connected_time":329000000000,"state":"active","ping":124},{"user_id":35,"name":"Saffron","steam_id":76561199025320247,"connected_time":8000000000,"state":"spawning","ping":63}]},{"server_id":1,"name":"Uncletopia | Los Angeles | 1 | All Maps","name_short":"lax-1","host":"lax-1.us.uncletopia.com","port":27015,"enabled":true,"region":"us-west","cc":"us","latitude":33.94279,"longitude":-118.41004,"reserved":0,"last_update":"0001-01-01T00:00:00Z","name_a2s":"Uncletopia | Los Angeles | 1 | All Maps","protocol":17,"map":"koth_viaduct","folder":"tf","game":"Team Fortress","app_id":440,"player_count":23,"max_players":24,"Bots":0,"server_type":"Dedicated","server_os":"Linux","password":true,"vac":true,"version":"7757534","steam_id":85568392924469991,"keywords":["cp","nocrits","nodmgspread","uncletopia"],"game_id":440,"stv_port":27016,"stv_name":"Uncletopia | Los Angeles | 1 | All Maps | STV","players":[{"user_id":389,"name":"Burgie","steam_id":76561198066425198,"connected_time":939000000000,"state":"active","ping":46},{"user_id":381,"name":"tanner","steam_id":76561198137381904,"connected_time":1587000000000,"state":"active","ping":62},{"user_id":384,"name":"cryobulb","steam_id":76561198377979140,"connected_time":1444000000000,"state":"active","ping":97},{"user_id":361,"name":"kritz enabler","steam_id":76561198068672882,"connected_time":2478000000000,"state":"active","ping":57},{"user_id":399,"name":"hoopswoop9","steam_id":76561199203050556,"connected_time":437000000000,"state":"active","ping":59},{"user_id":396,"name":"Dim Strike","steam_id":76561199087298816,"connected_time":633000000000,"state":"active","ping":44},{"user_id":331,"name":"HeroOfTime","steam_id":76561199096218001,"connected_time":4918000000000,"state":"active","ping":50},{"user_id":366,"name":"KnockOutClock","steam_id":76561199436877307,"connected_time":2371000000000,"state":"active","ping":52},{"user_id":397,"name":"MX_Shum","steam_id":76561199133196892,"connected_time":598000000000,"state":"active","ping":56},{"user_id":367,"name":"evil jesus 05","steam_id":76561198419315893,"connected_time":2353000000000,"state":"active","ping":61},{"user_id":359,"name":"kritz enjoyer","steam_id":76561197979056451,"connected_time":2595000000000,"state":"active","ping":75},{"user_id":400,"name":"saladfish","steam_id":76561198453203619,"connected_time":410000000000,"state":"active","ping":43},{"user_id":382,"name":"Pangolin","steam_id":76561198318126190,"connected_time":1571000000000,"state":"active","ping":150},{"user_id":369,"name":"MR. MODE","steam_id":76561198046775352,"connected_time":2319000000000,"state":"active","ping":52},{"user_id":386,"name":"self sufficient kitten","steam_id":76561197960592612,"connected_time":995000000000,"state":"active","ping":75},{"user_id":392,"name":"Big Money","steam_id":76561198078802647,"connected_time":882000000000,"state":"active","ping":112},{"user_id":398,"name":"chicken wit dah eggrow","steam_id":76561198115458307,"connected_time":447000000000,"state":"active","ping":49},{"user_id":394,"name":"Hold Still","steam_id":76561198119536891,"connected_time":790000000000,"state":"active","ping":123},{"user_id":385,"name":"Saul Goodman","steam_id":76561198073021159,"connected_time":1432000000000,"state":"active","ping":100},{"user_id":402,"name":"Fractured_Mango","steam_id":76561199013113268,"connected_time":145000000000,"state":"active","ping":79},{"user_id":401,"name":"Bobbeh","steam_id":76561198131601160,"connected_time":375000000000,"state":"active","ping":83},{"user_id":371,"name":"Uprightmoss7528","steam_id":76561199200138486,"connected_time":2208000000000,"state":"active","ping":57},{"user_id":345,"name":"xs","steam_id":76561198106938500,"connected_time":3789000000000,"state":"active","ping":52}]},{"server_id":112,"name":"Uncletopia | Los Angeles | 2 | All Maps","name_short":"lax-2","host":"lax-1.us.uncletopia.com","port":27025,"enabled":true,"region":"us-west","cc":"us","latitude":33.94279,"longitude":-118.41004,"reserved":0,"last_update":"0001-01-01T00:00:00Z","name_a2s":"Uncletopia | Los Angeles | 2 | All Maps","protocol":17,"map":"cp_dustbowl","folder":"tf","game":"Team Fortress","app_id":440,"player_count":24,"max_players":24,"Bots":0,"server_type":"Dedicated","server_os":"Linux","password":true,"vac":true,"version":"7757534","steam_id":85568392924469992,"keywords":["cp","nocrits","nodmgspread","uncletopia"],"game_id":440,"stv_port":27026,"stv_name":"Uncletopia | Los Angeles | 2 | All Maps | STV","players":[{"user_id":251,"name":"squid","steam_id":76561198070236972,"connected_time":2382000000000,"state":"active","ping":59},{"user_id":279,"name":"Ranger Lugi","steam_id":76561198143611016,"connected_time":512000000000,"state":"active","ping":75},{"user_id":252,"name":"Biggles","steam_id":76561198126576389,"connected_time":2377000000000,"state":"active","ping":106},{"user_id":254,"name":"Bada Bingus","steam_id":76561198046743307,"connected_time":2234000000000,"state":"active","ping":124},{"user_id":250,"name":"Barnie Sandlers","steam_id":76561198153295482,"connected_time":2395000000000,"state":"active","ping":30},{"user_id":257,"name":"Roll9898","steam_id":76561198066939657,"connected_time":1766000000000,"state":"active","ping":105},{"user_id":253,"name":"NagitoTheLucky","steam_id":76561198065096327,"connected_time":2357000000000,"state":"active","ping":61},{"user_id":265,"name":"Feel the bern","steam_id":76561198078824519,"connected_time":1071000000000,"state":"active","ping":59},{"user_id":269,"name":"MrLeftTurn","steam_id":76561198856743969,"connected_time":984000000000,"state":"active","ping":113},{"user_id":262,"name":"Hello1001","steam_id":76561199468109337,"connected_time":1308000000000,"state":"active","ping":105},{"user_id":280,"name":"Ativillu","steam_id":76561198381841894,"connected_time":378000000000,"state":"active","ping":102},{"user_id":276,"name":"Poopie Babie","steam_id":76561198047500494,"connected_time":660000000000,"state":"active","ping":75},{"user_id":268,"name":"brobtlcehc","steam_id":76561198043558709,"connected_time":1008000000000,"state":"active","ping":77},{"user_id":270,"name":"simonjohna646","steam_id":76561199403481880,"connected_time":936000000000,"state":"active","ping":137},{"user_id":271,"name":"The Secily™ Remastered (PC)","steam_id":76561198042406998,"connected_time":795000000000,"state":"active","ping":56},{"user_id":272,"name":"EXPERIENCED INDIVIDUAL","steam_id":76561198140231083,"connected_time":736000000000,"state":"active","ping":86},{"user_id":273,"name":"Magikarp_Gamer","steam_id":76561198143910511,"connected_time":727000000000,"state":"active","ping":82},{"user_id":275,"name":"your mom calls me princess too","steam_id":76561198020400899,"connected_time":675000000000,"state":"active","ping":76},{"user_id":281,"name":"AjProductions","steam_id":76561198217950125,"connected_time":372000000000,"state":"active","ping":82},{"user_id":288,"name":"SDL","steam_id":76561198859719985,"connected_time":18000000000,"state":"spawning","ping":119},{"user_id":278,"name":"Crustiest_Bill","steam_id":76561198842722858,"connected_time":597000000000,"state":"active","ping":65},{"user_id":283,"name":"Milacek","steam_id":76561198109746068,"connected_time":361000000000,"state":"active","ping":115},{"user_id":287,"name":"LeTonzy","steam_id":76561198005806699,"connected_time":129000000000,"state":"active","ping":57},{"user_id":286,"name":"Bunger From The Bronx","steam_id":76561198975555562,"connected_time":268000000000,"state":"active","ping":115}]},{"server_id":324,"name":"Uncletopia | Los Angeles | 3 | All Maps","name_short":"lax-3","host":"lax-1.us.uncletopia.com","port":27035,"enabled":true,"region":"us-west","cc":"us","latitude":33.94279,"longitude":-118.41004,"reserved":0,"last_update":"0001-01-01T00:00:00Z","name_a2s":"Uncletopia | Los Angeles | 3 | All Maps","protocol":17,"map":"pl_borneo","folder":"tf","game":"Team Fortress","app_id":440,"player_count":22,"max_players":24,"Bots":0,"server_type":"Dedicated","server_os":"Linux","password":true,"vac":true,"version":"7757534","steam_id":85568392924510198,"keywords":["nocrits","nodmgspread","payload","uncletopia"],"game_id":440,"stv_port":27036,"stv_name":"Uncletopia | Los Angeles | 3 | All Maps | STV","players":[{"user_id":119,"name":"OldManArzo","steam_id":76561198414873074,"connected_time":1138000000000,"state":"active","ping":77},{"user_id":116,"name":"bean drinker","steam_id":76561198044004639,"connected_time":1518000000000,"state":"active","ping":76},{"user_id":125,"name":"Pah-Wraith Gul Dukat","steam_id":76561198033918106,"connected_time":425000000000,"state":"active","ping":66},{"user_id":123,"name":"Frazzer","steam_id":76561198088679707,"connected_time":664000000000,"state":"active","ping":48},{"user_id":127,"name":"Goobers","steam_id":76561198106176755,"connected_time":390000000000,"state":"active","ping":104},{"user_id":128,"name":"Colepie","steam_id":76561198037853211,"connected_time":379000000000,"state":"active","ping":89},{"user_id":107,"name":"Kopenich","steam_id":76561198066205245,"connected_time":2104000000000,"state":"active","ping":52},{"user_id":129,"name":"Cosmosis Jones","steam_id":76561198970097093,"connected_time":374000000000,"state":"active","ping":53},{"user_id":49,"name":"werolat","steam_id":76561197960544784,"connected_time":3959000000000,"state":"active","ping":51},{"user_id":130,"name":"lyzth","steam_id":76561199328342891,"connected_time":357000000000,"state":"active","ping":98},{"user_id":75,"name":"Jailbreak","steam_id":76561198802085218,"connected_time":3124000000000,"state":"active","ping":90},{"user_id":121,"name":"cheeto dealer","steam_id":76561199243489976,"connected_time":894000000000,"state":"active","ping":108},{"user_id":113,"name":"Painkiller","steam_id":76561198049787400,"connected_time":1602000000000,"state":"active","ping":55},{"user_id":132,"name":"StarGuyVI","steam_id":76561199366304746,"connected_time":127000000000,"state":"active","ping":114},{"user_id":133,"name":"Heavy","steam_id":76561198437794740,"connected_time":84000000000,"state":"active","ping":61},{"user_id":118,"name":"Averagemicrowavedchickenstick","steam_id":76561199128225865,"connected_time":1210000000000,"state":"active","ping":88},{"user_id":115,"name":"intek","steam_id":76561198052705291,"connected_time":1587000000000,"state":"active","ping":92},{"user_id":102,"name":"hoOmIN","steam_id":76561198334947079,"connected_time":2415000000000,"state":"active","ping":42},{"user_id":134,"name":"Woahhh3","steam_id":76561198340525780,"connected_time":64000000000,"state":"active","ping":116},{"user_id":135,"name":"tie dye die guy","steam_id":76561198049845337,"connected_time":16000000000,"state":"active","ping":69},{"user_id":124,"name":"Green_GarBear","steam_id":76561199468912415,"connected_time":491000000000,"state":"active","ping":61},{"user_id":66,"name":"derek vinyard","steam_id":76561199156491041,"connected_time":3347000000000,"state":"active","ping":121}]},{"server_id":25,"name":"Uncletopia | Los Angeles | 4 | Stopwatch Beta","name_short":"lax-4","host":"lax-1.us.uncletopia.com","port":27045,"enabled":true,"region":"us-west","cc":"us","latitude":33.94279,"longitude":-118.41004,"reserved":0,"last_update":"0001-01-01T00:00:00Z","name_a2s":"Uncletopia | Los Angeles | 4 | Stopwatch Beta","protocol":17,"map":"pl_frontier_final","folder":"tf","game":"Team Fortress","app_id":440,"player_count":0,"max_players":24,"Bots":0,"server_type":"Dedicated","server_os":"Linux","password":true,"vac":true,"version":"7757534","steam_id":85568392924510199,"keywords":["nocrits","nodmgspread","payload","uncletopia"],"game_id":440,"stv_port":27046,"stv_name":"Uncletopia | Los Angeles | 4 | Stopwatch Beta | STV","players":null},{"server_id":11,"name":"Uncletopia | London | 1 | All Maps","name_short":"lon-1","host":"lon-1.uk.uncletopia.com","port":27015,"enabled":true,"region":"eu","cc":"gb","latitude":51.509865,"longitude":-0.118092,"reserved":0,"last_update":"0001-01-01T00:00:00Z","name_a2s":"Uncletopia | London | 1 | All Maps","protocol":17,"map":"pl_badwater","folder":"tf","game":"Team Fortress","app_id":440,"player_count":25,"max_players":24,"Bots":0,"server_type":"Dedicated","server_os":"Linux","password":true,"vac":true,"version":"7757534","steam_id":85568392924367362,"keywords":["nocrits","nodmgspread","payload","uncletopia"],"game_id":440,"stv_port":27016,"stv_name":"Uncletopia | London | 1 | All Maps | STV","players":[{"user_id":492,"name":"Donny","steam_id":76561198257836694,"connected_time":9191000000000,"state":"active","ping":43},{"user_id":567,"name":"MS","steam_id":76561198037560108,"connected_time":2458000000000,"state":"active","ping":30},{"user_id":554,"name":"KittyKate ❤","steam_id":76561198116340817,"connected_time":3396000000000,"state":"active","ping":67},{"user_id":587,"name":"lofimonkeyjazz","steam_id":76561198117059662,"connected_time":44000000000,"state":"active","ping":78},{"user_id":556,"name":"BuzzBees ❤","steam_id":76561198101502273,"connected_time":3333000000000,"state":"active","ping":45},{"user_id":514,"name":"cinny","steam_id":76561198832112629,"connected_time":7134000000000,"state":"active","ping":141},{"user_id":572,"name":"tm`","steam_id":76561197993580412,"connected_time":2435000000000,"state":"active","ping":60},{"user_id":575,"name":"FighterX9","steam_id":76561198832500806,"connected_time":1651000000000,"state":"active","ping":178},{"user_id":557,"name":"Klumz","steam_id":76561198045750180,"connected_time":3331000000000,"state":"active","ping":75},{"user_id":576,"name":"jones","steam_id":76561198044434971,"connected_time":1477000000000,"state":"active","ping":62},{"user_id":588,"name":"thekoolest88","steam_id":76561199022415672,"connected_time":33000000000,"state":"spawning","ping":255},{"user_id":580,"name":"Kendo-6","steam_id":76561198318748304,"connected_time":635000000000,"state":"active","ping":122},{"user_id":589,"name":"Icarus300","steam_id":76561198015125766,"connected_time":24000000000,"state":"spawning","ping":94},{"user_id":582,"name":"glyphoglossus molossus","steam_id":76561198191291749,"connected_time":518000000000,"state":"active","ping":83},{"user_id":531,"name":"Slow Mode","steam_id":76561199414716848,"connected_time":5871000000000,"state":"active","ping":74},{"user_id":505,"name":"Borat","steam_id":76561198122226417,"connected_time":7966000000000,"state":"active","ping":42},{"user_id":515,"name":"Sabour","steam_id":76561197963965445,"connected_time":7097000000000,"state":"active","ping":69},{"user_id":565,"name":"vani","steam_id":76561197991778291,"connected_time":2989000000000,"state":"active","ping":71},{"user_id":569,"name":"New","steam_id":76561198402195911,"connected_time":2455000000000,"state":"active","ping":109},{"user_id":583,"name":"Xtreme™","steam_id":76561198050144913,"connected_time":143000000000,"state":"active","ping":66},{"user_id":506,"name":"Lovely dove bombing diarrhea","steam_id":76561198042593027,"connected_time":7950000000000,"state":"active","ping":98},{"user_id":584,"name":"r0la","steam_id":76561198128315340,"connected_time":98000000000,"state":"active","ping":84},{"user_id":544,"name":"frosty","steam_id":76561198094560834,"connected_time":4719000000000,"state":"active","ping":45},{"user_id":590,"name":"sheepy dab's hand","steam_id":76561198040284781,"connected_time":4000000000,"state":"spawning","ping":47},{"user_id":460,"name":"SuperBob103","steam_id":76561199175360012,"connected_time":12819000000000,"state":"active","ping":47}]},{"server_id":114,"name":"Uncletopia | London | 2 | All Maps","name_short":"lon-2","host":"lon-1.uk.uncletopia.com","port":27025,"enabled":true,"region":"eu","cc":"gb","latitude":51.509865,"longitude":-0.118092,"reserved":0,"last_update":"0001-01-01T00:00:00Z","name_a2s":"Uncletopia | London | 2 | All Maps","protocol":17,"map":"koth_viaduct","folder":"tf","game":"Team Fortress","app_id":440,"player_count":0,"max_players":24,"Bots":0,"server_type":"Dedicated","server_os":"Linux","password":true,"vac":true,"version":"7757534","steam_id":85568392924470941,"keywords":["cp","nocrits","nodmgspread","uncletopia"],"game_id":440,"stv_port":27026,"stv_name":"Uncletopia | London | 2 | All Maps | STV","players":null},{"server_id":320,"name":"Uncletopia | London | 3 | All Maps","name_short":"lon-3","host":"lon-1.uk.uncletopia.com","port":27035,"enabled":true,"region":"eu","cc":"gb","latitude":51.509865,"longitude":-0.118092,"reserved":0,"last_update":"0001-01-01T00:00:00Z","name_a2s":"Uncletopia | London | 3 | All Maps","protocol":17,"map":"koth_cascade","folder":"tf","game":"Team Fortress","app_id":440,"player_count":0,"max_players":24,"Bots":0,"server_type":"Dedicated","server_os":"Linux","password":true,"vac":true,"version":"7757534","steam_id":85568392924510192,"keywords":["cp","nocrits","nodmgspread","uncletopia"],"game_id":440,"stv_port":27036,"stv_name":"Uncletopia | London | 3 | All Maps | STV","players":null},{"server_id":321,"name":"Uncletopia | London | 4 | All Maps","name_short":"lon-4","host":"lon-1.uk.uncletopia.com","port":27045,"enabled":true,"region":"eu","cc":"gb","latitude":51.509865,"longitude":-0.118092,"reserved":0,"last_update":"0001-01-01T00:00:00Z","name_a2s":"Uncletopia | London | 4 | All Maps","protocol":17,"map":"plr_hightower","folder":"tf","game":"Team Fortress","app_id":440,"player_count":0,"max_players":24,"Bots":0,"server_type":"Dedicated","server_os":"Linux","password":true,"vac":true,"version":"7757534","steam_id":85568392924510193,"keywords":["nocrits","nodmgspread","payload","uncletopia"],"game_id":440,"stv_port":27046,"stv_name":"Uncletopia | London | 4 | All Maps | STV","players":null},{"server_id":21,"name":"Uncletopia | London | 5 | All Maps","name_short":"lon-5","host":"lon-1.uk.uncletopia.com","port":27055,"enabled":true,"region":"eu","cc":"gb","latitude":51.509865,"longitude":-0.118092,"reserved":0,"last_update":"0001-01-01T00:00:00Z","name_a2s":"Uncletopia | London | 5 | All Maps","protocol":17,"map":"cp_mountainlab","folder":"tf","game":"Team Fortress","app_id":440,"player_count":0,"max_players":24,"Bots":0,"server_type":"Dedicated","server_os":"Linux","password":true,"vac":true,"version":"7757534","steam_id":85568392924742829,"keywords":["cp","nocrits","nodmgspread","uncletopia"],"game_id":440,"stv_port":27056,"stv_name":"Uncletopia | London | 5 | All Maps | STV","players":null},{"server_id":22,"name":"Uncletopia | London | 6 | All Maps","name_short":"lon-6","host":"lon-1.uk.uncletopia.com","port":27065,"enabled":true,"region":"eu","cc":"gb","latitude":51.509865,"longitude":-0.118092,"reserved":0,"last_update":"0001-01-01T00:00:00Z","name_a2s":"Uncletopia | London | 6 | All Maps","protocol":17,"map":"koth_lakeside_final","folder":"tf","game":"Team Fortress","app_id":440,"player_count":0,"max_players":24,"Bots":0,"server_type":"Dedicated","server_os":"Linux","password":true,"vac":true,"version":"7757534","steam_id":85568392924742830,"keywords":["cp","nocrits","nodmgspread","uncletopia"],"game_id":440,"stv_port":27066,"stv_name":"Uncletopia | London | 6 | All Maps | STV","players":null},{"server_id":40,"name":"Uncletopia | London | 7 | No Payload","name_short":"lon-7","host":"lon-1.uk.uncletopia.com","port":27075,"enabled":true,"region":"eu","cc":"gb","latitude":51.509865,"longitude":-0.118092,"reserved":0,"last_update":"0001-01-01T00:00:00Z","name_a2s":"Uncletopia | London | 7 | No Payload","protocol":17,"map":"koth_harvest_final","folder":"tf","game":"Team Fortress","app_id":440,"player_count":0,"max_players":24,"Bots":0,"server_type":"Dedicated","server_os":"Linux","password":true,"vac":true,"version":"7757534","steam_id":85568392924964314,"keywords":["cp","nocrits","nodmgspread","uncletopia"],"game_id":440,"stv_port":27076,"stv_name":"Uncletopia | London | 7 | No Payload | STV","players":null},{"server_id":41,"name":"Uncletopia | London | 8 | Community","name_short":"lon-8","host":"lon-1.uk.uncletopia.com","port":27085,"enabled":true,"region":"eu","cc":"gb","latitude":51.509865,"longitude":-0.118092,"reserved":0,"last_update":"0001-01-01T00:00:00Z","name_a2s":"Uncletopia | London | 8 | Community","protocol":17,"map":"workshop/pl_highwood_b13.ugc1769496557","folder":"tf","game":"Team Fortress","app_id":440,"player_count":0,"max_players":24,"Bots":0,"server_type":"Dedicated","server_os":"Linux","password":true,"vac":true,"version":"7757534","steam_id":85568392924964315,"keywords":["nocrits","nodmgspread","payload","uncletopia"],"game_id":440,"stv_port":27086,"stv_name":"Uncletopia | London | 8 | Community | STV","players":null},{"server_id":300,"name":"Uncletopia | Montréal | 1 | All Maps","name_short":"mtl-1","host":"mtl-1.ca.uncletopia.com","port":27015,"enabled":true,"region":"us-east","cc":"ca","latitude":45.50889,"longitude":-73.56167,"reserved":0,"last_update":"0001-01-01T00:00:00Z","name_a2s":"Uncletopia | Montréal | 1 | All Maps","protocol":17,"map":"koth_viaduct","folder":"tf","game":"Team Fortress","app_id":440,"player_count":3,"max_players":24,"Bots":0,"server_type":"Dedicated","server_os":"Linux","password":true,"vac":true,"version":"7757534","steam_id":85568392924500087,"keywords":["cp","nocrits","nodmgspread","uncletopia"],"game_id":440,"stv_port":27016,"stv_name":"Uncletopia | Montréal | 1 | All Maps | STV","players":[{"user_id":118,"name":"watchfull","steam_id":76561198433266742,"connected_time":1393000000000,"state":"active","ping":120},{"user_id":119,"name":"Elegant Ejaculation","steam_id":76561198014190878,"connected_time":1286000000000,"state":"active","ping":121},{"user_id":123,"name":"SyntheticCereal","steam_id":76561198208048093,"connected_time":103000000000,"state":"active","ping":55}]},{"server_id":301,"name":"Uncletopia | Montréal | 2 | All Maps","name_short":"mtl-2","host":"mtl-1.ca.uncletopia.com","port":27025,"enabled":true,"region":"us-east","cc":"ca","latitude":45.50889,"longitude":-73.56167,"reserved":0,"last_update":"0001-01-01T00:00:00Z","name_a2s":"Uncletopia | Montréal | 2 | All Maps","protocol":17,"map":"koth_lakeside_final","folder":"tf","game":"Team Fortress","app_id":440,"player_count":0,"max_players":24,"Bots":0,"server_type":"Dedicated","server_os":"Linux","password":true,"vac":true,"version":"7757534","steam_id":85568392924500088,"keywords":["cp","nocrits","nodmgspread","uncletopia"],"game_id":440,"stv_port":27026,"stv_name":"Uncletopia | Montréal | 2 | All Maps | STV","players":null},{"server_id":302,"name":"Uncletopia | Montréal | 3 | All Maps","name_short":"mtl-3","host":"mtl-1.ca.uncletopia.com","port":27035,"enabled":true,"region":"us-east","cc":"ca","latitude":45.50889,"longitude":-73.56167,"reserved":0,"last_update":"0001-01-01T00:00:00Z","name_a2s":"Uncletopia | Montréal | 3 | All Maps","protocol":17,"map":"koth_lakeside_final","folder":"tf","game":"Team Fortress","app_id":440,"player_count":0,"max_players":24,"Bots":0,"server_type":"Dedicated","server_os":"Linux","password":true,"vac":true,"version":"7757534","steam_id":85568392924500089,"keywords":["cp","nocrits","nodmgspread","uncletopia"],"game_id":440,"stv_port":27036,"stv_name":"Uncletopia | Montréal | 3 | All Maps | STV","players":null},{"server_id":303,"name":"Uncletopia | Montréal | 4 | No Payload","name_short":"mtl-4","host":"mtl-1.ca.uncletopia.com","port":27045,"enabled":true,"region":"us-east","cc":"ca","latitude":45.50889,"longitude":-73.56167,"reserved":0,"last_update":"0001-01-01T00:00:00Z","name_a2s":"Uncletopia | Montréal | 4 | No Payload","protocol":17,"map":"pl_borneo","folder":"tf","game":"Team Fortress","app_id":440,"player_count":0,"max_players":24,"Bots":0,"server_type":"Dedicated","server_os":"Linux","password":true,"vac":true,"version":"7757534","steam_id":85568392924500090,"keywords":["nocrits","nodmgspread","payload","uncletopia"],"game_id":440,"stv_port":27046,"stv_name":"Uncletopia | Montréal | 4 | No Payload | STV","players":null},{"server_id":13,"name":"Uncletopia | New York City | 1 | All Maps","name_short":"nyc-1","host":"nyc-1.us.uncletopia.com","port":27015,"enabled":true,"region":"us-east","cc":"us","latitude":40.73061,"longitude":-73.93524,"reserved":0,"last_update":"0001-01-01T00:00:00Z","name_a2s":"Uncletopia | New York City | 1 | All Maps","protocol":17,"map":"pl_barnblitz","folder":"tf","game":"Team Fortress","app_id":440,"player_count":24,"max_players":24,"Bots":0,"server_type":"Dedicated","server_os":"Linux","password":true,"vac":true,"version":"7757534","steam_id":85568392924469993,"keywords":["nocrits","nodmgspread","payload","uncletopia"],"game_id":440,"stv_port":27016,"stv_name":"Uncletopia | New York City | 1 | All Maps | STV","players":[{"user_id":378,"name":"Doost44","steam_id":76561198115785902,"connected_time":1272000000000,"state":"active","ping":89},{"user_id":381,"name":"Baron von Whoopsie","steam_id":76561197996691013,"connected_time":901000000000,"state":"active","ping":59},{"user_id":375,"name":"ExoTheFlyingFish","steam_id":76561198034388243,"connected_time":1873000000000,"state":"active","ping":48},{"user_id":374,"name":"fi_ji","steam_id":76561198126087725,"connected_time":2133000000000,"state":"active","ping":58},{"user_id":377,"name":"-living-dead-","steam_id":76561198022049139,"connected_time":1294000000000,"state":"active","ping":59},{"user_id":379,"name":"Snoogs","steam_id":76561198444880931,"connected_time":1193000000000,"state":"active","ping":63},{"user_id":248,"name":"PinkLemonade","steam_id":76561198799286228,"connected_time":13097000000000,"state":"active","ping":58},{"user_id":316,"name":"scout main (derogatory)","steam_id":76561199117424896,"connected_time":7441000000000,"state":"active","ping":72},{"user_id":306,"name":"SecurityCamera","steam_id":76561198117266792,"connected_time":8573000000000,"state":"active","ping":63},{"user_id":362,"name":"JacripspyVulcano","steam_id":76561198966980576,"connected_time":3560000000000,"state":"active","ping":43},{"user_id":380,"name":"Bee","steam_id":76561198074681324,"connected_time":1045000000000,"state":"active","ping":46},{"user_id":382,"name":"CosmoComet","steam_id":76561199055009075,"connected_time":871000000000,"state":"active","ping":60},{"user_id":308,"name":"Cidio Irion","steam_id":76561198176885019,"connected_time":8538000000000,"state":"active","ping":106},{"user_id":383,"name":"fi_ji Fanboy","steam_id":76561199047187302,"connected_time":855000000000,"state":"active","ping":76},{"user_id":384,"name":"magotago","steam_id":76561198013650292,"connected_time":849000000000,"state":"active","ping":105},{"user_id":385,"name":"your local forecast","steam_id":76561198042243083,"connected_time":580000000000,"state":"active","ping":56},{"user_id":373,"name":"Ifrit","steam_id":76561198044730782,"connected_time":2231000000000,"state":"active","ping":97},{"user_id":323,"name":"shimp","steam_id":76561198067613190,"connected_time":6175000000000,"state":"active","ping":50},{"user_id":311,"name":"Cap'n Walrus","steam_id":76561198045651378,"connected_time":8520000000000,"state":"active","ping":100},{"user_id":367,"name":"Wiener Hole Paper Cut","steam_id":76561198000808203,"connected_time":2797000000000,"state":"active","ping":109},{"user_id":358,"name":"Gumit","steam_id":76561198208126512,"connected_time":3810000000000,"state":"active","ping":64},{"user_id":350,"name":"BUNGACOWA","steam_id":76561198979176018,"connected_time":4118000000000,"state":"active","ping":96},{"user_id":386,"name":"asian","steam_id":76561198082561695,"connected_time":29000000000,"state":"active","ping":72},{"user_id":366,"name":"LunarrD","steam_id":76561198811220107,"connected_time":3179000000000,"state":"active","ping":72}]},{"server_id":14,"name":"Uncletopia | New York City | 2 | All Maps","name_short":"nyc-2","host":"nyc-1.us.uncletopia.com","port":27025,"enabled":true,"region":"us-east","cc":"us","latitude":40.73061,"longitude":-73.93524,"reserved":0,"last_update":"0001-01-01T00:00:00Z","name_a2s":"Uncletopia | New York City | 2 | All Maps","protocol":17,"map":"pl_frontier_final","folder":"tf","game":"Team Fortress","app_id":440,"player_count":24,"max_players":24,"Bots":0,"server_type":"Dedicated","server_os":"Linux","password":true,"vac":true,"version":"7757534","steam_id":85568392924469994,"keywords":["nocrits","nodmgspread","payload","uncletopia"],"game_id":440,"stv_port":27026,"stv_name":"Uncletopia | New York City | 2 | All Maps | STV","players":[{"user_id":566,"name":"Malex","steam_id":76561198012216805,"connected_time":2683000000000,"state":"active","ping":67},{"user_id":553,"name":"*","steam_id":76561198173047169,"connected_time":4147000000000,"state":"active","ping":46},{"user_id":641,"name":"TheSquirrelofHuscurl","steam_id":76561198073379623,"connected_time":554000000000,"state":"active","ping":84},{"user_id":557,"name":"Weerk","steam_id":76561199209543551,"connected_time":3390000000000,"state":"active","ping":70},{"user_id":596,"name":"boppetson","steam_id":76561198073529045,"connected_time":1720000000000,"state":"active","ping":56},{"user_id":568,"name":"AverageGloop","steam_id":76561198243395378,"connected_time":2667000000000,"state":"active","ping":44},{"user_id":545,"name":"Kraftlos","steam_id":76561198074350350,"connected_time":4381000000000,"state":"active","ping":58},{"user_id":608,"name":"1000 Ping","steam_id":76561198098330939,"connected_time":1170000000000,"state":"active","ping":128},{"user_id":634,"name":"flexer_2000","steam_id":76561198084422657,"connected_time":741000000000,"state":"active","ping":106},{"user_id":537,"name":"M249 | Spectre","steam_id":76561198118334485,"connected_time":4517000000000,"state":"active","ping":77},{"user_id":609,"name":"A Rope, for big pits","steam_id":76561198068044782,"connected_time":1154000000000,"state":"active","ping":58},{"user_id":571,"name":"the doo doo man","steam_id":76561198057076267,"connected_time":2641000000000,"state":"active","ping":79},{"user_id":455,"name":"gghfgfgfg","steam_id":76561198064823861,"connected_time":9931000000000,"state":"active","ping":52},{"user_id":561,"name":"Xx_PR3TTY_R4VE_G!R1_xX","steam_id":76561199059016425,"connected_time":3243000000000,"state":"active","ping":68},{"user_id":617,"name":"deech","steam_id":76561198066429444,"connected_time":1045000000000,"state":"active","ping":55},{"user_id":601,"name":"Sheep","steam_id":76561198122705864,"connected_time":1648000000000,"state":"active","ping":100},{"user_id":589,"name":"viper","steam_id":76561198839942937,"connected_time":2014000000000,"state":"active","ping":72},{"user_id":572,"name":"breesey","steam_id":76561198341658826,"connected_time":2591000000000,"state":"active","ping":34},{"user_id":599,"name":"papi Chulo","steam_id":76561198126274984,"connected_time":1678000000000,"state":"active","ping":131},{"user_id":611,"name":"PzVIIIMaus","steam_id":76561198346559365,"connected_time":1132000000000,"state":"active","ping":64},{"user_id":588,"name":"Sir Iasis","steam_id":76561198035666760,"connected_time":2070000000000,"state":"active","ping":88},{"user_id":563,"name":"footoftheday","steam_id":76561198052712449,"connected_time":3097000000000,"state":"active","ping":84},{"user_id":551,"name":"The Land Admiral","steam_id":76561198159356609,"connected_time":4218000000000,"state":"active","ping":60},{"user_id":593,"name":"thrax","steam_id":76561198113634787,"connected_time":1866000000000,"state":"active","ping":59}]},{"server_id":15,"name":"Uncletopia | New York City | 3 | Stopwatch Beta","name_short":"nyc-3","host":"nyc-1.us.uncletopia.com","port":27035,"enabled":true,"region":"us-east","cc":"us","latitude":40.73061,"longitude":-73.93524,"reserved":0,"last_update":"0001-01-01T00:00:00Z","name_a2s":"Uncletopia | New York City | 3 | Stopwatch Beta","protocol":17,"map":"cp_process_final","folder":"tf","game":"Team Fortress","app_id":440,"player_count":14,"max_players":24,"Bots":0,"server_type":"Dedicated","server_os":"Linux","password":true,"vac":true,"version":"7757534","steam_id":85568392924742820,"keywords":["cp","nocrits","nodmgspread","uncletopia"],"game_id":440,"stv_port":27036,"stv_name":"Uncletopia | New York City | 3 | Stopwatch Beta | STV","players":[{"user_id":127,"name":"kris736","steam_id":76561198038208255,"connected_time":1021000000000,"state":"active","ping":61},{"user_id":149,"name":"smocc","steam_id":76561197993726746,"connected_time":4000000000,"state":"spawning","ping":44},{"user_id":137,"name":"Dirtbikerider37","steam_id":76561198101903175,"connected_time":545000000000,"state":"active","ping":74},{"user_id":146,"name":"segway cop","steam_id":76561198225609936,"connected_time":311000000000,"state":"active","ping":68},{"user_id":99,"name":"Jammedpurse","steam_id":76561198998294201,"connected_time":3355000000000,"state":"active","ping":155},{"user_id":148,"name":"Ansem","steam_id":76561198165199912,"connected_time":141000000000,"state":"active","ping":70},{"user_id":129,"name":"Super D Duper","steam_id":76561198078203677,"connected_time":820000000000,"state":"active","ping":53},{"user_id":138,"name":"germ","steam_id":76561198411797067,"connected_time":519000000000,"state":"active","ping":59},{"user_id":141,"name":"sxl #SHADOWWIZARDMONEYGANG","steam_id":76561198150627999,"connected_time":487000000000,"state":"active","ping":57},{"user_id":130,"name":"ml is fake cs","steam_id":76561198350747953,"connected_time":819000000000,"state":"active","ping":44},{"user_id":145,"name":"YungBesar","steam_id":76561199057849765,"connected_time":382000000000,"state":"active","ping":59},{"user_id":142,"name":"Reversed","steam_id":76561198136433466,"connected_time":473000000000,"state":"active","ping":60},{"user_id":121,"name":"din afore","steam_id":76561198079892116,"connected_time":1689000000000,"state":"active","ping":59},{"user_id":93,"name":"NastyStarchy","steam_id":76561198291849732,"connected_time":4127000000000,"state":"active","ping":50}]},{"server_id":16,"name":"Uncletopia | New York City | 4 | Community","name_short":"nyc-4","host":"nyc-1.us.uncletopia.com","port":27045,"enabled":true,"region":"us-east","cc":"us","latitude":40.73061,"longitude":-73.93524,"reserved":0,"last_update":"0001-01-01T00:00:00Z","name_a2s":"Uncletopia | New York City | 4 | Community","protocol":17,"map":"workshop/pl_badwater_pro_v12.ugc2142942074","folder":"tf","game":"Team Fortress","app_id":440,"player_count":0,"max_players":24,"Bots":0,"server_type":"Dedicated","server_os":"Linux","password":true,"vac":true,"version":"7757534","steam_id":85568392924742821,"keywords":["nocrits","nodmgspread","payload","uncletopia"],"game_id":440,"stv_port":27046,"stv_name":"Uncletopia | New York City | 4 | Community | STV","players":null},{"server_id":142,"name":"Uncletopia | São Paulo | 1 | All Maps","name_short":"sao-1","host":"sao-1.br.uncletopia.com","port":27015,"enabled":true,"region":"sa","cc":"br","latitude":-23.533773,"longitude":-46.62529,"reserved":0,"last_update":"0001-01-01T00:00:00Z","name_a2s":"Uncletopia | São Paulo | 1 | All Maps","protocol":17,"map":"pl_swiftwater_final1","folder":"tf","game":"Team Fortress","app_id":440,"player_count":0,"max_players":24,"Bots":0,"server_type":"Dedicated","server_os":"Linux","password":true,"vac":true,"version":"7757534","steam_id":85568392924469996,"keywords":["nocrits","nodmgspread","payload","uncletopia"],"game_id":440,"stv_port":27016,"stv_name":"Uncletopia | São Paulo | 1 | All Maps | STV","players":null},{"server_id":143,"name":"Uncletopia | São Paulo | 2 | All Maps","name_short":"sao-2","host":"sao-2.br.uncletopia.com","port":27015,"enabled":true,"region":"sa","cc":"br","latitude":-23.533773,"longitude":-46.62529,"reserved":0,"last_update":"0001-01-01T00:00:00Z","name_a2s":"Uncletopia | São Paulo | 2 | All Maps","protocol":17,"map":"cp_altitude","folder":"tf","game":"Team Fortress","app_id":440,"player_count":0,"max_players":24,"Bots":0,"server_type":"Dedicated","server_os":"Linux","password":true,"vac":true,"version":"7757534","steam_id":85568392924485349,"keywords":["cp","nocrits","nodmgspread","uncletopia"],"game_id":440,"stv_port":27016,"stv_name":"Uncletopia | São Paulo | 2 | All Maps | STV","players":null},{"server_id":7,"name":"Uncletopia | Seattle | 1 | All Maps","name_short":"sea-1","host":"sea-1.us.uncletopia.com","port":27015,"enabled":true,"region":"us-west","cc":"us","latitude":47.608013,"longitude":-122.33517,"reserved":0,"last_update":"0001-01-01T00:00:00Z","name_a2s":"Uncletopia | Seattle | 1 | All Maps","protocol":17,"map":"ctf_sawmill","folder":"tf","game":"Team Fortress","app_id":440,"player_count":22,"max_players":24,"Bots":0,"server_type":"Dedicated","server_os":"Linux","password":true,"vac":true,"version":"7757534","steam_id":85568392924469997,"keywords":["ctf","nocrits","nodmgspread","uncletopia"],"game_id":440,"stv_port":27016,"stv_name":"Uncletopia | Seattle | 1 | All Maps | STV","players":[{"user_id":557,"name":"〣dust〣 -she/it-","steam_id":76561198045218909,"connected_time":6137000000000,"state":"active","ping":37},{"user_id":619,"name":"The_Medic","steam_id":76561199145940914,"connected_time":531000000000,"state":"active","ping":106},{"user_id":615,"name":"resting neutral face","steam_id":76561197999259502,"connected_time":1039000000000,"state":"active","ping":60},{"user_id":553,"name":"Reiidaya","steam_id":76561198325306660,"connected_time":6583000000000,"state":"active","ping":55},{"user_id":540,"name":"Mr.Thirteen","steam_id":76561198047468836,"connected_time":7583000000000,"state":"active","ping":65},{"user_id":623,"name":"banan team fortes","steam_id":76561199073621650,"connected_time":275000000000,"state":"active","ping":88},{"user_id":613,"name":"Communist Killing Candy Cactus\ufffd","steam_id":76561198074980635,"connected_time":1484000000000,"state":"active","ping":94},{"user_id":611,"name":"Fostrel","steam_id":76561198152160601,"connected_time":1740000000000,"state":"active","ping":105},{"user_id":625,"name":"facedatfatchat","steam_id":76561198335285125,"connected_time":218000000000,"state":"active","ping":57},{"user_id":622,"name":"rat gets the cheese","steam_id":76561198031234032,"connected_time":282000000000,"state":"active","ping":95},{"user_id":503,"name":"Luca","steam_id":76561198125087140,"connected_time":9526000000000,"state":"active","ping":46},{"user_id":624,"name":"Gnomelon","steam_id":76561198967761067,"connected_time":253000000000,"state":"active","ping":84},{"user_id":590,"name":"Cam(era)","steam_id":76561198285054047,"connected_time":2958000000000,"state":"active","ping":76},{"user_id":612,"name":"Platinum","steam_id":76561198052463484,"connected_time":1705000000000,"state":"active","ping":55},{"user_id":603,"name":"cofferhead","steam_id":76561199191108449,"connected_time":2171000000000,"state":"active","ping":85},{"user_id":579,"name":"Ghee Buttersnaps","steam_id":76561199225708271,"connected_time":4763000000000,"state":"active","ping":63},{"user_id":618,"name":"Crake","steam_id":76561198001959071,"connected_time":581000000000,"state":"active","ping":56},{"user_id":609,"name":"Bread","steam_id":76561198320293423,"connected_time":2006000000000,"state":"active","ping":46},{"user_id":620,"name":"Ediot","steam_id":76561199349494096,"connected_time":521000000000,"state":"active","ping":129},{"user_id":589,"name":"Mico (Goblin Mode)","steam_id":76561198125462953,"connected_time":3406000000000,"state":"active","ping":47},{"user_id":598,"name":"TheOtherBrush","steam_id":76561199048222977,"connected_time":2384000000000,"state":"active","ping":86},{"user_id":621,"name":"λ","steam_id":76561198120426683,"connected_time":479000000000,"state":"active","ping":68}]},{"server_id":119,"name":"Uncletopia | Seattle | 2 | All Maps","name_short":"sea-2","host":"sea-1.us.uncletopia.com","port":27025,"enabled":true,"region":"us-west","cc":"us","latitude":47.608013,"longitude":-122.33517,"reserved":0,"last_update":"0001-01-01T00:00:00Z","name_a2s":"Uncletopia | Seattle | 2 | All Maps","protocol":17,"map":"pl_borneo","folder":"tf","game":"Team Fortress","app_id":440,"player_count":24,"max_players":24,"Bots":0,"server_type":"Dedicated","server_os":"Linux","password":true,"vac":true,"version":"7757534","steam_id":85568392924469998,"keywords":["nocrits","nodmgspread","payload","uncletopia"],"game_id":440,"stv_port":27026,"stv_name":"Uncletopia | Seattle | 2 | All Maps | STV","players":[{"user_id":677,"name":"PoshVagrant","steam_id":76561198110042040,"connected_time":1634000000000,"state":"active","ping":58},{"user_id":689,"name":"Cloud","steam_id":76561198272454184,"connected_time":524000000000,"state":"active","ping":171},{"user_id":694,"name":"Put Dispenser Here","steam_id":76561198334676366,"connected_time":332000000000,"state":"active","ping":93},{"user_id":676,"name":"Hint of Sausage","steam_id":76561198098879664,"connected_time":1664000000000,"state":"active","ping":51},{"user_id":680,"name":"Joseph Stalin","steam_id":76561198126234142,"connected_time":1597000000000,"state":"active","ping":72},{"user_id":634,"name":"weegeebad","steam_id":76561198280841437,"connected_time":3789000000000,"state":"active","ping":110},{"user_id":671,"name":"Laggy Payday 2 player","steam_id":76561199082906857,"connected_time":2427000000000,"state":"active","ping":83},{"user_id":633,"name":"bash -lc ./asshat.sh","steam_id":76561198004584315,"connected_time":3820000000000,"state":"active","ping":91},{"user_id":682,"name":"Badman","steam_id":76561198169881839,"connected_time":1480000000000,"state":"active","ping":57},{"user_id":683,"name":"es","steam_id":76561198006892337,"connected_time":1474000000000,"state":"active","ping":81},{"user_id":658,"name":"Butters495","steam_id":76561197998689042,"connected_time":2832000000000,"state":"active","ping":89},{"user_id":687,"name":"Pathara44","steam_id":76561198048238620,"connected_time":1232000000000,"state":"active","ping":101},{"user_id":645,"name":"Ślimak","steam_id":76561198296476784,"connected_time":3556000000000,"state":"active","ping":152},{"user_id":693,"name":"Tinaho","steam_id":76561198815585874,"connected_time":434000000000,"state":"active","ping":42},{"user_id":685,"name":"Sunny","steam_id":76561198261667312,"connected_time":1300000000000,"state":"active","ping":89},{"user_id":691,"name":"Me no like names","steam_id":76561199147280024,"connected_time":503000000000,"state":"active","ping":88},{"user_id":678,"name":"Arthropod Enjoyer","steam_id":76561198980062131,"connected_time":1626000000000,"state":"active","ping":121},{"user_id":684,"name":"Lord Of R","steam_id":76561198436746906,"connected_time":1370000000000,"state":"active","ping":114},{"user_id":673,"name":"Gaming","steam_id":76561198327632113,"connected_time":2120000000000,"state":"active","ping":59},{"user_id":686,"name":"uskthedwarf","steam_id":76561199076096095,"connected_time":1295000000000,"state":"active","ping":116},{"user_id":692,"name":"Pneumo.","steam_id":76561197987911883,"connected_time":499000000000,"state":"active","ping":65},{"user_id":668,"name":"American freedom bird","steam_id":76561198366142388,"connected_time":2508000000000,"state":"active","ping":91},{"user_id":619,"name":"GregGaming098","steam_id":76561198882415360,"connected_time":5236000000000,"state":"active","ping":67},{"user_id":659,"name":"Algibruh","steam_id":76561199221599415,"connected_time":2832000000000,"state":"active","ping":46}]},{"server_id":406,"name":"Uncletopia | Seattle | 3 | Stopwatch Beta","name_short":"sea-3","host":"sea-1.us.uncletopia.com","port":27035,"enabled":true,"region":"us-west","cc":"us","latitude":47.608013,"longitude":-122.33517,"reserved":0,"last_update":"0001-01-01T00:00:00Z","name_a2s":"Uncletopia | Seattle | 3 | Stopwatch Beta","protocol":17,"map":"workshop/pl_barnblitz_pro7.ugc582280235","folder":"tf","game":"Team Fortress","app_id":440,"player_count":0,"max_players":24,"Bots":0,"server_type":"Dedicated","server_os":"Linux","password":true,"vac":true,"version":"7757534","steam_id":85568392924515217,"keywords":["nocrits","nodmgspread","payload","uncletopia"],"game_id":440,"stv_port":27036,"stv_name":"Uncletopia | Seattle | 3 | Stopwatch Beta | STV","players":null},{"server_id":17,"name":"Uncletopia | San Francisco | 1 | All Maps","name_short":"sfo-1","host":"sfo-1.us.uncletopia.com","port":27015,"enabled":true,"region":"us-west","cc":"us","latitude":37.77397,"longitude":-122.4313,"reserved":0,"last_update":"0001-01-01T00:00:00Z","name_a2s":"Uncletopia | San Francisco | 1 | All Maps","protocol":17,"map":"koth_viaduct","folder":"tf","game":"Team Fortress","app_id":440,"player_count":20,"max_players":24,"Bots":0,"server_type":"Dedicated","server_os":"Linux","password":true,"vac":true,"version":"7757534","steam_id":85568392924469999,"keywords":["cp","nocrits","nodmgspread","uncletopia"],"game_id":440,"stv_port":27016,"stv_name":"Uncletopia | San Francisco | 1 | All Maps | STV","players":[{"user_id":235,"name":"Dingas","steam_id":76561198040422803,"connected_time":2052000000000,"state":"active","ping":65},{"user_id":251,"name":"SolarIceHare","steam_id":76561198089294178,"connected_time":1713000000000,"state":"active","ping":132},{"user_id":268,"name":"maurice","steam_id":76561198113120438,"connected_time":418000000000,"state":"active","ping":112},{"user_id":259,"name":"ROGUE-PLANET","steam_id":76561198116023052,"connected_time":785000000000,"state":"active","ping":75},{"user_id":171,"name":"assassincrazy18","steam_id":76561199465661561,"connected_time":6570000000000,"state":"active","ping":83},{"user_id":232,"name":"Whapper","steam_id":76561198044029606,"connected_time":2135000000000,"state":"active","ping":55},{"user_id":271,"name":"postgres","steam_id":76561198011204750,"connected_time":85000000000,"state":"active","ping":88},{"user_id":233,"name":"unnamed56565","steam_id":76561199082953233,"connected_time":2120000000000,"state":"active","ping":60},{"user_id":253,"name":"Knock on the sky and listen","steam_id":76561198077597130,"connected_time":1553000000000,"state":"active","ping":53},{"user_id":263,"name":"hersheybargame","steam_id":76561199162003623,"connected_time":645000000000,"state":"active","ping":50},{"user_id":266,"name":"Bad Medic Buddy","steam_id":76561198093222632,"connected_time":459000000000,"state":"active","ping":119},{"user_id":243,"name":"Resh420","steam_id":76561198066619792,"connected_time":1842000000000,"state":"active","ping":78},{"user_id":245,"name":"StarWither","steam_id":76561198383264295,"connected_time":1795000000000,"state":"active","ping":68},{"user_id":255,"name":"Finder","steam_id":76561198964948886,"connected_time":1180000000000,"state":"active","ping":71},{"user_id":269,"name":"bruh","steam_id":76561198057530239,"connected_time":401000000000,"state":"active","ping":101},{"user_id":257,"name":"RichardIcecube","steam_id":76561198069728290,"connected_time":904000000000,"state":"active","ping":108},{"user_id":252,"name":"garry","steam_id":76561199091007559,"connected_time":1690000000000,"state":"active","ping":74},{"user_id":256,"name":"SirBagettue","steam_id":76561199010270588,"connected_time":1160000000000,"state":"active","ping":55},{"user_id":226,"name":"Breadfan","steam_id":76561197993176053,"connected_time":2593000000000,"state":"active","ping":105}]},{"server_id":18,"name":"Uncletopia | San Francisco | 2 | All Maps","name_short":"sfo-2","host":"sfo-1.us.uncletopia.com","port":27025,"enabled":true,"region":"us-west","cc":"us","latitude":37.77397,"longitude":-122.4313,"reserved":0,"last_update":"0001-01-01T00:00:00Z","name_a2s":"Uncletopia | San Francisco | 2 | All Maps","protocol":17,"map":"pl_borneo","folder":"tf","game":"Team Fortress","app_id":440,"player_count":19,"max_players":24,"Bots":0,"server_type":"Dedicated","server_os":"Linux","password":true,"vac":true,"version":"7757534","steam_id":85568392924470000,"keywords":["nocrits","nodmgspread","payload","uncletopia"],"game_id":440,"stv_port":27026,"stv_name":"Uncletopia | San Francisco | 2 | All Maps | STV","players":[{"user_id":80,"name":"[Bandit]","steam_id":76561197986919852,"connected_time":1492000000000,"state":"active","ping":61},{"user_id":85,"name":"funky town","steam_id":76561198068105712,"connected_time":348000000000,"state":"active","ping":72},{"user_id":69,"name":"spacetoven","steam_id":76561198115821131,"connected_time":2313000000000,"state":"active","ping":45},{"user_id":87,"name":"skiky","steam_id":76561198797004708,"connected_time":81000000000,"state":"active","ping":75},{"user_id":82,"name":"Norbus","steam_id":76561198027865299,"connected_time":654000000000,"state":"active","ping":72},{"user_id":86,"name":"Dr. Strain","steam_id":76561198078476091,"connected_time":90000000000,"state":"active","ping":117},{"user_id":50,"name":"79305","steam_id":76561198031153452,"connected_time":4052000000000,"state":"active","ping":77},{"user_id":78,"name":"ManRat","steam_id":76561198056737951,"connected_time":1652000000000,"state":"active","ping":71},{"user_id":48,"name":"Nova Academy of Salmon Action","steam_id":76561198021842526,"connected_time":4058000000000,"state":"active","ping":65},{"user_id":76,"name":"tyler","steam_id":76561198054260599,"connected_time":1787000000000,"state":"active","ping":173},{"user_id":47,"name":"ಠ_ಠ","steam_id":76561198081836417,"connected_time":4205000000000,"state":"active","ping":72},{"user_id":88,"name":"L + Maidenless + Tarnished","steam_id":76561198978605490,"connected_time":5000000000,"state":"spawning","ping":104},{"user_id":67,"name":"Horse","steam_id":76561199112075552,"connected_time":2718000000000,"state":"active","ping":109},{"user_id":71,"name":"rmbl","steam_id":76561198150137369,"connected_time":2145000000000,"state":"active","ping":48},{"user_id":81,"name":"Mr. Tickle","steam_id":76561198126684647,"connected_time":1386000000000,"state":"active","ping":105},{"user_id":49,"name":"nurseShark","steam_id":76561198050225459,"connected_time":4057000000000,"state":"active","ping":112},{"user_id":65,"name":"Toastedtoast222","steam_id":76561198120756409,"connected_time":3041000000000,"state":"active","ping":73},{"user_id":37,"name":"The Lelda of Zelda","steam_id":76561199120483390,"connected_time":5760000000000,"state":"active","ping":106},{"user_id":66,"name":"Agent Q","steam_id":76561198830829003,"connected_time":3036000000000,"state":"active","ping":77}]},{"server_id":19,"name":"Uncletopia | San Francisco | 3 | Stopwatch Beta","name_short":"sfo-3","host":"sfo-1.us.uncletopia.com","port":27035,"enabled":true,"region":"us-west","cc":"us","latitude":37.77397,"longitude":-122.4313,"reserved":0,"last_update":"0001-01-01T00:00:00Z","name_a2s":"Uncletopia | San Francisco | 3 | Stopwatch Beta","protocol":17,"map":"pl_borneo","folder":"tf","game":"Team Fortress","app_id":440,"player_count":0,"max_players":24,"Bots":0,"server_type":"Dedicated","server_os":"Linux","password":true,"vac":true,"version":"7757534","steam_id":85568392924742824,"keywords":["nocrits","nodmgspread","payload","uncletopia"],"game_id":440,"stv_port":27036,"stv_name":"Uncletopia | San Francisco | 3 | Stopwatch Beta | STV","players":null},{"server_id":20,"name":"Uncletopia | San Francisco | 4 | Community","name_short":"sfo-4","host":"sfo-1.us.uncletopia.com","port":27045,"enabled":true,"region":"us-west","cc":"us","latitude":37.77397,"longitude":-122.4313,"reserved":0,"last_update":"0001-01-01T00:00:00Z","name_a2s":"Uncletopia | San Francisco | 4 | Community","protocol":17,"map":"koth_highpass","folder":"tf","game":"Team Fortress","app_id":440,"player_count":1,"max_players":24,"Bots":0,"server_type":"Dedicated","server_os":"Linux","password":true,"vac":true,"version":"7757534","steam_id":85568392924742826,"keywords":["cp","nocrits","nodmgspread","uncletopia"],"game_id":440,"stv_port":27046,"stv_name":"Uncletopia | San Francisco | 4 | Community | STV","players":[{"user_id":8,"name":"The Cube","steam_id":76561199382565628,"connected_time":895000000000,"state":"active","ping":59}]},{"server_id":141,"name":"Uncletopia | Sydney | 1 | All Maps","name_short":"syd-1","host":"syd-1.au.uncletopia.com","port":27015,"enabled":true,"region":"au","cc":"au","latitude":-33.865143,"longitude":151.2099,"reserved":0,"last_update":"0001-01-01T00:00:00Z","name_a2s":"Uncletopia | Sydney | 1 | All Maps","protocol":17,"map":"pl_frontier_final","folder":"tf","game":"Team Fortress","app_id":440,"player_count":23,"max_players":24,"Bots":0,"server_type":"Dedicated","server_os":"Linux","password":true,"vac":true,"version":"7757534","steam_id":85568392924470001,"keywords":["nocrits","nodmgspread","payload","uncletopia"],"game_id":440,"stv_port":27016,"stv_name":"Uncletopia | Sydney | 1 | All Maps | STV","players":[{"user_id":155,"name":"Van","steam_id":76561198027324852,"connected_time":231000000000,"state":"active","ping":71},{"user_id":120,"name":"Muffin™","steam_id":76561198819353439,"connected_time":3907000000000,"state":"active","ping":47},{"user_id":112,"name":"Bamooxa","steam_id":76561198067160709,"connected_time":4787000000000,"state":"active","ping":89},{"user_id":147,"name":"lemonlmao69","steam_id":76561199016539523,"connected_time":1710000000000,"state":"active","ping":135},{"user_id":125,"name":"SinisterMagnus","steam_id":76561198133867907,"connected_time":3773000000000,"state":"active","ping":68},{"user_id":150,"name":"bleacj","steam_id":76561198854614195,"connected_time":1340000000000,"state":"active","ping":81},{"user_id":153,"name":"thyaza69","steam_id":76561198931355721,"connected_time":586000000000,"state":"active","ping":79},{"user_id":146,"name":"Crumpet","steam_id":76561199096381193,"connected_time":1912000000000,"state":"active","ping":58},{"user_id":145,"name":"Lain","steam_id":76561198149217307,"connected_time":1939000000000,"state":"active","ping":90},{"user_id":151,"name":"Blazey 伊達 政宗","steam_id":76561197971082275,"connected_time":1100000000000,"state":"active","ping":119},{"user_id":102,"name":"there's something in your eyes","steam_id":76561198132937542,"connected_time":5968000000000,"state":"active","ping":56},{"user_id":157,"name":"Fresh Produce Gaming","steam_id":76561198358483352,"connected_time":134000000000,"state":"active","ping":62},{"user_id":152,"name":"probablecause","steam_id":76561198836003115,"connected_time":861000000000,"state":"active","ping":61},{"user_id":144,"name":"Oysenberry","steam_id":76561198125443335,"connected_time":1942000000000,"state":"active","ping":45},{"user_id":154,"name":"Jett","steam_id":76561198969434128,"connected_time":336000000000,"state":"active","ping":77},{"user_id":160,"name":"Zeron","steam_id":76561198125778202,"connected_time":21000000000,"state":"active","ping":53},{"user_id":121,"name":"blortzoing","steam_id":76561198063481761,"connected_time":3895000000000,"state":"active","ping":45},{"user_id":135,"name":"banned for card counting","steam_id":76561198150293480,"connected_time":2953000000000,"state":"active","ping":74},{"user_id":126,"name":"Livid","steam_id":76561198060024585,"connected_time":3760000000000,"state":"active","ping":34},{"user_id":107,"name":"FyreFeat","steam_id":76561198068428930,"connected_time":5313000000000,"state":"active","ping":53},{"user_id":141,"name":"Jazza Boi","steam_id":76561198196764109,"connected_time":2154000000000,"state":"active","ping":89},{"user_id":114,"name":"Batering","steam_id":76561198039849442,"connected_time":4481000000000,"state":"active","ping":51},{"user_id":149,"name":"Pat","steam_id":76561198244663182,"connected_time":1413000000000,"state":"active","ping":55}]},{"server_id":123,"name":"Uncletopia | Sydney | 2 | All Maps","name_short":"syd-2","host":"syd-1.au.uncletopia.com","port":27025,"enabled":true,"region":"au","cc":"au","latitude":-33.865143,"longitude":151.2099,"reserved":0,"last_update":"0001-01-01T00:00:00Z","name_a2s":"Uncletopia | Sydney | 2 | All Maps","protocol":17,"map":"cp_process_final","folder":"tf","game":"Team Fortress","app_id":440,"player_count":7,"max_players":24,"Bots":0,"server_type":"Dedicated","server_os":"Linux","password":true,"vac":true,"version":"7757534","steam_id":85568392924470002,"keywords":["cp","nocrits","nodmgspread","uncletopia"],"game_id":440,"stv_port":27026,"stv_name":"Uncletopia | Sydney | 2 | All Maps | STV","players":[{"user_id":12,"name":"Donfen","steam_id":76561199076889222,"connected_time":3633000000000,"state":"active","ping":57},{"user_id":13,"name":"RagedPlague","steam_id":76561198208507111,"connected_time":3603000000000,"state":"active","ping":48},{"user_id":18,"name":"frostproto","steam_id":76561198911697195,"connected_time":849000000000,"state":"active","ping":99},{"user_id":19,"name":"moontyinspace","steam_id":76561199284444492,"connected_time":835000000000,"state":"active","ping":114},{"user_id":21,"name":"Manic","steam_id":76561198429106085,"connected_time":645000000000,"state":"active","ping":57},{"user_id":22,"name":"DIY Miracle","steam_id":76561198046228152,"connected_time":535000000000,"state":"active","ping":57},{"user_id":24,"name":"briggobaggins","steam_id":76561199260286406,"connected_time":296000000000,"state":"active","ping":96}]},{"server_id":395,"name":"Uncletopia | Sydney | 3 | All Maps","name_short":"syd-3","host":"syd-1.au.uncletopia.com","port":27035,"enabled":true,"region":"au","cc":"au","latitude":-33.865143,"longitude":151.2099,"reserved":0,"last_update":"0001-01-01T00:00:00Z","name_a2s":"Uncletopia | Sydney | 3 | All Maps","protocol":17,"map":"koth_lakeside_final","folder":"tf","game":"Team Fortress","app_id":440,"player_count":3,"max_players":24,"Bots":0,"server_type":"Dedicated","server_os":"Linux","password":true,"vac":true,"version":"7757534","steam_id":85568392925194467,"keywords":["cp","nocrits","nodmgspread","uncletopia"],"game_id":440,"stv_port":27036,"stv_name":"Uncletopia | Sydney | 3 | All Maps | STV","players":[{"user_id":9,"name":"TheTophatterOfTophats","steam_id":76561199142504761,"connected_time":1468000000000,"state":"active","ping":40},{"user_id":10,"name":"ConcreteChad","steam_id":76561199221677511,"connected_time":1428000000000,"state":"active","ping":50},{"user_id":12,"name":"maximind123","steam_id":76561199237473824,"connected_time":867000000000,"state":"active","ping":52}]},{"server_id":396,"name":"Uncletopia | Sydney | 4 | All Maps","name_short":"syd-4","host":"syd-1.au.uncletopia.com","port":27045,"enabled":true,"region":"au","cc":"au","latitude":-33.865143,"longitude":151.2099,"reserved":0,"last_update":"0001-01-01T00:00:00Z","name_a2s":"Uncletopia | Sydney | 4 | All Maps","protocol":17,"map":"cp_process_final","folder":"tf","game":"Team Fortress","app_id":440,"player_count":15,"max_players":24,"Bots":0,"server_type":"Dedicated","server_os":"Linux","password":true,"vac":true,"version":"7757534","steam_id":85568392925397958,"keywords":["cp","nocrits","nodmgspread","uncletopia"],"game_id":440,"stv_port":27046,"stv_name":"Uncletopia | Sydney | 4 | All Maps | STV","players":[{"user_id":4,"name":"mixyad3","steam_id":76561198046461767,"connected_time":4167000000000,"state":"active","ping":59},{"user_id":5,"name":"[RR] Gazza","steam_id":76561198195761449,"connected_time":3970000000000,"state":"active","ping":62},{"user_id":6,"name":"RR bobo","steam_id":76561198156622144,"connected_time":3810000000000,"state":"active","ping":53},{"user_id":25,"name":"the rot doesn't consume","steam_id":76561198866538028,"connected_time":1024000000000,"state":"active","ping":85},{"user_id":9,"name":"ziah","steam_id":76561198159375596,"connected_time":3168000000000,"state":"active","ping":57},{"user_id":10,"name":"RR Nah (f2p)","steam_id":76561198869190432,"connected_time":3130000000000,"state":"active","ping":56},{"user_id":15,"name":"SUSHIMAN","steam_id":76561199089989428,"connected_time":1907000000000,"state":"active","ping":91},{"user_id":30,"name":"drw","steam_id":76561198163369325,"connected_time":291000000000,"state":"active","ping":46},{"user_id":27,"name":"dubba (•̀_•́ )","steam_id":76561199428471192,"connected_time":790000000000,"state":"active","ping":280},{"user_id":28,"name":"Paris","steam_id":76561198356846967,"connected_time":496000000000,"state":"active","ping":39},{"user_id":19,"name":"RR Høse_","steam_id":76561198987926475,"connected_time":1340000000000,"state":"active","ping":74},{"user_id":24,"name":"rudra","steam_id":76561198067731912,"connected_time":1188000000000,"state":"active","ping":60},{"user_id":29,"name":"Unsatisfied OnlyFans Enjoyer","steam_id":76561199182706393,"connected_time":408000000000,"state":"active","ping":97},{"user_id":31,"name":"Stumble St.","steam_id":76561198038548013,"connected_time":171000000000,"state":"active","ping":40},{"user_id":32,"name":"shucks","steam_id":76561198260357417,"connected_time":21000000000,"state":"active","ping":121}]},{"server_id":58,"name":"Uncletopia | Sydney | 5 | Stopwatch Beta","name_short":"syd-5","host":"syd-1.au.uncletopia.com","port":27055,"enabled":true,"region":"au","cc":"au","latitude":-33.865143,"longitude":151.2099,"reserved":0,"last_update":"0001-01-01T00:00:00Z","name_a2s":"Uncletopia | Sydney | 5 | Stopwatch Beta","protocol":17,"map":"koth_highpass","folder":"tf","game":"Team Fortress","app_id":440,"player_count":0,"max_players":24,"Bots":0,"server_type":"Dedicated","server_os":"Linux","password":true,"vac":true,"version":"7757534","steam_id":85568392925397959,"keywords":["cp","nocrits","nodmgspread","uncletopia"],"game_id":440,"stv_port":27056,"stv_name":"Uncletopia | Sydney | 5 | Stopwatch Beta | STV","players":null},{"server_id":59,"name":"Uncletopia | Sydney | 6 | Community","name_short":"syd-6","host":"syd-1.au.uncletopia.com","port":27065,"enabled":true,"region":"au","cc":"au","latitude":-33.865143,"longitude":151.2099,"reserved":0,"last_update":"0001-01-01T00:00:00Z","name_a2s":"Uncletopia | Sydney | 6 | Community","protocol":17,"map":"workshop/koth_synthetic_rc6a.ugc1549817316","folder":"tf","game":"Team Fortress","app_id":440,"player_count":0,"max_players":24,"Bots":0,"server_type":"Dedicated","server_os":"Linux","password":true,"vac":true,"version":"7757534","steam_id":85568392925397960,"keywords":["cp","nocrits","nodmgspread","uncletopia"],"game_id":440,"stv_port":27066,"stv_name":"Uncletopia | Sydney | 6 | Community | STV","players":null},{"server_id":49,"name":"Uncletopia | Warsaw | 1 | All Maps","name_short":"waw-1","host":"waw-1.pl.uncletopia.com","port":27015,"enabled":true,"region":"eu","cc":"pl","latitude":52.2297,"longitude":21.017532,"reserved":0,"last_update":"0001-01-01T00:00:00Z","name_a2s":"","protocol":0,"map":"","folder":"","game":"","app_id":0,"player_count":0,"max_players":0,"Bots":0,"server_type":"","server_os":"","password":false,"vac":false,"version":"","steam_id":0,"keywords":null,"game_id":0,"stv_port":0,"stv_name":"","players":null},{"server_id":50,"name":"Uncletopia | Warsaw | 2 | All Maps","name_short":"waw-2","host":"waw-1.pl.uncletopia.com","port":27025,"enabled":true,"region":"eu","cc":"pl","latitude":52.2297,"longitude":21.017532,"reserved":0,"last_update":"0001-01-01T00:00:00Z","name_a2s":"Uncletopia | Warsaw | 2 | All Maps","protocol":17,"map":"koth_lakeside_final","folder":"tf","game":"Team Fortress","app_id":440,"player_count":0,"max_players":24,"Bots":0,"server_type":"Dedicated","server_os":"Linux","password":true,"vac":true,"version":"7757534","steam_id":85568392925397851,"keywords":["cp","nocrits","nodmgspread","uncletopia"],"game_id":440,"stv_port":27026,"stv_name":"Uncletopia | Warsaw | 2 | All Maps | STV","players":null},{"server_id":51,"name":"Uncletopia | Warsaw | 3 | All Maps","name_short":"waw-3","host":"waw-1.pl.uncletopia.com","port":27035,"enabled":true,"region":"eu","cc":"pl","latitude":52.2297,"longitude":21.017532,"reserved":0,"last_update":"0001-01-01T00:00:00Z","name_a2s":"Uncletopia | Warsaw | 3 | All Maps","protocol":17,"map":"koth_cascade","folder":"tf","game":"Team Fortress","app_id":440,"player_count":0,"max_players":24,"Bots":0,"server_type":"Dedicated","server_os":"Linux","password":true,"vac":true,"version":"7757534","steam_id":85568392925397852,"keywords":["cp","nocrits","nodmgspread","uncletopia"],"game_id":440,"stv_port":27036,"stv_name":"Uncletopia | Warsaw | 3 | All Maps | STV","players":null},{"server_id":52,"name":"Uncletopia | Warsaw | 4 | All Maps","name_short":"waw-4","host":"waw-1.pl.uncletopia.com","port":27045,"enabled":true,"region":"eu","cc":"pl","latitude":52.2297,"longitude":21.017532,"reserved":0,"last_update":"0001-01-01T00:00:00Z","name_a2s":"Uncletopia | Warsaw | 4 | All Maps","protocol":17,"map":"pl_borneo","folder":"tf","game":"Team Fortress","app_id":440,"player_count":0,"max_players":24,"Bots":0,"server_type":"Dedicated","server_os":"Linux","password":true,"vac":true,"version":"7757534","steam_id":85568392925397853,"keywords":["nocrits","nodmgspread","payload","uncletopia"],"game_id":440,"stv_port":27046,"stv_name":"Uncletopia | Warsaw | 4 | All Maps | STV","players":null},{"server_id":53,"name":"Uncletopia | Warsaw | 5 | Stopwatch Beta","name_short":"waw-5","host":"waw-1.pl.uncletopia.com","port":27055,"enabled":true,"region":"eu","cc":"pl","latitude":52.2297,"longitude":21.017532,"reserved":0,"last_update":"0001-01-01T00:00:00Z","name_a2s":"Uncletopia | Warsaw | 5 | Stopwatch Beta","protocol":17,"map":"pl_barnblitz","folder":"tf","game":"Team Fortress","app_id":440,"player_count":0,"max_players":24,"Bots":0,"server_type":"Dedicated","server_os":"Linux","password":true,"vac":true,"version":"7757534","steam_id":85568392925397854,"keywords":["nocrits","nodmgspread","payload","uncletopia"],"game_id":440,"stv_port":27056,"stv_name":"Uncletopia | Warsaw | 5 | Stopwatch Beta | STV","players":null},{"server_id":54,"name":"Uncletopia | Warsaw | 6 | Community","name_short":"waw-6","host":"waw-1.pl.uncletopia.com","port":27065,"enabled":true,"region":"eu","cc":"pl","latitude":52.2297,"longitude":21.017532,"reserved":0,"last_update":"0001-01-01T00:00:00Z","name_a2s":"Uncletopia | Warsaw | 6 | Community","protocol":17,"map":"workshop/koth_trenchfoot_b1a.ugc731436616","folder":"tf","game":"Team Fortress","app_id":440,"player_count":0,"max_players":24,"Bots":0,"server_type":"Dedicated","server_os":"Linux","password":true,"vac":true,"version":"7757534","steam_id":85568392925397856,"keywords":["cp","nocrits","nodmgspread","uncletopia"],"game_id":440,"stv_port":27066,"stv_name":"Uncletopia | Warsaw | 6 | Community | STV","players":null}]}