{"status":true,"message":"","result":[{"server_id":9,"name":"Uncletopia | Atlanta | 1 | All Maps","name_short":"atl-1","host":"atl-1.us.uncletopia.com","port":27015,"enabled":true,"region":"us-east","cc":"us","latitude":33.753746,"longitude":-84.38633,"reserved":0,"last_update":"0001-01-01T00:00:00Z","name_a2s":"Uncletopia | Atlanta | 1 | All Maps","protocol":17,"map":"pl_thundermountain","folder":"tf","game":"Team Fortress","app_id":440,"player_count":25,"max_players":24,"Bots":0,"server_type":"Dedicated","server_os":"Linux","password":true,"vac":true,"version":"7961495","steam_id":85568392924469982,"keywords":["nocrits","nodmgspread","payload","uncletopia"],"game_id":440,"stv_port":27016,"stv_name":"Uncletopia | Atlanta | 1 | All Maps | STV","players":[{"user_id":328,"name":"theannoyingorang213","steam_id":76561198079416036,"connected_time":180000000000,"state":"active","ping":63},{"user_id":218,"name":"‚ô¶‚ô£Quadric‚ô•‚ô†","steam_id":76561198061003853,"connected_time":4293000000000,"state":"active","ping":72},{"user_id":330,"name":"Albino Jellyfish","steam_id":76561198208561097,"connected_time":150000000000,"state":"active","ping":53},{"user_id":215,"name":"GameboyAdvancedSPMobileHotspot","steam_id":76561198413739460,"connected_time":4310000000000,"state":"active","ping":114},{"user_id":292,"name":"a b o m","steam_id":76561198167974713,"connected_time":922000000000,"state":"active","ping":59},{"user_id":319,"name":"krabby","steam_id":76561199072773402,"connected_time":374000000000,"state":"active","ping":61},{"user_id":233,"name":"Grim","steam_id":76561198225241776,"connected_time":2258000000000,"state":"active","ping":72},{"user_id":177,"name":"_Nyar__","steam_id":76561198048511146,"connected_time":7317000000000,"state":"active","ping":75},{"user_id":331,"name":"Bitter","steam_id":76561198146532457,"connected_time":143000000000,"state":"active","ping":99},{"user_id":228,"name":"HarryjusttHarry","steam_id":76561198982810452,"connected_time":2551000000000,"state":"active","ping":81},{"user_id":332,"name":"El G√ºey","steam_id":76561197970450546,"connected_time":135000000000,"state":"active","ping":106},{"user_id":298,"name":"Rulers Reach fan","steam_id":76561198367340750,"connected_time":842000000000,"state":"active","ping":59},{"user_id":333,"name":"whycameback","steam_id":76561198222556872,"connected_time":127000000000,"state":"active","ping":86},{"user_id":326,"name":"Tim Fortress (Mr. Fortress)","steam_id":76561199404116447,"connected_time":190000000000,"state":"active","ping":81},{"user_id":321,"name":"IanFishooks","steam_id":76561199403427527,"connected_time":308000000000,"state":"active","ping":80},{"user_id":334,"name":"BOO BOO KEYS","steam_id":76561198085815757,"connected_time":103000000000,"state":"active","ping":76},{"user_id":230,"name":"blob","steam_id":76561198122375328,"connected_time":2328000000000,"state":"active","ping":46},{"user_id":289,"name":"Waffle Wannabe","steam_id":76561198064510650,"connected_time":971000000000,"state":"active","ping":71},{"user_id":236,"name":"lil hog","steam_id":76561199230929836,"connected_time":2105000000000,"state":"active","ping":85},{"user_id":231,"name":"Icaras","steam_id":76561198416724843,"connected_time":2324000000000,"state":"active","ping":132},{"user_id":201,"name":"BLOW UP NEW JERSEY","steam_id":76561198364439575,"connected_time":5343000000000,"state":"active","ping":65},{"user_id":327,"name":"WMario","steam_id":76561198017061554,"connected_time":189000000000,"state":"active","ping":61},{"user_id":335,"name":"Jman","steam_id":76561198376488914,"connected_time":95000000000,"state":"active","ping":47},{"user_id":339,"name":"SyntheticCereal","steam_id":76561198208048093,"connected_time":12000000000,"state":"spawning","ping":104},{"user_id":282,"name":"loser","steam_id":76561198259380127,"connected_time":1091000000000,"state":"active","ping":75}]},{"server_id":104,"name":"Uncletopia | Atlanta | 2 | All Maps","name_short":"atl-2","host":"atl-1.us.uncletopia.com","port":27025,"enabled":true,"region":"us-east","cc":"us","latitude":33.753746,"longitude":-84.38633,"reserved":0,"last_update":"0001-01-01T00:00:00Z","name_a2s":"Uncletopia | Atlanta | 2 | All Maps","protocol":17,"map":"pl_borneo","folder":"tf","game":"Team Fortress","app_id":440,"player_count":24,"max_players":24,"Bots":0,"server_type":"Dedicated","server_os":"Linux","password":true,"vac":true,"version":"7961495","steam_id":85568392924469983,"keywords":["nocrits","nodmgspread","payload","uncletopia"],"game_id":440,"stv_port":27026,"stv_name":"Uncletopia | Atlanta | 2 | All Maps | STV","players":[{"user_id":10,"name":"The Dead Weight","steam_id":76561198056694098,"connected_time":11623000000000,"state":"active","ping":50},{"user_id":129,"name":"1-800-GHOST-DANCE","steam_id":76561198835430429,"connected_time":1139000000000,"state":"active","ping":83},{"user_id":128,"name":"Naffty","steam_id":76561198119734981,"connected_time":1423000000000,"state":"active","ping":70},{"user_id":112,"name":"RetroEmerald","steam_id":76561198170063227,"connected_time":2210000000000,"state":"active","ping":57},{"user_id":113,"name":"Eins Shinigami","steam_id":76561199030343810,"connected_time":2170000000000,"state":"active","ping":38},{"user_id":101,"name":"James","steam_id":76561198081313916,"connected_time":3908000000000,"state":"active","ping":50},{"user_id":102,"name":"Dr Oshawott","steam_id":76561198042021629,"connected_time":3884000000000,"state":"active","ping":89},{"user_id":131,"name":"RedBaron","steam_id":76561198972426107,"connected_time":1059000000000,"state":"active","ping":59},{"user_id":80,"name":"cbv sdfghdethrsegvew","steam_id":76561198304661367,"connected_time":5343000000000,"state":"active","ping":55},{"user_id":142,"name":"Dr,Dan64","steam_id":76561199013363718,"connected_time":422000000000,"state":"active","ping":81},{"user_id":114,"name":"Cosmic Torgue","steam_id":76561198828724945,"connected_time":2169000000000,"state":"active","ping":96},{"user_id":95,"name":"human sentry buster","steam_id":76561199055691113,"connected_time":4136000000000,"state":"active","ping":86},{"user_id":141,"name":"metalfan666","steam_id":76561198386344068,"connected_time":460000000000,"state":"active","ping":74},{"user_id":132,"name":"Thug shaker","steam_id":76561198840484105,"connected_time":1058000000000,"state":"active","ping":56},{"user_id":130,"name":"dipp","steam_id":76561198395577807,"connected_time":1106000000000,"state":"active","ping":73},{"user_id":133,"name":"Boykisser","steam_id":76561199382783363,"connected_time":1054000000000,"state":"active","ping":89},{"user_id":144,"name":"xen","steam_id":76561198145959964,"connected_time":272000000000,"state":"active","ping":53},{"user_id":139,"name":"Holy Cow","steam_id":76561198203422988,"connected_time":590000000000,"state":"active","ping":186},{"user_id":97,"name":"Dosux2","steam_id":76561198390916062,"connected_time":4087000000000,"state":"active","ping":112},{"user_id":118,"name":"Decapitation Station","steam_id":76561198201796098,"connected_time":2046000000000,"state":"active","ping":60},{"user_id":127,"name":"radicalPolio","steam_id":76561197961561855,"connected_time":1438000000000,"state":"active","ping":60},{"user_id":145,"name":"Sarbanes-Oxley","steam_id":76561197975898479,"connected_time":203000000000,"state":"active","ping":79},{"user_id":120,"name":"simon","steam_id":76561198101285144,"connected_time":2000000000000,"state":"active","ping":143},{"user_id":122,"name":"gretchling","steam_id":76561198046111695,"connected_time":1750000000000,"state":"active","ping":80}]},{"server_id":400,"name":"Uncletopia | Atlanta | 3 | Stopwatch","name_short":"atl-3","host":"atl-1.us.uncletopia.com","port":27035,"enabled":true,"region":"us-east","cc":"us","latitude":33.753746,"longitude":-84.38633,"reserved":0,"last_update":"0001-01-01T00:00:00Z","name_a2s":"Uncletopia | Atlanta | 3 | Stopwatch","protocol":17,"map":"cp_granary","folder":"tf","game":"Team Fortress","app_id":440,"player_count":0,"max_players":24,"Bots":0,"server_type":"Dedicated","server_os":"Linux","password":true,"vac":true,"version":"7961495","steam_id":85568392924515187,"keywords":["cp","nocrits","nodmgspread","uncletopia"],"game_id":440,"stv_port":27036,"stv_name":"Uncletopia | Atlanta | 3 | Stopwatch | STV","players":null},{"server_id":401,"name":"Uncletopia | Atlanta | 4 | Community","name_short":"atl-4","host":"atl-1.us.uncletopia.com","port":27045,"enabled":true,"region":"us-east","cc":"us","latitude":33.753746,"longitude":-84.38633,"reserved":0,"last_update":"0001-01-01T00:00:00Z","name_a2s":"Uncletopia | Atlanta | 4 | Community","protocol":17,"map":"workshop/pl_badwater_pro_v12.ugc2142942074","folder":"tf","game":"Team Fortress","app_id":440,"player_count":0,"max_players":24,"Bots":0,"server_type":"Dedicated","server_os":"Linux","password":true,"vac":true,"version":"7961495","steam_id":85568392924515188,"keywords":["nocrits","nodmgspread","payload","uncletopia"],"game_id":440,"stv_port":27046,"stv_name":"Uncletopia | Atlanta | 4 | Community | STV","players":null},{"server_id":2,"name":"Uncletopia | Chicago | 1 | All Maps","name_short":"chi-1","host":"chi-1.us.uncletopia.com","port":27015,"enabled":true,"region":"us-central","cc":"us","latitude":41.881832,"longitude":-87.62318,"reserved":0,"last_update":"0001-01-01T00:00:00Z","name_a2s":"Uncletopia | Chicago | 1 | All Maps","protocol":17,"map":"koth_cascade","folder":"tf","game":"Team Fortress","app_id":440,"player_count":24,"max_players":24,"Bots":0,"server_type":"Dedicated","server_os":"Linux","password":true,"vac":true,"version":"7961495","steam_id":85568392924469984,"keywords":["cp","nocrits","nodmgspread","uncletopia"],"game_id":440,"stv_port":27016,"stv_name":"Uncletopia | Chicago | 1 | All Maps | STV","players":[{"user_id":271,"name":"‡ºò ‚ãÜÀöüéßCaffeine‚òï*Àñ¬∞","steam_id":76561199259309294,"connected_time":1063000000000,"state":"active","ping":68},{"user_id":268,"name":"Natsuki the Scunt","steam_id":76561199175922684,"connected_time":1125000000000,"state":"active","ping":115},{"user_id":257,"name":"joyeuxnoelle","steam_id":76561198062423120,"connected_time":2297000000000,"state":"active","ping":69},{"user_id":269,"name":"Surin","steam_id":76561198008953177,"connected_time":1118000000000,"state":"active","ping":76},{"user_id":259,"name":"Tlord","steam_id":76561198086967416,"connected_time":1668000000000,"state":"active","ping":49},{"user_id":270,"name":"Belmore","steam_id":76561198009355231,"connected_time":1097000000000,"state":"active","ping":107},{"user_id":250,"name":"LavenderSys","steam_id":76561198289106015,"connected_time":2926000000000,"state":"active","ping":75},{"user_id":272,"name":"Simmons","steam_id":76561198024778135,"connected_time":997000000000,"state":"active","ping":60},{"user_id":283,"name":"radical larry","steam_id":76561198172246829,"connected_time":396000000000,"state":"active","ping":49},{"user_id":262,"name":"beta central","steam_id":76561198301876831,"connected_time":1348000000000,"state":"active","ping":60},{"user_id":281,"name":"neet","steam_id":76561197968115168,"connected_time":678000000000,"state":"active","ping":52},{"user_id":261,"name":"Black Rose Oncore","steam_id":76561198040489960,"connected_time":1576000000000,"state":"active","ping":68},{"user_id":253,"name":"Joyous Jenny","steam_id":76561198127998866,"connected_time":2714000000000,"state":"active","ping":75},{"user_id":274,"name":"Jester","steam_id":76561199203898660,"connected_time":958000000000,"state":"active","ping":68},{"user_id":215,"name":"oyasumi","steam_id":76561198128614882,"connected_time":6290000000000,"state":"active","ping":76},{"user_id":275,"name":"Stevelonk","steam_id":76561198088224665,"connected_time":935000000000,"state":"active","ping":74},{"user_id":265,"name":"Skrt.","steam_id":76561197970654243,"connected_time":1307000000000,"state":"active","ping":60},{"user_id":276,"name":"Cwiishe","steam_id":76561199482943969,"connected_time":933000000000,"state":"active","ping":59},{"user_id":282,"name":"Kiss Master","steam_id":76561198289572271,"connected_time":634000000000,"state":"active","ping":76},{"user_id":278,"name":"JustADuck","steam_id":76561198311260943,"connected_time":903000000000,"state":"active","ping":74},{"user_id":279,"name":"Amari","steam_id":76561198272446730,"connected_time":902000000000,"state":"active","ping":60},{"user_id":260,"name":"Franz","steam_id":76561198041929745,"connected_time":1667000000000,"state":"active","ping":105},{"user_id":232,"name":"FragoMatic","steam_id":76561198399008555,"connected_time":4974000000000,"state":"active","ping":74},{"user_id":280,"name":"Sullivate","steam_id":76561198247267324,"connected_time":901000000000,"state":"active","ping":90}]},{"server_id":106,"name":"Uncletopia | Chicago | 2 | All Maps","name_short":"chi-2","host":"chi-1.us.uncletopia.com","port":27025,"enabled":true,"region":"us-central","cc":"us","latitude":41.881832,"longitude":-87.62318,"reserved":0,"last_update":"0001-01-01T00:00:00Z","name_a2s":"Uncletopia | Chicago | 2 | All Maps","protocol":17,"map":"koth_highpass","folder":"tf","game":"Team Fortress","app_id":440,"player_count":1,"max_players":24,"Bots":0,"server_type":"Dedicated","server_os":"Linux","password":true,"vac":true,"version":"7961495","steam_id":85568392924469985,"keywords":["cp","nocrits","nodmgspread","uncletopia"],"game_id":440,"stv_port":27026,"stv_name":"Uncletopia | Chicago | 2 | All Maps | STV","players":[{"user_id":10,"name":"qory","steam_id":76561198152064890,"connected_time":317000000000,"state":"active","ping":57}]},{"server_id":402,"name":"Uncletopia | Chicago | 3 | All Maps","name_short":"chi-3","host":"chi-1.us.uncletopia.com","port":27035,"enabled":true,"region":"us-central","cc":"us","latitude":41.881832,"longitude":-87.62318,"reserved":0,"last_update":"0001-01-01T00:00:00Z","name_a2s":"Uncletopia | Chicago | 3 | All Maps","protocol":17,"map":"cp_dustbowl","folder":"tf","game":"Team Fortress","app_id":440,"player_count":23,"max_players":24,"Bots":0,"server_type":"Dedicated","server_os":"Linux","password":true,"vac":true,"version":"7961495","steam_id":85568392924515191,"keywords":["cp","nocrits","nodmgspread","uncletopia"],"game_id":440,"stv_port":27036,"stv_name":"Uncletopia | Chicago | 3 | All Maps | STV","players":[{"user_id":94,"name":"Window Licker #pride","steam_id":76561198386717007,"connected_time":1384000000000,"state":"active","ping":58},{"user_id":111,"name":"Genne","steam_id":76561198153434791,"connected_time":548000000000,"state":"active","ping":71},{"user_id":121,"name":"atlas","steam_id":76561198398383076,"connected_time":408000000000,"state":"active","ping":80},{"user_id":113,"name":"fishy","steam_id":76561198018622305,"connected_time":535000000000,"state":"active","ping":74},{"user_id":116,"name":"Hashmere","steam_id":76561198002797253,"connected_time":508000000000,"state":"active","ping":75},{"user_id":109,"name":"the_J_d0c","steam_id":76561198977851944,"connected_time":581000000000,"state":"active","ping":73},{"user_id":73,"name":"m.a.d.","steam_id":76561198040553982,"connected_time":3121000000000,"state":"active","ping":52},{"user_id":72,"name":"Little Skull Boi","steam_id":76561198093595888,"connected_time":3131000000000,"state":"active","ping":98},{"user_id":123,"name":"TheBrocklobster","steam_id":76561198039682984,"connected_time":109000000000,"state":"active","ping":111},{"user_id":27,"name":"Menace to Sobriety","steam_id":76561198245103000,"connected_time":5367000000000,"state":"active","ping":71},{"user_id":104,"name":"Lord Cutler Beckett","steam_id":76561198091356047,"connected_time":1169000000000,"state":"active","ping":48},{"user_id":87,"name":"Nash","steam_id":76561198044192734,"connected_time":1746000000000,"state":"active","ping":61},{"user_id":101,"name":"[NAME-REDACTED]","steam_id":76561198035682975,"connected_time":1308000000000,"state":"active","ping":70},{"user_id":114,"name":"Coke Himmy","steam_id":76561198397459211,"connected_time":530000000000,"state":"active","ping":78},{"user_id":122,"name":"Torensz64(But weezer)","steam_id":76561198239036482,"connected_time":402000000000,"state":"active","ping":53},{"user_id":103,"name":"Jonah Hill from 21 Jump Street","steam_id":76561198811130843,"connected_time":1249000000000,"state":"active","ping":76},{"user_id":124,"name":"Guitar Queero","steam_id":76561198880568662,"connected_time":46000000000,"state":"active","ping":65},{"user_id":115,"name":"Admiral Angry","steam_id":76561198058199206,"connected_time":518000000000,"state":"active","ping":54},{"user_id":78,"name":"Poo","steam_id":76561198265144507,"connected_time":2870000000000,"state":"active","ping":90},{"user_id":98,"name":"The Entire Canadian Army","steam_id":76561198014636282,"connected_time":1366000000000,"state":"active","ping":74},{"user_id":97,"name":"Crinkle Cronks","steam_id":76561198328952956,"connected_time":1368000000000,"state":"active","ping":84},{"user_id":119,"name":"Silly Fella","steam_id":76561198073434502,"connected_time":480000000000,"state":"active","ping":68},{"user_id":89,"name":"Gerald Jay Sussman","steam_id":76561198114515026,"connected_time":1726000000000,"state":"active","ping":54}]},{"server_id":403,"name":"Uncletopia | Chicago | 4 | All Maps","name_short":"chi-4","host":"chi-1.us.uncletopia.com","port":27045,"enabled":true,"region":"us-central","cc":"us","latitude":41.881832,"longitude":-87.62318,"reserved":0,"last_update":"0001-01-01T00:00:00Z","name_a2s":"Uncletopia | Chicago | 4 | All Maps","protocol":17,"map":"koth_highpass","folder":"tf","game":"Team Fortress","app_id":440,"player_count":24,"max_players":24,"Bots":0,"server_type":"Dedicated","server_os":"Linux","password":true,"vac":true,"version":"7961495","steam_id":85568392924515193,"keywords":["cp","nocrits","nodmgspread","uncletopia"],"game_id":440,"stv_port":27046,"stv_name":"Uncletopia | Chicago | 4 | All Maps | STV","players":[{"user_id":242,"name":"comet sooicidy","steam_id":76561198025173479,"connected_time":443000000000,"state":"active","ping":90},{"user_id":243,"name":"Sunshine","steam_id":76561198885528098,"connected_time":427000000000,"state":"active","ping":70},{"user_id":239,"name":"Your childhood","steam_id":76561198799385466,"connected_time":709000000000,"state":"active","ping":58},{"user_id":224,"name":"9AM | Lunean","steam_id":76561198106546230,"connected_time":1304000000000,"state":"active","ping":62},{"user_id":246,"name":"Sickduck Mcgee","steam_id":76561198028577159,"connected_time":289000000000,"state":"active","ping":76},{"user_id":208,"name":"Lutz","steam_id":76561198319233787,"connected_time":2114000000000,"state":"active","ping":90},{"user_id":247,"name":"Pootis","steam_id":76561198042482648,"connected_time":214000000000,"state":"active","ping":109},{"user_id":199,"name":"Neopyth","steam_id":76561198031868427,"connected_time":3634000000000,"state":"active","ping":63},{"user_id":175,"name":"V","steam_id":76561198998082956,"connected_time":5302000000000,"state":"active","ping":56},{"user_id":248,"name":"water","steam_id":76561199160233256,"connected_time":166000000000,"state":"active","ping":87},{"user_id":249,"name":"Bond","steam_id":76561198089262776,"connected_time":163000000000,"state":"active","ping":76},{"user_id":250,"name":"d5","steam_id":76561199339997328,"connected_time":145000000000,"state":"active","ping":77},{"user_id":251,"name":"Bee","steam_id":76561198074681324,"connected_time":113000000000,"state":"active","ping":60},{"user_id":227,"name":"Seika‚Åß‚ÅßParadox","steam_id":76561198139426747,"connected_time":1208000000000,"state":"active","ping":70},{"user_id":237,"name":"Jamal27 -iwnl-","steam_id":76561198068654532,"connected_time":766000000000,"state":"active","ping":70},{"user_id":240,"name":"D","steam_id":76561198292908619,"connected_time":690000000000,"state":"active","ping":70},{"user_id":252,"name":"Ganondorf","steam_id":76561198010421059,"connected_time":98000000000,"state":"active","ping":52},{"user_id":244,"name":"Umbra","steam_id":76561198139388662,"connected_time":423000000000,"state":"active","ping":61},{"user_id":245,"name":"Dr. No Name","steam_id":76561198058656869,"connected_time":401000000000,"state":"active","ping":87},{"user_id":220,"name":"agless","steam_id":76561198045248344,"connected_time":1597000000000,"state":"active","ping":49},{"user_id":223,"name":"artemisjackson2","steam_id":76561199094686268,"connected_time":1544000000000,"state":"active","ping":80},{"user_id":253,"name":"Boxcars","steam_id":76561198120978767,"connected_time":72000000000,"state":"active","ping":94},{"user_id":198,"name":"Femboy Menace","steam_id":76561199207174631,"connected_time":3689000000000,"state":"active","ping":117},{"user_id":233,"name":"the keebler","steam_id":76561199486326945,"connected_time":1132000000000,"state":"active","ping":87}]},{"server_id":36,"name":"Uncletopia | Chicago | 5 | All Maps","name_short":"chi-5","host":"chi-2.us.uncletopia.com","port":27015,"enabled":true,"region":"us-central","cc":"us","latitude":41.881832,"longitude":-87.62318,"reserved":0,"last_update":"0001-01-01T00:00:00Z","name_a2s":"Uncletopia | Chicago | 5 | All Maps","protocol":17,"map":"koth_viaduct","folder":"tf","game":"Team Fortress","app_id":440,"player_count":0,"max_players":24,"Bots":0,"server_type":"Dedicated","server_os":"Linux","password":true,"vac":true,"version":"7961495","steam_id":85568392924866362,"keywords":["cp","nocrits","nodmgspread","uncletopia"],"game_id":440,"stv_port":27016,"stv_name":"Uncletopia | Chicago | 5 | All Maps | STV","players":null},{"server_id":37,"name":"Uncletopia | Chicago | 6 | All Maps","name_short":"chi-6","host":"chi-2.us.uncletopia.com","port":27025,"enabled":true,"region":"us-central","cc":"us","latitude":41.881832,"longitude":-87.62318,"reserved":0,"last_update":"0001-01-01T00:00:00Z","name_a2s":"Uncletopia | Chicago | 6 | All Maps","protocol":17,"map":"pl_upward","folder":"tf","game":"Team Fortress","app_id":440,"player_count":24,"max_players":24,"Bots":0,"server_type":"Dedicated","server_os":"Linux","password":true,"vac":true,"version":"7961495","steam_id":85568392924866363,"keywords":["nocrits","nodmgspread","payload","uncletopia"],"game_id":440,"stv_port":27026,"stv_name":"Uncletopia | Chicago | 6 | All Maps | STV","players":[{"user_id":49,"name":"Red","steam_id":76561198001939529,"connected_time":1389000000000,"state":"active","ping":100},{"user_id":58,"name":"SkadooshPlayz","steam_id":76561198310986662,"connected_time":814000000000,"state":"active","ping":105},{"user_id":42,"name":"og biden pack cart","steam_id":76561198253731826,"connected_time":1841000000000,"state":"active","ping":60},{"user_id":57,"name":"Ghost","steam_id":76561198110914180,"connected_time":903000000000,"state":"active","ping":178},{"user_id":53,"name":"Ono","steam_id":76561198024377986,"connected_time":1207000000000,"state":"active","ping":94},{"user_id":45,"name":"Terminally Online Weeb [Dexgod]","steam_id":76561198017130786,"connected_time":1807000000000,"state":"active","ping":84},{"user_id":27,"name":"lanoc","steam_id":76561198055415367,"connected_time":2628000000000,"state":"active","ping":62},{"user_id":20,"name":"The Horselords and Animal Gods","steam_id":76561197975094050,"connected_time":2679000000000,"state":"active","ping":115},{"user_id":14,"name":"schnedwob","steam_id":76561197999146588,"connected_time":2814000000000,"state":"active","ping":79},{"user_id":60,"name":"Shady Businessman","steam_id":76561198143855968,"connected_time":788000000000,"state":"active","ping":92},{"user_id":37,"name":"Combustible","steam_id":76561198242842394,"connected_time":2346000000000,"state":"active","ping":75},{"user_id":59,"name":"Jerma VS STAR_","steam_id":76561198016095410,"connected_time":808000000000,"state":"active","ping":60},{"user_id":61,"name":"mkl","steam_id":76561197986401685,"connected_time":785000000000,"state":"active","ping":76},{"user_id":68,"name":"Supa Dupt","steam_id":76561198166666289,"connected_time":180000000000,"state":"active","ping":83},{"user_id":38,"name":"pobopo [vengaboys fan]","steam_id":76561198120152780,"connected_time":2326000000000,"state":"active","ping":179},{"user_id":35,"name":"pim","steam_id":76561198095163441,"connected_time":2443000000000,"state":"active","ping":68},{"user_id":24,"name":"sithreis","steam_id":76561198000564263,"connected_time":2659000000000,"state":"active","ping":75},{"user_id":69,"name":"Chicago Shoplifter","steam_id":76561197986530028,"connected_time":24000000000,"state":"active","ping":99},{"user_id":48,"name":"Toasterduds","steam_id":76561198163477584,"connected_time":1599000000000,"state":"active","ping":111},{"user_id":67,"name":"SmugCoffeeMan","steam_id":76561198040765030,"connected_time":187000000000,"state":"active","ping":54},{"user_id":46,"name":"Cock Enjoyer [ASS]","steam_id":76561198145150950,"connected_time":1790000000000,"state":"active","ping":153},{"user_id":51,"name":"WinterBucket","steam_id":76561198381313801,"connected_time":1325000000000,"state":"active","ping":158},{"user_id":65,"name":"PumpkinThink","steam_id":76561198393830529,"connected_time":412000000000,"state":"active","ping":62},{"user_id":34,"name":"TheKyleB","steam_id":76561198202515104,"connected_time":2456000000000,"state":"active","ping":45}]},{"server_id":38,"name":"Uncletopia | Chicago | 7 | Stopwatch","name_short":"chi-7","host":"chi-2.us.uncletopia.com","port":27035,"enabled":true,"region":"us-central","cc":"us","latitude":41.881832,"longitude":-87.62318,"reserved":0,"last_update":"0001-01-01T00:00:00Z","name_a2s":"Uncletopia | Chicago | 7 | Stopwatch","protocol":17,"map":"pl_badwater","folder":"tf","game":"Team Fortress","app_id":440,"player_count":0,"max_players":24,"Bots":0,"server_type":"Dedicated","server_os":"Linux","password":true,"vac":true,"version":"7961495","steam_id":85568392924866364,"keywords":["nocrits","nodmgspread","payload","uncletopia"],"game_id":440,"stv_port":27036,"stv_name":"Uncletopia | Chicago | 7 | Stopwatch | STV","players":null},{"server_id":39,"name":"Uncletopia | Chicago | 8 | Community","name_short":"chi-8","host":"chi-2.us.uncletopia.com","port":27045,"enabled":true,"region":"us-central","cc":"us","latitude":41.881832,"longitude":-87.62318,"reserved":0,"last_update":"0001-01-01T00:00:00Z","name_a2s":"Uncletopia | Chicago | 8 | Community","protocol":17,"map":"workshop/pl_cashworks_final1.ugc2904065412","folder":"tf","game":"Team Fortress","app_id":440,"player_count":0,"max_players":24,"Bots":0,"server_type":"Dedicated","server_os":"Linux","password":true,"vac":true,"version":"7961495","steam_id":85568392924866365,"keywords":["nocrits","nodmgspread","payload","uncletopia"],"game_id":440,"stv_port":27046,"stv_name":"Uncletopia | Chicago | 8 | Community | STV","players":null},{"server_id":8,"name":"Uncletopia | Dallas | 1 | All Maps","name_short":"dal-1","host":"dal-1.us.uncletopia.com","port":27015,"enabled":true,"region":"us-central","cc":"us","latitude":32.779167,"longitude":-96.80889,"reserved":0,"last_update":"0001-01-01T00:00:00Z","name_a2s":"Uncletopia | Dallas | 1 | All Maps","protocol":17,"map":"koth_highpass","folder":"tf","game":"Team Fortress","app_id":440,"player_count":10,"max_players":24,"Bots":0,"server_type":"Dedicated","server_os":"Linux","password":true,"vac":true,"version":"7961495","steam_id":85568392924469986,"keywords":["cp","nocrits","nodmgspread","uncletopia"],"game_id":440,"stv_port":27016,"stv_name":"Uncletopia | Dallas | 1 | All Maps | STV","players":[{"user_id":12,"name":"The Manhattan Flash","steam_id":76561198093632727,"connected_time":1390000000000,"state":"active","ping":70},{"user_id":11,"name":"the12xu","steam_id":76561198197086561,"connected_time":1567000000000,"state":"active","ping":90},{"user_id":13,"name":"FanaticSalt","steam_id":76561199380123059,"connected_time":883000000000,"state":"active","ping":39},{"user_id":14,"name":"shakoiwa","steam_id":76561199059441773,"connected_time":818000000000,"state":"active","ping":76},{"user_id":23,"name":"Johnny Lawrence #JohnnyMaxxing","steam_id":76561199367141671,"connected_time":26000000000,"state":"active","ping":75},{"user_id":16,"name":"Shisho","steam_id":76561198800199201,"connected_time":610000000000,"state":"active","ping":57},{"user_id":24,"name":"Coffeemelon","steam_id":76561198285891257,"connected_time":20000000000,"state":"spawning","ping":90},{"user_id":18,"name":"sloped wall (fake) [not real]","steam_id":76561198203952392,"connected_time":464000000000,"state":"active","ping":75},{"user_id":20,"name":"CCPodz","steam_id":76561199143506502,"connected_time":350000000000,"state":"active","ping":63},{"user_id":22,"name":"Shrim","steam_id":76561198068455981,"connected_time":311000000000,"state":"active","ping":61}]},{"server_id":108,"name":"Uncletopia | Dallas | 2 | All Maps","name_short":"dal-2","host":"dal-1.us.uncletopia.com","port":27025,"enabled":true,"region":"us-central","cc":"us","latitude":32.779167,"longitude":-96.80889,"reserved":0,"last_update":"0001-01-01T00:00:00Z","name_a2s":"Uncletopia | Dallas | 2 | All Maps","protocol":17,"map":"koth_harvest_final","folder":"tf","game":"Team Fortress","app_id":440,"player_count":18,"max_players":24,"Bots":0,"server_type":"Dedicated","server_os":"Linux","password":true,"vac":true,"version":"7961495","steam_id":85568392924469988,"keywords":["cp","nocrits","nodmgspread","uncletopia"],"game_id":440,"stv_port":27026,"stv_name":"Uncletopia | Dallas | 2 | All Maps | STV","players":[{"user_id":79,"name":"big play","steam_id":76561198011675372,"connected_time":2238000000000,"state":"active","ping":106},{"user_id":87,"name":"Meet The Racist","steam_id":76561198253927199,"connected_time":1361000000000,"state":"active","ping":159},{"user_id":64,"name":"Speed Spell IV","steam_id":76561198298364415,"connected_time":2970000000000,"state":"active","ping":122},{"user_id":23,"name":"THRONGLER","steam_id":76561198198563466,"connected_time":5778000000000,"state":"active","ping":38},{"user_id":102,"name":"guy","steam_id":76561198196443262,"connected_time":175000000000,"state":"active","ping":75},{"user_id":54,"name":"kyrgyzstan3","steam_id":76561198207940136,"connected_time":3902000000000,"state":"active","ping":53},{"user_id":71,"name":"qwatta","steam_id":76561198064982327,"connected_time":2484000000000,"state":"active","ping":38},{"user_id":106,"name":"TheKingsof17","steam_id":76561199235048405,"connected_time":73000000000,"state":"active","ping":76},{"user_id":104,"name":"‚õßAlkahestry","steam_id":76561198109641497,"connected_time":97000000000,"state":"active","ping":75},{"user_id":82,"name":"Taco+Taco=Burrito","steam_id":76561198063128663,"connected_time":2039000000000,"state":"active","ping":75},{"user_id":88,"name":"Splash","steam_id":76561198271994269,"connected_time":1331000000000,"state":"active","ping":64},{"user_id":94,"name":"pillow :3","steam_id":76561198250215874,"connected_time":1057000000000,"state":"active","ping":91},{"user_id":89,"name":"BeerPowder","steam_id":76561198058129400,"connected_time":1316000000000,"state":"active","ping":90},{"user_id":107,"name":"FISH","steam_id":76561198093517274,"connected_time":56000000000,"state":"active","ping":128},{"user_id":100,"name":"CapnKris22","steam_id":76561198049010994,"connected_time":279000000000,"state":"active","ping":77},{"user_id":95,"name":"Billosky Time Lord","steam_id":76561199159626560,"connected_time":1041000000000,"state":"active","ping":164},{"user_id":37,"name":"Java_Siege_","steam_id":76561199090000728,"connected_time":5101000000000,"state":"active","ping":69},{"user_id":76,"name":"Kuyumiester","steam_id":76561198126835302,"connected_time":2340000000000,"state":"active","ping":65}]},{"server_id":404,"name":"Uncletopia | Dallas | 3 | All Maps","name_short":"dal-3","host":"dal-1.us.uncletopia.com","port":27035,"enabled":true,"region":"us-central","cc":"us","latitude":32.779167,"longitude":-96.80889,"reserved":0,"last_update":"0001-01-01T00:00:00Z","name_a2s":"Uncletopia | Dallas | 3 | All Maps","protocol":17,"map":"pl_snowycoast","folder":"tf","game":"Team Fortress","app_id":440,"player_count":24,"max_players":24,"Bots":0,"server_type":"Dedicated","server_os":"Linux","password":true,"vac":true,"version":"7961495","steam_id":85568392924515219,"keywords":["nocrits","nodmgspread","payload","uncletopia"],"game_id":440,"stv_port":27036,"stv_name":"Uncletopia | Dallas | 3 | All Maps | STV","players":[{"user_id":362,"name":"HemoTox","steam_id":76561197999713466,"connected_time":5021000000000,"state":"active","ping":71},{"user_id":407,"name":"Bucket of Chestnuts","steam_id":76561198115079427,"connected_time":1303000000000,"state":"active","ping":86},{"user_id":414,"name":"HaoMingXiaoHisGamingExcellency","steam_id":76561199014105755,"connected_time":738000000000,"state":"active","ping":86},{"user_id":369,"name":"Mr. Luggy","steam_id":76561198072723392,"connected_time":4125000000000,"state":"active","ping":68},{"user_id":385,"name":"Peppa Pig","steam_id":76561198147772879,"connected_time":2823000000000,"state":"active","ping":60},{"user_id":393,"name":"Gumpy","steam_id":76561198144747235,"connected_time":2254000000000,"state":"active","ping":104},{"user_id":409,"name":"SolarusD","steam_id":76561198029279861,"connected_time":1189000000000,"state":"active","ping":84},{"user_id":294,"name":"[‚òØ] randomshagz*","steam_id":76561197968666646,"connected_time":10802000000000,"state":"active","ping":75},{"user_id":398,"name":"Deltaco","steam_id":76561198094572694,"connected_time":2154000000000,"state":"active","ping":124},{"user_id":408,"name":"Amber the field nurse","steam_id":76561199134893517,"connected_time":1205000000000,"state":"active","ping":78},{"user_id":410,"name":"doughboy","steam_id":76561198219012928,"connected_time":1127000000000,"state":"active","ping":80},{"user_id":411,"name":"itsPanzerPanda","steam_id":76561199441946346,"connected_time":1126000000000,"state":"active","ping":70},{"user_id":418,"name":"*Stare*","steam_id":76561199072209884,"connected_time":81000000000,"state":"active","ping":168},{"user_id":378,"name":"Nato #ClashGG","steam_id":76561198161062837,"connected_time":3573000000000,"state":"active","ping":86},{"user_id":416,"name":"Camrione","steam_id":76561198085405219,"connected_time":592000000000,"state":"active","ping":91},{"user_id":402,"name":"Khrono691","steam_id":76561198246227600,"connected_time":1952000000000,"state":"active","ping":96},{"user_id":390,"name":"Ethanol Buttchugger","steam_id":76561199127590316,"connected_time":2423000000000,"state":"active","ping":85},{"user_id":404,"name":"Genetic Komodo (He/Him)","steam_id":76561198174806758,"connected_time":1811000000000,"state":"active","ping":42},{"user_id":405,"name":"Mexican Muselk","steam_id":76561199289676387,"connected_time":1793000000000,"state":"active","ping":65},{"user_id":417,"name":"VoodooJoeMama","steam_id":76561199160439066,"connected_time":93000000000,"state":"active","ping":96},{"user_id":181,"name":"Yopi","steam_id":76561198004298898,"connected_time":16621000000000,"state":"active","ping":89},{"user_id":419,"name":"Gamestop Employee","steam_id":76561199004825390,"connected_time":75000000000,"state":"active","ping":78},{"user_id":412,"name":"SLiPpeRyJoe.nosound","steam_id":76561197977206359,"connected_time":944000000000,"state":"active","ping":102},{"user_id":392,"name":"rilby","steam_id":76561198132755619,"connected_time":2422000000000,"state":"active","ping":74}]},{"server_id":405,"name":"Uncletopia | Dallas | 4 | Community","name_short":"dal-4","host":"dal-1.us.uncletopia.com","port":27045,"enabled":true,"region":"us-central","cc":"us","latitude":32.779167,"longitude":-96.80889,"reserved":0,"last_update":"0001-01-01T00:00:00Z","name_a2s":"Uncletopia | Dallas | 4 | Community","protocol":17,"map":"pl_pier","folder":"tf","game":"Team Fortress","app_id":440,"player_count":1,"max_players":24,"Bots":0,"server_type":"Dedicated","server_os":"Linux","password":true,"vac":true,"version":"7961495","steam_id":85568392924515220,"keywords":["nocrits","nodmgspread","payload","uncletopia"],"game_id":440,"stv_port":27046,"stv_name":"Uncletopia | Dallas | 4 | Community | STV","players":[{"user_id":4,"name":"Lord_Dabbatron","steam_id":76561199058480985,"connected_time":827000000000,"state":"active","ping":34}]},{"server_id":5,"name":"Uncletopia | Frankfurt | 1 | All Maps","name_short":"frk-1","host":"frk-1.de.uncletopia.com","port":27015,"enabled":true,"region":"eu","cc":"de","latitude":50.110924,"longitude":8.682127,"reserved":0,"last_update":"0001-01-01T00:00:00Z","name_a2s":"Uncletopia | Frankfurt | 1 | All Maps","protocol":17,"map":"pl_snowycoast","folder":"tf","game":"Team Fortress","app_id":440,"player_count":20,"max_players":24,"Bots":0,"server_type":"Dedicated","server_os":"Linux","password":true,"vac":true,"version":"7961495","steam_id":85568392924469989,"keywords":["nocrits","nodmgspread","payload","uncletopia"],"game_id":440,"stv_port":27016,"stv_name":"Uncletopia | Frankfurt | 1 | All Maps | STV","players":[{"user_id":694,"name":"Haha?","steam_id":76561198056882245,"connected_time":959000000000,"state":"active","ping":51},{"user_id":699,"name":"Gnome Warlord","steam_id":76561199075520017,"connected_time":2000000000,"state":"spawning","ping":161},{"user_id":671,"name":"wes","steam_id":76561198067000117,"connected_time":1675000000000,"state":"active","ping":62},{"user_id":683,"name":"Arsonist","steam_id":76561199087953833,"connected_time":1618000000000,"state":"active","ping":92},{"user_id":669,"name":"Pofl","steam_id":76561197995110333,"connected_time":1735000000000,"state":"active","ping":56},{"user_id":698,"name":"r^f nyanezt","steam_id":76561198253734265,"connected_time":148000000000,"state":"active","ping":90},{"user_id":700,"name":"Waltism","steam_id":76561199447676489,"connected_time":1000000000,"state":"spawning","ping":50},{"user_id":695,"name":"Plith","steam_id":76561198027499887,"connected_time":933000000000,"state":"active","ping":59},{"user_id":696,"name":"r^f shrrrrrrekkkkk","steam_id":76561198347241576,"connected_time":724000000000,"state":"active","ping":93},{"user_id":675,"name":"nezolif","steam_id":76561198102030382,"connected_time":1665000000000,"state":"active","ping":43},{"user_id":677,"name":"Aspartus","steam_id":76561198101385763,"connected_time":1663000000000,"state":"active","ping":46},{"user_id":647,"name":"SynthBox3","steam_id":76561199094075745,"connected_time":3877000000000,"state":"active","ping":76},{"user_id":666,"name":"Cakeduck","steam_id":76561198008315265,"connected_time":1939000000000,"state":"active","ping":45},{"user_id":697,"name":"Huskai","steam_id":76561198141512362,"connected_time":233000000000,"state":"active","ping":45},{"user_id":691,"name":"Accwith12chr","steam_id":76561198311593297,"connected_time":1326000000000,"state":"active","ping":88},{"user_id":640,"name":"takumi fujara","steam_id":76561198078928120,"connected_time":4515000000000,"state":"active","ping":71},{"user_id":684,"name":"dia","steam_id":76561198033281405,"connected_time":1618000000000,"state":"active","ping":70},{"user_id":667,"name":"LiterallyRyanGosling","steam_id":76561199017856691,"connected_time":1754000000000,"state":"active","ping":68},{"user_id":686,"name":"ThatKetos","steam_id":76561198989682540,"connected_time":1596000000000,"state":"active","ping":46},{"user_id":687,"name":"debil boywife","steam_id":76561198160047415,"connected_time":1594000000000,"state":"active","ping":87}]},{"server_id":110,"name":"Uncletopia | Frankfurt | 2 | All Maps","name_short":"frk-2","host":"frk-1.de.uncletopia.com","port":27025,"enabled":true,"region":"eu","cc":"de","latitude":50.110924,"longitude":8.682127,"reserved":0,"last_update":"0001-01-01T00:00:00Z","name_a2s":"Uncletopia | Frankfurt | 2 | All Maps","protocol":17,"map":"pl_snowycoast","folder":"tf","game":"Team Fortress","app_id":440,"player_count":0,"max_players":24,"Bots":0,"server_type":"Dedicated","server_os":"Linux","password":true,"vac":true,"version":"7961495","steam_id":85568392924469990,"keywords":["nocrits","nodmgspread","payload","uncletopia"],"game_id":440,"stv_port":27026,"stv_name":"Uncletopia | Frankfurt | 2 | All Maps | STV","players":null},{"server_id":308,"name":"Uncletopia | Frankfurt | 3 | All Maps","name_short":"frk-3","host":"frk-1.de.uncletopia.com","port":27035,"enabled":true,"region":"eu","cc":"de","latitude":50.110924,"longitude":8.682127,"reserved":0,"last_update":"0001-01-01T00:00:00Z","name_a2s":"Uncletopia | Frankfurt | 3 | All Maps","protocol":17,"map":"cp_process_final","folder":"tf","game":"Team Fortress","app_id":440,"player_count":24,"max_players":24,"Bots":0,"server_type":"Dedicated","server_os":"Linux","password":true,"vac":true,"version":"7961495","steam_id":85568392924504274,"keywords":["cp","nocrits","nodmgspread","uncletopia"],"game_id":440,"stv_port":27036,"stv_name":"Uncletopia | Frankfurt | 3 | All Maps | STV","players":[{"user_id":283,"name":"slnc","steam_id":76561198041151496,"connected_time":504000000000,"state":"active","ping":59},{"user_id":245,"name":"Raulca25","steam_id":76561199068256964,"connected_time":3541000000000,"state":"active","ping":85},{"user_id":279,"name":"49belowzero","steam_id":76561198108177252,"connected_time":1013000000000,"state":"active","ping":174},{"user_id":280,"name":"haydar198112","steam_id":76561198131197590,"connected_time":918000000000,"state":"active","ping":141},{"user_id":282,"name":"Dr Bondus Bolongus Dongus","steam_id":76561198378657692,"connected_time":792000000000,"state":"active","ping":60},{"user_id":244,"name":"CRITICAL_HIT!","steam_id":76561198349330393,"connected_time":3616000000000,"state":"active","ping":68},{"user_id":289,"name":"Swagmaster","steam_id":76561198045828392,"connected_time":39000000000,"state":"active","ping":54},{"user_id":285,"name":"Foreskin Gamer","steam_id":76561198283106341,"connected_time":480000000000,"state":"active","ping":57},{"user_id":256,"name":"Captain Kacke","steam_id":76561198132133702,"connected_time":2884000000000,"state":"active","ping":44},{"user_id":254,"name":"Skarp","steam_id":76561198034398376,"connected_time":2953000000000,"state":"active","ping":47},{"user_id":179,"name":"Luke SpyWalker","steam_id":76561198008643276,"connected_time":7448000000000,"state":"active","ping":60},{"user_id":257,"name":"nulgath","steam_id":76561198131231278,"connected_time":2882000000000,"state":"active","ping":46},{"user_id":232,"name":"Gary Wilsom","steam_id":76561198160778112,"connected_time":4409000000000,"state":"active","ping":74},{"user_id":286,"name":"ouchie wouchies","steam_id":76561198105443986,"connected_time":399000000000,"state":"active","ping":75},{"user_id":264,"name":"YuraGreek","steam_id":76561198050182252,"connected_time":2371000000000,"state":"active","ping":104},{"user_id":274,"name":"Gregor Samsa","steam_id":76561198010109316,"connected_time":1244000000000,"state":"active","ping":54},{"user_id":275,"name":"60hz laptop","steam_id":76561198111229919,"connected_time":1232000000000,"state":"active","ping":64},{"user_id":272,"name":"swallowed 10 pennies please hel","steam_id":76561198055816412,"connected_time":1572000000000,"state":"active","ping":62},{"user_id":278,"name":"Solima","steam_id":76561198045349099,"connected_time":1061000000000,"state":"active","ping":45},{"user_id":277,"name":"snakeghoul","steam_id":76561199018056408,"connected_time":1105000000000,"state":"active","ping":75},{"user_id":259,"name":"White-Light","steam_id":76561198077094973,"connected_time":2752000000000,"state":"active","ping":138},{"user_id":287,"name":"Gorgeous George","steam_id":76561198144256544,"connected_time":229000000000,"state":"active","ping":59},{"user_id":267,"name":"Lyncurion","steam_id":76561199260022725,"connected_time":1652000000000,"state":"active","ping":79},{"user_id":288,"name":"MISTER SUIIII","steam_id":76561198018330092,"connected_time":153000000000,"state":"active","ping":83}]},{"server_id":309,"name":"Uncletopia | Frankfurt | 4 | All Maps","name_short":"frk-4","host":"frk-1.de.uncletopia.com","port":27045,"enabled":true,"region":"eu","cc":"de","latitude":50.110924,"longitude":8.682127,"reserved":0,"last_update":"0001-01-01T00:00:00Z","name_a2s":"Uncletopia | Frankfurt | 4 | All Maps","protocol":17,"map":"cp_metalworks","folder":"tf","game":"Team Fortress","app_id":440,"player_count":15,"max_players":24,"Bots":0,"server_type":"Dedicated","server_os":"Linux","password":true,"vac":true,"version":"7961495","steam_id":85568392924504275,"keywords":["cp","nocrits","nodmgspread","uncletopia"],"game_id":440,"stv_port":27046,"stv_name":"Uncletopia | Frankfurt | 4 | All Maps | STV","players":[{"user_id":477,"name":"[Sheep] Tomco","steam_id":76561198388549261,"connected_time":2268000000000,"state":"active","ping":81},{"user_id":505,"name":"PyBOP","steam_id":76561198039583834,"connected_time":463000000000,"state":"active","ping":52},{"user_id":513,"name":"a freakin' twisted individual","steam_id":76561198826255836,"connected_time":104000000000,"state":"active","ping":58},{"user_id":499,"name":"post-nuke selfie","steam_id":76561198082502910,"connected_time":853000000000,"state":"active","ping":56},{"user_id":482,"name":"FoOzTV","steam_id":76561197998636728,"connected_time":2196000000000,"state":"active","ping":60},{"user_id":503,"name":"RandomName","steam_id":76561198055552108,"connected_time":488000000000,"state":"active","ping":46},{"user_id":512,"name":"The Storm That Is Approaching","steam_id":76561198982155864,"connected_time":205000000000,"state":"active","ping":70},{"user_id":476,"name":"Mr.Shpee","steam_id":76561198158701474,"connected_time":2277000000000,"state":"active","ping":83},{"user_id":507,"name":"brew","steam_id":76561198836246326,"connected_time":438000000000,"state":"active","ping":75},{"user_id":508,"name":"METhOphetamine","steam_id":76561198068216224,"connected_time":367000000000,"state":"active","ping":50},{"user_id":514,"name":"gaming (official)","steam_id":76561198106012909,"connected_time":94000000000,"state":"active","ping":63},{"user_id":511,"name":"W*","steam_id":76561197972244657,"connected_time":284000000000,"state":"active","ping":50},{"user_id":493,"name":"Subterranean","steam_id":76561198106684566,"connected_time":1142000000000,"state":"active","ping":70},{"user_id":501,"name":"void monad","steam_id":76561198117012334,"connected_time":702000000000,"state":"active","ping":77},{"user_id":498,"name":"Olaznot","steam_id":76561199111472610,"connected_time":918000000000,"state":"active","ping":74}]},{"server_id":310,"name":"Uncletopia | Frankfurt | 5 | All Maps","name_short":"frk-5","host":"frk-1.de.uncletopia.com","port":27055,"enabled":true,"region":"eu","cc":"de","latitude":50.110924,"longitude":8.682127,"reserved":0,"last_update":"0001-01-01T00:00:00Z","name_a2s":"Uncletopia | Frankfurt | 5 | All Maps","protocol":17,"map":"pl_borneo","folder":"tf","game":"Team Fortress","app_id":440,"player_count":24,"max_players":24,"Bots":0,"server_type":"Dedicated","server_os":"Linux","password":true,"vac":true,"version":"7961495","steam_id":85568392924504277,"keywords":["nocrits","nodmgspread","payload","uncletopia"],"game_id":440,"stv_port":27056,"stv_name":"Uncletopia | Frankfurt | 5 | All Maps | STV","players":[{"user_id":317,"name":"[P-roc] BadJacKS","steam_id":76561197972666377,"connected_time":2559000000000,"state":"active","ping":41},{"user_id":325,"name":"Ham Merchant","steam_id":76561198389947352,"connected_time":2068000000000,"state":"active","ping":93},{"user_id":326,"name":"mr","steam_id":76561199037541925,"connected_time":2053000000000,"state":"active","ping":75},{"user_id":362,"name":"Benito Mussolini","steam_id":76561198362801147,"connected_time":40000000000,"state":"spawning","ping":123},{"user_id":361,"name":"akciq ‚Åß‚Åßrespect","steam_id":76561198390963456,"connected_time":199000000000,"state":"active","ping":75},{"user_id":358,"name":"Baba Sraka","steam_id":76561198128292318,"connected_time":349000000000,"state":"active","ping":126},{"user_id":352,"name":"Cymric","steam_id":76561198208749713,"connected_time":797000000000,"state":"active","ping":74},{"user_id":353,"name":"i look at gay people","steam_id":76561198078032019,"connected_time":676000000000,"state":"active","ping":74},{"user_id":341,"name":"Ender_DragonYT... GGDROP.COM","steam_id":76561198946735113,"connected_time":1777000000000,"state":"active","ping":74},{"user_id":295,"name":"executive producer larry david","steam_id":76561198057868438,"connected_time":4528000000000,"state":"active","ping":65},{"user_id":359,"name":"ELON MUSK","steam_id":76561198132788284,"connected_time":281000000000,"state":"active","ping":59},{"user_id":328,"name":"Joejee","steam_id":76561199122423976,"connected_time":2010000000000,"state":"active","ping":67},{"user_id":363,"name":"PABLO","steam_id":76561198968173239,"connected_time":39000000000,"state":"active","ping":72},{"user_id":330,"name":"üá™üá¨ Pharaoh | bot","steam_id":76561198974553024,"connected_time":1973000000000,"state":"active","ping":104},{"user_id":349,"name":"WEEP","steam_id":76561199499933159,"connected_time":1175000000000,"state":"active","ping":56},{"user_id":332,"name":"Himsagi Yoichi","steam_id":76561197967683724,"connected_time":1938000000000,"state":"active","ping":59},{"user_id":340,"name":"diarrea inoculada 2000","steam_id":76561198412197820,"connected_time":1871000000000,"state":"active","ping":85},{"user_id":344,"name":"HynekN","steam_id":76561198126714831,"connected_time":1626000000000,"state":"active","ping":56},{"user_id":334,"name":"dirhs","steam_id":76561198383867611,"connected_time":1926000000000,"state":"active","ping":60},{"user_id":335,"name":"Shy cute eboy baka","steam_id":76561198353334467,"connected_time":1926000000000,"state":"active","ping":80},{"user_id":336,"name":"ELPOTATO","steam_id":76561198049743627,"connected_time":1922000000000,"state":"active","ping":99},{"user_id":360,"name":"tjuvjakt","steam_id":76561198214848887,"connected_time":275000000000,"state":"active","ping":65},{"user_id":350,"name":"Jackom353","steam_id":76561198799931959,"connected_time":1151000000000,"state":"active","ping":69},{"user_id":338,"name":"Joe Swanson","steam_id":76561198178175462,"connected_time":1909000000000,"state":"active","ping":62}]},{"server_id":311,"name":"Uncletopia | Frankfurt | 6 | All Maps","name_short":"frk-6","host":"frk-1.de.uncletopia.com","port":27065,"enabled":true,"region":"eu","cc":"de","latitude":50.110924,"longitude":8.682127,"reserved":0,"last_update":"0001-01-01T00:00:00Z","name_a2s":"Uncletopia | Frankfurt | 6 | All Maps","protocol":17,"map":"pl_thundermountain","folder":"tf","game":"Team Fortress","app_id":440,"player_count":24,"max_players":24,"Bots":0,"server_type":"Dedicated","server_os":"Linux","password":true,"vac":true,"version":"7961495","steam_id":85568392924504278,"keywords":["nocrits","nodmgspread","payload","uncletopia"],"game_id":440,"stv_port":27066,"stv_name":"Uncletopia | Frankfurt | 6 | All Maps | STV","players":[{"user_id":251,"name":"Zamorocian","steam_id":76561198076604017,"connected_time":425000000000,"state":"active","ping":59},{"user_id":243,"name":"PAX","steam_id":76561198046692146,"connected_time":758000000000,"state":"active","ping":83},{"user_id":252,"name":"The Lady","steam_id":76561198029895809,"connected_time":424000000000,"state":"active","ping":75},{"user_id":195,"name":"Rodak","steam_id":76561199135986344,"connected_time":3791000000000,"state":"active","ping":57},{"user_id":240,"name":"worgeral","steam_id":76561198050781898,"connected_time":800000000000,"state":"active","ping":61},{"user_id":232,"name":"MistrzPalc√≥wa","steam_id":76561199044887226,"connected_time":1073000000000,"state":"active","ping":58},{"user_id":255,"name":"LAMA BOOTY","steam_id":76561199076900572,"connected_time":198000000000,"state":"active","ping":87},{"user_id":236,"name":"Cosmic Gamer","steam_id":76561198027357981,"connected_time":846000000000,"state":"active","ping":87},{"user_id":241,"name":"meriones","steam_id":76561198034234373,"connected_time":780000000000,"state":"active","ping":57},{"user_id":253,"name":"Mega Saturn","steam_id":76561198024750500,"connected_time":239000000000,"state":"active","ping":101},{"user_id":238,"name":"Joo ‚ô¶","steam_id":76561197987609203,"connected_time":835000000000,"state":"active","ping":71},{"user_id":244,"name":"[MN]apradella","steam_id":76561198133858963,"connected_time":744000000000,"state":"active","ping":57},{"user_id":239,"name":"padillacampos","steam_id":76561198161923970,"connected_time":824000000000,"state":"active","ping":83},{"user_id":250,"name":"flange","steam_id":76561198040182692,"connected_time":449000000000,"state":"active","ping":49},{"user_id":254,"name":"Xephur","steam_id":76561198023709441,"connected_time":219000000000,"state":"active","ping":75},{"user_id":249,"name":"Dingle Loui","steam_id":76561198114985331,"connected_time":588000000000,"state":"active","ping":51},{"user_id":256,"name":"SantiDestroyer","steam_id":76561198306920489,"connected_time":148000000000,"state":"active","ping":77},{"user_id":257,"name":"antony_gu","steam_id":76561198254415575,"connected_time":122000000000,"state":"active","ping":74},{"user_id":187,"name":"The","steam_id":76561199378865926,"connected_time":4300000000000,"state":"active","ping":112},{"user_id":157,"name":"MakeItRainbow","steam_id":76561198045098064,"connected_time":6209000000000,"state":"active","ping":60},{"user_id":258,"name":"shadow39344","steam_id":76561198090639618,"connected_time":115000000000,"state":"active","ping":56},{"user_id":190,"name":"Ze Kobold","steam_id":76561198090161992,"connected_time":4219000000000,"state":"active","ping":64},{"user_id":217,"name":"Dwarf_Miner","steam_id":76561198114025611,"connected_time":2523000000000,"state":"active","ping":76},{"user_id":259,"name":"Elosin","steam_id":76561198385088547,"connected_time":106000000000,"state":"active","ping":66}]},{"server_id":23,"name":"Uncletopia | Frankfurt | 7 | Stopwatch","name_short":"frk-7","host":"frk-1.de.uncletopia.com","port":27075,"enabled":true,"region":"eu","cc":"de","latitude":50.110924,"longitude":8.682127,"reserved":0,"last_update":"0001-01-01T00:00:00Z","name_a2s":"Uncletopia | Frankfurt | 7 | Stopwatch","protocol":17,"map":"koth_lakeside_final","folder":"tf","game":"Team Fortress","app_id":440,"player_count":0,"max_players":24,"Bots":0,"server_type":"Dedicated","server_os":"Linux","password":true,"vac":true,"version":"7961495","steam_id":85568392924742827,"keywords":["cp","nocrits","nodmgspread","uncletopia"],"game_id":440,"stv_port":27076,"stv_name":"Uncletopia | Frankfurt | 7 | Stopwatch | STV","players":null},{"server_id":24,"name":"Uncletopia | Frankfurt | 8 | Community","name_short":"frk-8","host":"frk-1.de.uncletopia.com","port":27085,"enabled":true,"region":"eu","cc":"de","latitude":50.110924,"longitude":8.682127,"reserved":0,"last_update":"0001-01-01T00:00:00Z","name_a2s":"Uncletopia | Frankfurt | 8 | Community","protocol":17,"map":"workshop/koth_kemptown_rc1.ugc767410655","folder":"tf","game":"Team Fortress","app_id":440,"player_count":0,"max_players":24,"Bots":0,"server_type":"Dedicated","server_os":"Linux","password":true,"vac":true,"version":"7961495","steam_id":85568392924742828,"keywords":["cp","nocrits","nodmgspread","uncletopia"],"game_id":440,"stv_port":27086,"stv_name":"Uncletopia | Frankfurt | 8 | Community | STV","players":null},{"server_id":202,"name":"Uncletopia | Hong Kong | 1 | All Maps","name_short":"hgk-1","host":"hgk-1.hk.uncletopia.com","port":27015,"enabled":true,"region":"asia","cc":"hk","latitude":22.302711,"longitude":114.177216,"reserved":0,"last_update":"0001-01-01T00:00:00Z","name_a2s":"Uncletopia | Hong Kong | 1 | All Maps","protocol":17,"map":"koth_viaduct","folder":"tf","game":"Team Fortress","app_id":440,"player_count":0,"max_players":24,"Bots":0,"server_type":"Dedicated","server_os":"Linux","password":true,"vac":true,"version":"7961495","steam_id":85568392924494504,"keywords":["cp","nocrits","nodmgspread","uncletopia"],"game_id":440,"stv_port":27016,"stv_name":"Uncletopia | Hong Kong | 1 | All Maps | STV","players":null},{"server_id":1,"name":"Uncletopia | Los Angeles | 1 | All Maps","name_short":"lax-1","host":"lax-1.us.uncletopia.com","port":27015,"enabled":true,"region":"us-west","cc":"us","latitude":33.94279,"longitude":-118.41004,"reserved":0,"last_update":"0001-01-01T00:00:00Z","name_a2s":"Uncletopia | Los Angeles | 1 | All Maps","protocol":17,"map":"cp_mountainlab","folder":"tf","game":"Team Fortress","app_id":440,"player_count":0,"max_players":24,"Bots":0,"server_type":"Dedicated","server_os":"Linux","password":true,"vac":true,"version":"7961495","steam_id":85568392924469991,"keywords":["cp","nocrits","nodmgspread","uncletopia"],"game_id":440,"stv_port":27016,"stv_name":"Uncletopia | Los Angeles | 1 | All Maps | STV","players":null},{"server_id":112,"name":"Uncletopia | Los Angeles | 2 | All Maps","name_short":"lax-2","host":"lax-1.us.uncletopia.com","port":27025,"enabled":true,"region":"us-west","cc":"us","latitude":33.94279,"longitude":-118.41004,"reserved":0,"last_update":"0001-01-01T00:00:00Z","name_a2s":"Uncletopia | Los Angeles | 2 | All Maps","protocol":17,"map":"pl_snowycoast","folder":"tf","game":"Team Fortress","app_id":440,"player_count":0,"max_players":24,"Bots":0,"server_type":"Dedicated","server_os":"Linux","password":true,"vac":true,"version":"7961495","steam_id":85568392924469992,"keywords":["nocrits","nodmgspread","payload","uncletopia"],"game_id":440,"stv_port":27026,"stv_name":"Uncletopia | Los Angeles | 2 | All Maps | STV","players":null},{"server_id":324,"name":"Uncletopia | Los Angeles | 3 | All Maps","name_short":"lax-3","host":"lax-1.us.uncletopia.com","port":27035,"enabled":true,"region":"us-west","cc":"us","latitude":33.94279,"longitude":-118.41004,"reserved":0,"last_update":"0001-01-01T00:00:00Z","name_a2s":"Uncletopia | Los Angeles | 3 | All Maps","protocol":17,"map":"koth_cascade","folder":"tf","game":"Team Fortress","app_id":440,"player_count":0,"max_players":24,"Bots":0,"server_type":"Dedicated","server_os":"Linux","password":true,"vac":true,"version":"7961495","steam_id":85568392924510198,"keywords":["cp","nocrits","nodmgspread","uncletopia"],"game_id":440,"stv_port":27036,"stv_name":"Uncletopia | Los Angeles | 3 | All Maps | STV","players":null},{"server_id":25,"name":"Uncletopia | Los Angeles | 4 | Stopwatch","name_short":"lax-4","host":"lax-1.us.uncletopia.com","port":27045,"enabled":true,"region":"us-west","cc":"us","latitude":33.94279,"longitude":-118.41004,"reserved":0,"last_update":"0001-01-01T00:00:00Z","name_a2s":"Uncletopia | Los Angeles | 4 | Stopwatch","protocol":17,"map":"pl_barnblitz","folder":"tf","game":"Team Fortress","app_id":440,"player_count":0,"max_players":24,"Bots":0,"server_type":"Dedicated","server_os":"Linux","password":true,"vac":true,"version":"7961495","steam_id":85568392924510199,"keywords":["nocrits","nodmgspread","payload","uncletopia"],"game_id":440,"stv_port":27046,"stv_name":"Uncletopia | Los Angeles | 4 | Stopwatch | STV","players":null},{"server_id":11,"name":"Uncletopia | London | 1 | All Maps","name_short":"lon-1","host":"lon-1.uk.uncletopia.com","port":27015,"enabled":true,"region":"eu","cc":"gb","latitude":51.509865,"longitude":-0.118092,"reserved":0,"last_update":"0001-01-01T00:00:00Z","name_a2s":"Uncletopia | London | 1 | All Maps","protocol":17,"map":"cp_sunshine","folder":"tf","game":"Team Fortress","app_id":440,"player_count":24,"max_players":24,"Bots":0,"server_type":"Dedicated","server_os":"Linux","password":true,"vac":true,"version":"7961495","steam_id":85568392924367362,"keywords":["cp","nocrits","nodmgspread","uncletopia"],"game_id":440,"stv_port":27016,"stv_name":"Uncletopia | London | 1 | All Maps | STV","players":[{"user_id":671,"name":"Black Tom","steam_id":76561198335730273,"connected_time":5378000000000,"state":"active","ping":61},{"user_id":719,"name":"Cabbch","steam_id":76561198045955679,"connected_time":821000000000,"state":"active","ping":51},{"user_id":721,"name":"Zootsie","steam_id":76561198051387415,"connected_time":744000000000,"state":"active","ping":53},{"user_id":689,"name":"Minimi","steam_id":76561198873850443,"connected_time":4325000000000,"state":"active","ping":46},{"user_id":722,"name":"RubyTheUnicorn","steam_id":76561198091772218,"connected_time":682000000000,"state":"active","ping":63},{"user_id":682,"name":"trite","steam_id":76561197983765323,"connected_time":4427000000000,"state":"active","ping":51},{"user_id":709,"name":"MoveInSilence #TF2C","steam_id":76561198121260981,"connected_time":2451000000000,"state":"active","ping":41},{"user_id":703,"name":"Janneke Maan","steam_id":76561198069290924,"connected_time":3490000000000,"state":"active","ping":63},{"user_id":624,"name":"jermany!","steam_id":76561198126599355,"connected_time":10801000000000,"state":"active","ping":57},{"user_id":718,"name":"SOPHIIAA","steam_id":76561198443798981,"connected_time":1424000000000,"state":"active","ping":80},{"user_id":707,"name":"‡∂ûaura‡∂û","steam_id":76561198066258544,"connected_time":2585000000000,"state":"active","ping":59},{"user_id":704,"name":"Purps","steam_id":76561198053886680,"connected_time":3105000000000,"state":"active","ping":48},{"user_id":726,"name":"Slifer, The Hunter","steam_id":76561198062255803,"connected_time":47000000000,"state":"active","ping":66},{"user_id":700,"name":"Croy","steam_id":76561197972552579,"connected_time":3717000000000,"state":"active","ping":44},{"user_id":720,"name":"VikingsEdit","steam_id":76561199090100417,"connected_time":816000000000,"state":"active","ping":168},{"user_id":724,"name":"hmscole09","steam_id":76561198811362788,"connected_time":292000000000,"state":"active","ping":55},{"user_id":723,"name":"L=Maestro","steam_id":76561198108066852,"connected_time":367000000000,"state":"active","ping":47},{"user_id":681,"name":"Munibe","steam_id":76561198107967904,"connected_time":4437000000000,"state":"active","ping":68},{"user_id":705,"name":"Topia","steam_id":76561198163571788,"connected_time":2692000000000,"state":"active","ping":77},{"user_id":714,"name":"map","steam_id":76561198370196400,"connected_time":1891000000000,"state":"active","ping":87},{"user_id":717,"name":"sora","steam_id":76561198096547662,"connected_time":1625000000000,"state":"active","ping":43},{"user_id":685,"name":"whimsy.","steam_id":76561198878171763,"connected_time":4407000000000,"state":"active","ping":52},{"user_id":643,"name":"shooer!","steam_id":76561198110531281,"connected_time":9056000000000,"state":"active","ping":73},{"user_id":686,"name":"joachym","steam_id":76561198428579761,"connected_time":4405000000000,"state":"active","ping":72}]},{"server_id":114,"name":"Uncletopia | London | 2 | All Maps","name_short":"lon-2","host":"lon-1.uk.uncletopia.com","port":27025,"enabled":true,"region":"eu","cc":"gb","latitude":51.509865,"longitude":-0.118092,"reserved":0,"last_update":"0001-01-01T00:00:00Z","name_a2s":"Uncletopia | London | 2 | All Maps","protocol":17,"map":"pl_barnblitz","folder":"tf","game":"Team Fortress","app_id":440,"player_count":24,"max_players":24,"Bots":0,"server_type":"Dedicated","server_os":"Linux","password":true,"vac":true,"version":"7961495","steam_id":85568392924470941,"keywords":["nocrits","nodmgspread","payload","uncletopia"],"game_id":440,"stv_port":27026,"stv_name":"Uncletopia | London | 2 | All Maps | STV","players":[{"user_id":641,"name":"ThornDrayton","steam_id":76561198141985675,"connected_time":2145000000000,"state":"active","ping":54},{"user_id":683,"name":"Fnif","steam_id":76561197987988100,"connected_time":769000000000,"state":"active","ping":71},{"user_id":672,"name":"Sunshine Moon","steam_id":76561198022604491,"connected_time":1376000000000,"state":"active","ping":56},{"user_id":607,"name":"sork","steam_id":76561198082446459,"connected_time":2875000000000,"state":"active","ping":80},{"user_id":600,"name":"Oisklet","steam_id":76561198105734948,"connected_time":3126000000000,"state":"active","ping":68},{"user_id":674,"name":"VileVex","steam_id":76561198144847851,"connected_time":1290000000000,"state":"active","ping":45},{"user_id":612,"name":"craig","steam_id":76561198907428350,"connected_time":2511000000000,"state":"active","ping":53},{"user_id":677,"name":"Romultra","steam_id":76561198354105082,"connected_time":1079000000000,"state":"active","ping":45},{"user_id":598,"name":"tone","steam_id":76561197975301462,"connected_time":3431000000000,"state":"active","ping":63},{"user_id":678,"name":"Vitun vittu","steam_id":76561198110679463,"connected_time":1053000000000,"state":"active","ping":60},{"user_id":569,"name":"Relic","steam_id":76561199499093258,"connected_time":6526000000000,"state":"active","ping":74},{"user_id":690,"name":"Anton Stormbreaker","steam_id":76561198041426778,"connected_time":272000000000,"state":"active","ping":61},{"user_id":643,"name":"KopKopl","steam_id":76561198118409280,"connected_time":2099000000000,"state":"active","ping":81},{"user_id":555,"name":"Tero","steam_id":76561198073147972,"connected_time":7418000000000,"state":"active","ping":87},{"user_id":591,"name":"scarfweather","steam_id":76561198121331836,"connected_time":4132000000000,"state":"active","ping":57},{"user_id":574,"name":"lemao","steam_id":76561198058366676,"connected_time":5631000000000,"state":"active","ping":120},{"user_id":686,"name":"Kimmukka","steam_id":76561198348781326,"connected_time":513000000000,"state":"active","ping":122},{"user_id":586,"name":"Strix","steam_id":76561198015322735,"connected_time":4651000000000,"state":"active","ping":97},{"user_id":609,"name":"Jrock","steam_id":76561198045715996,"connected_time":2737000000000,"state":"active","ping":148},{"user_id":689,"name":"Zel","steam_id":76561198284520120,"connected_time":411000000000,"state":"active","ping":55},{"user_id":682,"name":"Skinny101","steam_id":76561197985599360,"connected_time":791000000000,"state":"active","ping":56},{"user_id":684,"name":"Jussukka","steam_id":76561198122894683,"connected_time":762000000000,"state":"active","ping":90},{"user_id":680,"name":"sui","steam_id":76561198185348855,"connected_time":1039000000000,"state":"active","ping":84},{"user_id":681,"name":"xTheDarkLight","steam_id":76561198239128298,"connected_time":1037000000000,"state":"active","ping":61}]},{"server_id":320,"name":"Uncletopia | London | 3 | All Maps","name_short":"lon-3","host":"lon-1.uk.uncletopia.com","port":27035,"enabled":true,"region":"eu","cc":"gb","latitude":51.509865,"longitude":-0.118092,"reserved":0,"last_update":"0001-01-01T00:00:00Z","name_a2s":"Uncletopia | London | 3 | All Maps","protocol":17,"map":"pl_snowycoast","folder":"tf","game":"Team Fortress","app_id":440,"player_count":20,"max_players":24,"Bots":0,"server_type":"Dedicated","server_os":"Linux","password":true,"vac":true,"version":"7961495","steam_id":85568392924510192,"keywords":["nocrits","nodmgspread","payload","uncletopia"],"game_id":440,"stv_port":27036,"stv_name":"Uncletopia | London | 3 | All Maps | STV","players":[{"user_id":521,"name":"IT'S OVER","steam_id":76561198094268619,"connected_time":955000000000,"state":"active","ping":75},{"user_id":517,"name":":\u003e////:D\u003e_\u003c^^","steam_id":76561198280507478,"connected_time":1740000000000,"state":"active","ping":61},{"user_id":507,"name":"rummy","steam_id":76561197997573379,"connected_time":1796000000000,"state":"active","ping":46},{"user_id":523,"name":"AlexLordFire","steam_id":76561198328609815,"connected_time":241000000000,"state":"active","ping":66},{"user_id":524,"name":"D_Ink","steam_id":76561198267716662,"connected_time":192000000000,"state":"active","ping":44},{"user_id":522,"name":"tapeworms!","steam_id":76561198069649097,"connected_time":878000000000,"state":"active","ping":62},{"user_id":525,"name":"Duke Fishlord","steam_id":76561198079928327,"connected_time":174000000000,"state":"active","ping":72},{"user_id":511,"name":"Doctor Livesey","steam_id":76561198828037534,"connected_time":1768000000000,"state":"active","ping":61},{"user_id":510,"name":"Indomitable Truck-sama","steam_id":76561198826861582,"connected_time":1784000000000,"state":"active","ping":67},{"user_id":158,"name":"HoneyBe_","steam_id":76561198288930154,"connected_time":18917000000000,"state":"active","ping":69},{"user_id":375,"name":"Lemon","steam_id":76561198188535947,"connected_time":7899000000000,"state":"active","ping":84},{"user_id":506,"name":"No Status","steam_id":76561198119526557,"connected_time":1800000000000,"state":"active","ping":41},{"user_id":527,"name":"PNO35","steam_id":76561199168094189,"connected_time":7000000000,"state":"spawning","ping":275},{"user_id":512,"name":"Cobalt","steam_id":76561198349228196,"connected_time":1766000000000,"state":"active","ping":53},{"user_id":514,"name":"pojkmodare","steam_id":76561198163615254,"connected_time":1758000000000,"state":"active","ping":60},{"user_id":371,"name":"BabyGhast4","steam_id":76561198990172561,"connected_time":8009000000000,"state":"active","ping":73},{"user_id":505,"name":"MovingIsOverRated","steam_id":76561198385633292,"connected_time":1882000000000,"state":"active","ping":78},{"user_id":515,"name":"Skrankly","steam_id":76561199001837576,"connected_time":1751000000000,"state":"active","ping":55},{"user_id":516,"name":"Cosmetic brain","steam_id":76561198055936410,"connected_time":1744000000000,"state":"active","ping":84},{"user_id":520,"name":"glyph","steam_id":76561197980736364,"connected_time":1666000000000,"state":"active","ping":85}]},{"server_id":321,"name":"Uncletopia | London | 4 | All Maps","name_short":"lon-4","host":"lon-1.uk.uncletopia.com","port":27045,"enabled":true,"region":"eu","cc":"gb","latitude":51.509865,"longitude":-0.118092,"reserved":0,"last_update":"0001-01-01T00:00:00Z","name_a2s":"Uncletopia | London | 4 | All Maps","protocol":17,"map":"cp_snakewater_final1","folder":"tf","game":"Team Fortress","app_id":440,"player_count":23,"max_players":24,"Bots":0,"server_type":"Dedicated","server_os":"Linux","password":true,"vac":true,"version":"7961495","steam_id":85568392924510193,"keywords":["cp","nocrits","nodmgspread","uncletopia"],"game_id":440,"stv_port":27046,"stv_name":"Uncletopia | London | 4 | All Maps | STV","players":[{"user_id":379,"name":"iq drops","steam_id":76561198035795130,"connected_time":299000000000,"state":"active","ping":64},{"user_id":323,"name":"The Burger","steam_id":76561198124463930,"connected_time":4196000000000,"state":"active","ping":44},{"user_id":380,"name":"Milk","steam_id":76561198125876588,"connected_time":233000000000,"state":"active","ping":38},{"user_id":351,"name":"fish","steam_id":76561198205475839,"connected_time":2419000000000,"state":"active","ping":101},{"user_id":376,"name":"Gameing","steam_id":76561198199687607,"connected_time":511000000000,"state":"active","ping":67},{"user_id":381,"name":"TrashVerN","steam_id":76561197977444051,"connected_time":218000000000,"state":"active","ping":60},{"user_id":369,"name":"Yes","steam_id":76561198046729687,"connected_time":1486000000000,"state":"active","ping":59},{"user_id":358,"name":"KillerQueen (he/they/she)","steam_id":76561199019399725,"connected_time":1985000000000,"state":"active","ping":50},{"user_id":382,"name":"McAtka","steam_id":76561198019759329,"connected_time":211000000000,"state":"active","ping":63},{"user_id":231,"name":"fence_","steam_id":76561198150386379,"connected_time":8278000000000,"state":"active","ping":45},{"user_id":383,"name":"Nittugai","steam_id":76561198067366462,"connected_time":155000000000,"state":"active","ping":60},{"user_id":345,"name":"CreepyYellowDuck","steam_id":76561198000479387,"connected_time":2863000000000,"state":"active","ping":36},{"user_id":384,"name":"ThatSiegeKid","steam_id":76561198368037656,"connected_time":145000000000,"state":"active","ping":42},{"user_id":366,"name":"Fikus","steam_id":76561198351444483,"connected_time":1592000000000,"state":"active","ping":52},{"user_id":386,"name":"Superiumentarius","steam_id":76561198081642249,"connected_time":43000000000,"state":"active","ping":60},{"user_id":387,"name":"M2rtRa","steam_id":76561198111036466,"connected_time":34000000000,"state":"active","ping":75},{"user_id":360,"name":"Khrinde","steam_id":76561198036744526,"connected_time":1872000000000,"state":"active","ping":96},{"user_id":359,"name":"TomNoSocks","steam_id":76561198114071046,"connected_time":1885000000000,"state":"active","ping":69},{"user_id":370,"name":"Captain Puddleboat","steam_id":76561198053913970,"connected_time":1445000000000,"state":"active","ping":56},{"user_id":371,"name":"Ullr","steam_id":76561198140547483,"connected_time":1441000000000,"state":"active","ping":45},{"user_id":388,"name":"Jokerz","steam_id":76561199453766677,"connected_time":7000000000,"state":"active","ping":277},{"user_id":372,"name":"doctor sex","steam_id":76561198029044617,"connected_time":1433000000000,"state":"active","ping":45},{"user_id":389,"name":"install gentoo","steam_id":76561198185257982,"connected_time":4000000000,"state":"spawning","ping":121}]},{"server_id":21,"name":"Uncletopia | London | 5 | All Maps","name_short":"lon-5","host":"lon-1.uk.uncletopia.com","port":27055,"enabled":true,"region":"eu","cc":"gb","latitude":51.509865,"longitude":-0.118092,"reserved":0,"last_update":"0001-01-01T00:00:00Z","name_a2s":"Uncletopia | London | 5 | All Maps","protocol":17,"map":"pl_badwater","folder":"tf","game":"Team Fortress","app_id":440,"player_count":24,"max_players":24,"Bots":0,"server_type":"Dedicated","server_os":"Linux","password":true,"vac":true,"version":"7961495","steam_id":85568392924742829,"keywords":["nocrits","nodmgspread","payload","uncletopia"],"game_id":440,"stv_port":27056,"stv_name":"Uncletopia | London | 5 | All Maps | STV","players":[{"user_id":116,"name":"(MAC) [BN] Crazyking","steam_id":76561198001668616,"connected_time":4028000000000,"state":"active","ping":75},{"user_id":118,"name":"BlitzGryphon","steam_id":76561198394354224,"connected_time":3746000000000,"state":"active","ping":41},{"user_id":144,"name":"kaelan","steam_id":76561198001425310,"connected_time":1098000000000,"state":"active","ping":75},{"user_id":161,"name":"zulfie","steam_id":76561198117390056,"connected_time":303000000000,"state":"active","ping":43},{"user_id":153,"name":"biohazard.pt","steam_id":76561198088367808,"connected_time":909000000000,"state":"active","ping":69},{"user_id":131,"name":"smokingjacketman610","steam_id":76561198857441444,"connected_time":2548000000000,"state":"active","ping":66},{"user_id":146,"name":"A literal heavy","steam_id":76561199219233587,"connected_time":1015000000000,"state":"active","ping":78},{"user_id":163,"name":"DEFENDOR62","steam_id":76561199386703896,"connected_time":283000000000,"state":"active","ping":54},{"user_id":164,"name":"pavyonspor","steam_id":76561198116530769,"connected_time":41000000000,"state":"active","ping":100},{"user_id":135,"name":"Bombilla","steam_id":76561198084281798,"connected_time":2409000000000,"state":"active","ping":75},{"user_id":147,"name":"Tempest FIN","steam_id":76561198311021830,"connected_time":994000000000,"state":"active","ping":99},{"user_id":148,"name":"frosty","steam_id":76561198094560834,"connected_time":992000000000,"state":"active","ping":51},{"user_id":140,"name":"XenBad","steam_id":76561197990719842,"connected_time":1507000000000,"state":"active","ping":48},{"user_id":159,"name":"Dromeka","steam_id":76561198963557200,"connected_time":471000000000,"state":"active","ping":57},{"user_id":88,"name":"Nag","steam_id":76561197970488206,"connected_time":5451000000000,"state":"active","ping":71},{"user_id":114,"name":"Boil em mash em","steam_id":76561198026508026,"connected_time":4338000000000,"state":"active","ping":78},{"user_id":141,"name":"big bug buttz","steam_id":76561198115106008,"connected_time":1496000000000,"state":"active","ping":195},{"user_id":102,"name":"General Petrov","steam_id":76561198027204104,"connected_time":4793000000000,"state":"active","ping":85},{"user_id":115,"name":"owlsie","steam_id":76561198094883280,"connected_time":4175000000000,"state":"active","ping":70},{"user_id":99,"name":"AftiksPL","steam_id":76561198875182686,"connected_time":5043000000000,"state":"active","ping":103},{"user_id":151,"name":"King_kek","steam_id":76561198011401951,"connected_time":973000000000,"state":"active","ping":51},{"user_id":112,"name":"Demicore","steam_id":76561197976922136,"connected_time":4421000000000,"state":"active","ping":70},{"user_id":124,"name":"a simple watermelon","steam_id":76561199233335934,"connected_time":3353000000000,"state":"active","ping":167},{"user_id":155,"name":"Silverdarlin","steam_id":76561198118540970,"connected_time":605000000000,"state":"active","ping":55}]},{"server_id":22,"name":"Uncletopia | London | 6 | All Maps","name_short":"lon-6","host":"lon-1.uk.uncletopia.com","port":27065,"enabled":true,"region":"eu","cc":"gb","latitude":51.509865,"longitude":-0.118092,"reserved":0,"last_update":"0001-01-01T00:00:00Z","name_a2s":"Uncletopia | London | 6 | All Maps","protocol":17,"map":"ctf_turbine","folder":"tf","game":"Team Fortress","app_id":440,"player_count":24,"max_players":24,"Bots":0,"server_type":"Dedicated","server_os":"Linux","password":true,"vac":true,"version":"7961495","steam_id":85568392924742830,"keywords":["ctf","nocrits","nodmgspread","uncletopia"],"game_id":440,"stv_port":27066,"stv_name":"Uncletopia | London | 6 | All Maps | STV","players":[{"user_id":463,"name":"Gubbly Bubbins","steam_id":76561198101451654,"connected_time":430000000000,"state":"active","ping":45},{"user_id":450,"name":"mr.resetti","steam_id":76561198974520642,"connected_time":1661000000000,"state":"active","ping":70},{"user_id":377,"name":"xx_soy_xx","steam_id":76561198333779084,"connected_time":6694000000000,"state":"active","ping":53},{"user_id":417,"name":"OutOfDucks","steam_id":76561198166376227,"connected_time":3962000000000,"state":"active","ping":56},{"user_id":449,"name":"Gnaash","steam_id":76561198940657194,"connected_time":1712000000000,"state":"active","ping":147},{"user_id":435,"name":"tr4ce","steam_id":76561198085296732,"connected_time":2451000000000,"state":"active","ping":40},{"user_id":427,"name":"Loberless","steam_id":76561198277844777,"connected_time":2965000000000,"state":"active","ping":39},{"user_id":437,"name":"void","steam_id":76561199502712590,"connected_time":2295000000000,"state":"active","ping":61},{"user_id":460,"name":"Vivid","steam_id":76561198346546144,"connected_time":720000000000,"state":"active","ping":44},{"user_id":439,"name":"Somethingü§ô","steam_id":76561198375358222,"connected_time":2203000000000,"state":"active","ping":47},{"user_id":414,"name":"Testy","steam_id":76561198169996602,"connected_time":4033000000000,"state":"active","ping":52},{"user_id":461,"name":"Ayham","steam_id":76561198652914622,"connected_time":683000000000,"state":"active","ping":127},{"user_id":421,"name":"LordTrap.exe","steam_id":76561198318089716,"connected_time":3859000000000,"state":"active","ping":59},{"user_id":412,"name":"Ady P√°dlo","steam_id":76561198263104437,"connected_time":4348000000000,"state":"active","ping":81},{"user_id":408,"name":"Coby","steam_id":76561198060876389,"connected_time":4904000000000,"state":"active","ping":82},{"user_id":462,"name":"Archer","steam_id":76561198132860299,"connected_time":680000000000,"state":"active","ping":53},{"user_id":457,"name":"dwarf","steam_id":76561198045099492,"connected_time":897000000000,"state":"active","ping":107},{"user_id":333,"name":":3","steam_id":76561198169471853,"connected_time":10023000000000,"state":"active","ping":40},{"user_id":422,"name":"Iris","steam_id":76561198430295815,"connected_time":3845000000000,"state":"active","ping":61},{"user_id":452,"name":"The Power","steam_id":76561198060566884,"connected_time":1386000000000,"state":"active","ping":40},{"user_id":391,"name":"Cruduxy","steam_id":76561198108508584,"connected_time":6290000000000,"state":"active","ping":131},{"user_id":392,"name":"JustMayor","steam_id":76561198050515503,"connected_time":6246000000000,"state":"active","ping":61},{"user_id":451,"name":"Fatmagic Mukbang ASMR","steam_id":76561198063492110,"connected_time":1564000000000,"state":"active","ping":78},{"user_id":399,"name":"Zerius","steam_id":76561198044235220,"connected_time":6128000000000,"state":"active","ping":72}]},{"server_id":40,"name":"Uncletopia | London | 7 | Stopwatch","name_short":"lon-7","host":"lon-1.uk.uncletopia.com","port":27075,"enabled":true,"region":"eu","cc":"gb","latitude":51.509865,"longitude":-0.118092,"reserved":0,"last_update":"0001-01-01T00:00:00Z","name_a2s":"Uncletopia | London | 7 | Stopwatch","protocol":17,"map":"workshop/koth_clearcut_b15.ugc2107050255","folder":"tf","game":"Team Fortress","app_id":440,"player_count":6,"max_players":24,"Bots":0,"server_type":"Dedicated","server_os":"Linux","password":true,"vac":true,"version":"7961495","steam_id":85568392924964314,"keywords":["cp","nocrits","nodmgspread","uncletopia"],"game_id":440,"stv_port":27076,"stv_name":"Uncletopia | London | 7 | Stopwatch | STV","players":[{"user_id":15,"name":"Smithington","steam_id":76561198091773605,"connected_time":3114000000000,"state":"active","ping":70},{"user_id":16,"name":"AnimaZ3","steam_id":76561198094154845,"connected_time":3054000000000,"state":"active","ping":69},{"user_id":20,"name":"Irbynx","steam_id":76561197980421195,"connected_time":1143000000000,"state":"active","ping":77},{"user_id":18,"name":"JO√ÉO MIGUEL","steam_id":76561198066297489,"connected_time":1838000000000,"state":"active","ping":69},{"user_id":19,"name":"Varthus","steam_id":76561198257492226,"connected_time":1383000000000,"state":"active","ping":71},{"user_id":21,"name":"un puie","steam_id":76561198084056439,"connected_time":760000000000,"state":"active","ping":32}]},{"server_id":41,"name":"Uncletopia | London | 8 | Community","name_short":"lon-8","host":"lon-1.uk.uncletopia.com","port":27085,"enabled":true,"region":"eu","cc":"gb","latitude":51.509865,"longitude":-0.118092,"reserved":0,"last_update":"0001-01-01T00:00:00Z","name_a2s":"Uncletopia | London | 8 | Community","protocol":17,"map":"workshop/koth_kemptown_rc1.ugc767410655","folder":"tf","game":"Team Fortress","app_id":440,"player_count":0,"max_players":24,"Bots":0,"server_type":"Dedicated","server_os":"Linux","password":true,"vac":true,"version":"7961495","steam_id":85568392924964315,"keywords":["cp","nocrits","nodmgspread","uncletopia"],"game_id":440,"stv_port":27086,"stv_name":"Uncletopia | London | 8 | Community | STV","players":null},{"server_id":300,"name":"Uncletopia | Montr√©al | 1 | One Thousand Uncles","name_short":"mtl-1","host":"mtl-1.ca.uncletopia.com","port":27015,"enabled":true,"region":"us-east","cc":"ca","latitude":45.50889,"longitude":-73.56167,"reserved":0,"last_update":"0001-01-01T00:00:00Z","name_a2s":"","protocol":0,"map":"","folder":"","game":"","app_id":0,"player_count":0,"max_players":0,"Bots":0,"server_type":"","server_os":"","password":false,"vac":false,"version":"","steam_id":0,"keywords":null,"game_id":0,"stv_port":0,"stv_name":"","players":null},{"server_id":301,"name":"Uncletopia | Montr√©al | 2 | One Thousand Uncles","name_short":"mtl-2","host":"mtl-1.ca.uncletopia.com","port":27025,"enabled":true,"region":"us-east","cc":"ca","latitude":45.50889,"longitude":-73.56167,"reserved":0,"last_update":"0001-01-01T00:00:00Z","name_a2s":"","protocol":0,"map":"","folder":"","game":"","app_id":0,"player_count":0,"max_players":0,"Bots":0,"server_type":"","server_os":"","password":false,"vac":false,"version":"","steam_id":0,"keywords":null,"game_id":0,"stv_port":0,"stv_name":"","players":null},{"server_id":302,"name":"Uncletopia | Montr√©al | 3 | One Thousand Uncles","name_short":"mtl-3","host":"mtl-1.ca.uncletopia.com","port":27035,"enabled":true,"region":"us-east","cc":"ca","latitude":45.50889,"longitude":-73.56167,"reserved":0,"last_update":"0001-01-01T00:00:00Z","name_a2s":"","protocol":0,"map":"","folder":"","game":"","app_id":0,"player_count":9,"max_players":0,"Bots":0,"server_type":"","server_os":"","password":false,"vac":false,"version":"","steam_id":0,"keywords":null,"game_id":0,"stv_port":0,"stv_name":"","players":[{"user_id":2,"name":"Kazuma Yagami_blw.tf","steam_id":76561199044812516,"connected_time":6246000000000,"state":"active","ping":61},{"user_id":71,"name":"nonagon infinity","steam_id":76561198397662124,"connected_time":677000000000,"state":"active","ping":93},{"user_id":72,"name":"Waaagh!","steam_id":76561197995317887,"connected_time":410000000000,"state":"active","ping":38},{"user_id":73,"name":"Killer-Of-Night","steam_id":76561198054038830,"connected_time":380000000000,"state":"active","ping":117},{"user_id":41,"name":"con","steam_id":76561198850438326,"connected_time":3626000000000,"state":"active","ping":59},{"user_id":43,"name":"Potato Apocalypse","steam_id":76561198056699818,"connected_time":2990000000000,"state":"active","ping":122},{"user_id":70,"name":"Gibby_Haynes_The_Engie_Mains","steam_id":76561198372579548,"connected_time":1515000000000,"state":"active","ping":140},{"user_id":49,"name":"Grey The Skeleton | GTS","steam_id":76561198288347597,"connected_time":1799000000000,"state":"active","ping":124},{"user_id":50,"name":"mr.oof V.3.0","steam_id":76561199110285154,"connected_time":1777000000000,"state":"active","ping":87}]},{"server_id":13,"name":"Uncletopia | New York City | 1 | All Maps","name_short":"nyc-1","host":"nyc-1.us.uncletopia.com","port":27015,"enabled":true,"region":"us-east","cc":"us","latitude":40.73061,"longitude":-73.93524,"reserved":0,"last_update":"0001-01-01T00:00:00Z","name_a2s":"Uncletopia | New York City | 1 | All Maps","protocol":17,"map":"cp_dustbowl","folder":"tf","game":"Team Fortress","app_id":440,"player_count":24,"max_players":24,"Bots":0,"server_type":"Dedicated","server_os":"Linux","password":true,"vac":true,"version":"7961495","steam_id":85568392924469993,"keywords":["cp","nocrits","nodmgspread","uncletopia"],"game_id":440,"stv_port":27016,"stv_name":"Uncletopia | New York City | 1 | All Maps | STV","players":[{"user_id":96,"name":"R01lAttack","steam_id":76561199077037502,"connected_time":1628000000000,"state":"active","ping":70},{"user_id":103,"name":"you forgot the sauce","steam_id":76561198387016713,"connected_time":704000000000,"state":"active","ping":57},{"user_id":46,"name":"FrosbeeChill","steam_id":76561198182510862,"connected_time":4706000000000,"state":"active","ping":53},{"user_id":108,"name":"People's_Hero","steam_id":76561198103255788,"connected_time":539000000000,"state":"active","ping":92},{"user_id":47,"name":"duskdotexe","steam_id":76561199353965946,"connected_time":4702000000000,"state":"active","ping":44},{"user_id":112,"name":"Sir Rimmington","steam_id":76561198019476636,"connected_time":164000000000,"state":"active","ping":64},{"user_id":49,"name":"a cow","steam_id":76561198342340057,"connected_time":4569000000000,"state":"active","ping":78},{"user_id":57,"name":"Lemon Soda","steam_id":76561198140208761,"connected_time":4163000000000,"state":"active","ping":50},{"user_id":99,"name":"David Blaine","steam_id":76561198980560578,"connected_time":1609000000000,"state":"active","ping":76},{"user_id":107,"name":"ElElliot","steam_id":76561198842278840,"connected_time":571000000000,"state":"active","ping":67},{"user_id":105,"name":"Mkwhackertracker","steam_id":76561198128343704,"connected_time":588000000000,"state":"active","ping":81},{"user_id":93,"name":"Chase McCain","steam_id":76561198314538469,"connected_time":2111000000000,"state":"active","ping":66},{"user_id":106,"name":"Fish_man_Jon","steam_id":76561198068158264,"connected_time":575000000000,"state":"active","ping":79},{"user_id":86,"name":"Ice || Black „ÉÑ","steam_id":76561198308680638,"connected_time":2972000000000,"state":"active","ping":57},{"user_id":61,"name":"SomeRandomCat","steam_id":76561199107044061,"connected_time":3723000000000,"state":"active","ping":86},{"user_id":102,"name":"StretchySnail59","steam_id":76561198073535005,"connected_time":1421000000000,"state":"active","ping":71},{"user_id":89,"name":"Pugzilla","steam_id":76561198108088960,"connected_time":2758000000000,"state":"active","ping":44},{"user_id":101,"name":"DiscoTraveler","steam_id":76561199240168088,"connected_time":1518000000000,"state":"active","ping":35},{"user_id":88,"name":"Neacrock","steam_id":76561199178338856,"connected_time":2773000000000,"state":"active","ping":56},{"user_id":110,"name":"Acro","steam_id":76561198092451804,"connected_time":531000000000,"state":"active","ping":77},{"user_id":95,"name":"dormio","steam_id":76561198400723170,"connected_time":1644000000000,"state":"active","ping":72},{"user_id":104,"name":"robe","steam_id":76561198238166694,"connected_time":703000000000,"state":"active","ping":56},{"user_id":111,"name":"t.tv/FamilyGuyFunnyMoments277","steam_id":76561198416047580,"connected_time":514000000000,"state":"active","ping":70},{"user_id":74,"name":"Fly_Johnson","steam_id":76561198882285873,"connected_time":3527000000000,"state":"active","ping":54}]},{"server_id":14,"name":"Uncletopia | New York City | 2 | All Maps","name_short":"nyc-2","host":"nyc-1.us.uncletopia.com","port":27025,"enabled":true,"region":"us-east","cc":"us","latitude":40.73061,"longitude":-73.93524,"reserved":0,"last_update":"0001-01-01T00:00:00Z","name_a2s":"Uncletopia | New York City | 2 | All Maps","protocol":17,"map":"pl_badwater","folder":"tf","game":"Team Fortress","app_id":440,"player_count":24,"max_players":24,"Bots":0,"server_type":"Dedicated","server_os":"Linux","password":true,"vac":true,"version":"7961495","steam_id":85568392924469994,"keywords":["nocrits","nodmgspread","payload","uncletopia"],"game_id":440,"stv_port":27026,"stv_name":"Uncletopia | New York City | 2 | All Maps | STV","players":[{"user_id":217,"name":"the scamper","steam_id":76561199153963849,"connected_time":736000000000,"state":"active","ping":77},{"user_id":224,"name":"ndvr","steam_id":76561199379200102,"connected_time":234000000000,"state":"active","ping":44},{"user_id":218,"name":"rotin","steam_id":76561198350747953,"connected_time":725000000000,"state":"active","ping":45},{"user_id":206,"name":"toastman","steam_id":76561198207073088,"connected_time":1859000000000,"state":"active","ping":74},{"user_id":221,"name":"A Low-Hanging Ceiling","steam_id":76561198894586082,"connected_time":654000000000,"state":"active","ping":66},{"user_id":202,"name":"dave :3","steam_id":76561198135961731,"connected_time":2097000000000,"state":"active","ping":103},{"user_id":187,"name":"Whyamidoingthisaaaa","steam_id":76561199168837342,"connected_time":3032000000000,"state":"active","ping":62},{"user_id":154,"name":"reis","steam_id":76561199232952016,"connected_time":6636000000000,"state":"active","ping":167},{"user_id":204,"name":"Sir Quacksalot","steam_id":76561198048942777,"connected_time":1921000000000,"state":"active","ping":87},{"user_id":199,"name":"Squiliam","steam_id":76561198025278006,"connected_time":2340000000000,"state":"active","ping":77},{"user_id":197,"name":"bigSMALL","steam_id":76561198964101426,"connected_time":2580000000000,"state":"active","ping":35},{"user_id":167,"name":"Rennsellaer","steam_id":76561198096207580,"connected_time":5383000000000,"state":"active","ping":115},{"user_id":223,"name":"corbenis","steam_id":76561199012442511,"connected_time":247000000000,"state":"active","ping":84},{"user_id":215,"name":"Terminator69","steam_id":76561198809283651,"connected_time":998000000000,"state":"active","ping":43},{"user_id":191,"name":"corntent","steam_id":76561198824847948,"connected_time":2986000000000,"state":"active","ping":42},{"user_id":185,"name":"Smiley","steam_id":76561198056430811,"connected_time":3090000000000,"state":"active","ping":71},{"user_id":219,"name":"lvl.2 goblin","steam_id":76561198323380643,"connected_time":724000000000,"state":"active","ping":59},{"user_id":222,"name":"Kool-Aid Jammer","steam_id":76561198036032168,"connected_time":632000000000,"state":"active","ping":59},{"user_id":203,"name":"Braamklauw","steam_id":76561198283287697,"connected_time":1941000000000,"state":"active","ping":143},{"user_id":195,"name":"The Grim Heaper","steam_id":76561197987759101,"connected_time":2914000000000,"state":"active","ping":128},{"user_id":216,"name":"guy","steam_id":76561198079925551,"connected_time":967000000000,"state":"active","ping":45},{"user_id":220,"name":"Macthewolf","steam_id":76561199175709390,"connected_time":718000000000,"state":"active","ping":138},{"user_id":177,"name":"The Guy","steam_id":76561198799183693,"connected_time":4276000000000,"state":"active","ping":91},{"user_id":158,"name":"listening to doja cat rn","steam_id":76561198326083509,"connected_time":6407000000000,"state":"active","ping":78}]},{"server_id":15,"name":"Uncletopia | New York City | 3 | Stopwatch","name_short":"nyc-3","host":"nyc-1.us.uncletopia.com","port":27035,"enabled":true,"region":"us-east","cc":"us","latitude":40.73061,"longitude":-73.93524,"reserved":0,"last_update":"0001-01-01T00:00:00Z","name_a2s":"Uncletopia | New York City | 3 | Stopwatch","protocol":17,"map":"workshop/pl_barnblitz_pro7.ugc582280235","folder":"tf","game":"Team Fortress","app_id":440,"player_count":0,"max_players":24,"Bots":0,"server_type":"Dedicated","server_os":"Linux","password":true,"vac":true,"version":"7961495","steam_id":85568392924742820,"keywords":["nocrits","nodmgspread","payload","uncletopia"],"game_id":440,"stv_port":27036,"stv_name":"Uncletopia | New York City | 3 | Stopwatch | STV","players":null},{"server_id":16,"name":"Uncletopia | New York City | 4 | Community","name_short":"nyc-4","host":"nyc-1.us.uncletopia.com","port":27045,"enabled":true,"region":"us-east","cc":"us","latitude":40.73061,"longitude":-73.93524,"reserved":0,"last_update":"0001-01-01T00:00:00Z","name_a2s":"Uncletopia | New York City | 4 | Community","protocol":17,"map":"workshop/koth_ramjam_rc1.ugc459778887","folder":"tf","game":"Team Fortress","app_id":440,"player_count":0,"max_players":24,"Bots":0,"server_type":"Dedicated","server_os":"Linux","password":true,"vac":true,"version":"7961495","steam_id":85568392924742821,"keywords":["cp","nocrits","nodmgspread","uncletopia"],"game_id":440,"stv_port":27046,"stv_name":"Uncletopia | New York City | 4 | Community | STV","players":null},{"server_id":142,"name":"Uncletopia | S√£o Paulo | 1 | All Maps","name_short":"sao-1","host":"sao-1.br.uncletopia.com","port":27015,"enabled":true,"region":"sa","cc":"br","latitude":-23.533773,"longitude":-46.62529,"reserved":0,"last_update":"0001-01-01T00:00:00Z","name_a2s":"Uncletopia | S√£o Paulo | 1 | All Maps","protocol":17,"map":"koth_highpass","folder":"tf","game":"Team Fortress","app_id":440,"player_count":0,"max_players":24,"Bots":0,"server_type":"Dedicated","server_os":"Linux","password":true,"vac":true,"version":"7961495","steam_id":85568392924469996,"keywords":["cp","nocrits","nodmgspread","uncletopia"],"game_id":440,"stv_port":27016,"stv_name":"Uncletopia | S√£o Paulo | 1 | All Maps | STV","players":null},{"server_id":143,"name":"Uncletopia | S√£o Paulo | 2 | Community","name_short":"sao-2","host":"sao-2.br.uncletopia.com","port":27015,"enabled":true,"region":"sa","cc":"br","latitude":-23.533773,"longitude":-46.62529,"reserved":0,"last_update":"0001-01-01T00:00:00Z","name_a2s":"Uncletopia | S√£o Paulo | 2 | Community","protocol":17,"map":"workshop/cp_sulfur_rc2.ugc619869471","folder":"tf","game":"Team Fortress","app_id":440,"player_count":0,"max_players":24,"Bots":0,"server_type":"Dedicated","server_os":"Linux","password":true,"vac":true,"version":"7961495","steam_id":85568392924485349,"keywords":["cp","nocrits","nodmgspread","uncletopia"],"game_id":440,"stv_port":27016,"stv_name":"Uncletopia | S√£o Paulo | 2 | Community | STV","players":null},{"server_id":7,"name":"Uncletopia | Seattle | 1 | All Maps","name_short":"sea-1","host":"sea-1.us.uncletopia.com","port":27015,"enabled":true,"region":"us-west","cc":"us","latitude":47.608013,"longitude":-122.33517,"reserved":0,"last_update":"0001-01-01T00:00:00Z","name_a2s":"Uncletopia | Seattle | 1 | All Maps","protocol":17,"map":"koth_nucleus","folder":"tf","game":"Team Fortress","app_id":440,"player_count":24,"max_players":24,"Bots":0,"server_type":"Dedicated","server_os":"Linux","password":true,"vac":true,"version":"7961495","steam_id":85568392924469997,"keywords":["cp","nocrits","nodmgspread","uncletopia"],"game_id":440,"stv_port":27016,"stv_name":"Uncletopia | Seattle | 1 | All Maps | STV","players":[{"user_id":508,"name":"trackpad gaming | f2p","steam_id":76561198840414371,"connected_time":2244000000000,"state":"active","ping":49},{"user_id":521,"name":"Atrix","steam_id":76561198084930312,"connected_time":1102000000000,"state":"active","ping":75},{"user_id":519,"name":"Rat Smoking a big cigar","steam_id":76561198090419068,"connected_time":1283000000000,"state":"active","ping":77},{"user_id":522,"name":"The beater","steam_id":76561199247095754,"connected_time":962000000000,"state":"active","ping":56},{"user_id":512,"name":"FI LO","steam_id":76561198976530881,"connected_time":1985000000000,"state":"active","ping":68},{"user_id":530,"name":"moe","steam_id":76561198929586245,"connected_time":589000000000,"state":"active","ping":69},{"user_id":412,"name":"Karg","steam_id":76561198091387866,"connected_time":8437000000000,"state":"active","ping":62},{"user_id":531,"name":"Hakuyer","steam_id":76561198098618247,"connected_time":466000000000,"state":"active","ping":36},{"user_id":480,"name":"NavyDinosaur","steam_id":76561198088459962,"connected_time":4524000000000,"state":"active","ping":72},{"user_id":528,"name":"help","steam_id":76561199056338917,"connected_time":697000000000,"state":"active","ping":105},{"user_id":539,"name":"Odd Life","steam_id":76561198244979998,"connected_time":47000000000,"state":"active","ping":73},{"user_id":538,"name":"carrot cake","steam_id":76561198055174915,"connected_time":70000000000,"state":"active","ping":110},{"user_id":536,"name":"Seriously Bruh","steam_id":76561198070408485,"connected_time":250000000000,"state":"active","ping":46},{"user_id":533,"name":"K2f","steam_id":76561198049600563,"connected_time":391000000000,"state":"active","ping":63},{"user_id":516,"name":"Oktayey","steam_id":76561198143213426,"connected_time":1562000000000,"state":"active","ping":63},{"user_id":422,"name":"no vc no c","steam_id":76561197989503095,"connected_time":7936000000000,"state":"active","ping":152},{"user_id":527,"name":"Greskrendtregk","steam_id":76561197969553142,"connected_time":718000000000,"state":"active","ping":48},{"user_id":471,"name":"Dim","steam_id":76561198061411324,"connected_time":5529000000000,"state":"active","ping":128},{"user_id":517,"name":"Havi","steam_id":76561198197832829,"connected_time":1493000000000,"state":"active","ping":46},{"user_id":537,"name":"Urby","steam_id":76561199074391666,"connected_time":212000000000,"state":"active","ping":52},{"user_id":518,"name":"nat","steam_id":76561198179923093,"connected_time":1437000000000,"state":"active","ping":91},{"user_id":526,"name":"DaddyGalaxy","steam_id":76561198139697796,"connected_time":864000000000,"state":"active","ping":57},{"user_id":481,"name":"fishtank.live","steam_id":76561198280085840,"connected_time":4523000000000,"state":"active","ping":72},{"user_id":498,"name":"Shark Sandwich","steam_id":76561198025007938,"connected_time":2712000000000,"state":"active","ping":46}]},{"server_id":119,"name":"Uncletopia | Seattle | 2 | All Maps","name_short":"sea-2","host":"sea-1.us.uncletopia.com","port":27025,"enabled":true,"region":"us-west","cc":"us","latitude":47.608013,"longitude":-122.33517,"reserved":0,"last_update":"0001-01-01T00:00:00Z","name_a2s":"Uncletopia | Seattle | 2 | All Maps","protocol":17,"map":"koth_cascade","folder":"tf","game":"Team Fortress","app_id":440,"player_count":0,"max_players":24,"Bots":0,"server_type":"Dedicated","server_os":"Linux","password":true,"vac":true,"version":"7961495","steam_id":85568392924469998,"keywords":["cp","nocrits","nodmgspread","uncletopia"],"game_id":440,"stv_port":27026,"stv_name":"Uncletopia | Seattle | 2 | All Maps | STV","players":null},{"server_id":406,"name":"Uncletopia | Seattle | 3 | Stopwatch","name_short":"sea-3","host":"sea-1.us.uncletopia.com","port":27035,"enabled":true,"region":"us-west","cc":"us","latitude":47.608013,"longitude":-122.33517,"reserved":0,"last_update":"0001-01-01T00:00:00Z","name_a2s":"Uncletopia | Seattle | 3 | Stopwatch","protocol":17,"map":"pl_pier","folder":"tf","game":"Team Fortress","app_id":440,"player_count":0,"max_players":24,"Bots":0,"server_type":"Dedicated","server_os":"Linux","password":true,"vac":true,"version":"7961495","steam_id":85568392924515217,"keywords":["nocrits","nodmgspread","payload","uncletopia"],"game_id":440,"stv_port":27036,"stv_name":"Uncletopia | Seattle | 3 | Stopwatch | STV","players":null},{"server_id":17,"name":"Uncletopia | San Francisco | 1 | All Maps","name_short":"sfo-1","host":"sfo-1.us.uncletopia.com","port":27015,"enabled":true,"region":"us-west","cc":"us","latitude":37.77397,"longitude":-122.4313,"reserved":0,"last_update":"0001-01-01T00:00:00Z","name_a2s":"Uncletopia | San Francisco | 1 | All Maps","protocol":17,"map":"koth_cascade","folder":"tf","game":"Team Fortress","app_id":440,"player_count":0,"max_players":24,"Bots":0,"server_type":"Dedicated","server_os":"Linux","password":true,"vac":true,"version":"7961495","steam_id":85568392924469999,"keywords":["cp","nocrits","nodmgspread","uncletopia"],"game_id":440,"stv_port":27016,"stv_name":"Uncletopia | San Francisco | 1 | All Maps | STV","players":null},{"server_id":18,"name":"Uncletopia | San Francisco | 2 | All Maps","name_short":"sfo-2","host":"sfo-1.us.uncletopia.com","port":27025,"enabled":true,"region":"us-west","cc":"us","latitude":37.77397,"longitude":-122.4313,"reserved":0,"last_update":"0001-01-01T00:00:00Z","name_a2s":"Uncletopia | San Francisco | 2 | All Maps","protocol":17,"map":"koth_highpass","folder":"tf","game":"Team Fortress","app_id":440,"player_count":0,"max_players":24,"Bots":0,"server_type":"Dedicated","server_os":"Linux","password":true,"vac":true,"version":"7961495","steam_id":85568392924470000,"keywords":["cp","nocrits","nodmgspread","uncletopia"],"game_id":440,"stv_port":27026,"stv_name":"Uncletopia | San Francisco | 2 | All Maps | STV","players":null},{"server_id":19,"name":"Uncletopia | San Francisco | 3 | Stopwatch","name_short":"sfo-3","host":"sfo-1.us.uncletopia.com","port":27035,"enabled":true,"region":"us-west","cc":"us","latitude":37.77397,"longitude":-122.4313,"reserved":0,"last_update":"0001-01-01T00:00:00Z","name_a2s":"Uncletopia | San Francisco | 3 | Stopwatch","protocol":17,"map":"pl_pier","folder":"tf","game":"Team Fortress","app_id":440,"player_count":0,"max_players":24,"Bots":0,"server_type":"Dedicated","server_os":"Linux","password":true,"vac":true,"version":"7961495","steam_id":85568392924742824,"keywords":["nocrits","nodmgspread","payload","uncletopia"],"game_id":440,"stv_port":27036,"stv_name":"Uncletopia | San Francisco | 3 | Stopwatch | STV","players":null},{"server_id":20,"name":"Uncletopia | San Francisco | 4 | Community","name_short":"sfo-4","host":"sfo-1.us.uncletopia.com","port":27045,"enabled":true,"region":"us-west","cc":"us","latitude":37.77397,"longitude":-122.4313,"reserved":0,"last_update":"0001-01-01T00:00:00Z","name_a2s":"Uncletopia | San Francisco | 4 | Community","protocol":17,"map":"pl_pier","folder":"tf","game":"Team Fortress","app_id":440,"player_count":0,"max_players":24,"Bots":0,"server_type":"Dedicated","server_os":"Linux","password":true,"vac":true,"version":"7961495","steam_id":85568392924742826,"keywords":["nocrits","nodmgspread","payload","uncletopia"],"game_id":440,"stv_port":27046,"stv_name":"Uncletopia | San Francisco | 4 | Community | STV","players":null},{"server_id":141,"name":"Uncletopia | Sydney | 1 | All Maps","name_short":"syd-1","host":"syd-1.au.uncletopia.com","port":27015,"enabled":true,"region":"au","cc":"au","latitude":-33.865143,"longitude":151.2099,"reserved":0,"last_update":"0001-01-01T00:00:00Z","name_a2s":"Uncletopia | Sydney | 1 | All Maps","protocol":17,"map":"koth_viaduct","folder":"tf","game":"Team Fortress","app_id":440,"player_count":0,"max_players":24,"Bots":0,"server_type":"Dedicated","server_os":"Linux","password":true,"vac":true,"version":"7961495","steam_id":85568392924470001,"keywords":["cp","nocrits","nodmgspread","uncletopia"],"game_id":440,"stv_port":27016,"stv_name":"Uncletopia | Sydney | 1 | All Maps | STV","players":null},{"server_id":123,"name":"Uncletopia | Sydney | 2 | All Maps","name_short":"syd-2","host":"syd-1.au.uncletopia.com","port":27025,"enabled":true,"region":"au","cc":"au","latitude":-33.865143,"longitude":151.2099,"reserved":0,"last_update":"0001-01-01T00:00:00Z","name_a2s":"Uncletopia | Sydney | 2 | All Maps","protocol":17,"map":"koth_lakeside_final","folder":"tf","game":"Team Fortress","app_id":440,"player_count":0,"max_players":24,"Bots":0,"server_type":"Dedicated","server_os":"Linux","password":true,"vac":true,"version":"7961495","steam_id":85568392924470002,"keywords":["cp","nocrits","nodmgspread","uncletopia"],"game_id":440,"stv_port":27026,"stv_name":"Uncletopia | Sydney | 2 | All Maps | STV","players":null},{"server_id":395,"name":"Uncletopia | Sydney | 3 | All Maps","name_short":"syd-3","host":"syd-1.au.uncletopia.com","port":27035,"enabled":true,"region":"au","cc":"au","latitude":-33.865143,"longitude":151.2099,"reserved":0,"last_update":"0001-01-01T00:00:00Z","name_a2s":"Uncletopia | Sydney | 3 | All Maps","protocol":17,"map":"pl_frontier_final","folder":"tf","game":"Team Fortress","app_id":440,"player_count":0,"max_players":24,"Bots":0,"server_type":"Dedicated","server_os":"Linux","password":true,"vac":true,"version":"7961495","steam_id":85568392925194467,"keywords":["nocrits","nodmgspread","payload","uncletopia"],"game_id":440,"stv_port":27036,"stv_name":"Uncletopia | Sydney | 3 | All Maps | STV","players":null},{"server_id":396,"name":"Uncletopia | Sydney | 4 | All Maps","name_short":"syd-4","host":"syd-1.au.uncletopia.com","port":27045,"enabled":true,"region":"au","cc":"au","latitude":-33.865143,"longitude":151.2099,"reserved":0,"last_update":"0001-01-01T00:00:00Z","name_a2s":"Uncletopia | Sydney | 4 | All Maps","protocol":17,"map":"cp_process_final","folder":"tf","game":"Team Fortress","app_id":440,"player_count":0,"max_players":24,"Bots":0,"server_type":"Dedicated","server_os":"Linux","password":true,"vac":true,"version":"7961495","steam_id":85568392925397958,"keywords":["cp","nocrits","nodmgspread","uncletopia"],"game_id":440,"stv_port":27046,"stv_name":"Uncletopia | Sydney | 4 | All Maps | STV","players":null},{"server_id":58,"name":"Uncletopia | Sydney | 5 | Stopwatch","name_short":"syd-5","host":"syd-1.au.uncletopia.com","port":27055,"enabled":true,"region":"au","cc":"au","latitude":-33.865143,"longitude":151.2099,"reserved":0,"last_update":"0001-01-01T00:00:00Z","name_a2s":"Uncletopia | Sydney | 5 | Stopwatch","protocol":17,"map":"pl_frontier_final","folder":"tf","game":"Team Fortress","app_id":440,"player_count":0,"max_players":24,"Bots":0,"server_type":"Dedicated","server_os":"Linux","password":true,"vac":true,"version":"7961495","steam_id":85568392925397959,"keywords":["nocrits","nodmgspread","payload","uncletopia"],"game_id":440,"stv_port":27056,"stv_name":"Uncletopia | Sydney | 5 | Stopwatch | STV","players":null},{"server_id":59,"name":"Uncletopia | Sydney | 6 | Community","name_short":"syd-6","host":"syd-1.au.uncletopia.com","port":27065,"enabled":true,"region":"au","cc":"au","latitude":-33.865143,"longitude":151.2099,"reserved":0,"last_update":"0001-01-01T00:00:00Z","name_a2s":"Uncletopia | Sydney | 6 | Community","protocol":17,"map":"cp_sunshine","folder":"tf","game":"Team Fortress","app_id":440,"player_count":0,"max_players":24,"Bots":0,"server_type":"Dedicated","server_os":"Linux","password":true,"vac":true,"version":"7961495","steam_id":85568392925397960,"keywords":["cp","nocrits","nodmgspread","uncletopia"],"game_id":440,"stv_port":27066,"stv_name":"Uncletopia | Sydney | 6 | Community | STV","players":null},{"server_id":49,"name":"Uncletopia | Warsaw | 1 | One Thousand Uncles","name_short":"waw-1","host":"waw-1.pl.uncletopia.com","port":27015,"enabled":true,"region":"eu","cc":"pl","latitude":52.2297,"longitude":21.017532,"reserved":0,"last_update":"0001-01-01T00:00:00Z","name_a2s":"Uncletopia | Warsaw | 1 | One Thousand Uncles","protocol":17,"map":"pl_goldrush","folder":"tf","game":"Team Fortress","app_id":440,"player_count":25,"max_players":32,"Bots":16,"server_type":"Dedicated","server_os":"Linux","password":true,"vac":true,"version":"7961495","steam_id":85568392925397850,"keywords":["alltalk","bots","danepve","increased_maxplayers","nocrits","norespawntime","payload","uncletopia"],"game_id":440,"stv_port":0,"stv_name":"","players":[{"user_id":607,"name":"Helionis","steam_id":76561198258196431,"connected_time":1148000000000,"state":"active","ping":196},{"user_id":609,"name":"Voxiit","steam_id":76561198060319116,"connected_time":302000000000,"state":"active","ping":75},{"user_id":579,"name":"Ksiedzu","steam_id":76561198844946261,"connected_time":2325000000000,"state":"active","ping":65},{"user_id":536,"name":"yes man","steam_id":76561199403589748,"connected_time":5526000000000,"state":"active","ping":151},{"user_id":611,"name":"( Õ†¬∞ Õü ñ Õ°¬∞)","steam_id":76561199362861027,"connected_time":128000000000,"state":"active","ping":317},{"user_id":552,"name":"dodge","steam_id":76561198085296668,"connected_time":3284000000000,"state":"active","ping":69},{"user_id":554,"name":"I.C. Wiener","steam_id":76561197999912254,"connected_time":3179000000000,"state":"active","ping":56},{"user_id":587,"name":"froglids","steam_id":76561198045466919,"connected_time":1862000000000,"state":"active","ping":44},{"user_id":556,"name":"Dennis Reynolds","steam_id":76561197960371259,"connected_time":3160000000000,"state":"active","ping":165}]},{"server_id":50,"name":"Uncletopia | Warsaw | 2 | One Thousand Uncles","name_short":"waw-2","host":"waw-1.pl.uncletopia.com","port":27025,"enabled":true,"region":"eu","cc":"pl","latitude":52.2297,"longitude":21.017532,"reserved":0,"last_update":"0001-01-01T00:00:00Z","name_a2s":"Uncletopia | Warsaw | 2 | One Thousand Uncles","protocol":17,"map":"cp_egypt_final","folder":"tf","game":"Team Fortress","app_id":440,"player_count":0,"max_players":32,"Bots":0,"server_type":"Dedicated","server_os":"Linux","password":true,"vac":true,"version":"7961495","steam_id":85568392925397851,"keywords":["alltalk","cp","danepve","increased_maxplayers","nocrits","norespawntime","uncletopia"],"game_id":440,"stv_port":0,"stv_name":"","players":null},{"server_id":51,"name":"Uncletopia | Warsaw | 3 | All Maps","name_short":"waw-3","host":"waw-1.pl.uncletopia.com","port":27035,"enabled":true,"region":"eu","cc":"pl","latitude":52.2297,"longitude":21.017532,"reserved":0,"last_update":"0001-01-01T00:00:00Z","name_a2s":"Uncletopia | Warsaw | 3 | All Maps","protocol":17,"map":"cp_dustbowl","folder":"tf","game":"Team Fortress","app_id":440,"player_count":6,"max_players":24,"Bots":0,"server_type":"Dedicated","server_os":"Linux","password":true,"vac":true,"version":"7961495","steam_id":85568392925397852,"keywords":["cp","nocrits","nodmgspread","uncletopia"],"game_id":440,"stv_port":27036,"stv_name":"Uncletopia | Warsaw | 3 | All Maps | STV","players":[{"user_id":552,"name":"Anax","steam_id":76561198004915802,"connected_time":1404000000000,"state":"active","ping":69},{"user_id":562,"name":"Mabert","steam_id":76561198436058407,"connected_time":450000000000,"state":"active","ping":45},{"user_id":553,"name":"Personpony","steam_id":76561198343233409,"connected_time":1371000000000,"state":"active","ping":70},{"user_id":555,"name":"T√§t√§r√§t√§√§","steam_id":76561197987797258,"connected_time":1296000000000,"state":"active","ping":72},{"user_id":556,"name":"Brain-o","steam_id":76561198002048341,"connected_time":1193000000000,"state":"active","ping":60},{"user_id":541,"name":":3","steam_id":76561198422006468,"connected_time":3372000000000,"state":"active","ping":67}]},{"server_id":52,"name":"Uncletopia | Warsaw | 4 | All Maps","name_short":"waw-4","host":"waw-1.pl.uncletopia.com","port":27045,"enabled":true,"region":"eu","cc":"pl","latitude":52.2297,"longitude":21.017532,"reserved":0,"last_update":"0001-01-01T00:00:00Z","name_a2s":"Uncletopia | Warsaw | 4 | All Maps","protocol":17,"map":"cp_coldfront","folder":"tf","game":"Team Fortress","app_id":440,"player_count":0,"max_players":24,"Bots":0,"server_type":"Dedicated","server_os":"Linux","password":true,"vac":true,"version":"7961495","steam_id":85568392925397853,"keywords":["cp","nocrits","nodmgspread","uncletopia"],"game_id":440,"stv_port":27046,"stv_name":"Uncletopia | Warsaw | 4 | All Maps | STV","players":null},{"server_id":53,"name":"Uncletopia | Warsaw | 5 | Stopwatch","name_short":"waw-5","host":"waw-1.pl.uncletopia.com","port":27055,"enabled":true,"region":"eu","cc":"pl","latitude":52.2297,"longitude":21.017532,"reserved":0,"last_update":"0001-01-01T00:00:00Z","name_a2s":"Uncletopia | Warsaw | 5 | Stopwatch","protocol":17,"map":"workshop/pl_badwater_pro_v12.ugc2142942074","folder":"tf","game":"Team Fortress","app_id":440,"player_count":0,"max_players":24,"Bots":0,"server_type":"Dedicated","server_os":"Linux","password":true,"vac":true,"version":"7961495","steam_id":85568392925397854,"keywords":["nocrits","nodmgspread","payload","uncletopia"],"game_id":440,"stv_port":27056,"stv_name":"Uncletopia | Warsaw | 5 | Stopwatch | STV","players":null},{"server_id":54,"name":"Uncletopia | Warsaw | 6 | Community","name_short":"waw-6","host":"waw-1.pl.uncletopia.com","port":27065,"enabled":true,"region":"eu","cc":"pl","latitude":52.2297,"longitude":21.017532,"reserved":0,"last_update":"0001-01-01T00:00:00Z","name_a2s":"Uncletopia | Warsaw | 6 | Community","protocol":17,"map":"workshop/rd_asteroid_redux_b1.ugc2154902912","folder":"tf","game":"Team Fortress","app_id":440,"player_count":0,"max_players":24,"Bots":0,"server_type":"Dedicated","server_os":"Linux","password":true,"vac":true,"version":"7961495","steam_id":85568392925397856,"keywords":["beta","nocrits","nodmgspread","rd","uncletopia"],"game_id":440,"stv_port":27066,"stv_name":"Uncletopia | Warsaw | 6 | Community | STV","players":null}]}