{"status":true,"message":"","result":[{"server_id":9,"name":"Uncletopia | Atlanta | 1 | All Maps","name_short":"atl-1","host":"atl-1.us.uncletopia.com","port":27015,"enabled":true,"region":"us-east","cc":"us","latitude":33.753746,"longitude":-84.38633,"reserved":0,"last_update":"0001-01-01T00:00:00Z","name_a2s":"Uncletopia | Atlanta | 1 | All Maps","protocol":17,"map":"pl_frontier_final","folder":"tf","game":"Team Fortress","app_id":440,"player_count":19,"max_players":24,"Bots":0,"server_type":"Dedicated","server_os":"Linux","password":true,"vac":true,"version":"7695204","steam_id":85568392924469982,"keywords":["nocrits","nodmgspread","payload","uncletopia"],"game_id":440,"stv_port":27016,"stv_name":"Uncletopia | Atlanta | 1 | All Maps | STV","players":[{"user_id":279,"name":"ATL1 | Phestive Pango","steam_id":76561198069811545,"connected_time":33000000000,"state":"spawning","ping":68},{"user_id":251,"name":"Marshy","steam_id":76561198421784454,"connected_time":3244000000000,"state":"spawning","ping":136},{"user_id":275,"name":"merry mommy","steam_id":76561199230929836,"connected_time":945000000000,"state":"spawning","ping":133},{"user_id":246,"name":"Duncan Idaho","steam_id":76561197988963861,"connected_time":3713000000000,"state":"spawning","ping":78},{"user_id":242,"name":"ATL1 | eish","steam_id":76561198089463603,"connected_time":3867000000000,"state":"spawning","ping":156},{"user_id":243,"name":"WarpdriveEngineer","steam_id":76561198073530973,"connected_time":3835000000000,"state":"spawning","ping":124},{"user_id":269,"name":"Little Pew","steam_id":76561198140341533,"connected_time":2012000000000,"state":"spawning","ping":100},{"user_id":220,"name":"CHAD","steam_id":76561199122232082,"connected_time":5369000000000,"state":"spawning","ping":119},{"user_id":259,"name":"joe lft","steam_id":76561198045781320,"connected_time":2546000000000,"state":"spawning","ping":96},{"user_id":233,"name":"You Don't Nomi.","steam_id":76561197969137836,"connected_time":4607000000000,"state":"spawning","ping":101},{"user_id":260,"name":"Don william","steam_id":76561199066025998,"connected_time":2544000000000,"state":"spawning","ping":171},{"user_id":261,"name":"SodaMazing","steam_id":76561198087297121,"connected_time":2516000000000,"state":"spawning","ping":129},{"user_id":277,"name":"Samuel","steam_id":76561198045652639,"connected_time":782000000000,"state":"spawning","ping":195},{"user_id":278,"name":"Jin Gulilo","steam_id":76561198065151242,"connected_time":609000000000,"state":"spawning","ping":107},{"user_id":212,"name":"Talos","steam_id":76561198022362861,"connected_time":5810000000000,"state":"spawning","ping":96},{"user_id":274,"name":"ATL6 loot","steam_id":76561198069954956,"connected_time":1350000000000,"state":"spawning","ping":72},{"user_id":267,"name":"Esau","steam_id":76561198110449520,"connected_time":2240000000000,"state":"spawning","ping":101},{"user_id":272,"name":"ATL6 DeezNoodlez","steam_id":76561198246700372,"connected_time":1438000000000,"state":"spawning","ping":95},{"user_id":248,"name":"dnl","steam_id":76561198096413059,"connected_time":3607000000000,"state":"spawning","ping":182}]},{"server_id":400,"name":"Uncletopia | Atlanta | 3 | All Maps","name_short":"atl-3","host":"atl-1.us.uncletopia.com","port":27035,"enabled":true,"region":"us-east","cc":"us","latitude":33.753746,"longitude":-84.38633,"reserved":0,"last_update":"0001-01-01T00:00:00Z","name_a2s":"Uncletopia | Atlanta | 3 | All Maps","protocol":17,"map":"pl_swiftwater_final1","folder":"tf","game":"Team Fortress","app_id":440,"player_count":8,"max_players":24,"Bots":0,"server_type":"Dedicated","server_os":"Linux","password":true,"vac":true,"version":"7695204","steam_id":85568392924515187,"keywords":["nocrits","nodmgspread","payload","uncletopia"],"game_id":440,"stv_port":27036,"stv_name":"Uncletopia | Atlanta | 3 | All Maps | STV","players":[{"user_id":6,"name":"Jang-Lang-","steam_id":76561199016578959,"connected_time":1666000000000,"state":"active","ping":56},{"user_id":7,"name":"{Sly Fox}","steam_id":76561199069954162,"connected_time":1574000000000,"state":"active","ping":69},{"user_id":8,"name":"Uung","steam_id":76561198183956731,"connected_time":1235000000000,"state":"active","ping":42},{"user_id":9,"name":"Egg","steam_id":76561199075359963,"connected_time":1234000000000,"state":"active","ping":68},{"user_id":10,"name":"AtomicTEM","steam_id":76561198128579718,"connected_time":734000000000,"state":"spawning","ping":93},{"user_id":12,"name":"Moonadoo","steam_id":76561198133377546,"connected_time":529000000000,"state":"active","ping":107},{"user_id":15,"name":"Zeus","steam_id":76561199259788503,"connected_time":204000000000,"state":"active","ping":51},{"user_id":16,"name":"tulpa","steam_id":76561198013253513,"connected_time":131000000000,"state":"active","ping":55}]},{"server_id":401,"name":"Uncletopia | Atlanta | 4 | No Payload","name_short":"atl-4","host":"atl-1.us.uncletopia.com","port":27045,"enabled":true,"region":"us-east","cc":"us","latitude":33.753746,"longitude":-84.38633,"reserved":0,"last_update":"0001-01-01T00:00:00Z","name_a2s":"Uncletopia | Atlanta | 4 | No Payload","protocol":17,"map":"koth_harvest_final","folder":"tf","game":"Team Fortress","app_id":440,"player_count":6,"max_players":24,"Bots":0,"server_type":"Dedicated","server_os":"Linux","password":true,"vac":true,"version":"7695204","steam_id":85568392924515188,"keywords":["cp","nocrits","nodmgspread","uncletopia"],"game_id":440,"stv_port":27046,"stv_name":"Uncletopia | Atlanta | 4 | No Payload | STV","players":[{"user_id":20,"name":"PsychoPath","steam_id":76561199144427347,"connected_time":1244000000000,"state":"active","ping":144},{"user_id":21,"name":"mohammedreshard7","steam_id":76561199191006273,"connected_time":1124000000000,"state":"active","ping":96},{"user_id":27,"name":"magia kawaii :3","steam_id":76561198983805262,"connected_time":23000000000,"state":"active","ping":111},{"user_id":24,"name":"B0r33d","steam_id":76561198402912656,"connected_time":358000000000,"state":"active","ping":106},{"user_id":25,"name":"MotzuzZz","steam_id":76561198932615627,"connected_time":334000000000,"state":"active","ping":142},{"user_id":26,"name":"Michelle","steam_id":76561198257887037,"connected_time":331000000000,"state":"active","ping":132}]},{"server_id":2,"name":"Uncletopia | Chicago | 1 | All Maps","name_short":"chi-1","host":"chi-1.us.uncletopia.com","port":27015,"enabled":true,"region":"us-central","cc":"us","latitude":41.881832,"longitude":-87.62318,"reserved":0,"last_update":"0001-01-01T00:00:00Z","name_a2s":"Uncletopia | Chicago | 1 | All Maps","protocol":17,"map":"cp_snakewater_final1","folder":"tf","game":"Team Fortress","app_id":440,"player_count":24,"max_players":24,"Bots":0,"server_type":"Dedicated","server_os":"Linux","password":true,"vac":true,"version":"7695204","steam_id":85568392924469984,"keywords":["cp","nocrits","nodmgspread","uncletopia"],"game_id":440,"stv_port":27016,"stv_name":"Uncletopia | Chicago | 1 | All Maps | STV","players":[{"user_id":334,"name":"rowen","steam_id":76561198801540362,"connected_time":78000000000,"state":"active","ping":145},{"user_id":313,"name":"iHateOverwatchiLoveTf2","steam_id":76561198081617990,"connected_time":1407000000000,"state":"active","ping":98},{"user_id":230,"name":"‚ô• Femboy‚ô•Ventily ‚ô•","steam_id":76561198157260335,"connected_time":6379000000000,"state":"active","ping":59},{"user_id":322,"name":"Skippies","steam_id":76561198131280715,"connected_time":471000000000,"state":"active","ping":71},{"user_id":324,"name":"XD","steam_id":76561198101393625,"connected_time":414000000000,"state":"active","ping":73},{"user_id":317,"name":"Basurado","steam_id":76561198819695655,"connected_time":1007000000000,"state":"active","ping":56},{"user_id":319,"name":"Alice in Rubberland","steam_id":76561198087328346,"connected_time":947000000000,"state":"active","ping":47},{"user_id":266,"name":"defs98","steam_id":76561198134813102,"connected_time":4172000000000,"state":"active","ping":58},{"user_id":325,"name":"Inevitable","steam_id":76561198210050169,"connected_time":413000000000,"state":"active","ping":60},{"user_id":304,"name":"Chronos","steam_id":76561198126625623,"connected_time":1633000000000,"state":"active","ping":60},{"user_id":303,"name":"dizzroll69","steam_id":76561199422394716,"connected_time":1662000000000,"state":"active","ping":100},{"user_id":305,"name":"jeremy","steam_id":76561198069600113,"connected_time":1627000000000,"state":"active","ping":74},{"user_id":318,"name":"All Tomorrow's Parties","steam_id":76561197995936212,"connected_time":966000000000,"state":"active","ping":45},{"user_id":294,"name":"Randy \"the Man\" Johnson","steam_id":76561198039124445,"connected_time":2118000000000,"state":"active","ping":89},{"user_id":217,"name":"PKBEAST_7","steam_id":76561198177136537,"connected_time":7342000000000,"state":"active","ping":80},{"user_id":315,"name":"krie","steam_id":76561198018564445,"connected_time":1364000000000,"state":"active","ping":60},{"user_id":293,"name":"Catboy Potemkin","steam_id":76561198078474420,"connected_time":2165000000000,"state":"active","ping":66},{"user_id":279,"name":"Dreysidel","steam_id":76561198056496183,"connected_time":3227000000000,"state":"active","ping":67},{"user_id":327,"name":"Cafe Alpha","steam_id":76561197965022076,"connected_time":372000000000,"state":"active","ping":49},{"user_id":333,"name":"leumas","steam_id":76561198240408540,"connected_time":131000000000,"state":"active","ping":58},{"user_id":308,"name":"Charlie Horse","steam_id":76561199043573980,"connected_time":1546000000000,"state":"active","ping":49},{"user_id":310,"name":"esoobac","steam_id":76561198010370396,"connected_time":1521000000000,"state":"active","ping":45},{"user_id":292,"name":"coolkid #sextf2","steam_id":76561198072600034,"connected_time":2426000000000,"state":"active","ping":115},{"user_id":330,"name":"„Çπ„Éë„Ç§„ÇØ","steam_id":76561199417277716,"connected_time":303000000000,"state":"active","ping":67}]},{"server_id":106,"name":"Uncletopia | Chicago | 2 | All Maps","name_short":"chi-2","host":"chi-1.us.uncletopia.com","port":27025,"enabled":true,"region":"us-central","cc":"us","latitude":41.881832,"longitude":-87.62318,"reserved":0,"last_update":"0001-01-01T00:00:00Z","name_a2s":"Uncletopia | Chicago | 2 | All Maps","protocol":17,"map":"pl_pier","folder":"tf","game":"Team Fortress","app_id":440,"player_count":24,"max_players":24,"Bots":0,"server_type":"Dedicated","server_os":"Linux","password":true,"vac":true,"version":"7695204","steam_id":85568392924469985,"keywords":["nocrits","nodmgspread","payload","uncletopia"],"game_id":440,"stv_port":27026,"stv_name":"Uncletopia | Chicago | 2 | All Maps | STV","players":[{"user_id":196,"name":"Fudgely","steam_id":76561198039425862,"connected_time":2105000000000,"state":"active","ping":77},{"user_id":222,"name":"Candy Sparkles","steam_id":76561198126871264,"connected_time":68000000000,"state":"active","ping":81},{"user_id":203,"name":"‚ù§birbohex‚ù§","steam_id":76561198392961483,"connected_time":1850000000000,"state":"active","ping":37},{"user_id":223,"name":"Atlas.","steam_id":76561199406175512,"connected_time":59000000000,"state":"active","ping":62},{"user_id":207,"name":"RyInc","steam_id":76561198874261643,"connected_time":1224000000000,"state":"active","ping":45},{"user_id":184,"name":"Tyler\u0026Fingers","steam_id":76561198085154485,"connected_time":2443000000000,"state":"active","ping":77},{"user_id":158,"name":"King Sans","steam_id":76561198294198517,"connected_time":5084000000000,"state":"active","ping":65},{"user_id":221,"name":"Shmoopellie","steam_id":76561198077272494,"connected_time":172000000000,"state":"active","ping":46},{"user_id":213,"name":"new york sewer rat","steam_id":76561198301487883,"connected_time":832000000000,"state":"active","ping":71},{"user_id":202,"name":"Soap","steam_id":76561198074619142,"connected_time":1924000000000,"state":"active","ping":60},{"user_id":218,"name":"LightBulbGlue #SaveTF2","steam_id":76561198329573529,"connected_time":479000000000,"state":"active","ping":63},{"user_id":138,"name":"Cursed Dog","steam_id":76561198090785078,"connected_time":6026000000000,"state":"active","ping":94},{"user_id":212,"name":"crabapples","steam_id":76561198075818655,"connected_time":890000000000,"state":"active","ping":64},{"user_id":214,"name":"Vec","steam_id":76561198044505262,"connected_time":820000000000,"state":"active","ping":78},{"user_id":198,"name":"Fly_Johnson","steam_id":76561198882285873,"connected_time":2052000000000,"state":"active","ping":61},{"user_id":151,"name":"WhatsHisName","steam_id":76561198982712556,"connected_time":5518000000000,"state":"active","ping":83},{"user_id":200,"name":"Joseph Madre","steam_id":76561199084714284,"connected_time":2042000000000,"state":"active","ping":69},{"user_id":182,"name":"gabebarron27","steam_id":76561199390578153,"connected_time":2670000000000,"state":"active","ping":71},{"user_id":169,"name":":3 vs \u003e:3","steam_id":76561199106847859,"connected_time":4405000000000,"state":"active","ping":69},{"user_id":220,"name":"FrostyFrontier","steam_id":76561198370530394,"connected_time":386000000000,"state":"active","ping":62},{"user_id":195,"name":"Acro Banwagon","steam_id":76561198092451804,"connected_time":2219000000000,"state":"active","ping":69},{"user_id":210,"name":"PzVIIIMaus","steam_id":76561198346559365,"connected_time":1133000000000,"state":"active","ping":41},{"user_id":180,"name":"Kevin Y.","steam_id":76561198364331423,"connected_time":3247000000000,"state":"active","ping":84},{"user_id":217,"name":"killhaus","steam_id":76561199100732652,"connected_time":710000000000,"state":"active","ping":123}]},{"server_id":402,"name":"Uncletopia | Chicago | 3 | All Maps","name_short":"chi-3","host":"chi-1.us.uncletopia.com","port":27035,"enabled":true,"region":"us-central","cc":"us","latitude":41.881832,"longitude":-87.62318,"reserved":0,"last_update":"0001-01-01T00:00:00Z","name_a2s":"Uncletopia | Chicago | 3 | All Maps","protocol":17,"map":"koth_viaduct","folder":"tf","game":"Team Fortress","app_id":440,"player_count":23,"max_players":24,"Bots":0,"server_type":"Dedicated","server_os":"Linux","password":true,"vac":true,"version":"7695204","steam_id":85568392924515191,"keywords":["cp","nocrits","nodmgspread","uncletopia"],"game_id":440,"stv_port":27036,"stv_name":"Uncletopia | Chicago | 3 | All Maps | STV","players":[{"user_id":132,"name":"Jatt","steam_id":76561198822011219,"connected_time":1078000000000,"state":"active","ping":67},{"user_id":135,"name":"nepeta from undertale","steam_id":76561198023770512,"connected_time":999000000000,"state":"active","ping":70},{"user_id":133,"name":"Zeadros","steam_id":76561198170158482,"connected_time":1061000000000,"state":"active","ping":51},{"user_id":153,"name":"Gary Budussy","steam_id":76561197969793969,"connected_time":163000000000,"state":"active","ping":50},{"user_id":154,"name":"destripador003","steam_id":76561199437073570,"connected_time":150000000000,"state":"active","ping":107},{"user_id":134,"name":"PrinceGrotle","steam_id":76561198206131603,"connected_time":1041000000000,"state":"active","ping":69},{"user_id":143,"name":"Atomic Faced Horror","steam_id":76561198108025180,"connected_time":778000000000,"state":"active","ping":54},{"user_id":136,"name":"warm","steam_id":76561198022960795,"connected_time":983000000000,"state":"active","ping":94},{"user_id":144,"name":"FUSION","steam_id":76561197972659738,"connected_time":778000000000,"state":"active","ping":57},{"user_id":121,"name":"Geloman","steam_id":76561198005501322,"connected_time":2213000000000,"state":"active","ping":80},{"user_id":141,"name":"Artillerymanüí£","steam_id":76561198103503066,"connected_time":885000000000,"state":"active","ping":80},{"user_id":145,"name":"EvilsConscience","steam_id":76561198073451760,"connected_time":744000000000,"state":"active","ping":45},{"user_id":51,"name":"Your Local Jester","steam_id":76561199120223717,"connected_time":6685000000000,"state":"active","ping":74},{"user_id":137,"name":"senorpapel","steam_id":76561198040507073,"connected_time":975000000000,"state":"active","ping":54},{"user_id":140,"name":"sc0ut_Dr1nkMadM!lk","steam_id":76561199027007832,"connected_time":935000000000,"state":"active","ping":71},{"user_id":155,"name":"sped","steam_id":76561199166411595,"connected_time":146000000000,"state":"active","ping":75},{"user_id":156,"name":"what'd you say","steam_id":76561198284992433,"connected_time":133000000000,"state":"active","ping":46},{"user_id":142,"name":"Crabo Stabbo","steam_id":76561198061227228,"connected_time":814000000000,"state":"active","ping":51},{"user_id":146,"name":"PeopleOrderOurPatties","steam_id":76561198323144922,"connected_time":715000000000,"state":"active","ping":53},{"user_id":99,"name":"sora","steam_id":76561198094256973,"connected_time":3562000000000,"state":"active","ping":94},{"user_id":114,"name":"Big Tiddy Serperior","steam_id":76561198114808144,"connected_time":2898000000000,"state":"active","ping":127},{"user_id":148,"name":"Grunkle_Chubs","steam_id":76561198272017187,"connected_time":671000000000,"state":"active","ping":64},{"user_id":149,"name":"C:\\PT/\\IN","steam_id":76561198038520307,"connected_time":662000000000,"state":"active","ping":54}]},{"server_id":403,"name":"Uncletopia | Chicago | 4 | All Maps","name_short":"chi-4","host":"chi-1.us.uncletopia.com","port":27045,"enabled":true,"region":"us-central","cc":"us","latitude":41.881832,"longitude":-87.62318,"reserved":0,"last_update":"0001-01-01T00:00:00Z","name_a2s":"Uncletopia | Chicago | 4 | All Maps","protocol":17,"map":"cp_process_final","folder":"tf","game":"Team Fortress","app_id":440,"player_count":19,"max_players":24,"Bots":0,"server_type":"Dedicated","server_os":"Linux","password":true,"vac":true,"version":"7695204","steam_id":85568392924515193,"keywords":["cp","nocrits","nodmgspread","uncletopia"],"game_id":440,"stv_port":27046,"stv_name":"Uncletopia | Chicago | 4 | All Maps | STV","players":[{"user_id":272,"name":"Aerguera","steam_id":76561198117613222,"connected_time":1386000000000,"state":"active","ping":60},{"user_id":287,"name":"BadTad","steam_id":76561198947252709,"connected_time":681000000000,"state":"active","ping":109},{"user_id":281,"name":"SuperJagops","steam_id":76561198034689716,"connected_time":1107000000000,"state":"active","ping":55},{"user_id":288,"name":"garfield","steam_id":76561198114119308,"connected_time":631000000000,"state":"active","ping":62},{"user_id":269,"name":"Go Away","steam_id":76561199213453506,"connected_time":1453000000000,"state":"active","ping":87},{"user_id":289,"name":"Average Reagan Youth Fan","steam_id":76561198355754259,"connected_time":571000000000,"state":"active","ping":65},{"user_id":260,"name":"I AM NOT THE GREAT MUTWA","steam_id":76561198018636753,"connected_time":2592000000000,"state":"active","ping":61},{"user_id":290,"name":"1444","steam_id":76561199409264244,"connected_time":571000000000,"state":"active","ping":71},{"user_id":270,"name":"Shrake","steam_id":76561198114379995,"connected_time":1452000000000,"state":"active","ping":36},{"user_id":276,"name":"BongWater","steam_id":76561198082351263,"connected_time":1287000000000,"state":"active","ping":69},{"user_id":251,"name":"ALLOHA¬Æüòπüòπüòπ‚Ñ¢","steam_id":76561198394039817,"connected_time":2818000000000,"state":"active","ping":70},{"user_id":297,"name":"ShadBad","steam_id":76561198248287390,"connected_time":329000000000,"state":"active","ping":98},{"user_id":298,"name":"Logan The Lemon","steam_id":76561198816048002,"connected_time":178000000000,"state":"active","ping":62},{"user_id":283,"name":"Waffle Wannabe","steam_id":76561198064510650,"connected_time":1070000000000,"state":"active","ping":54},{"user_id":274,"name":"Bucket of Spaghetti","steam_id":76561198126680822,"connected_time":1373000000000,"state":"active","ping":61},{"user_id":275,"name":"Elizabeth Comstock","steam_id":76561199089985148,"connected_time":1354000000000,"state":"active","ping":173},{"user_id":299,"name":"Josh","steam_id":76561198155863376,"connected_time":170000000000,"state":"active","ping":72},{"user_id":235,"name":"Scorpie Doodle","steam_id":76561198021845763,"connected_time":3948000000000,"state":"active","ping":53},{"user_id":285,"name":"WinterBerry","steam_id":76561198437148505,"connected_time":1024000000000,"state":"active","ping":95}]},{"server_id":36,"name":"Uncletopia | Chicago | 5 | All Maps","name_short":"chi-5","host":"chi-2.us.uncletopia.com","port":27015,"enabled":true,"region":"us-central","cc":"us","latitude":41.881832,"longitude":-87.62318,"reserved":0,"last_update":"0001-01-01T00:00:00Z","name_a2s":"Uncletopia | Chicago | 5 | All Maps","protocol":17,"map":"pl_barnblitz","folder":"tf","game":"Team Fortress","app_id":440,"player_count":24,"max_players":24,"Bots":0,"server_type":"Dedicated","server_os":"Linux","password":true,"vac":true,"version":"7695204","steam_id":85568392924866362,"keywords":["nocrits","nodmgspread","payload","uncletopia"],"game_id":440,"stv_port":27016,"stv_name":"Uncletopia | Chicago | 5 | All Maps | STV","players":[{"user_id":44,"name":"StupidWizardYT","steam_id":76561198285264050,"connected_time":2885000000000,"state":"active","ping":66},{"user_id":74,"name":"lle","steam_id":76561198205386960,"connected_time":754000000000,"state":"active","ping":73},{"user_id":55,"name":"Alice","steam_id":76561198261914512,"connected_time":2159000000000,"state":"active","ping":70},{"user_id":73,"name":"lampshade","steam_id":76561199092140963,"connected_time":918000000000,"state":"active","ping":156},{"user_id":69,"name":"potty trained","steam_id":76561198141557766,"connected_time":1453000000000,"state":"active","ping":74},{"user_id":50,"name":"John","steam_id":76561199245489212,"connected_time":2440000000000,"state":"active","ping":167},{"user_id":68,"name":"haxxorman","steam_id":76561199155156400,"connected_time":1504000000000,"state":"active","ping":51},{"user_id":17,"name":"Daft and Punk Truther","steam_id":76561198856708121,"connected_time":3858000000000,"state":"active","ping":58},{"user_id":77,"name":"ultrax.extremex","steam_id":76561199201770653,"connected_time":271000000000,"state":"active","ping":63},{"user_id":65,"name":"Sheppy","steam_id":76561198295126940,"connected_time":1523000000000,"state":"active","ping":52},{"user_id":78,"name":"Stapler","steam_id":76561198099295077,"connected_time":261000000000,"state":"active","ping":98},{"user_id":80,"name":"uullee","steam_id":76561199161909287,"connected_time":166000000000,"state":"active","ping":59},{"user_id":22,"name":"Iroh's Ramshackle Catamaran","steam_id":76561198012951411,"connected_time":3738000000000,"state":"active","ping":53},{"user_id":81,"name":"demo_mans_son","steam_id":76561199185880170,"connected_time":97000000000,"state":"active","ping":59},{"user_id":49,"name":"t.tv/stabslive","steam_id":76561198293116584,"connected_time":2562000000000,"state":"active","ping":74},{"user_id":59,"name":"tingle shitmouth","steam_id":76561198055109192,"connected_time":1917000000000,"state":"active","ping":74},{"user_id":57,"name":"Cum-pkin ‚ù§","steam_id":76561199273774208,"connected_time":2020000000000,"state":"active","ping":165},{"user_id":67,"name":"Zero","steam_id":76561199383267408,"connected_time":1512000000000,"state":"active","ping":68},{"user_id":82,"name":"The Coffee","steam_id":76561198171941807,"connected_time":77000000000,"state":"spawning","ping":51},{"user_id":32,"name":"amongusbungus","steam_id":76561198258950520,"connected_time":3665000000000,"state":"active","ping":63},{"user_id":83,"name":"astrofed","steam_id":76561199017901552,"connected_time":33000000000,"state":"active","ping":60},{"user_id":75,"name":"Approving Penguin","steam_id":76561198070959246,"connected_time":696000000000,"state":"active","ping":86},{"user_id":76,"name":"warpig","steam_id":76561199226313309,"connected_time":620000000000,"state":"active","ping":63},{"user_id":84,"name":"giant_dork","steam_id":76561199105606956,"connected_time":31000000000,"state":"active","ping":65}]},{"server_id":37,"name":"Uncletopia | Chicago | 6 | All Maps","name_short":"chi-6","host":"chi-2.us.uncletopia.com","port":27025,"enabled":true,"region":"us-central","cc":"us","latitude":41.881832,"longitude":-87.62318,"reserved":0,"last_update":"0001-01-01T00:00:00Z","name_a2s":"Uncletopia | Chicago | 6 | All Maps","protocol":17,"map":"pl_swiftwater_final1","folder":"tf","game":"Team Fortress","app_id":440,"player_count":22,"max_players":24,"Bots":0,"server_type":"Dedicated","server_os":"Linux","password":true,"vac":true,"version":"7695204","steam_id":85568392924866363,"keywords":["nocrits","nodmgspread","payload","uncletopia"],"game_id":440,"stv_port":27026,"stv_name":"Uncletopia | Chicago | 6 | All Maps | STV","players":[{"user_id":128,"name":"Mister36","steam_id":76561198019132100,"connected_time":4013000000000,"state":"active","ping":90},{"user_id":153,"name":"N/A","steam_id":76561198815802809,"connected_time":2390000000000,"state":"active","ping":50},{"user_id":154,"name":"Banana Jim","steam_id":76561198124049947,"connected_time":2363000000000,"state":"active","ping":74},{"user_id":181,"name":"oof aim small brain","steam_id":76561198079925551,"connected_time":1152000000000,"state":"active","ping":63},{"user_id":20,"name":"The World's Softest Sandwich","steam_id":76561198015577707,"connected_time":11984000000000,"state":"active","ping":77},{"user_id":148,"name":"SmissmasGamer","steam_id":76561198144049265,"connected_time":2770000000000,"state":"active","ping":63},{"user_id":159,"name":"CannedFeet","steam_id":76561198860862393,"connected_time":2185000000000,"state":"active","ping":68},{"user_id":180,"name":"swesk2sheisty","steam_id":76561198288644172,"connected_time":1540000000000,"state":"active","ping":48},{"user_id":155,"name":"HaNyx","steam_id":76561199081442340,"connected_time":2343000000000,"state":"active","ping":60},{"user_id":26,"name":"Fresh Lychee","steam_id":76561198045399559,"connected_time":11495000000000,"state":"active","ping":59},{"user_id":156,"name":"≈Ωim","steam_id":76561198201677021,"connected_time":2318000000000,"state":"active","ping":77},{"user_id":171,"name":"Spicy Duck","steam_id":76561198065905730,"connected_time":1995000000000,"state":"active","ping":68},{"user_id":158,"name":"ImGourd","steam_id":76561198065145584,"connected_time":2202000000000,"state":"active","ping":63},{"user_id":165,"name":"re2licker","steam_id":76561198330132669,"connected_time":2120000000000,"state":"active","ping":40},{"user_id":161,"name":"Crazytaco2zday","steam_id":76561198133656976,"connected_time":2167000000000,"state":"active","ping":66},{"user_id":178,"name":"Young-OG","steam_id":76561198058800479,"connected_time":1603000000000,"state":"active","ping":76},{"user_id":176,"name":"jumbert","steam_id":76561198355231658,"connected_time":1684000000000,"state":"active","ping":85},{"user_id":188,"name":"Sentry Gun (Engineer)","steam_id":76561199004395829,"connected_time":108000000000,"state":"active","ping":76},{"user_id":187,"name":"mr.edderkopper","steam_id":76561198152614478,"connected_time":249000000000,"state":"active","ping":60},{"user_id":167,"name":"Nim","steam_id":76561198041236943,"connected_time":2069000000000,"state":"active","ping":55},{"user_id":184,"name":"Colonel Chikara","steam_id":76561198010021087,"connected_time":868000000000,"state":"active","ping":90},{"user_id":182,"name":"Rein","steam_id":76561198300340427,"connected_time":1040000000000,"state":"active","ping":66}]},{"server_id":38,"name":"Uncletopia | Chicago | 7 | No Payload","name_short":"chi-7","host":"chi-2.us.uncletopia.com","port":27035,"enabled":true,"region":"us-central","cc":"us","latitude":41.881832,"longitude":-87.62318,"reserved":0,"last_update":"0001-01-01T00:00:00Z","name_a2s":"Uncletopia | Chicago | 7 | No Payload","protocol":17,"map":"koth_harvest_final","folder":"tf","game":"Team Fortress","app_id":440,"player_count":3,"max_players":24,"Bots":0,"server_type":"Dedicated","server_os":"Linux","password":true,"vac":true,"version":"7695204","steam_id":85568392924866364,"keywords":["cp","nocrits","nodmgspread","uncletopia"],"game_id":440,"stv_port":27036,"stv_name":"Uncletopia | Chicago | 7 | No Payload | STV","players":[{"user_id":23,"name":"estruli","steam_id":76561198295690725,"connected_time":199000000000,"state":"active","ping":61},{"user_id":21,"name":"Cardjitsu Blackbelt","steam_id":76561199099203623,"connected_time":712000000000,"state":"active","ping":80},{"user_id":14,"name":"Tentacles","steam_id":76561198299825472,"connected_time":2294000000000,"state":"active","ping":74}]},{"server_id":39,"name":"Uncletopia | Chicago | 8 | Community","name_short":"chi-8","host":"chi-2.us.uncletopia.com","port":27045,"enabled":true,"region":"us-central","cc":"us","latitude":41.881832,"longitude":-87.62318,"reserved":0,"last_update":"0001-01-01T00:00:00Z","name_a2s":"Uncletopia | Chicago | 8 | Community","protocol":17,"map":"workshop/koth_product_final.ugc454272353","folder":"tf","game":"Team Fortress","app_id":440,"player_count":0,"max_players":24,"Bots":0,"server_type":"Dedicated","server_os":"Linux","password":true,"vac":true,"version":"7695204","steam_id":85568392924866365,"keywords":["cp","nocrits","nodmgspread","uncletopia"],"game_id":440,"stv_port":27046,"stv_name":"Uncletopia | Chicago | 8 | Community | STV","players":null},{"server_id":8,"name":"Uncletopia | Dallas | 1 | All Maps","name_short":"dal-1","host":"dal-1.us.uncletopia.com","port":27015,"enabled":true,"region":"us-central","cc":"us","latitude":32.779167,"longitude":-96.80889,"reserved":0,"last_update":"0001-01-01T00:00:00Z","name_a2s":"Uncletopia | Dallas | 1 | All Maps","protocol":17,"map":"pl_borneo","folder":"tf","game":"Team Fortress","app_id":440,"player_count":24,"max_players":24,"Bots":0,"server_type":"Dedicated","server_os":"Linux","password":true,"vac":true,"version":"7695204","steam_id":85568392924469986,"keywords":["nocrits","nodmgspread","payload","uncletopia"],"game_id":440,"stv_port":27016,"stv_name":"Uncletopia | Dallas | 1 | All Maps | STV","players":[{"user_id":461,"name":"ZachB.","steam_id":76561198039146326,"connected_time":717000000000,"state":"active","ping":96},{"user_id":466,"name":"jodewuulfe","steam_id":76561198815570976,"connected_time":411000000000,"state":"active","ping":90},{"user_id":468,"name":"Chrimith77","steam_id":76561198075130050,"connected_time":179000000000,"state":"active","ping":65},{"user_id":442,"name":"Bonecrusher, Crusher of Bones","steam_id":76561198067773904,"connected_time":2088000000000,"state":"active","ping":57},{"user_id":462,"name":"NotSoMewwo","steam_id":76561198130067099,"connected_time":693000000000,"state":"active","ping":61},{"user_id":463,"name":"yesno","steam_id":76561198067156972,"connected_time":681000000000,"state":"active","ping":96},{"user_id":443,"name":"Agent Bowtie","steam_id":76561198175839279,"connected_time":2065000000000,"state":"active","ping":52},{"user_id":340,"name":"Derply","steam_id":76561198871211642,"connected_time":8588000000000,"state":"active","ping":72},{"user_id":470,"name":"Ree11","steam_id":76561198044415861,"connected_time":123000000000,"state":"active","ping":78},{"user_id":445,"name":"iluvtoust","steam_id":76561198869269207,"connected_time":2030000000000,"state":"active","ping":45},{"user_id":433,"name":"Dog","steam_id":76561199055667840,"connected_time":3209000000000,"state":"active","ping":98},{"user_id":432,"name":"Yachter","steam_id":76561198129749194,"connected_time":3229000000000,"state":"active","ping":94},{"user_id":464,"name":"Level 4 Sniper (KaiserArc)","steam_id":76561198201702142,"connected_time":667000000000,"state":"active","ping":78},{"user_id":453,"name":"[XEN] Jbomb","steam_id":76561199197866625,"connected_time":1785000000000,"state":"active","ping":104},{"user_id":457,"name":"bomb","steam_id":76561198312179067,"connected_time":1172000000000,"state":"active","ping":77},{"user_id":465,"name":"Slightly Used Mango","steam_id":76561198293800794,"connected_time":644000000000,"state":"active","ping":52},{"user_id":467,"name":"Luna","steam_id":76561198075944196,"connected_time":409000000000,"state":"active","ping":73},{"user_id":407,"name":"???","steam_id":76561198200155343,"connected_time":5120000000000,"state":"active","ping":43},{"user_id":451,"name":"JustSomeInternetGuy","steam_id":76561199066037843,"connected_time":1926000000000,"state":"active","ping":52},{"user_id":459,"name":"NotGavin","steam_id":76561199201118645,"connected_time":859000000000,"state":"active","ping":57},{"user_id":456,"name":"The Animated Gamer","steam_id":76561198120639995,"connected_time":1673000000000,"state":"active","ping":175},{"user_id":474,"name":"god slayer","steam_id":76561198070251439,"connected_time":20000000000,"state":"active","ping":90},{"user_id":429,"name":"EmilyChains\u003c3","steam_id":76561198132008027,"connected_time":3463000000000,"state":"active","ping":77},{"user_id":472,"name":"10footlongschlong","steam_id":76561198291160259,"connected_time":91000000000,"state":"active","ping":61}]},{"server_id":108,"name":"Uncletopia | Dallas | 2 | All Maps","name_short":"dal-2","host":"dal-1.us.uncletopia.com","port":27025,"enabled":true,"region":"us-central","cc":"us","latitude":32.779167,"longitude":-96.80889,"reserved":0,"last_update":"0001-01-01T00:00:00Z","name_a2s":"Uncletopia | Dallas | 2 | All Maps","protocol":17,"map":"pl_pier","folder":"tf","game":"Team Fortress","app_id":440,"player_count":24,"max_players":24,"Bots":0,"server_type":"Dedicated","server_os":"Linux","password":true,"vac":true,"version":"7695204","steam_id":85568392924469988,"keywords":["nocrits","nodmgspread","payload","uncletopia"],"game_id":440,"stv_port":27026,"stv_name":"Uncletopia | Dallas | 2 | All Maps | STV","players":[{"user_id":193,"name":"Cam","steam_id":76561198139174433,"connected_time":1860000000000,"state":"active","ping":73},{"user_id":224,"name":"BlueRikoroo","steam_id":76561198031865740,"connected_time":680000000000,"state":"active","ping":56},{"user_id":213,"name":"BayanTheBear","steam_id":76561198134537476,"connected_time":1183000000000,"state":"active","ping":82},{"user_id":212,"name":"Dr. Ludwig","steam_id":76561198110246392,"connected_time":1210000000000,"state":"active","ping":59},{"user_id":223,"name":"The Figgler","steam_id":76561198168295944,"connected_time":768000000000,"state":"active","ping":62},{"user_id":215,"name":"Fucken Tony","steam_id":76561198332613369,"connected_time":1120000000000,"state":"active","ping":61},{"user_id":145,"name":"Lolxdloldx","steam_id":76561198136887125,"connected_time":5448000000000,"state":"active","ping":81},{"user_id":216,"name":"[DATS‚û°] Sugar Meowth","steam_id":76561197995251793,"connected_time":1079000000000,"state":"active","ping":90},{"user_id":198,"name":"Bonweth","steam_id":76561198065437421,"connected_time":1623000000000,"state":"active","ping":46},{"user_id":229,"name":"CSharp","steam_id":76561199185191710,"connected_time":90000000000,"state":"active","ping":127},{"user_id":149,"name":"Big Yoshi","steam_id":76561199160576376,"connected_time":5218000000000,"state":"active","ping":103},{"user_id":124,"name":"PINGAS DISPENSER‚Ñ¢","steam_id":76561198014868070,"connected_time":7400000000000,"state":"active","ping":69},{"user_id":217,"name":"cbluboom","steam_id":76561199207457676,"connected_time":1069000000000,"state":"active","ping":51},{"user_id":191,"name":"RAHHHHHH","steam_id":76561198197086161,"connected_time":2258000000000,"state":"active","ping":87},{"user_id":230,"name":"GLEEKY","steam_id":76561198287245599,"connected_time":85000000000,"state":"active","ping":74},{"user_id":219,"name":"taishang","steam_id":76561198065328284,"connected_time":1041000000000,"state":"active","ping":72},{"user_id":220,"name":"Harold","steam_id":76561198057317770,"connected_time":963000000000,"state":"active","ping":78},{"user_id":227,"name":"Father of Lies","steam_id":76561198985847893,"connected_time":521000000000,"state":"active","ping":48},{"user_id":221,"name":"RelativeToZero","steam_id":76561198175875733,"connected_time":958000000000,"state":"active","ping":119},{"user_id":150,"name":"PomsonPug","steam_id":76561198049093575,"connected_time":5142000000000,"state":"active","ping":85},{"user_id":157,"name":"45 Cent","steam_id":76561198048690188,"connected_time":4703000000000,"state":"active","ping":94},{"user_id":226,"name":"crommy","steam_id":76561198120461656,"connected_time":645000000000,"state":"active","ping":73},{"user_id":170,"name":"PapaBluss","steam_id":76561198023499564,"connected_time":4352000000000,"state":"active","ping":78},{"user_id":225,"name":"wahooka","steam_id":76561197981211922,"connected_time":650000000000,"state":"active","ping":72}]},{"server_id":5,"name":"Uncletopia | Frankfurt | 1 | All Maps","name_short":"frk-1","host":"frk-1.de.uncletopia.com","port":27015,"enabled":true,"region":"eu","cc":"de","latitude":50.110924,"longitude":8.682127,"reserved":0,"last_update":"0001-01-01T00:00:00Z","name_a2s":"Uncletopia | Frankfurt | 1 | All Maps","protocol":17,"map":"pl_swiftwater_final1","folder":"tf","game":"Team Fortress","app_id":440,"player_count":23,"max_players":24,"Bots":0,"server_type":"Dedicated","server_os":"Linux","password":true,"vac":true,"version":"7695204","steam_id":85568392924469989,"keywords":["nocrits","nodmgspread","payload","uncletopia"],"game_id":440,"stv_port":27016,"stv_name":"Uncletopia | Frankfurt | 1 | All Maps | STV","players":[{"user_id":652,"name":"cheriberry","steam_id":76561198093577036,"connected_time":7000000000,"state":"spawning","ping":44},{"user_id":626,"name":"breedable","steam_id":76561198010300032,"connected_time":1616000000000,"state":"active","ping":70},{"user_id":549,"name":"Lyell","steam_id":76561198350329389,"connected_time":8341000000000,"state":"active","ping":79},{"user_id":651,"name":"Krios","steam_id":76561199198145670,"connected_time":130000000000,"state":"active","ping":44},{"user_id":619,"name":"Micha≈Ç","steam_id":76561198320346362,"connected_time":2044000000000,"state":"active","ping":58},{"user_id":606,"name":"Brothu","steam_id":76561198095120859,"connected_time":3468000000000,"state":"active","ping":69},{"user_id":649,"name":"scout21","steam_id":76561198328259982,"connected_time":384000000000,"state":"active","ping":99},{"user_id":640,"name":"TheStrplum213","steam_id":76561198305821874,"connected_time":697000000000,"state":"active","ping":69},{"user_id":575,"name":"Carl","steam_id":76561198045638738,"connected_time":6150000000000,"state":"active","ping":92},{"user_id":463,"name":"sharkmax12312","steam_id":76561198996008569,"connected_time":13434000000000,"state":"active","ping":77},{"user_id":587,"name":"fogings","steam_id":76561198044165284,"connected_time":4282000000000,"state":"active","ping":40},{"user_id":637,"name":"NotFionn","steam_id":76561198890525176,"connected_time":848000000000,"state":"active","ping":83},{"user_id":638,"name":".Aq","steam_id":76561198043376092,"connected_time":845000000000,"state":"active","ping":106},{"user_id":602,"name":"Bobo","steam_id":76561198052308399,"connected_time":3613000000000,"state":"active","ping":54},{"user_id":641,"name":"alien","steam_id":76561197968892194,"connected_time":690000000000,"state":"active","ping":55},{"user_id":642,"name":"ukoneser","steam_id":76561198254652943,"connected_time":675000000000,"state":"active","ping":62},{"user_id":643,"name":"Ankalagon","steam_id":76561198070327914,"connected_time":660000000000,"state":"active","ping":50},{"user_id":547,"name":"ghost","steam_id":76561198189940229,"connected_time":8703000000000,"state":"active","ping":63},{"user_id":644,"name":"Klaus","steam_id":76561198049591056,"connected_time":619000000000,"state":"active","ping":63},{"user_id":625,"name":"TF2 engineer","steam_id":76561198870834131,"connected_time":1706000000000,"state":"active","ping":104},{"user_id":624,"name":"Giga Chad Revi","steam_id":76561198288444777,"connected_time":1790000000000,"state":"active","ping":98},{"user_id":636,"name":"Empyrean","steam_id":76561198138552502,"connected_time":867000000000,"state":"active","ping":75},{"user_id":630,"name":"¬∞^¬∞","steam_id":76561198033813057,"connected_time":1367000000000,"state":"active","ping":78}]},{"server_id":110,"name":"Uncletopia | Frankfurt | 2 | All Maps","name_short":"frk-2","host":"frk-1.de.uncletopia.com","port":27025,"enabled":true,"region":"eu","cc":"de","latitude":50.110924,"longitude":8.682127,"reserved":0,"last_update":"0001-01-01T00:00:00Z","name_a2s":"Uncletopia | Frankfurt | 2 | All Maps","protocol":17,"map":"pl_hoodoo_final","folder":"tf","game":"Team Fortress","app_id":440,"player_count":21,"max_players":24,"Bots":0,"server_type":"Dedicated","server_os":"Linux","password":true,"vac":true,"version":"7695204","steam_id":85568392924469990,"keywords":["nocrits","nodmgspread","payload","uncletopia"],"game_id":440,"stv_port":27026,"stv_name":"Uncletopia | Frankfurt | 2 | All Maps | STV","players":[{"user_id":188,"name":"Moonlightexel","steam_id":76561198262044897,"connected_time":55000000000,"state":"active","ping":80},{"user_id":134,"name":"F2P gameing","steam_id":76561198834713682,"connected_time":3712000000000,"state":"active","ping":70},{"user_id":161,"name":"Singapore Analog","steam_id":76561198037237664,"connected_time":2019000000000,"state":"active","ping":61},{"user_id":115,"name":"DarkFloy | Bomboclat Player","steam_id":76561198070650206,"connected_time":5091000000000,"state":"active","ping":79},{"user_id":129,"name":"bigwish | bmod.tf","steam_id":76561197997859723,"connected_time":3792000000000,"state":"active","ping":71},{"user_id":189,"name":"goofy goober","steam_id":76561198013237629,"connected_time":17000000000,"state":"active","ping":104},{"user_id":168,"name":"FarbrorBarbro","steam_id":76561198044432289,"connected_time":1316000000000,"state":"active","ping":70},{"user_id":136,"name":"viziborju","steam_id":76561199145340529,"connected_time":3708000000000,"state":"active","ping":71},{"user_id":130,"name":"Peppsy","steam_id":76561198074018528,"connected_time":3792000000000,"state":"active","ping":63},{"user_id":187,"name":"Secretive Steve","steam_id":76561198016770338,"connected_time":117000000000,"state":"active","ping":58},{"user_id":186,"name":"Gryoss","steam_id":76561197999837111,"connected_time":404000000000,"state":"active","ping":103},{"user_id":164,"name":"Peanus","steam_id":76561198044293799,"connected_time":1580000000000,"state":"active","ping":68},{"user_id":152,"name":"Clumsy ‚ô•","steam_id":76561199049413586,"connected_time":2319000000000,"state":"active","ping":72},{"user_id":111,"name":"mt","steam_id":76561197961319303,"connected_time":5301000000000,"state":"active","ping":50},{"user_id":139,"name":"Yony","steam_id":76561199070569941,"connected_time":3605000000000,"state":"active","ping":57},{"user_id":125,"name":"4th","steam_id":76561198146081601,"connected_time":4401000000000,"state":"active","ping":43},{"user_id":179,"name":"Wlkr","steam_id":76561197990117572,"connected_time":949000000000,"state":"active","ping":68},{"user_id":183,"name":"Sad Slut","steam_id":76561198838277022,"connected_time":722000000000,"state":"active","ping":96},{"user_id":142,"name":"Burpman","steam_id":76561198022897937,"connected_time":3554000000000,"state":"active","ping":60},{"user_id":185,"name":"DairyFreeFossoil","steam_id":76561197978609547,"connected_time":463000000000,"state":"active","ping":58},{"user_id":163,"name":"RŒªptor","steam_id":76561198212861085,"connected_time":1645000000000,"state":"active","ping":79}]},{"server_id":308,"name":"Uncletopia | Frankfurt | 3 | All Maps","name_short":"frk-3","host":"frk-1.de.uncletopia.com","port":27035,"enabled":true,"region":"eu","cc":"de","latitude":50.110924,"longitude":8.682127,"reserved":0,"last_update":"0001-01-01T00:00:00Z","name_a2s":"Uncletopia | Frankfurt | 3 | All Maps","protocol":17,"map":"pl_frontier_final","folder":"tf","game":"Team Fortress","app_id":440,"player_count":24,"max_players":24,"Bots":0,"server_type":"Dedicated","server_os":"Linux","password":true,"vac":true,"version":"7695204","steam_id":85568392924504274,"keywords":["nocrits","nodmgspread","payload","uncletopia"],"game_id":440,"stv_port":27036,"stv_name":"Uncletopia | Frankfurt | 3 | All Maps | STV","players":[{"user_id":538,"name":"xavier_xylophone_2001","steam_id":76561198076494034,"connected_time":1146000000000,"state":"active","ping":55},{"user_id":503,"name":"profeshional dynamo main","steam_id":76561198837919828,"connected_time":5299000000000,"state":"active","ping":99},{"user_id":535,"name":"Mi Manchi","steam_id":76561198171573129,"connected_time":1890000000000,"state":"active","ping":54},{"user_id":521,"name":"twitch/auratf2","steam_id":76561197988085026,"connected_time":3044000000000,"state":"active","ping":73},{"user_id":547,"name":"Udinese Dion","steam_id":76561198067931573,"connected_time":242000000000,"state":"active","ping":47},{"user_id":513,"name":"Cheese World","steam_id":76561198042575993,"connected_time":3930000000000,"state":"active","ping":77},{"user_id":506,"name":"plazma","steam_id":76561198886594048,"connected_time":5218000000000,"state":"active","ping":82},{"user_id":543,"name":"murf","steam_id":76561199184831395,"connected_time":914000000000,"state":"active","ping":48},{"user_id":542,"name":"Kahvi","steam_id":76561198723244199,"connected_time":918000000000,"state":"active","ping":84},{"user_id":536,"name":"Gamer_X","steam_id":76561198085349286,"connected_time":1603000000000,"state":"active","ping":79},{"user_id":509,"name":"Zephyr","steam_id":76561198050204205,"connected_time":5182000000000,"state":"active","ping":56},{"user_id":526,"name":"Kaero","steam_id":76561197998641279,"connected_time":2799000000000,"state":"active","ping":60},{"user_id":486,"name":"hexerii","steam_id":76561198149967445,"connected_time":6455000000000,"state":"active","ping":51},{"user_id":541,"name":"Autistic Anon","steam_id":76561198439454376,"connected_time":1092000000000,"state":"active","ping":84},{"user_id":527,"name":"Grenelef","steam_id":76561198047617144,"connected_time":2767000000000,"state":"active","ping":73},{"user_id":517,"name":"Sticzi","steam_id":76561198104613474,"connected_time":3660000000000,"state":"active","ping":63},{"user_id":544,"name":"Wyvern786","steam_id":76561199137770636,"connected_time":910000000000,"state":"active","ping":63},{"user_id":546,"name":"Sebiromanes (Spookm√°ster)","steam_id":76561198112800408,"connected_time":790000000000,"state":"active","ping":128},{"user_id":528,"name":"Sunny Tomatoes","steam_id":76561198085970013,"connected_time":2756000000000,"state":"active","ping":97},{"user_id":530,"name":"mmonkay","steam_id":76561198397360709,"connected_time":2723000000000,"state":"active","ping":63},{"user_id":537,"name":"sperma gyerek","steam_id":76561198742407927,"connected_time":1592000000000,"state":"active","ping":68},{"user_id":505,"name":"Bajas","steam_id":76561198179339326,"connected_time":5281000000000,"state":"active","ping":76},{"user_id":514,"name":"Hasamnas","steam_id":76561199125038537,"connected_time":3930000000000,"state":"active","ping":63},{"user_id":539,"name":"Bepperman","steam_id":76561198397517828,"connected_time":1145000000000,"state":"active","ping":72}]},{"server_id":309,"name":"Uncletopia | Frankfurt | 4 | All Maps","name_short":"frk-4","host":"frk-1.de.uncletopia.com","port":27045,"enabled":true,"region":"eu","cc":"de","latitude":50.110924,"longitude":8.682127,"reserved":0,"last_update":"0001-01-01T00:00:00Z","name_a2s":"Uncletopia | Frankfurt | 4 | All Maps","protocol":17,"map":"pl_barnblitz","folder":"tf","game":"Team Fortress","app_id":440,"player_count":24,"max_players":24,"Bots":0,"server_type":"Dedicated","server_os":"Linux","password":true,"vac":true,"version":"7695204","steam_id":85568392924504275,"keywords":["nocrits","nodmgspread","payload","uncletopia"],"game_id":440,"stv_port":27046,"stv_name":"Uncletopia | Frankfurt | 4 | All Maps | STV","players":[{"user_id":435,"name":"Pybro ( Õ°¬∞ Õú ñ Õ°¬∞)","steam_id":76561197961707932,"connected_time":1467000000000,"state":"active","ping":48},{"user_id":418,"name":"Miguelliesen","steam_id":76561198830624218,"connected_time":2692000000000,"state":"active","ping":46},{"user_id":439,"name":"noob_with_source","steam_id":76561198870362103,"connected_time":1116000000000,"state":"active","ping":60},{"user_id":414,"name":"Lena ^^","steam_id":76561199435586696,"connected_time":3737000000000,"state":"active","ping":81},{"user_id":432,"name":"kornetov.vitalya","steam_id":76561199286034833,"connected_time":2042000000000,"state":"active","ping":83},{"user_id":389,"name":"mohemmedmokhter2005","steam_id":76561199197650506,"connected_time":6058000000000,"state":"active","ping":108},{"user_id":406,"name":"JoghurtTheKiller","steam_id":76561198063647918,"connected_time":4416000000000,"state":"active","ping":50},{"user_id":411,"name":"Estyle","steam_id":76561198157804700,"connected_time":3791000000000,"state":"active","ping":99},{"user_id":421,"name":"Rohlc","steam_id":76561199056443047,"connected_time":2636000000000,"state":"active","ping":60},{"user_id":417,"name":"anairat","steam_id":76561198863788240,"connected_time":2834000000000,"state":"active","ping":74},{"user_id":445,"name":"…ò∆ö…í‚ÖÉ…ò∆ö…í‚ÖÉ /./ =)(= \\.\\","steam_id":76561198053339372,"connected_time":272000000000,"state":"active","ping":59},{"user_id":440,"name":"AwterSix","steam_id":76561198042561678,"connected_time":1092000000000,"state":"active","ping":49},{"user_id":398,"name":"Dewotter","steam_id":76561198007653168,"connected_time":4832000000000,"state":"active","ping":73},{"user_id":428,"name":"The Fellow Feller","steam_id":76561198188864306,"connected_time":2158000000000,"state":"active","ping":67},{"user_id":422,"name":"yuh","steam_id":76561199005555839,"connected_time":2627000000000,"state":"active","ping":68},{"user_id":443,"name":"AvocadoConstant","steam_id":76561198343031982,"connected_time":657000000000,"state":"active","ping":75},{"user_id":431,"name":"deri100","steam_id":76561198397588574,"connected_time":2135000000000,"state":"active","ping":78},{"user_id":423,"name":"KillerQueen (he/they/she)","steam_id":76561199019399725,"connected_time":2583000000000,"state":"active","ping":61},{"user_id":446,"name":"bitkomet","steam_id":76561198058232147,"connected_time":241000000000,"state":"active","ping":76},{"user_id":424,"name":"Milca_11","steam_id":76561198848650365,"connected_time":2542000000000,"state":"active","ping":71},{"user_id":405,"name":"Caskye","steam_id":76561198165430888,"connected_time":4423000000000,"state":"active","ping":72},{"user_id":441,"name":"lvl. 50 honkler","steam_id":76561198061688660,"connected_time":1087000000000,"state":"active","ping":97},{"user_id":447,"name":"Heavy Box","steam_id":76561198053624882,"connected_time":234000000000,"state":"active","ping":92},{"user_id":254,"name":"Pico","steam_id":76561198063552545,"connected_time":14011000000000,"state":"active","ping":91}]},{"server_id":310,"name":"Uncletopia | Frankfurt | 5 | All Maps","name_short":"frk-5","host":"frk-1.de.uncletopia.com","port":27055,"enabled":true,"region":"eu","cc":"de","latitude":50.110924,"longitude":8.682127,"reserved":0,"last_update":"0001-01-01T00:00:00Z","name_a2s":"Uncletopia | Frankfurt | 5 | All Maps","protocol":17,"map":"cp_sunshine","folder":"tf","game":"Team Fortress","app_id":440,"player_count":14,"max_players":24,"Bots":0,"server_type":"Dedicated","server_os":"Linux","password":true,"vac":true,"version":"7695204","steam_id":85568392924504277,"keywords":["cp","nocrits","nodmgspread","uncletopia"],"game_id":440,"stv_port":27056,"stv_name":"Uncletopia | Frankfurt | 5 | All Maps | STV","players":[{"user_id":304,"name":"TSx* Naxer","steam_id":76561198011986779,"connected_time":385000000000,"state":"active","ping":61},{"user_id":302,"name":"Spraxinator","steam_id":76561199083563607,"connected_time":588000000000,"state":"active","ping":219},{"user_id":290,"name":"Kali","steam_id":76561198070745106,"connected_time":1542000000000,"state":"active","ping":60},{"user_id":303,"name":"Counselling counsellor","steam_id":76561198287622432,"connected_time":530000000000,"state":"active","ping":54},{"user_id":300,"name":"MFA [pt]","steam_id":76561198021950957,"connected_time":639000000000,"state":"active","ping":72},{"user_id":310,"name":"[P-roc] Cmm Bert","steam_id":76561198016658674,"connected_time":115000000000,"state":"active","ping":56},{"user_id":305,"name":"artonzhun","steam_id":76561198259104010,"connected_time":379000000000,"state":"active","ping":82},{"user_id":306,"name":"wunderrabbi","steam_id":76561198101210970,"connected_time":367000000000,"state":"active","ping":76},{"user_id":307,"name":"TSx* Osa__PL","steam_id":76561198027016799,"connected_time":331000000000,"state":"active","ping":66},{"user_id":308,"name":"TSx* Bargal","steam_id":76561198040266872,"connected_time":324000000000,"state":"active","ping":68},{"user_id":309,"name":"Source of Sanctuary","steam_id":76561198341075367,"connected_time":177000000000,"state":"active","ping":53},{"user_id":311,"name":"Improvizer","steam_id":76561198049191632,"connected_time":25000000000,"state":"active","ping":62},{"user_id":312,"name":"jack","steam_id":76561198032244932,"connected_time":17000000000,"state":"active","ping":52},{"user_id":313,"name":"Lexar","steam_id":76561198086962351,"connected_time":1000000000,"state":"spawning","ping":34}]},{"server_id":311,"name":"Uncletopia | Frankfurt | 6 | All Maps","name_short":"frk-6","host":"frk-1.de.uncletopia.com","port":27065,"enabled":true,"region":"eu","cc":"de","latitude":50.110924,"longitude":8.682127,"reserved":0,"last_update":"0001-01-01T00:00:00Z","name_a2s":"Uncletopia | Frankfurt | 6 | All Maps","protocol":17,"map":"pl_barnblitz","folder":"tf","game":"Team Fortress","app_id":440,"player_count":24,"max_players":24,"Bots":0,"server_type":"Dedicated","server_os":"Linux","password":true,"vac":true,"version":"7695204","steam_id":85568392924504278,"keywords":["nocrits","nodmgspread","payload","uncletopia"],"game_id":440,"stv_port":27066,"stv_name":"Uncletopia | Frankfurt | 6 | All Maps | STV","players":[{"user_id":260,"name":"boat","steam_id":76561198044915818,"connected_time":5725000000000,"state":"active","ping":91},{"user_id":314,"name":"Toasty5050","steam_id":76561198073540881,"connected_time":2580000000000,"state":"active","ping":47},{"user_id":338,"name":"CaDino","steam_id":76561198857478797,"connected_time":196000000000,"state":"active","ping":104},{"user_id":298,"name":"_3tHeR_","steam_id":76561199109870743,"connected_time":3429000000000,"state":"active","ping":59},{"user_id":307,"name":"Duke","steam_id":76561198041713602,"connected_time":3134000000000,"state":"active","ping":53},{"user_id":334,"name":"RazOverdrive","steam_id":76561198000794210,"connected_time":626000000000,"state":"active","ping":52},{"user_id":313,"name":"giclure :;","steam_id":76561197986362828,"connected_time":2670000000000,"state":"active","ping":47},{"user_id":325,"name":"Kodutah","steam_id":76561198203405574,"connected_time":1564000000000,"state":"active","ping":62},{"user_id":329,"name":"MrKampfCookie","steam_id":76561198085490175,"connected_time":1097000000000,"state":"active","ping":48},{"user_id":336,"name":"cori","steam_id":76561198170980343,"connected_time":429000000000,"state":"active","ping":45},{"user_id":333,"name":"Toucan Phoenix","steam_id":76561198314587216,"connected_time":815000000000,"state":"active","ping":77},{"user_id":315,"name":"youtubelover64","steam_id":76561198082865040,"connected_time":2498000000000,"state":"active","ping":63},{"user_id":287,"name":"Cippo95","steam_id":76561198255311582,"connected_time":3676000000000,"state":"active","ping":70},{"user_id":331,"name":"Mogwai","steam_id":76561198078832314,"connected_time":901000000000,"state":"active","ping":76},{"user_id":326,"name":"SaltyCupcakes","steam_id":76561198256386417,"connected_time":1507000000000,"state":"active","ping":58},{"user_id":312,"name":"calywtrawie","steam_id":76561197986723054,"connected_time":2820000000000,"state":"active","ping":73},{"user_id":316,"name":"tofort","steam_id":76561199063206833,"connected_time":2387000000000,"state":"active","ping":65},{"user_id":322,"name":"the worst player","steam_id":76561198206037191,"connected_time":1616000000000,"state":"active","ping":71},{"user_id":319,"name":"Rimx","steam_id":76561198053034840,"connected_time":1879000000000,"state":"active","ping":90},{"user_id":318,"name":"Alegz","steam_id":76561198287810139,"connected_time":2033000000000,"state":"active","ping":53},{"user_id":337,"name":"Gafy Guck","steam_id":76561198847352011,"connected_time":428000000000,"state":"active","ping":50},{"user_id":323,"name":"Largo","steam_id":76561198844368927,"connected_time":1602000000000,"state":"active","ping":74},{"user_id":324,"name":"Listerine Larry","steam_id":76561198093229786,"connected_time":1598000000000,"state":"active","ping":74},{"user_id":304,"name":"I have potato blood in my veins","steam_id":76561198074757450,"connected_time":3383000000000,"state":"active","ping":59}]},{"server_id":23,"name":"Uncletopia | Frankfurt | 7 | No Payload","name_short":"frk-7","host":"frk-1.de.uncletopia.com","port":27075,"enabled":true,"region":"eu","cc":"de","latitude":50.110924,"longitude":8.682127,"reserved":0,"last_update":"0001-01-01T00:00:00Z","name_a2s":"Uncletopia | Frankfurt | 7 | No Payload","protocol":17,"map":"koth_badlands","folder":"tf","game":"Team Fortress","app_id":440,"player_count":0,"max_players":24,"Bots":0,"server_type":"Dedicated","server_os":"Linux","password":true,"vac":true,"version":"7695204","steam_id":85568392924742827,"keywords":["cp","nocrits","nodmgspread","uncletopia"],"game_id":440,"stv_port":27076,"stv_name":"Uncletopia | Frankfurt | 7 | No Payload | STV","players":null},{"server_id":24,"name":"Uncletopia | Frankfurt | 8 | Community","name_short":"frk-8","host":"frk-1.de.uncletopia.com","port":27085,"enabled":true,"region":"eu","cc":"de","latitude":50.110924,"longitude":8.682127,"reserved":0,"last_update":"0001-01-01T00:00:00Z","name_a2s":"Uncletopia | Frankfurt | 8 | Community","protocol":17,"map":"koth_lakeside_final","folder":"tf","game":"Team Fortress","app_id":440,"player_count":0,"max_players":24,"Bots":0,"server_type":"Dedicated","server_os":"Linux","password":true,"vac":true,"version":"7695204","steam_id":85568392924742828,"keywords":["cp","nocrits","nodmgspread","uncletopia"],"game_id":440,"stv_port":0,"stv_name":"","players":null},{"server_id":202,"name":"Uncletopia | Hong Kong | 1 | All Maps","name_short":"hgk-1","host":"hgk-1.hk.uncletopia.com","port":27015,"enabled":true,"region":"asia","cc":"hk","latitude":22.302711,"longitude":114.177216,"reserved":0,"last_update":"0001-01-01T00:00:00Z","name_a2s":"Uncletopia | Hong Kong | 1 | All Maps","protocol":17,"map":"pl_badwater","folder":"tf","game":"Team Fortress","app_id":440,"player_count":0,"max_players":24,"Bots":0,"server_type":"Dedicated","server_os":"Linux","password":true,"vac":true,"version":"7695204","steam_id":85568392924494504,"keywords":["nocrits","nodmgspread","payload","uncletopia"],"game_id":440,"stv_port":27016,"stv_name":"Uncletopia | Hong Kong | 1 | All Maps | STV","players":null},{"server_id":1,"name":"Uncletopia | Los Angeles | 1 | All Maps","name_short":"lax-1","host":"lax-1.us.uncletopia.com","port":27015,"enabled":true,"region":"us-west","cc":"us","latitude":33.94279,"longitude":-118.41004,"reserved":0,"last_update":"0001-01-01T00:00:00Z","name_a2s":"Uncletopia | Los Angeles | 1 | All Maps","protocol":17,"map":"koth_cascade","folder":"tf","game":"Team Fortress","app_id":440,"player_count":20,"max_players":24,"Bots":0,"server_type":"Dedicated","server_os":"Linux","password":true,"vac":true,"version":"7695204","steam_id":85568392924469991,"keywords":["cp","nocrits","nodmgspread","uncletopia"],"game_id":440,"stv_port":27016,"stv_name":"Uncletopia | Los Angeles | 1 | All Maps | STV","players":[{"user_id":29,"name":"That Dude","steam_id":76561198980486227,"connected_time":2501000000000,"state":"active","ping":100},{"user_id":22,"name":"Mao Zedong","steam_id":76561199156131540,"connected_time":3142000000000,"state":"active","ping":80},{"user_id":70,"name":"PrinterLights","steam_id":76561198145909722,"connected_time":442000000000,"state":"active","ping":34},{"user_id":67,"name":"Star","steam_id":76561198422395239,"connected_time":664000000000,"state":"active","ping":45},{"user_id":72,"name":"Pyrotek‚Å¥","steam_id":76561198072747672,"connected_time":331000000000,"state":"active","ping":43},{"user_id":73,"name":"discord boyfriend/moderator","steam_id":76561198045926594,"connected_time":286000000000,"state":"active","ping":57},{"user_id":77,"name":"Hernandez$","steam_id":76561198019324588,"connected_time":116000000000,"state":"active","ping":50},{"user_id":65,"name":"bespokepoop","steam_id":76561198042300337,"connected_time":852000000000,"state":"active","ping":47},{"user_id":71,"name":"Fajita Master","steam_id":76561198329150962,"connected_time":435000000000,"state":"active","ping":105},{"user_id":74,"name":"DJ Pierce","steam_id":76561198394241466,"connected_time":280000000000,"state":"active","ping":105},{"user_id":69,"name":"johnman gooberguy","steam_id":76561199014859764,"connected_time":604000000000,"state":"active","ping":51},{"user_id":66,"name":"BlueCinema","steam_id":76561198376605350,"connected_time":847000000000,"state":"active","ping":123},{"user_id":51,"name":"LtAlexandro","steam_id":76561198997494266,"connected_time":1570000000000,"state":"active","ping":42},{"user_id":41,"name":"DistantJragon","steam_id":76561198117563641,"connected_time":2076000000000,"state":"active","ping":102},{"user_id":75,"name":"Schroeder","steam_id":76561199045431242,"connected_time":264000000000,"state":"active","ping":57},{"user_id":44,"name":"fy","steam_id":76561198121591901,"connected_time":2006000000000,"state":"active","ping":151},{"user_id":52,"name":"Squashead","steam_id":76561198813564287,"connected_time":1526000000000,"state":"active","ping":55},{"user_id":53,"name":"tree funny","steam_id":76561199152882553,"connected_time":1476000000000,"state":"active","ping":74},{"user_id":54,"name":"T√ºCold","steam_id":76561198111278197,"connected_time":1468000000000,"state":"active","ping":60},{"user_id":55,"name":"modyfrys6475","steam_id":76561198345111741,"connected_time":1464000000000,"state":"active","ping":114}]},{"server_id":112,"name":"Uncletopia | Los Angeles | 2 | All Maps","name_short":"lax-2","host":"lax-1.us.uncletopia.com","port":27025,"enabled":true,"region":"us-west","cc":"us","latitude":33.94279,"longitude":-118.41004,"reserved":0,"last_update":"0001-01-01T00:00:00Z","name_a2s":"Uncletopia | Los Angeles | 2 | All Maps","protocol":17,"map":"koth_highpass","folder":"tf","game":"Team Fortress","app_id":440,"player_count":0,"max_players":24,"Bots":0,"server_type":"Dedicated","server_os":"Linux","password":true,"vac":true,"version":"7695204","steam_id":85568392924469992,"keywords":["cp","nocrits","nodmgspread","uncletopia"],"game_id":440,"stv_port":27026,"stv_name":"Uncletopia | Los Angeles | 2 | All Maps | STV","players":null},{"server_id":324,"name":"Uncletopia | Los Angeles | 3 | All Maps","name_short":"lax-3","host":"lax-1.us.uncletopia.com","port":27035,"enabled":true,"region":"us-west","cc":"us","latitude":33.94279,"longitude":-118.41004,"reserved":0,"last_update":"0001-01-01T00:00:00Z","name_a2s":"Uncletopia | Los Angeles | 3 | All Maps","protocol":17,"map":"cp_altitude","folder":"tf","game":"Team Fortress","app_id":440,"player_count":0,"max_players":24,"Bots":0,"server_type":"Dedicated","server_os":"Linux","password":true,"vac":true,"version":"7695204","steam_id":85568392924510198,"keywords":["cp","nocrits","nodmgspread","uncletopia"],"game_id":440,"stv_port":27036,"stv_name":"Uncletopia | Los Angeles | 3 | All Maps | STV","players":null},{"server_id":25,"name":"Uncletopia | Los Angeles | 4 | No Payload","name_short":"lax-4","host":"lax-1.us.uncletopia.com","port":27045,"enabled":true,"region":"us-west","cc":"us","latitude":33.94279,"longitude":-118.41004,"reserved":0,"last_update":"0001-01-01T00:00:00Z","name_a2s":"Uncletopia | Los Angeles | 4 | No Payload","protocol":17,"map":"pl_barnblitz","folder":"tf","game":"Team Fortress","app_id":440,"player_count":0,"max_players":24,"Bots":0,"server_type":"Dedicated","server_os":"Linux","password":true,"vac":true,"version":"7695204","steam_id":85568392924510199,"keywords":["nocrits","nodmgspread","payload","uncletopia"],"game_id":440,"stv_port":0,"stv_name":"","players":null},{"server_id":11,"name":"Uncletopia | London | 1 | All Maps","name_short":"lon-1","host":"lon-1.uk.uncletopia.com","port":27015,"enabled":true,"region":"eu","cc":"gb","latitude":51.509865,"longitude":-0.118092,"reserved":0,"last_update":"0001-01-01T00:00:00Z","name_a2s":"Uncletopia | London | 1 | All Maps","protocol":17,"map":"pl_snowycoast","folder":"tf","game":"Team Fortress","app_id":440,"player_count":24,"max_players":24,"Bots":0,"server_type":"Dedicated","server_os":"Linux","password":true,"vac":true,"version":"7695204","steam_id":85568392924367362,"keywords":["nocrits","nodmgspread","payload","uncletopia"],"game_id":440,"stv_port":27016,"stv_name":"Uncletopia | London | 1 | All Maps | STV","players":[{"user_id":205,"name":"chrissy","steam_id":76561198096547662,"connected_time":1087000000000,"state":"active","ping":54},{"user_id":193,"name":"PowerlessCube","steam_id":76561198020974405,"connected_time":2458000000000,"state":"active","ping":73},{"user_id":64,"name":"merry beebo","steam_id":76561199120277007,"connected_time":12402000000000,"state":"active","ping":44},{"user_id":171,"name":"Ustinius","steam_id":76561199021142826,"connected_time":4763000000000,"state":"active","ping":93},{"user_id":212,"name":"Senator Armstrong","steam_id":76561198984346408,"connected_time":527000000000,"state":"active","ping":78},{"user_id":201,"name":"Love","steam_id":76561198267463398,"connected_time":1575000000000,"state":"active","ping":63},{"user_id":214,"name":"Soph","steam_id":76561198131688853,"connected_time":246000000000,"state":"active","ping":47},{"user_id":120,"name":"(1)merry beebo","steam_id":76561198923772036,"connected_time":8423000000000,"state":"active","ping":53},{"user_id":169,"name":"average fungus","steam_id":76561198199993741,"connected_time":4938000000000,"state":"active","ping":66},{"user_id":172,"name":"SpaceGoat","steam_id":76561198091774304,"connected_time":4697000000000,"state":"active","ping":49},{"user_id":211,"name":"Major","steam_id":76561198086483282,"connected_time":606000000000,"state":"active","ping":45},{"user_id":207,"name":"When Life gives you Lemons","steam_id":76561198318290663,"connected_time":859000000000,"state":"active","ping":57},{"user_id":175,"name":"whimsy. (real)","steam_id":76561198039196844,"connected_time":4203000000000,"state":"active","ping":74},{"user_id":192,"name":"eba","steam_id":76561198309765812,"connected_time":2601000000000,"state":"active","ping":102},{"user_id":152,"name":"BritishBeef","steam_id":76561197971054321,"connected_time":6400000000000,"state":"active","ping":52},{"user_id":213,"name":"frog","steam_id":76561198156952313,"connected_time":350000000000,"state":"active","ping":63},{"user_id":185,"name":"Maya","steam_id":76561198128616615,"connected_time":2926000000000,"state":"active","ping":74},{"user_id":194,"name":"amy","steam_id":76561198110757262,"connected_time":2407000000000,"state":"active","ping":63},{"user_id":215,"name":"Mango","steam_id":76561198139555709,"connected_time":182000000000,"state":"active","ping":60},{"user_id":203,"name":"festive jones","steam_id":76561198073975078,"connected_time":1296000000000,"state":"active","ping":34},{"user_id":209,"name":"Psycho","steam_id":76561198084918608,"connected_time":787000000000,"state":"active","ping":44},{"user_id":216,"name":"Blink","steam_id":76561198144033005,"connected_time":22000000000,"state":"active","ping":51},{"user_id":204,"name":"Draconic","steam_id":76561198193863225,"connected_time":1118000000000,"state":"active","ping":52},{"user_id":181,"name":"Roboolet","steam_id":76561198107353953,"connected_time":3906000000000,"state":"active","ping":50}]},{"server_id":114,"name":"Uncletopia | London | 2 | All Maps","name_short":"lon-2","host":"lon-1.uk.uncletopia.com","port":27025,"enabled":true,"region":"eu","cc":"gb","latitude":51.509865,"longitude":-0.118092,"reserved":0,"last_update":"0001-01-01T00:00:00Z","name_a2s":"Uncletopia | London | 2 | All Maps","protocol":17,"map":"koth_highpass","folder":"tf","game":"Team Fortress","app_id":440,"player_count":19,"max_players":24,"Bots":0,"server_type":"Dedicated","server_os":"Linux","password":true,"vac":true,"version":"7695204","steam_id":85568392924470941,"keywords":["cp","nocrits","nodmgspread","uncletopia"],"game_id":440,"stv_port":27026,"stv_name":"Uncletopia | London | 2 | All Maps | STV","players":[{"user_id":348,"name":"AWP Bodyshot :) ‚ù§","steam_id":76561198029928533,"connected_time":472000000000,"state":"active","ping":49},{"user_id":352,"name":"Mankor","steam_id":76561198020439322,"connected_time":31000000000,"state":"active","ping":61},{"user_id":343,"name":"cichy spy","steam_id":76561199284936515,"connected_time":942000000000,"state":"active","ping":244},{"user_id":325,"name":"boldno","steam_id":76561198127094314,"connected_time":2881000000000,"state":"active","ping":63},{"user_id":334,"name":"Timo010","steam_id":76561198832395256,"connected_time":1406000000000,"state":"active","ping":71},{"user_id":342,"name":"Mr.Schnittlauch","steam_id":76561198295868113,"connected_time":1053000000000,"state":"active","ping":66},{"user_id":345,"name":"Sarip","steam_id":76561198113330438,"connected_time":600000000000,"state":"active","ping":51},{"user_id":329,"name":"Soviet Onion","steam_id":76561198299693038,"connected_time":2359000000000,"state":"active","ping":58},{"user_id":354,"name":"bart","steam_id":76561198025395216,"connected_time":16000000000,"state":"spawning","ping":63},{"user_id":353,"name":"Bones","steam_id":76561198065081225,"connected_time":18000000000,"state":"active","ping":41},{"user_id":349,"name":"The MonSus Battle Bus","steam_id":76561199107189489,"connected_time":440000000000,"state":"active","ping":43},{"user_id":316,"name":"Ryothalka","steam_id":76561198999059599,"connected_time":3701000000000,"state":"active","ping":56},{"user_id":336,"name":"Sanction9216","steam_id":76561198068045887,"connected_time":1329000000000,"state":"active","ping":66},{"user_id":219,"name":"Empress of Blades","steam_id":76561198044798583,"connected_time":8053000000000,"state":"active","ping":69},{"user_id":347,"name":"Mr.Dies a lot","steam_id":76561199435644219,"connected_time":548000000000,"state":"active","ping":85},{"user_id":340,"name":"cryyptt_ ‚òÖ","steam_id":76561198059566837,"connected_time":1237000000000,"state":"active","ping":93},{"user_id":350,"name":"deeply flawed human","steam_id":76561198072233046,"connected_time":440000000000,"state":"active","ping":81},{"user_id":225,"name":"–¢–Ø–ñ–ï–õ–´–ï –ò–ì–†–´","steam_id":76561198413545609,"connected_time":7285000000000,"state":"active","ping":46},{"user_id":304,"name":"Leto","steam_id":76561198419429742,"connected_time":4657000000000,"state":"active","ping":77}]},{"server_id":320,"name":"Uncletopia | London | 3 | All Maps","name_short":"lon-3","host":"lon-1.uk.uncletopia.com","port":27035,"enabled":true,"region":"eu","cc":"gb","latitude":51.509865,"longitude":-0.118092,"reserved":0,"last_update":"0001-01-01T00:00:00Z","name_a2s":"Uncletopia | London | 3 | All Maps","protocol":17,"map":"cp_sunshine","folder":"tf","game":"Team Fortress","app_id":440,"player_count":24,"max_players":24,"Bots":0,"server_type":"Dedicated","server_os":"Linux","password":true,"vac":true,"version":"7695204","steam_id":85568392924510192,"keywords":["cp","nocrits","nodmgspread","uncletopia"],"game_id":440,"stv_port":27036,"stv_name":"Uncletopia | London | 3 | All Maps | STV","players":[{"user_id":357,"name":"Luk3","steam_id":76561198340519063,"connected_time":3491000000000,"state":"active","ping":61},{"user_id":339,"name":"chazzwontmiss54","steam_id":76561198901539763,"connected_time":4579000000000,"state":"active","ping":56},{"user_id":314,"name":"Tom(o)foolery","steam_id":76561199015097595,"connected_time":6994000000000,"state":"active","ping":50},{"user_id":358,"name":"Windows Vista Cruiser","steam_id":76561198064102233,"connected_time":3428000000000,"state":"active","ping":69},{"user_id":388,"name":"Enforcer02","steam_id":76561197966045944,"connected_time":337000000000,"state":"active","ping":61},{"user_id":351,"name":"pejnis","steam_id":76561198237489960,"connected_time":4357000000000,"state":"active","ping":78},{"user_id":386,"name":"Rudebwoyyy","steam_id":76561199387956486,"connected_time":540000000000,"state":"active","ping":62},{"user_id":389,"name":"Sinj","steam_id":76561198173218318,"connected_time":277000000000,"state":"active","ping":45},{"user_id":364,"name":"mordecai.nmc","steam_id":76561197997223851,"connected_time":2981000000000,"state":"active","ping":54},{"user_id":370,"name":"lofi hip hop beats","steam_id":76561198348048790,"connected_time":2373000000000,"state":"active","ping":65},{"user_id":359,"name":"doodgie","steam_id":76561198264934115,"connected_time":3372000000000,"state":"active","ping":46},{"user_id":387,"name":"Spamton G Spamton","steam_id":76561198916276543,"connected_time":425000000000,"state":"active","ping":50},{"user_id":335,"name":"tob:ias","steam_id":76561198832146626,"connected_time":4755000000000,"state":"active","ping":53},{"user_id":384,"name":"Dasky Aiko","steam_id":76561198071389029,"connected_time":771000000000,"state":"active","ping":49},{"user_id":376,"name":"–µ–±–∞—Ç–µ–ª—å","steam_id":76561198220179531,"connected_time":1530000000000,"state":"active","ping":93},{"user_id":249,"name":"Viperense","steam_id":76561198036206811,"connected_time":11493000000000,"state":"active","ping":94},{"user_id":312,"name":"swagsam","steam_id":76561199023747241,"connected_time":7204000000000,"state":"active","ping":45},{"user_id":390,"name":"Dakkafex","steam_id":76561198020254869,"connected_time":268000000000,"state":"active","ping":46},{"user_id":392,"name":"Small Goodman","steam_id":76561198881753718,"connected_time":205000000000,"state":"active","ping":71},{"user_id":319,"name":"fly me to the bandito","steam_id":76561198300211898,"connected_time":6944000000000,"state":"active","ping":124},{"user_id":248,"name":"Boobs rater","steam_id":76561198066977580,"connected_time":11500000000000,"state":"active","ping":93},{"user_id":373,"name":"YEEET","steam_id":76561198914938199,"connected_time":1980000000000,"state":"active","ping":93},{"user_id":375,"name":"Nin","steam_id":76561198227246584,"connected_time":1547000000000,"state":"active","ping":71},{"user_id":381,"name":"PGAndy","steam_id":76561199218070297,"connected_time":1376000000000,"state":"active","ping":95}]},{"server_id":321,"name":"Uncletopia | London | 4 | All Maps","name_short":"lon-4","host":"lon-1.uk.uncletopia.com","port":27045,"enabled":true,"region":"eu","cc":"gb","latitude":51.509865,"longitude":-0.118092,"reserved":0,"last_update":"0001-01-01T00:00:00Z","name_a2s":"Uncletopia | London | 4 | All Maps","protocol":17,"map":"pl_badwater","folder":"tf","game":"Team Fortress","app_id":440,"player_count":24,"max_players":24,"Bots":0,"server_type":"Dedicated","server_os":"Linux","password":true,"vac":true,"version":"7695204","steam_id":85568392924510193,"keywords":["nocrits","nodmgspread","payload","uncletopia"],"game_id":440,"stv_port":27046,"stv_name":"Uncletopia | London | 4 | All Maps | STV","players":[{"user_id":507,"name":"Desuangle","steam_id":76561198110800599,"connected_time":2454000000000,"state":"active","ping":112},{"user_id":542,"name":"Rendroken","steam_id":76561198061215540,"connected_time":781000000000,"state":"active","ping":45},{"user_id":511,"name":"Owlet","steam_id":76561198065613974,"connected_time":2179000000000,"state":"active","ping":68},{"user_id":551,"name":"Hansiboo","steam_id":76561198332823809,"connected_time":106000000000,"state":"active","ping":53},{"user_id":540,"name":"Connor McFilip","steam_id":76561198107965067,"connected_time":1000000000000,"state":"active","ping":66},{"user_id":541,"name":"MentleGen","steam_id":76561198061190210,"connected_time":939000000000,"state":"active","ping":59},{"user_id":513,"name":"Kurata","steam_id":76561197967336300,"connected_time":1805000000000,"state":"active","ping":45},{"user_id":459,"name":"gorchfock_20 #","steam_id":76561199026378253,"connected_time":6215000000000,"state":"active","ping":62},{"user_id":536,"name":"Ross from F.R.I.E.N.D.S.","steam_id":76561198008511665,"connected_time":1075000000000,"state":"active","ping":52},{"user_id":534,"name":"TealSpark","steam_id":76561198024972980,"connected_time":1159000000000,"state":"active","ping":42},{"user_id":426,"name":"compusMentus","steam_id":76561199134152606,"connected_time":8215000000000,"state":"active","ping":63},{"user_id":548,"name":"·¥ò…™·¥èŒõ ∆éÍûç‚ä•","steam_id":76561198276912938,"connected_time":156000000000,"state":"active","ping":102},{"user_id":529,"name":"UltimateSlayer","steam_id":76561198384109309,"connected_time":1385000000000,"state":"active","ping":56},{"user_id":515,"name":"Len_","steam_id":76561198821132401,"connected_time":1746000000000,"state":"active","ping":90},{"user_id":514,"name":"Dahel","steam_id":76561198043147680,"connected_time":1803000000000,"state":"active","ping":41},{"user_id":489,"name":"Sim","steam_id":76561198086641180,"connected_time":3965000000000,"state":"active","ping":92},{"user_id":547,"name":"Simping for Pizza-san","steam_id":76561198067204908,"connected_time":415000000000,"state":"active","ping":57},{"user_id":549,"name":"applejuice","steam_id":76561198059687646,"connected_time":150000000000,"state":"active","ping":48},{"user_id":550,"name":"Tadpole","steam_id":76561198062074818,"connected_time":139000000000,"state":"active","ping":43},{"user_id":509,"name":"chocolate flavoured femboy","steam_id":76561198819353867,"connected_time":2259000000000,"state":"active","ping":39},{"user_id":519,"name":"Spotty Len","steam_id":76561198031277737,"connected_time":1650000000000,"state":"active","ping":48},{"user_id":512,"name":"tealoverr.190","steam_id":76561199028497703,"connected_time":1983000000000,"state":"active","ping":105},{"user_id":537,"name":"pizzaboob","steam_id":76561198097507847,"connected_time":1075000000000,"state":"active","ping":75},{"user_id":538,"name":"a bee","steam_id":76561198051828515,"connected_time":1062000000000,"state":"active","ping":45}]},{"server_id":21,"name":"Uncletopia | London | 5 | All Maps","name_short":"lon-5","host":"lon-1.uk.uncletopia.com","port":27055,"enabled":true,"region":"eu","cc":"gb","latitude":51.509865,"longitude":-0.118092,"reserved":0,"last_update":"0001-01-01T00:00:00Z","name_a2s":"Uncletopia | London | 5 | All Maps","protocol":17,"map":"pl_badwater","folder":"tf","game":"Team Fortress","app_id":440,"player_count":23,"max_players":24,"Bots":0,"server_type":"Dedicated","server_os":"Linux","password":true,"vac":true,"version":"7695204","steam_id":85568392924742829,"keywords":["nocrits","nodmgspread","payload","uncletopia"],"game_id":440,"stv_port":27056,"stv_name":"Uncletopia | London | 5 | All Maps | STV","players":[{"user_id":82,"name":"woosh","steam_id":76561198061127604,"connected_time":1355000000000,"state":"active","ping":45},{"user_id":103,"name":"M4R1O","steam_id":76561198050528464,"connected_time":364000000000,"state":"active","ping":60},{"user_id":104,"name":"Narvhal√∏","steam_id":76561198147495474,"connected_time":293000000000,"state":"active","ping":45},{"user_id":89,"name":"stone free","steam_id":76561198023211417,"connected_time":809000000000,"state":"active","ping":47},{"user_id":100,"name":"myon","steam_id":76561198147277460,"connected_time":571000000000,"state":"active","ping":75},{"user_id":61,"name":".quickfast.","steam_id":76561199438900919,"connected_time":3651000000000,"state":"active","ping":68},{"user_id":37,"name":"Toast Nook","steam_id":76561199093949301,"connected_time":4204000000000,"state":"active","ping":79},{"user_id":38,"name":"hi","steam_id":76561198148074472,"connected_time":4181000000000,"state":"active","ping":48},{"user_id":64,"name":"BarrackOmaha","steam_id":76561198027922724,"connected_time":3322000000000,"state":"active","ping":69},{"user_id":84,"name":"Smag","steam_id":76561198153675141,"connected_time":1310000000000,"state":"active","ping":48},{"user_id":56,"name":"AVERAGE KARKAT ENJOYER","steam_id":76561198070000830,"connected_time":3786000000000,"state":"active","ping":81},{"user_id":74,"name":"csnipery","steam_id":76561199435280050,"connected_time":2069000000000,"state":"active","ping":63},{"user_id":67,"name":"notorious gaslighter","steam_id":76561198256619964,"connected_time":3066000000000,"state":"active","ping":79},{"user_id":101,"name":"Tomfool","steam_id":76561197993256481,"connected_time":548000000000,"state":"active","ping":83},{"user_id":106,"name":"Salih","steam_id":76561198287934839,"connected_time":49000000000,"state":"active","ping":62},{"user_id":98,"name":"ü§ç cantsniff ü§ç","steam_id":76561198259668029,"connected_time":583000000000,"state":"active","ping":48},{"user_id":76,"name":"DESTROY SUPER MARIO ON PURPOSE","steam_id":76561197981149859,"connected_time":1901000000000,"state":"active","ping":91},{"user_id":83,"name":"Wardruna96","steam_id":76561199057083828,"connected_time":1314000000000,"state":"active","ping":88},{"user_id":77,"name":"Mindoh","steam_id":76561198036913079,"connected_time":1694000000000,"state":"active","ping":42},{"user_id":54,"name":"saarfaarsik","steam_id":76561198043684537,"connected_time":3813000000000,"state":"active","ping":57},{"user_id":81,"name":"DrExplosive","steam_id":76561198063678579,"connected_time":1471000000000,"state":"active","ping":40},{"user_id":102,"name":"SomaZ","steam_id":76561198034694581,"connected_time":525000000000,"state":"active","ping":70},{"user_id":60,"name":"Bottomest","steam_id":76561198091734693,"connected_time":3683000000000,"state":"active","ping":60}]},{"server_id":22,"name":"Uncletopia | London | 6 | All Maps","name_short":"lon-6","host":"lon-1.uk.uncletopia.com","port":27065,"enabled":true,"region":"eu","cc":"gb","latitude":51.509865,"longitude":-0.118092,"reserved":0,"last_update":"0001-01-01T00:00:00Z","name_a2s":"Uncletopia | London | 6 | All Maps","protocol":17,"map":"koth_cascade","folder":"tf","game":"Team Fortress","app_id":440,"player_count":0,"max_players":24,"Bots":0,"server_type":"Dedicated","server_os":"Linux","password":true,"vac":true,"version":"7695204","steam_id":85568392924742830,"keywords":["cp","nocrits","nodmgspread","uncletopia"],"game_id":440,"stv_port":27066,"stv_name":"Uncletopia | London | 6 | All Maps | STV","players":null},{"server_id":40,"name":"Uncletopia | London | 7 | No Payload","name_short":"lon-7","host":"lon-1.uk.uncletopia.com","port":27075,"enabled":true,"region":"eu","cc":"gb","latitude":51.509865,"longitude":-0.118092,"reserved":0,"last_update":"0001-01-01T00:00:00Z","name_a2s":"Uncletopia | London | 7 | No Payload","protocol":17,"map":"koth_king","folder":"tf","game":"Team Fortress","app_id":440,"player_count":2,"max_players":24,"Bots":0,"server_type":"Dedicated","server_os":"Linux","password":true,"vac":true,"version":"7695204","steam_id":85568392924964314,"keywords":["cp","nocrits","nodmgspread","uncletopia"],"game_id":440,"stv_port":27076,"stv_name":"Uncletopia | London | 7 | No Payload | STV","players":[{"user_id":348,"name":"Visseract/Vulske","steam_id":76561199258363660,"connected_time":159000000000,"state":"active","ping":160},{"user_id":349,"name":"zapfalcon","steam_id":76561199135941259,"connected_time":59000000000,"state":"active","ping":170}]},{"server_id":41,"name":"Uncletopia | London | 8 | Community","name_short":"lon-8","host":"lon-1.uk.uncletopia.com","port":27085,"enabled":true,"region":"eu","cc":"gb","latitude":51.509865,"longitude":-0.118092,"reserved":0,"last_update":"0001-01-01T00:00:00Z","name_a2s":"Uncletopia | London | 8 | Community","protocol":17,"map":"workshop/pl_barnblitz_pro7.ugc582280235","folder":"tf","game":"Team Fortress","app_id":440,"player_count":24,"max_players":24,"Bots":0,"server_type":"Dedicated","server_os":"Linux","password":true,"vac":true,"version":"7695204","steam_id":85568392924964315,"keywords":["nocrits","nodmgspread","payload","uncletopia"],"game_id":440,"stv_port":27086,"stv_name":"Uncletopia | London | 8 | Community | STV","players":[{"user_id":258,"name":"Fiddlah","steam_id":76561198077916925,"connected_time":2042000000000,"state":"active","ping":43},{"user_id":261,"name":"i am bread","steam_id":76561199180277321,"connected_time":1877000000000,"state":"active","ping":44},{"user_id":287,"name":"psycho_geezer","steam_id":76561198013886907,"connected_time":610000000000,"state":"active","ping":45},{"user_id":289,"name":"Hadmund Gaming","steam_id":76561198119454822,"connected_time":383000000000,"state":"active","ping":75},{"user_id":271,"name":"icarium6","steam_id":76561198146683351,"connected_time":1451000000000,"state":"active","ping":49},{"user_id":205,"name":"Big Gamer (real)","steam_id":76561198160114532,"connected_time":7217000000000,"state":"active","ping":61},{"user_id":245,"name":"Don_Bibon","steam_id":76561198374345060,"connected_time":3140000000000,"state":"active","ping":129},{"user_id":290,"name":"SomEe_one","steam_id":76561199086265677,"connected_time":377000000000,"state":"active","ping":83},{"user_id":280,"name":"BinaryTrees","steam_id":76561198046819746,"connected_time":1125000000000,"state":"active","ping":45},{"user_id":281,"name":"dude","steam_id":76561198299412035,"connected_time":1060000000000,"state":"active","ping":68},{"user_id":247,"name":"jesus0004","steam_id":76561198300074730,"connected_time":3129000000000,"state":"active","ping":86},{"user_id":168,"name":"Mono","steam_id":76561198114569493,"connected_time":9276000000000,"state":"active","ping":44},{"user_id":214,"name":"ThomasR","steam_id":76561199014725814,"connected_time":5955000000000,"state":"active","ping":50},{"user_id":269,"name":"Dr. Funkenstein","steam_id":76561197977816210,"connected_time":1613000000000,"state":"active","ping":50},{"user_id":275,"name":"BadFemboy","steam_id":76561198072320671,"connected_time":1269000000000,"state":"active","ping":31},{"user_id":293,"name":"peepeeman","steam_id":76561199066433808,"connected_time":222000000000,"state":"active","ping":56},{"user_id":278,"name":"Aoshi","steam_id":76561198043868358,"connected_time":1189000000000,"state":"active","ping":75},{"user_id":294,"name":"Fishum","steam_id":76561198148556559,"connected_time":113000000000,"state":"active","ping":52},{"user_id":279,"name":"AlexCr02zer","steam_id":76561199102364541,"connected_time":1184000000000,"state":"active","ping":102},{"user_id":291,"name":"Metames","steam_id":76561198194758849,"connected_time":356000000000,"state":"active","ping":55},{"user_id":292,"name":"death_finder","steam_id":76561198253502081,"connected_time":250000000000,"state":"active","ping":144},{"user_id":286,"name":"Axord","steam_id":76561199289652176,"connected_time":697000000000,"state":"active","ping":44},{"user_id":212,"name":"M2rtRa","steam_id":76561198111036466,"connected_time":6730000000000,"state":"active","ping":75},{"user_id":238,"name":"king251311","steam_id":76561199063310889,"connected_time":4431000000000,"state":"active","ping":85}]},{"server_id":300,"name":"Uncletopia | Montr√©al | 1 | All Maps","name_short":"mtl-1","host":"mtl-1.ca.uncletopia.com","port":27015,"enabled":true,"region":"us-east","cc":"ca","latitude":45.50889,"longitude":-73.56167,"reserved":0,"last_update":"0001-01-01T00:00:00Z","name_a2s":"Uncletopia | Montr√©al | 1 | All Maps","protocol":17,"map":"koth_cascade","folder":"tf","game":"Team Fortress","app_id":440,"player_count":0,"max_players":24,"Bots":0,"server_type":"Dedicated","server_os":"Linux","password":true,"vac":true,"version":"7695204","steam_id":85568392924500087,"keywords":["cp","nocrits","nodmgspread","uncletopia"],"game_id":440,"stv_port":27016,"stv_name":"Uncletopia | Montr√©al | 1 | All Maps | STV","players":null},{"server_id":301,"name":"Uncletopia | Montr√©al | 2 | All Maps","name_short":"mtl-2","host":"mtl-1.ca.uncletopia.com","port":27025,"enabled":true,"region":"us-east","cc":"ca","latitude":45.50889,"longitude":-73.56167,"reserved":0,"last_update":"0001-01-01T00:00:00Z","name_a2s":"Uncletopia | Montr√©al | 2 | All Maps","protocol":17,"map":"pl_borneo","folder":"tf","game":"Team Fortress","app_id":440,"player_count":4,"max_players":24,"Bots":0,"server_type":"Dedicated","server_os":"Linux","password":true,"vac":true,"version":"7695204","steam_id":85568392924500088,"keywords":["nocrits","nodmgspread","payload","uncletopia"],"game_id":440,"stv_port":27026,"stv_name":"Uncletopia | Montr√©al | 2 | All Maps | STV","players":[{"user_id":11,"name":"\u003cInsertGenericNameHere\u003e","steam_id":76561198388244476,"connected_time":656000000000,"state":"active","ping":80},{"user_id":12,"name":"oliverj.1424","steam_id":76561199139289998,"connected_time":601000000000,"state":"active","ping":82},{"user_id":13,"name":"dantheman14cool","steam_id":76561199035815342,"connected_time":531000000000,"state":"active","ping":92},{"user_id":14,"name":"Jukebox","steam_id":76561199429521860,"connected_time":154000000000,"state":"active","ping":35}]},{"server_id":302,"name":"Uncletopia | Montr√©al | 3 | All Maps","name_short":"mtl-3","host":"mtl-1.ca.uncletopia.com","port":27035,"enabled":true,"region":"us-east","cc":"ca","latitude":45.50889,"longitude":-73.56167,"reserved":0,"last_update":"0001-01-01T00:00:00Z","name_a2s":"Uncletopia | Montr√©al | 3 | All Maps","protocol":17,"map":"koth_viaduct","folder":"tf","game":"Team Fortress","app_id":440,"player_count":0,"max_players":24,"Bots":0,"server_type":"Dedicated","server_os":"Linux","password":true,"vac":true,"version":"7695204","steam_id":85568392924500089,"keywords":["cp","nocrits","nodmgspread","uncletopia"],"game_id":440,"stv_port":0,"stv_name":"","players":null},{"server_id":303,"name":"Uncletopia | Montr√©al | 4 | No Payload","name_short":"mtl-4","host":"mtl-1.ca.uncletopia.com","port":27045,"enabled":true,"region":"us-east","cc":"ca","latitude":45.50889,"longitude":-73.56167,"reserved":0,"last_update":"0001-01-01T00:00:00Z","name_a2s":"Uncletopia | Montr√©al | 4 | No Payload","protocol":17,"map":"koth_king","folder":"tf","game":"Team Fortress","app_id":440,"player_count":0,"max_players":24,"Bots":0,"server_type":"Dedicated","server_os":"Linux","password":true,"vac":true,"version":"7695204","steam_id":85568392924500090,"keywords":["cp","nocrits","nodmgspread","uncletopia"],"game_id":440,"stv_port":27046,"stv_name":"Uncletopia | Montr√©al | 4 | No Payload | STV","players":null},{"server_id":13,"name":"Uncletopia | New York City | 1 | All Maps","name_short":"nyc-1","host":"nyc-1.us.uncletopia.com","port":27015,"enabled":true,"region":"us-east","cc":"us","latitude":40.73061,"longitude":-73.93524,"reserved":0,"last_update":"0001-01-01T00:00:00Z","name_a2s":"Uncletopia | New York City | 1 | All Maps","protocol":17,"map":"pl_upward","folder":"tf","game":"Team Fortress","app_id":440,"player_count":24,"max_players":24,"Bots":0,"server_type":"Dedicated","server_os":"Linux","password":true,"vac":true,"version":"7695204","steam_id":85568392924469993,"keywords":["nocrits","nodmgspread","payload","uncletopia"],"game_id":440,"stv_port":27016,"stv_name":"Uncletopia | New York City | 1 | All Maps | STV","players":[{"user_id":268,"name":"Dajer","steam_id":76561198321675742,"connected_time":1364000000000,"state":"active","ping":62},{"user_id":282,"name":"the12xu","steam_id":76561198197086561,"connected_time":237000000000,"state":"active","ping":45},{"user_id":272,"name":"JohhnyFromCali :7","steam_id":76561198044015725,"connected_time":1234000000000,"state":"active","ping":100},{"user_id":244,"name":"Captain Cosmic","steam_id":76561199025356432,"connected_time":3845000000000,"state":"active","ping":47},{"user_id":261,"name":"Ros","steam_id":76561199055963822,"connected_time":2298000000000,"state":"active","ping":74},{"user_id":260,"name":"Juanelo","steam_id":76561199096390505,"connected_time":2511000000000,"state":"active","ping":99},{"user_id":194,"name":"V!CT!M","steam_id":76561198962721502,"connected_time":6965000000000,"state":"active","ping":79},{"user_id":191,"name":"--_Cook_--","steam_id":76561198080855748,"connected_time":7510000000000,"state":"active","ping":49},{"user_id":255,"name":"GreyHounds","steam_id":76561198081984695,"connected_time":2798000000000,"state":"active","ping":56},{"user_id":284,"name":"a zephyr","steam_id":76561198182506001,"connected_time":195000000000,"state":"active","ping":47},{"user_id":274,"name":"plutonium isotope","steam_id":76561198319442494,"connected_time":580000000000,"state":"active","ping":106},{"user_id":221,"name":"Pigeon","steam_id":76561199232498885,"connected_time":5200000000000,"state":"active","ping":59},{"user_id":275,"name":"crippling fumo addiction","steam_id":76561198115874625,"connected_time":561000000000,"state":"active","ping":55},{"user_id":281,"name":"Jamo","steam_id":76561198079446745,"connected_time":263000000000,"state":"active","ping":47},{"user_id":280,"name":"E102 GAMMA","steam_id":76561199093844750,"connected_time":351000000000,"state":"active","ping":68},{"user_id":270,"name":"FRAGMASTERX","steam_id":76561198138718011,"connected_time":1338000000000,"state":"active","ping":73},{"user_id":271,"name":"Ursus Ludius","steam_id":76561198025470722,"connected_time":1274000000000,"state":"active","ping":58},{"user_id":276,"name":"roman","steam_id":76561198170066797,"connected_time":548000000000,"state":"active","ping":53},{"user_id":222,"name":"Looking out for your head :)","steam_id":76561199120952499,"connected_time":5185000000000,"state":"active","ping":119},{"user_id":266,"name":"ManBox","steam_id":76561198254180943,"connected_time":1414000000000,"state":"active","ping":33},{"user_id":258,"name":"spim","steam_id":76561198991982630,"connected_time":2740000000000,"state":"active","ping":59},{"user_id":241,"name":"the one who will not betray coo","steam_id":76561198401495362,"connected_time":4484000000000,"state":"active","ping":63},{"user_id":277,"name":"Verathragna","steam_id":76561198067215453,"connected_time":487000000000,"state":"active","ping":52},{"user_id":262,"name":"FrostedBlakes","steam_id":76561199091619928,"connected_time":2112000000000,"state":"active","ping":73}]},{"server_id":14,"name":"Uncletopia | New York City | 2 | All Maps","name_short":"nyc-2","host":"nyc-1.us.uncletopia.com","port":27025,"enabled":true,"region":"us-east","cc":"us","latitude":40.73061,"longitude":-73.93524,"reserved":0,"last_update":"0001-01-01T00:00:00Z","name_a2s":"Uncletopia | New York City | 2 | All Maps","protocol":17,"map":"pl_frontier_final","folder":"tf","game":"Team Fortress","app_id":440,"player_count":8,"max_players":24,"Bots":0,"server_type":"Dedicated","server_os":"Linux","password":true,"vac":true,"version":"7695204","steam_id":85568392924469994,"keywords":["nocrits","nodmgspread","payload","uncletopia"],"game_id":440,"stv_port":27026,"stv_name":"Uncletopia | New York City | 2 | All Maps | STV","players":[{"user_id":32,"name":"lxtaylor05","steam_id":76561198324699019,"connected_time":777000000000,"state":"active","ping":48},{"user_id":40,"name":"CANDICE","steam_id":76561198208496036,"connected_time":50000000000,"state":"active","ping":60},{"user_id":36,"name":"Albino Jellyfish","steam_id":76561198208561097,"connected_time":568000000000,"state":"active","ping":41},{"user_id":35,"name":"merkmywords ttttttv","steam_id":76561198066840152,"connected_time":745000000000,"state":"active","ping":60},{"user_id":37,"name":"LeenBeen","steam_id":76561199251065660,"connected_time":533000000000,"state":"active","ping":49},{"user_id":38,"name":"robbob","steam_id":76561198137375391,"connected_time":212000000000,"state":"active","ping":148},{"user_id":39,"name":"JHLO","steam_id":76561198074359967,"connected_time":75000000000,"state":"active","ping":54},{"user_id":41,"name":"Bysig_ttv #savetf2","steam_id":76561198086422663,"connected_time":1000000000,"state":"spawning","ping":68}]},{"server_id":15,"name":"Uncletopia | New York City | 3 | All Maps","name_short":"nyc-3","host":"nyc-1.us.uncletopia.com","port":27035,"enabled":true,"region":"us-east","cc":"us","latitude":40.73061,"longitude":-73.93524,"reserved":0,"last_update":"0001-01-01T00:00:00Z","name_a2s":"Uncletopia | New York City | 3 | All Maps","protocol":17,"map":"koth_nucleus","folder":"tf","game":"Team Fortress","app_id":440,"player_count":15,"max_players":24,"Bots":0,"server_type":"Dedicated","server_os":"Linux","password":true,"vac":true,"version":"7695204","steam_id":85568392924742820,"keywords":["cp","nocrits","nodmgspread","uncletopia"],"game_id":440,"stv_port":27036,"stv_name":"Uncletopia | New York City | 3 | All Maps | STV","players":[{"user_id":311,"name":"Stuff","steam_id":76561198310343158,"connected_time":178000000000,"state":"active","ping":73},{"user_id":312,"name":"the gamer hermit crab","steam_id":76561198969402276,"connected_time":169000000000,"state":"active","ping":52},{"user_id":306,"name":"MrSpiffy","steam_id":76561198303596449,"connected_time":372000000000,"state":"active","ping":78},{"user_id":313,"name":"IPlayGamez","steam_id":76561198041387508,"connected_time":165000000000,"state":"active","ping":48},{"user_id":308,"name":"ShaqtusHD","steam_id":76561199138286233,"connected_time":361000000000,"state":"active","ping":58},{"user_id":294,"name":"That Guy","steam_id":76561197997169817,"connected_time":1235000000000,"state":"active","ping":73},{"user_id":266,"name":"Korriu","steam_id":76561198246881314,"connected_time":3320000000000,"state":"active","ping":55},{"user_id":317,"name":"spaaaaace","steam_id":76561199085974120,"connected_time":42000000000,"state":"active","ping":47},{"user_id":309,"name":"DJ Absolute Garbage","steam_id":76561198068000747,"connected_time":299000000000,"state":"active","ping":45},{"user_id":288,"name":"snappin turla","steam_id":76561198031368462,"connected_time":1491000000000,"state":"active","ping":56},{"user_id":314,"name":"Stupid","steam_id":76561198127348089,"connected_time":147000000000,"state":"active","ping":55},{"user_id":315,"name":"gametard","steam_id":76561198152581241,"connected_time":132000000000,"state":"active","ping":40},{"user_id":318,"name":"Charm #SaveTF2","steam_id":76561198120543277,"connected_time":28000000000,"state":"active","ping":106},{"user_id":300,"name":"ExtraSoap","steam_id":76561198008712409,"connected_time":735000000000,"state":"active","ping":45},{"user_id":261,"name":"MILF Gaming","steam_id":76561198155378170,"connected_time":4082000000000,"state":"active","ping":53}]},{"server_id":16,"name":"Uncletopia | New York City | 4 | Community","name_short":"nyc-4","host":"nyc-1.us.uncletopia.com","port":27045,"enabled":true,"region":"us-east","cc":"us","latitude":40.73061,"longitude":-73.93524,"reserved":0,"last_update":"0001-01-01T00:00:00Z","name_a2s":"Uncletopia | New York City | 4 | Community","protocol":17,"map":"workshop/cp_caldera_rc2.ugc2834196889","folder":"tf","game":"Team Fortress","app_id":440,"player_count":0,"max_players":24,"Bots":0,"server_type":"Dedicated","server_os":"Linux","password":true,"vac":true,"version":"7695204","steam_id":85568392924742821,"keywords":["cp","nocrits","nodmgspread","uncletopia"],"game_id":440,"stv_port":27046,"stv_name":"Uncletopia | New York City | 4 | Community | STV","players":null},{"server_id":142,"name":"Uncletopia | S√£o Paulo | 1 | All Maps","name_short":"sao-1","host":"sao-1.br.uncletopia.com","port":27015,"enabled":true,"region":"sa","cc":"br","latitude":-23.533773,"longitude":-46.62529,"reserved":0,"last_update":"0001-01-01T00:00:00Z","name_a2s":"Uncletopia | S√£o Paulo | 1 | All Maps","protocol":17,"map":"pl_upward","folder":"tf","game":"Team Fortress","app_id":440,"player_count":24,"max_players":24,"Bots":0,"server_type":"Dedicated","server_os":"Linux","password":true,"vac":true,"version":"7695204","steam_id":85568392924469996,"keywords":["nocrits","nodmgspread","payload","uncletopia"],"game_id":440,"stv_port":27016,"stv_name":"Uncletopia | S√£o Paulo | 1 | All Maps | STV","players":[{"user_id":74,"name":"head empty","steam_id":76561198112312614,"connected_time":527000000000,"state":"active","ping":38},{"user_id":22,"name":"Johnny","steam_id":76561199031968193,"connected_time":4793000000000,"state":"active","ping":37},{"user_id":75,"name":"CATS","steam_id":76561198103172108,"connected_time":503000000000,"state":"active","ping":55},{"user_id":77,"name":"MattO","steam_id":76561198195449922,"connected_time":328000000000,"state":"active","ping":47},{"user_id":15,"name":"jao","steam_id":76561198408082822,"connected_time":4908000000000,"state":"active","ping":59},{"user_id":66,"name":"klas","steam_id":76561198848363987,"connected_time":1173000000000,"state":"active","ping":37},{"user_id":31,"name":"jr_rusty","steam_id":76561198313937899,"connected_time":4632000000000,"state":"active","ping":52},{"user_id":76,"name":"Derfel","steam_id":76561198134643483,"connected_time":422000000000,"state":"active","ping":78},{"user_id":59,"name":"foxmulder","steam_id":76561198120771241,"connected_time":1758000000000,"state":"active","ping":45},{"user_id":67,"name":"Sylvester","steam_id":76561199417175031,"connected_time":1139000000000,"state":"active","ping":57},{"user_id":78,"name":"pertemech","steam_id":76561198334052490,"connected_time":219000000000,"state":"active","ping":48},{"user_id":57,"name":"bus driver","steam_id":76561199059062371,"connected_time":2060000000000,"state":"active","ping":45},{"user_id":79,"name":"LordDoSUS","steam_id":76561198406317878,"connected_time":184000000000,"state":"active","ping":79},{"user_id":73,"name":"Pendrive is Insane","steam_id":76561199427354854,"connected_time":632000000000,"state":"active","ping":45},{"user_id":29,"name":"terrible gamer‚Ñ¢","steam_id":76561198895061602,"connected_time":4648000000000,"state":"active","ping":104},{"user_id":28,"name":"niruma","steam_id":76561198067799345,"connected_time":4652000000000,"state":"active","ping":48},{"user_id":32,"name":"nottke","steam_id":76561198029286350,"connected_time":4507000000000,"state":"active","ping":61},{"user_id":37,"name":"(F2P)YellowEyePatch","steam_id":76561199108111310,"connected_time":4244000000000,"state":"active","ping":51},{"user_id":40,"name":"SexyBalls(real)","steam_id":76561199001369964,"connected_time":4140000000000,"state":"active","ping":65},{"user_id":39,"name":"gudaleyt","steam_id":76561199438654682,"connected_time":4219000000000,"state":"active","ping":50},{"user_id":55,"name":"mega","steam_id":76561198074790850,"connected_time":2247000000000,"state":"active","ping":67},{"user_id":43,"name":"Pathetic","steam_id":76561198051056987,"connected_time":4013000000000,"state":"active","ping":58},{"user_id":53,"name":"salgado","steam_id":76561198036432218,"connected_time":2461000000000,"state":"active","ping":70},{"user_id":61,"name":"PrÂÖ¨ÈÅì„É¨„Éº„Çπ","steam_id":76561198976110673,"connected_time":1634000000000,"state":"active","ping":54}]},{"server_id":143,"name":"Uncletopia | S√£o Paulo | 2 | All Maps","name_short":"sao-2","host":"sao-2.br.uncletopia.com","port":27015,"enabled":true,"region":"sa","cc":"br","latitude":-23.533773,"longitude":-46.62529,"reserved":0,"last_update":"0001-01-01T00:00:00Z","name_a2s":"Uncletopia | S√£o Paulo | 2 | All Maps","protocol":17,"map":"cp_sunshine","folder":"tf","game":"Team Fortress","app_id":440,"player_count":0,"max_players":24,"Bots":0,"server_type":"Dedicated","server_os":"Linux","password":true,"vac":true,"version":"7695204","steam_id":85568392924485349,"keywords":["cp","nocrits","nodmgspread","uncletopia"],"game_id":440,"stv_port":27016,"stv_name":"Uncletopia | S√£o Paulo | 2 | All Maps | STV","players":null},{"server_id":7,"name":"Uncletopia | Seattle | 1 | All Maps","name_short":"sea-1","host":"sea-1.us.uncletopia.com","port":27015,"enabled":true,"region":"us-west","cc":"us","latitude":47.608013,"longitude":-122.33517,"reserved":0,"last_update":"0001-01-01T00:00:00Z","name_a2s":"Uncletopia | Seattle | 1 | All Maps","protocol":17,"map":"koth_cascade","folder":"tf","game":"Team Fortress","app_id":440,"player_count":24,"max_players":24,"Bots":0,"server_type":"Dedicated","server_os":"Linux","password":true,"vac":true,"version":"7695204","steam_id":85568392924469997,"keywords":["cp","nocrits","nodmgspread","uncletopia"],"game_id":440,"stv_port":27016,"stv_name":"Uncletopia | Seattle | 1 | All Maps | STV","players":[{"user_id":125,"name":"‚õß‚∏∏‚õß‚∏∏‚õß‚∏∏","steam_id":76561198007051179,"connected_time":585000000000,"state":"active","ping":80},{"user_id":117,"name":"Heckolo","steam_id":76561198168010993,"connected_time":1308000000000,"state":"active","ping":68},{"user_id":94,"name":"ritchie","steam_id":76561198097835871,"connected_time":2634000000000,"state":"active","ping":132},{"user_id":126,"name":"Ben Shapiro","steam_id":76561198861436861,"connected_time":583000000000,"state":"active","ping":68},{"user_id":97,"name":"seceretgaming","steam_id":76561199112096028,"connected_time":2558000000000,"state":"active","ping":76},{"user_id":128,"name":"MrLeftTurn","steam_id":76561198856743969,"connected_time":431000000000,"state":"active","ping":74},{"user_id":118,"name":"Ngsterson","steam_id":76561198162108154,"connected_time":1215000000000,"state":"active","ping":38},{"user_id":127,"name":"Pan Dulce","steam_id":76561198044444716,"connected_time":582000000000,"state":"active","ping":77},{"user_id":83,"name":"dust","steam_id":76561198045218909,"connected_time":3199000000000,"state":"active","ping":40},{"user_id":80,"name":"xerro","steam_id":76561198323340524,"connected_time":3632000000000,"state":"active","ping":124},{"user_id":111,"name":"McSpazatron","steam_id":76561198955942148,"connected_time":2005000000000,"state":"active","ping":60},{"user_id":132,"name":"A UsedNom","steam_id":76561198402832756,"connected_time":161000000000,"state":"active","ping":63},{"user_id":130,"name":"Cloud","steam_id":76561198272454184,"connected_time":365000000000,"state":"active","ping":165},{"user_id":95,"name":"SLaPPy- oNaSiS","steam_id":76561198009286862,"connected_time":2621000000000,"state":"active","ping":112},{"user_id":96,"name":"Peridarren","steam_id":76561198041104426,"connected_time":2619000000000,"state":"active","ping":65},{"user_id":119,"name":"Luca","steam_id":76561198125087140,"connected_time":1073000000000,"state":"active","ping":46},{"user_id":100,"name":"Genius Meme","steam_id":76561198162911254,"connected_time":2503000000000,"state":"active","ping":98},{"user_id":121,"name":"[Bandit]","steam_id":76561197986919852,"connected_time":823000000000,"state":"active","ping":49},{"user_id":131,"name":"drive","steam_id":76561198041818185,"connected_time":240000000000,"state":"active","ping":104},{"user_id":69,"name":"Potato PC","steam_id":76561197994217512,"connected_time":4644000000000,"state":"active","ping":129},{"user_id":109,"name":"Tuffy","steam_id":76561198083778611,"connected_time":2129000000000,"state":"active","ping":75},{"user_id":133,"name":"gamer","steam_id":76561198201564074,"connected_time":129000000000,"state":"active","ping":48},{"user_id":72,"name":"Humus","steam_id":76561198175286355,"connected_time":4495000000000,"state":"active","ping":84},{"user_id":122,"name":"twitch.tv/skrpy","steam_id":76561198040969503,"connected_time":718000000000,"state":"active","ping":72}]},{"server_id":119,"name":"Uncletopia | Seattle | 2 | All Maps","name_short":"sea-2","host":"sea-1.us.uncletopia.com","port":27025,"enabled":true,"region":"us-west","cc":"us","latitude":47.608013,"longitude":-122.33517,"reserved":0,"last_update":"0001-01-01T00:00:00Z","name_a2s":"Uncletopia | Seattle | 2 | All Maps","protocol":17,"map":"cp_junction_final","folder":"tf","game":"Team Fortress","app_id":440,"player_count":15,"max_players":24,"Bots":0,"server_type":"Dedicated","server_os":"Linux","password":true,"vac":true,"version":"7695204","steam_id":85568392924469998,"keywords":["cp","nocrits","nodmgspread","uncletopia"],"game_id":440,"stv_port":27026,"stv_name":"Uncletopia | Seattle | 2 | All Maps | STV","players":[{"user_id":328,"name":"Acryligoop","steam_id":76561198079850249,"connected_time":1018000000000,"state":"active","ping":51},{"user_id":330,"name":"Tinaho","steam_id":76561198815585874,"connected_time":823000000000,"state":"active","ping":55},{"user_id":337,"name":"EatSomeBEES","steam_id":76561198047334307,"connected_time":22000000000,"state":"active","ping":77},{"user_id":326,"name":"KingTinkerer","steam_id":76561198226856548,"connected_time":1215000000000,"state":"active","ping":56},{"user_id":269,"name":"toodles","steam_id":76561198025463883,"connected_time":7531000000000,"state":"active","ping":45},{"user_id":309,"name":"dougrocks421","steam_id":76561198165063918,"connected_time":3171000000000,"state":"active","ping":38},{"user_id":310,"name":"ZEKKER","steam_id":76561197967968980,"connected_time":2925000000000,"state":"active","ping":46},{"user_id":334,"name":"Juntao","steam_id":76561199389584938,"connected_time":687000000000,"state":"active","ping":38},{"user_id":327,"name":"Tomato","steam_id":76561197996472649,"connected_time":1049000000000,"state":"active","ping":111},{"user_id":209,"name":"DrD","steam_id":76561198067266383,"connected_time":12150000000000,"state":"active","ping":35},{"user_id":276,"name":"Be Gay, Do Crimes, Smoke Weed!","steam_id":76561198092419868,"connected_time":7215000000000,"state":"active","ping":49},{"user_id":329,"name":"J O S H¬≥¬≤","steam_id":76561198122603779,"connected_time":927000000000,"state":"active","ping":68},{"user_id":312,"name":"Greskrendtregk","steam_id":76561197969553142,"connected_time":2692000000000,"state":"active","ping":49},{"user_id":259,"name":"XzachTLY","steam_id":76561198145534604,"connected_time":8115000000000,"state":"active","ping":64},{"user_id":275,"name":"[K.Y.L.L.]Drone #0432 (they/it)","steam_id":76561198027321950,"connected_time":7301000000000,"state":"active","ping":46}]},{"server_id":17,"name":"Uncletopia | San Francisco | 1 | All Maps","name_short":"sfo-1","host":"sfo-1.us.uncletopia.com","port":27015,"enabled":true,"region":"us-west","cc":"us","latitude":37.77397,"longitude":-122.4313,"reserved":0,"last_update":"0001-01-01T00:00:00Z","name_a2s":"Uncletopia | San Francisco | 1 | All Maps","protocol":17,"map":"pl_barnblitz","folder":"tf","game":"Team Fortress","app_id":440,"player_count":0,"max_players":24,"Bots":0,"server_type":"Dedicated","server_os":"Linux","password":true,"vac":true,"version":"7695204","steam_id":85568392924469999,"keywords":["nocrits","nodmgspread","payload","uncletopia"],"game_id":440,"stv_port":27016,"stv_name":"Uncletopia | San Francisco | 1 | All Maps | STV","players":null},{"server_id":18,"name":"Uncletopia | San Francisco | 2 | All Maps","name_short":"sfo-2","host":"sfo-1.us.uncletopia.com","port":27025,"enabled":true,"region":"us-west","cc":"us","latitude":37.77397,"longitude":-122.4313,"reserved":0,"last_update":"0001-01-01T00:00:00Z","name_a2s":"Uncletopia | San Francisco | 2 | All Maps","protocol":17,"map":"pl_borneo","folder":"tf","game":"Team Fortress","app_id":440,"player_count":23,"max_players":24,"Bots":0,"server_type":"Dedicated","server_os":"Linux","password":true,"vac":true,"version":"7695204","steam_id":85568392924470000,"keywords":["nocrits","nodmgspread","payload","uncletopia"],"game_id":440,"stv_port":27026,"stv_name":"Uncletopia | San Francisco | 2 | All Maps | STV","players":[{"user_id":214,"name":"101","steam_id":76561199366968526,"connected_time":231000000000,"state":"active","ping":44},{"user_id":200,"name":"Dim Strike","steam_id":76561199087298816,"connected_time":973000000000,"state":"active","ping":55},{"user_id":125,"name":"MORE BOUNCE TO THE OUNCE","steam_id":76561198243399336,"connected_time":4770000000000,"state":"active","ping":55},{"user_id":218,"name":"my500ride","steam_id":76561198325714536,"connected_time":55000000000,"state":"active","ping":64},{"user_id":187,"name":"Bowl of Soup","steam_id":76561198114255273,"connected_time":1830000000000,"state":"active","ping":73},{"user_id":141,"name":"Nibotshooter","steam_id":76561199284825579,"connected_time":4239000000000,"state":"active","ping":65},{"user_id":166,"name":"Mudkip","steam_id":76561198164192160,"connected_time":3159000000000,"state":"active","ping":50},{"user_id":216,"name":"CSCX","steam_id":76561198022728525,"connected_time":183000000000,"state":"active","ping":60},{"user_id":195,"name":"I'm sorry in advance","steam_id":76561198087380785,"connected_time":1214000000000,"state":"active","ping":63},{"user_id":188,"name":"Ëë°ËêÑÁâôÈ¶¨Âæ∑ÊãâÈÖí1810Âπ¥Ôºå","steam_id":76561198068672882,"connected_time":1823000000000,"state":"active","ping":53},{"user_id":97,"name":"xesus","steam_id":76561198106310605,"connected_time":6998000000000,"state":"active","ping":55},{"user_id":213,"name":"The Squid Gamer‚Ñ¢","steam_id":76561198340621517,"connected_time":295000000000,"state":"active","ping":79},{"user_id":180,"name":"zinnk","steam_id":76561198092081825,"connected_time":2457000000000,"state":"active","ping":59},{"user_id":161,"name":"Noxus","steam_id":76561199009820852,"connected_time":3388000000000,"state":"active","ping":74},{"user_id":219,"name":"DodoGaming","steam_id":76561198200403681,"connected_time":3000000000,"state":"spawning","ping":64},{"user_id":193,"name":":3","steam_id":76561198098099826,"connected_time":1317000000000,"state":"active","ping":80},{"user_id":177,"name":"potatofacts98","steam_id":76561198083721201,"connected_time":2641000000000,"state":"active","ping":54},{"user_id":208,"name":"Bobby Ray","steam_id":76561198044131188,"connected_time":599000000000,"state":"active","ping":71},{"user_id":210,"name":"Razz","steam_id":76561198148353186,"connected_time":509000000000,"state":"active","ping":65},{"user_id":205,"name":"melon_eater","steam_id":76561198018714084,"connected_time":795000000000,"state":"active","ping":59},{"user_id":185,"name":"huiei","steam_id":76561198073763735,"connected_time":1941000000000,"state":"active","ping":50},{"user_id":129,"name":"spacetoven","steam_id":76561198115821131,"connected_time":4711000000000,"state":"active","ping":50},{"user_id":212,"name":"Chef","steam_id":76561198037041957,"connected_time":344000000000,"state":"active","ping":53}]},{"server_id":19,"name":"Uncletopia | San Francisco | 3 | No Payload","name_short":"sfo-3","host":"sfo-1.us.uncletopia.com","port":27035,"enabled":true,"region":"us-west","cc":"us","latitude":37.77397,"longitude":-122.4313,"reserved":0,"last_update":"0001-01-01T00:00:00Z","name_a2s":"Uncletopia | San Francisco | 3 | No Payload","protocol":17,"map":"cp_snakewater_final1","folder":"tf","game":"Team Fortress","app_id":440,"player_count":0,"max_players":24,"Bots":0,"server_type":"Dedicated","server_os":"Linux","password":true,"vac":true,"version":"7695204","steam_id":85568392924742824,"keywords":["cp","nocrits","nodmgspread","uncletopia"],"game_id":440,"stv_port":0,"stv_name":"","players":null},{"server_id":20,"name":"Uncletopia | San Francisco | 4 | Community","name_short":"sfo-4","host":"sfo-1.us.uncletopia.com","port":27045,"enabled":true,"region":"us-west","cc":"us","latitude":37.77397,"longitude":-122.4313,"reserved":0,"last_update":"0001-01-01T00:00:00Z","name_a2s":"Uncletopia | San Francisco | 4 | Community","protocol":17,"map":"koth_highpass","folder":"tf","game":"Team Fortress","app_id":440,"player_count":0,"max_players":24,"Bots":0,"server_type":"Dedicated","server_os":"Linux","password":true,"vac":true,"version":"7695204","steam_id":85568392924742826,"keywords":["cp","nocrits","nodmgspread","uncletopia"],"game_id":440,"stv_port":0,"stv_name":"","players":null},{"server_id":141,"name":"Uncletopia | Sydney | 1 | All Maps","name_short":"syd-1","host":"syd-1.au.uncletopia.com","port":27015,"enabled":true,"region":"au","cc":"au","latitude":-33.865143,"longitude":151.2099,"reserved":0,"last_update":"0001-01-01T00:00:00Z","name_a2s":"Uncletopia | Sydney | 1 | All Maps","protocol":17,"map":"pl_frontier_final","folder":"tf","game":"Team Fortress","app_id":440,"player_count":0,"max_players":24,"Bots":0,"server_type":"Dedicated","server_os":"Linux","password":true,"vac":true,"version":"7695204","steam_id":85568392924470001,"keywords":["nocrits","nodmgspread","payload","uncletopia"],"game_id":440,"stv_port":27016,"stv_name":"Uncletopia | Sydney | 1 | All Maps | STV","players":null},{"server_id":123,"name":"Uncletopia | Sydney | 2 | All Maps","name_short":"syd-2","host":"syd-1.au.uncletopia.com","port":27025,"enabled":true,"region":"au","cc":"au","latitude":-33.865143,"longitude":151.2099,"reserved":0,"last_update":"0001-01-01T00:00:00Z","name_a2s":"Uncletopia | Sydney | 2 | All Maps","protocol":17,"map":"pl_borneo","folder":"tf","game":"Team Fortress","app_id":440,"player_count":0,"max_players":24,"Bots":0,"server_type":"Dedicated","server_os":"Linux","password":true,"vac":true,"version":"7695204","steam_id":85568392924470002,"keywords":["nocrits","nodmgspread","payload","uncletopia"],"game_id":440,"stv_port":27026,"stv_name":"Uncletopia | Sydney | 2 | All Maps | STV","players":null},{"server_id":395,"name":"Uncletopia | Sydney | 3 | All Maps","name_short":"syd-3","host":"syd-1.au.uncletopia.com","port":27035,"enabled":true,"region":"au","cc":"au","latitude":-33.865143,"longitude":151.2099,"reserved":0,"last_update":"0001-01-01T00:00:00Z","name_a2s":"Uncletopia | Sydney | 3 | All Maps","protocol":17,"map":"pl_upward","folder":"tf","game":"Team Fortress","app_id":440,"player_count":1,"max_players":24,"Bots":0,"server_type":"Dedicated","server_os":"Linux","password":true,"vac":true,"version":"7695204","steam_id":85568392925194467,"keywords":["nocrits","nodmgspread","payload","uncletopia"],"game_id":440,"stv_port":0,"stv_name":"","players":[{"user_id":3,"name":"the guy who asked","steam_id":76561199030416300,"connected_time":191000000000,"state":"active","ping":1088}]},{"server_id":396,"name":"Uncletopia | Sydney | 4 | All Maps","name_short":"syd-4","host":"syd-1.au.uncletopia.com","port":27045,"enabled":true,"region":"au","cc":"au","latitude":-33.865143,"longitude":151.2099,"reserved":0,"last_update":"0001-01-01T00:00:00Z","name_a2s":"Uncletopia | Sydney | 4 | All Maps","protocol":17,"map":"pl_frontier_final","folder":"tf","game":"Team Fortress","app_id":440,"player_count":8,"max_players":24,"Bots":0,"server_type":"Dedicated","server_os":"Linux","password":true,"vac":true,"version":"7695204","steam_id":85568392925397958,"keywords":["nocrits","nodmgspread","payload","uncletopia"],"game_id":440,"stv_port":27046,"stv_name":"Uncletopia | Sydney | 4 | All Maps | STV","players":[{"user_id":14,"name":"Bread","steam_id":76561198421454803,"connected_time":1811000000000,"state":"active","ping":86},{"user_id":16,"name":"th0red0n","steam_id":76561198855934264,"connected_time":1030000000000,"state":"active","ping":91},{"user_id":18,"name":"totally scout","steam_id":76561198418502416,"connected_time":454000000000,"state":"active","ping":58},{"user_id":9,"name":"cakey","steam_id":76561198173746761,"connected_time":3270000000000,"state":"active","ping":45},{"user_id":20,"name":"f2p Spy","steam_id":76561198214232616,"connected_time":440000000000,"state":"active","ping":93},{"user_id":21,"name":"Jacobmeister","steam_id":76561198071652927,"connected_time":413000000000,"state":"active","ping":84},{"user_id":22,"name":"the pest","steam_id":76561199183378898,"connected_time":220000000000,"state":"active","ping":62},{"user_id":23,"name":"Fabyle","steam_id":76561198277449909,"connected_time":126000000000,"state":"active","ping":37}]},{"server_id":58,"name":"Uncletopia | Sydney | 5 | No Payload","name_short":"syd-5","host":"syd-1.au.uncletopia.com","port":27055,"enabled":true,"region":"au","cc":"au","latitude":-33.865143,"longitude":151.2099,"reserved":0,"last_update":"0001-01-01T00:00:00Z","name_a2s":"Uncletopia | Sydney | 5 | No Payload","protocol":17,"map":"koth_viaduct","folder":"tf","game":"Team Fortress","app_id":440,"player_count":0,"max_players":24,"Bots":0,"server_type":"Dedicated","server_os":"Linux","password":true,"vac":true,"version":"7695204","steam_id":85568392925397959,"keywords":["cp","nocrits","nodmgspread","uncletopia"],"game_id":440,"stv_port":0,"stv_name":"","players":null},{"server_id":59,"name":"Uncletopia | Sydney | 6 | Community","name_short":"syd-6","host":"syd-1.au.uncletopia.com","port":27065,"enabled":true,"region":"au","cc":"au","latitude":-33.865143,"longitude":151.2099,"reserved":0,"last_update":"0001-01-01T00:00:00Z","name_a2s":"Uncletopia | Sydney | 6 | Community","protocol":17,"map":"workshop/pl_fifthcurve_rc1.ugc648227046","folder":"tf","game":"Team Fortress","app_id":440,"player_count":0,"max_players":24,"Bots":0,"server_type":"Dedicated","server_os":"Linux","password":true,"vac":true,"version":"7695204","steam_id":85568392925397960,"keywords":["nocrits","nodmgspread","payload","uncletopia"],"game_id":440,"stv_port":27066,"stv_name":"Uncletopia | Sydney | 6 | Community | STV","players":null},{"server_id":49,"name":"Uncletopia | Warsaw | 1 | All Maps","name_short":"waw-1","host":"waw-1.pl.uncletopia.com","port":27015,"enabled":true,"region":"eu","cc":"pl","latitude":52.2297,"longitude":21.017532,"reserved":0,"last_update":"0001-01-01T00:00:00Z","name_a2s":"Uncletopia | Warsaw | 1 | All Maps","protocol":17,"map":"koth_lakeside_final","folder":"tf","game":"Team Fortress","app_id":440,"player_count":0,"max_players":24,"Bots":0,"server_type":"Dedicated","server_os":"Linux","password":true,"vac":true,"version":"7695204","steam_id":85568392925397850,"keywords":["cp","nocrits","nodmgspread","uncletopia"],"game_id":440,"stv_port":27016,"stv_name":"Uncletopia | Warsaw | 1 | All Maps | STV","players":null},{"server_id":50,"name":"Uncletopia | Warsaw | 2 | All Maps","name_short":"waw-2","host":"waw-1.pl.uncletopia.com","port":27025,"enabled":true,"region":"eu","cc":"pl","latitude":52.2297,"longitude":21.017532,"reserved":0,"last_update":"0001-01-01T00:00:00Z","name_a2s":"Uncletopia | Warsaw | 2 | All Maps","protocol":17,"map":"cp_altitude","folder":"tf","game":"Team Fortress","app_id":440,"player_count":0,"max_players":24,"Bots":0,"server_type":"Dedicated","server_os":"Linux","password":true,"vac":true,"version":"7695204","steam_id":85568392925397851,"keywords":["cp","nocrits","nodmgspread","uncletopia"],"game_id":440,"stv_port":27026,"stv_name":"Uncletopia | Warsaw | 2 | All Maps | STV","players":null},{"server_id":51,"name":"Uncletopia | Warsaw | 3 | All Maps","name_short":"waw-3","host":"waw-1.pl.uncletopia.com","port":27035,"enabled":true,"region":"eu","cc":"pl","latitude":52.2297,"longitude":21.017532,"reserved":0,"last_update":"0001-01-01T00:00:00Z","name_a2s":"Uncletopia | Warsaw | 3 | All Maps","protocol":17,"map":"pl_borneo","folder":"tf","game":"Team Fortress","app_id":440,"player_count":23,"max_players":24,"Bots":0,"server_type":"Dedicated","server_os":"Linux","password":true,"vac":true,"version":"7695204","steam_id":85568392925397852,"keywords":["nocrits","nodmgspread","payload","uncletopia"],"game_id":440,"stv_port":27036,"stv_name":"Uncletopia | Warsaw | 3 | All Maps | STV","players":[{"user_id":70,"name":"Jam","steam_id":76561198090409013,"connected_time":428000000000,"state":"active","ping":93},{"user_id":51,"name":"–¢—Ä—É–ø –í–æ–ª–æ–¥—è","steam_id":76561198035718457,"connected_time":1607000000000,"state":"active","ping":105},{"user_id":43,"name":"Mari_Kross","steam_id":76561198130863086,"connected_time":2561000000000,"state":"active","ping":87},{"user_id":69,"name":"partizan","steam_id":76561198440837262,"connected_time":471000000000,"state":"active","ping":82},{"user_id":23,"name":"eeeeee","steam_id":76561198017786875,"connected_time":3326000000000,"state":"active","ping":73},{"user_id":24,"name":"Carrotcracker","steam_id":76561198034862396,"connected_time":3323000000000,"state":"active","ping":78},{"user_id":25,"name":"Jovy Kujoh","steam_id":76561198410598772,"connected_time":3310000000000,"state":"active","ping":59},{"user_id":65,"name":"axl","steam_id":76561198991661832,"connected_time":852000000000,"state":"active","ping":62},{"user_id":28,"name":"LionKing","steam_id":76561198023399545,"connected_time":3164000000000,"state":"active","ping":75},{"user_id":72,"name":"Im Just a Player","steam_id":76561198209743319,"connected_time":166000000000,"state":"active","ping":44},{"user_id":30,"name":"sup3rfr3ddy.","steam_id":76561198119371683,"connected_time":3111000000000,"state":"active","ping":70},{"user_id":66,"name":"Andy","steam_id":76561198046918834,"connected_time":770000000000,"state":"active","ping":120},{"user_id":71,"name":"Albert Einstein","steam_id":76561198351190006,"connected_time":420000000000,"state":"active","ping":70},{"user_id":52,"name":"Miecio04","steam_id":76561198412639639,"connected_time":1605000000000,"state":"active","ping":45},{"user_id":50,"name":"LexaTelekSpizdohali","steam_id":76561197996744119,"connected_time":1736000000000,"state":"active","ping":59},{"user_id":57,"name":"Maestro_69","steam_id":76561199153246582,"connected_time":1219000000000,"state":"active","ping":75},{"user_id":56,"name":"retro","steam_id":76561199221381256,"connected_time":1306000000000,"state":"active","ping":62},{"user_id":63,"name":"Zefirka","steam_id":76561198048317567,"connected_time":966000000000,"state":"active","ping":111},{"user_id":39,"name":"Recnomy","steam_id":76561198009545937,"connected_time":2867000000000,"state":"active","ping":65},{"user_id":55,"name":"Slanik_Bab","steam_id":76561198389460812,"connected_time":1394000000000,"state":"active","ping":117},{"user_id":61,"name":"Swoshed","steam_id":76561198076138057,"connected_time":1023000000000,"state":"active","ping":61},{"user_id":62,"name":"Finka","steam_id":76561198022272287,"connected_time":998000000000,"state":"active","ping":126},{"user_id":48,"name":"Qatuk","steam_id":76561198857696199,"connected_time":2263000000000,"state":"active","ping":51}]},{"server_id":52,"name":"Uncletopia | Warsaw | 4 | All Maps","name_short":"waw-4","host":"waw-1.pl.uncletopia.com","port":27045,"enabled":true,"region":"eu","cc":"pl","latitude":52.2297,"longitude":21.017532,"reserved":0,"last_update":"0001-01-01T00:00:00Z","name_a2s":"Uncletopia | Warsaw | 4 | All Maps","protocol":17,"map":"pl_borneo","folder":"tf","game":"Team Fortress","app_id":440,"player_count":0,"max_players":24,"Bots":0,"server_type":"Dedicated","server_os":"Linux","password":true,"vac":true,"version":"7695204","steam_id":85568392925397853,"keywords":["nocrits","nodmgspread","payload","uncletopia"],"game_id":440,"stv_port":27046,"stv_name":"Uncletopia | Warsaw | 4 | All Maps | STV","players":null},{"server_id":53,"name":"Uncletopia | Warsaw | 5 | No Payload","name_short":"waw-5","host":"waw-1.pl.uncletopia.com","port":27055,"enabled":true,"region":"eu","cc":"pl","latitude":52.2297,"longitude":21.017532,"reserved":0,"last_update":"0001-01-01T00:00:00Z","name_a2s":"Uncletopia | Warsaw | 5 | No Payload","protocol":17,"map":"koth_highpass","folder":"tf","game":"Team Fortress","app_id":440,"player_count":0,"max_players":24,"Bots":0,"server_type":"Dedicated","server_os":"Linux","password":true,"vac":true,"version":"7695204","steam_id":85568392925397854,"keywords":["cp","nocrits","nodmgspread","uncletopia"],"game_id":440,"stv_port":27056,"stv_name":"Uncletopia | Warsaw | 5 | No Payload | STV","players":null},{"server_id":54,"name":"Uncletopia | Warsaw | 6 | Community","name_short":"waw-6","host":"waw-1.pl.uncletopia.com","port":27065,"enabled":true,"region":"eu","cc":"pl","latitude":52.2297,"longitude":21.017532,"reserved":0,"last_update":"0001-01-01T00:00:00Z","name_a2s":"Uncletopia | Warsaw | 6 | Community","protocol":17,"map":"pl_barnblitz","folder":"tf","game":"Team Fortress","app_id":440,"player_count":0,"max_players":24,"Bots":0,"server_type":"Dedicated","server_os":"Linux","password":true,"vac":true,"version":"7695204","steam_id":85568392925397856,"keywords":["nocrits","nodmgspread","payload","uncletopia"],"game_id":440,"stv_port":0,"stv_name":"","players":null}]}