{"status":true,"message":"","result":[{"server_id":9,"name":"Uncletopia | Atlanta | 1 | All Maps","name_short":"atl-1","host":"atl-1.us.uncletopia.com","port":27015,"enabled":true,"region":"us-east","cc":"us","latitude":33.753746,"longitude":-84.38633,"reserved":0,"last_update":"0001-01-01T00:00:00Z","name_a2s":"Uncletopia | Atlanta | 1 | All Maps","protocol":17,"map":"pl_barnblitz","folder":"tf","game":"Team Fortress","app_id":440,"player_count":24,"max_players":24,"Bots":0,"server_type":"Dedicated","server_os":"Linux","password":true,"vac":true,"version":"7757534","steam_id":85568392924469982,"keywords":["nocrits","nodmgspread","payload","uncletopia"],"game_id":440,"stv_port":27016,"stv_name":"Uncletopia | Atlanta | 1 | All Maps | STV","players":[{"user_id":270,"name":"JoJo","steam_id":76561198063687796,"connected_time":2172000000000,"state":"active","ping":93},{"user_id":287,"name":"hunchback of gay paris","steam_id":76561198116741891,"connected_time":899000000000,"state":"active","ping":59},{"user_id":277,"name":"Moe the lawn \u003c3","steam_id":76561198195620945,"connected_time":2156000000000,"state":"active","ping":59},{"user_id":246,"name":"medium hog","steam_id":76561198090333536,"connected_time":4869000000000,"state":"active","ping":68},{"user_id":278,"name":"lil hog","steam_id":76561199230929836,"connected_time":2155000000000,"state":"active","ping":85},{"user_id":280,"name":"BIG HOG","steam_id":76561198079923652,"connected_time":2131000000000,"state":"active","ping":73},{"user_id":285,"name":"GailusTerran","steam_id":76561198319509387,"connected_time":995000000000,"state":"active","ping":62},{"user_id":281,"name":"Soy Blaster","steam_id":76561197971948876,"connected_time":2118000000000,"state":"active","ping":67},{"user_id":272,"name":"thomasdee725","steam_id":76561199189526173,"connected_time":2170000000000,"state":"active","ping":82},{"user_id":282,"name":"nikzera","steam_id":76561198068025863,"connected_time":1911000000000,"state":"active","ping":180},{"user_id":264,"name":"DJ Spit","steam_id":76561198186637025,"connected_time":3677000000000,"state":"active","ping":90},{"user_id":248,"name":"hippo mode","steam_id":76561198073455521,"connected_time":4420000000000,"state":"active","ping":49},{"user_id":265,"name":"Bigger Hog","steam_id":76561198079224101,"connected_time":3626000000000,"state":"active","ping":39},{"user_id":283,"name":"Rockguy21","steam_id":76561198121303359,"connected_time":1500000000000,"state":"active","ping":69},{"user_id":266,"name":"Mong","steam_id":76561198838757422,"connected_time":3578000000000,"state":"active","ping":82},{"user_id":249,"name":"[txc] garf","steam_id":76561198083078030,"connected_time":4417000000000,"state":"active","ping":47},{"user_id":258,"name":"PsyLucky","steam_id":76561198170458501,"connected_time":3927000000000,"state":"active","ping":64},{"user_id":276,"name":"correctedwolf42","steam_id":76561198988908375,"connected_time":2158000000000,"state":"active","ping":62},{"user_id":295,"name":"Bottom Trans Cowgirl","steam_id":76561198304239680,"connected_time":203000000000,"state":"active","ping":77},{"user_id":288,"name":"SeaBass","steam_id":76561198278914206,"connected_time":899000000000,"state":"active","ping":77},{"user_id":291,"name":"com lag","steam_id":76561198019019392,"connected_time":642000000000,"state":"active","ping":61},{"user_id":263,"name":"RED1 | Avo","steam_id":76561197993340494,"connected_time":3744000000000,"state":"active","ping":63},{"user_id":273,"name":"RED1 | Mug","steam_id":76561199282207802,"connected_time":2169000000000,"state":"active","ping":78},{"user_id":294,"name":"Biggest Hog","steam_id":76561198055879094,"connected_time":489000000000,"state":"active","ping":64}]},{"server_id":400,"name":"Uncletopia | Atlanta | 3 | Community","name_short":"atl-3","host":"atl-1.us.uncletopia.com","port":27035,"enabled":true,"region":"us-east","cc":"us","latitude":33.753746,"longitude":-84.38633,"reserved":0,"last_update":"0001-01-01T00:00:00Z","name_a2s":"Uncletopia | Atlanta | 3 | Community","protocol":17,"map":"workshop/rd_asteroid_redux_b1.ugc2154902912","folder":"tf","game":"Team Fortress","app_id":440,"player_count":0,"max_players":32,"Bots":0,"server_type":"Dedicated","server_os":"Linux","password":true,"vac":true,"version":"7757534","steam_id":85568392924515187,"keywords":["beta","increased_maxplayers","nocrits","nodmgspread","rd","uncletopia"],"game_id":440,"stv_port":27036,"stv_name":"Uncletopia | Atlanta | 3 | Community | STV","players":null},{"server_id":401,"name":"Uncletopia | Atlanta | 4 | No Payload","name_short":"atl-4","host":"atl-1.us.uncletopia.com","port":27045,"enabled":true,"region":"us-east","cc":"us","latitude":33.753746,"longitude":-84.38633,"reserved":0,"last_update":"0001-01-01T00:00:00Z","name_a2s":"","protocol":0,"map":"","folder":"","game":"","app_id":0,"player_count":0,"max_players":0,"Bots":0,"server_type":"","server_os":"","password":false,"vac":false,"version":"","steam_id":0,"keywords":null,"game_id":0,"stv_port":0,"stv_name":"","players":null},{"server_id":2,"name":"Uncletopia | Chicago | 1 | All Maps","name_short":"chi-1","host":"chi-1.us.uncletopia.com","port":27015,"enabled":true,"region":"us-central","cc":"us","latitude":41.881832,"longitude":-87.62318,"reserved":0,"last_update":"0001-01-01T00:00:00Z","name_a2s":"Uncletopia | Chicago | 1 | All Maps","protocol":17,"map":"cp_gorge","folder":"tf","game":"Team Fortress","app_id":440,"player_count":24,"max_players":24,"Bots":0,"server_type":"Dedicated","server_os":"Linux","password":true,"vac":true,"version":"7757534","steam_id":85568392924469984,"keywords":["cp","nocrits","nodmgspread","uncletopia"],"game_id":440,"stv_port":27016,"stv_name":"Uncletopia | Chicago | 1 | All Maps | STV","players":[{"user_id":344,"name":"Rifter","steam_id":76561198077430698,"connected_time":998000000000,"state":"active","ping":64},{"user_id":336,"name":"El Conquistador","steam_id":76561198066712701,"connected_time":1673000000000,"state":"active","ping":61},{"user_id":345,"name":"Bozanimal","steam_id":76561198044096897,"connected_time":675000000000,"state":"active","ping":64},{"user_id":331,"name":"they/them pussy","steam_id":76561198111259720,"connected_time":2311000000000,"state":"active","ping":66},{"user_id":341,"name":"pigeoncup","steam_id":76561198964926838,"connected_time":1225000000000,"state":"active","ping":64},{"user_id":311,"name":"SoothingMotherlyAura","steam_id":76561198132068284,"connected_time":3168000000000,"state":"active","ping":76},{"user_id":322,"name":"Fudgely","steam_id":76561198039425862,"connected_time":2839000000000,"state":"active","ping":73},{"user_id":308,"name":"SlurpyTheDog","steam_id":76561198799733154,"connected_time":3423000000000,"state":"active","ping":62},{"user_id":346,"name":"DunJerUn","steam_id":76561199385041733,"connected_time":653000000000,"state":"active","ping":86},{"user_id":347,"name":"Morgster","steam_id":76561198131697761,"connected_time":649000000000,"state":"active","ping":76},{"user_id":348,"name":"Huge","steam_id":76561199030987614,"connected_time":648000000000,"state":"active","ping":74},{"user_id":295,"name":"DuckKey","steam_id":76561198904477889,"connected_time":3826000000000,"state":"active","ping":58},{"user_id":299,"name":"pool shark","steam_id":76561198130191179,"connected_time":3763000000000,"state":"active","ping":67},{"user_id":351,"name":"MintyPawz","steam_id":76561198111430103,"connected_time":202000000000,"state":"active","ping":96},{"user_id":334,"name":"Pawn Cushman","steam_id":76561198221635676,"connected_time":1729000000000,"state":"active","ping":68},{"user_id":285,"name":"captain red","steam_id":76561198191587983,"connected_time":4429000000000,"state":"active","ping":78},{"user_id":302,"name":"Grand Piano Tuna","steam_id":76561198135137213,"connected_time":3538000000000,"state":"active","ping":68},{"user_id":337,"name":"Crazy__Biscuit","steam_id":76561198399851872,"connected_time":1667000000000,"state":"active","ping":62},{"user_id":338,"name":"Marshall","steam_id":76561198042570322,"connected_time":1655000000000,"state":"active","ping":58},{"user_id":313,"name":"Ainz Ooal Gown","steam_id":76561198849229108,"connected_time":3031000000000,"state":"active","ping":60},{"user_id":339,"name":"murderous deer","steam_id":76561198350832152,"connected_time":1411000000000,"state":"active","ping":63},{"user_id":324,"name":"motherfucker 2.0","steam_id":76561198141189209,"connected_time":2808000000000,"state":"active","ping":60},{"user_id":327,"name":"Detonator Dave","steam_id":76561198138221795,"connected_time":2518000000000,"state":"active","ping":75},{"user_id":333,"name":"Captain Brunch","steam_id":76561199097050224,"connected_time":1747000000000,"state":"active","ping":87}]},{"server_id":106,"name":"Uncletopia | Chicago | 2 | All Maps","name_short":"chi-2","host":"chi-1.us.uncletopia.com","port":27025,"enabled":true,"region":"us-central","cc":"us","latitude":41.881832,"longitude":-87.62318,"reserved":0,"last_update":"0001-01-01T00:00:00Z","name_a2s":"Uncletopia | Chicago | 2 | All Maps","protocol":17,"map":"cp_dustbowl","folder":"tf","game":"Team Fortress","app_id":440,"player_count":20,"max_players":24,"Bots":0,"server_type":"Dedicated","server_os":"Linux","password":true,"vac":true,"version":"7757534","steam_id":85568392924469985,"keywords":["cp","nocrits","nodmgspread","uncletopia"],"game_id":440,"stv_port":27026,"stv_name":"Uncletopia | Chicago | 2 | All Maps | STV","players":[{"user_id":232,"name":"Legendary Fro","steam_id":76561198099981980,"connected_time":844000000000,"state":"active","ping":131},{"user_id":231,"name":"Bobbn","steam_id":76561198876124683,"connected_time":1179000000000,"state":"active","ping":68},{"user_id":236,"name":"David.Smith.2009","steam_id":76561198309760791,"connected_time":210000000000,"state":"active","ping":131},{"user_id":190,"name":"Skullypoo","steam_id":76561198067912022,"connected_time":3425000000000,"state":"active","ping":62},{"user_id":235,"name":"Dr. Dr.","steam_id":76561198418983698,"connected_time":266000000000,"state":"active","ping":82},{"user_id":224,"name":"Drac0c4t","steam_id":76561199073871583,"connected_time":1368000000000,"state":"active","ping":62},{"user_id":220,"name":"FitzyBear","steam_id":76561198409189585,"connected_time":1632000000000,"state":"active","ping":89},{"user_id":240,"name":"FemboyNate","steam_id":76561198146636410,"connected_time":179000000000,"state":"active","ping":70},{"user_id":241,"name":"gnome (wanted felon)","steam_id":76561199229771413,"connected_time":117000000000,"state":"active","ping":87},{"user_id":225,"name":"mikey | I'm Burning Bright!","steam_id":76561198985847893,"connected_time":1337000000000,"state":"active","ping":75},{"user_id":242,"name":"Please take me seriously","steam_id":76561198156746320,"connected_time":111000000000,"state":"active","ping":46},{"user_id":243,"name":"Vanilla","steam_id":76561199106847859,"connected_time":92000000000,"state":"active","ping":66},{"user_id":239,"name":"Pathara44","steam_id":76561198048238620,"connected_time":195000000000,"state":"active","ping":57},{"user_id":233,"name":"*SHIKI 志貴","steam_id":76561198009208968,"connected_time":491000000000,"state":"active","ping":47},{"user_id":244,"name":"Furry Saul Goodman","steam_id":76561198069580305,"connected_time":41000000000,"state":"active","ping":53},{"user_id":99,"name":"bary","steam_id":76561197988317087,"connected_time":9843000000000,"state":"active","ping":64},{"user_id":197,"name":"spimtmot733","steam_id":76561199029189825,"connected_time":3311000000000,"state":"active","ping":65},{"user_id":152,"name":"A Rhino with Coronavirus","steam_id":76561197999451366,"connected_time":6394000000000,"state":"active","ping":86},{"user_id":198,"name":"h","steam_id":76561198092186935,"connected_time":3281000000000,"state":"active","ping":136},{"user_id":209,"name":"Monsterjessy","steam_id":76561198035630985,"connected_time":2501000000000,"state":"active","ping":67}]},{"server_id":402,"name":"Uncletopia | Chicago | 3 | All Maps","name_short":"chi-3","host":"chi-1.us.uncletopia.com","port":27035,"enabled":true,"region":"us-central","cc":"us","latitude":41.881832,"longitude":-87.62318,"reserved":0,"last_update":"0001-01-01T00:00:00Z","name_a2s":"Uncletopia | Chicago | 3 | All Maps","protocol":17,"map":"pl_snowycoast","folder":"tf","game":"Team Fortress","app_id":440,"player_count":24,"max_players":24,"Bots":0,"server_type":"Dedicated","server_os":"Linux","password":true,"vac":true,"version":"7757534","steam_id":85568392924515191,"keywords":["nocrits","nodmgspread","payload","uncletopia"],"game_id":440,"stv_port":27036,"stv_name":"Uncletopia | Chicago | 3 | All Maps | STV","players":[{"user_id":226,"name":"-W3E- grim10465","steam_id":76561198045698581,"connected_time":2518000000000,"state":"active","ping":49},{"user_id":259,"name":"Depresso Amber","steam_id":76561198074209737,"connected_time":380000000000,"state":"active","ping":60},{"user_id":198,"name":"Big kahuna","steam_id":76561198142024812,"connected_time":6824000000000,"state":"active","ping":69},{"user_id":219,"name":"Nick","steam_id":76561198118455307,"connected_time":3747000000000,"state":"active","ping":71},{"user_id":256,"name":"frank","steam_id":76561198045436159,"connected_time":554000000000,"state":"active","ping":72},{"user_id":194,"name":"Kaluka","steam_id":76561198036861445,"connected_time":6856000000000,"state":"active","ping":65},{"user_id":252,"name":"Crafty","steam_id":76561199217624073,"connected_time":799000000000,"state":"active","ping":105},{"user_id":240,"name":"AssClappicus","steam_id":76561198917309036,"connected_time":2015000000000,"state":"active","ping":68},{"user_id":260,"name":"Decs","steam_id":76561198825197974,"connected_time":327000000000,"state":"active","ping":131},{"user_id":263,"name":"EvilCoopz","steam_id":76561198080014161,"connected_time":49000000000,"state":"active","ping":133},{"user_id":232,"name":"Varia Maius","steam_id":76561198249997376,"connected_time":2445000000000,"state":"active","ping":75},{"user_id":246,"name":"ttv/muenstier","steam_id":76561198312153623,"connected_time":1295000000000,"state":"active","ping":59},{"user_id":234,"name":"Gian","steam_id":76561198041434512,"connected_time":2420000000000,"state":"active","ping":113},{"user_id":243,"name":"kametro4","steam_id":76561198835430429,"connected_time":1549000000000,"state":"active","ping":87},{"user_id":242,"name":"Temujin","steam_id":76561198030936583,"connected_time":1885000000000,"state":"active","ping":50},{"user_id":184,"name":"box","steam_id":76561198985635309,"connected_time":7375000000000,"state":"active","ping":86},{"user_id":235,"name":"Got Oil?","steam_id":76561199238964574,"connected_time":2413000000000,"state":"active","ping":73},{"user_id":255,"name":"Not_Douglas","steam_id":76561199024184136,"connected_time":567000000000,"state":"active","ping":65},{"user_id":257,"name":"Violet42","steam_id":76561198072927887,"connected_time":527000000000,"state":"active","ping":68},{"user_id":248,"name":"threethree","steam_id":76561198177354155,"connected_time":1269000000000,"state":"active","ping":66},{"user_id":237,"name":"Esnuper","steam_id":76561198049737604,"connected_time":2237000000000,"state":"active","ping":72},{"user_id":241,"name":"bulk//Dinkolaw","steam_id":76561198154072948,"connected_time":1980000000000,"state":"active","ping":62},{"user_id":262,"name":"amnyak","steam_id":76561198165831950,"connected_time":216000000000,"state":"active","ping":85},{"user_id":218,"name":"ᵐᵃᵉ","steam_id":76561199263128928,"connected_time":4184000000000,"state":"active","ping":102}]},{"server_id":403,"name":"Uncletopia | Chicago | 4 | All Maps","name_short":"chi-4","host":"chi-1.us.uncletopia.com","port":27045,"enabled":true,"region":"us-central","cc":"us","latitude":41.881832,"longitude":-87.62318,"reserved":0,"last_update":"0001-01-01T00:00:00Z","name_a2s":"Uncletopia | Chicago | 4 | All Maps","protocol":17,"map":"pl_pier","folder":"tf","game":"Team Fortress","app_id":440,"player_count":23,"max_players":24,"Bots":0,"server_type":"Dedicated","server_os":"Linux","password":true,"vac":true,"version":"7757534","steam_id":85568392924515193,"keywords":["nocrits","nodmgspread","payload","uncletopia"],"game_id":440,"stv_port":27046,"stv_name":"Uncletopia | Chicago | 4 | All Maps | STV","players":[{"user_id":125,"name":"redindy","steam_id":76561198070154445,"connected_time":1084000000000,"state":"active","ping":75},{"user_id":144,"name":"Tyrone","steam_id":76561198189429665,"connected_time":173000000000,"state":"active","ping":76},{"user_id":126,"name":"Soju","steam_id":76561198044130442,"connected_time":1067000000000,"state":"active","ping":76},{"user_id":127,"name":"Bilgecrank","steam_id":76561197967191751,"connected_time":1047000000000,"state":"active","ping":87},{"user_id":115,"name":"Owl Pacino","steam_id":76561197979970666,"connected_time":1630000000000,"state":"active","ping":56},{"user_id":119,"name":"gasparmx","steam_id":76561197998611994,"connected_time":1382000000000,"state":"active","ping":102},{"user_id":107,"name":"captainskullet","steam_id":76561198314597170,"connected_time":2035000000000,"state":"active","ping":67},{"user_id":123,"name":"The Business Man","steam_id":76561198059907124,"connected_time":1218000000000,"state":"active","ping":67},{"user_id":143,"name":"zzz","steam_id":76561198038486613,"connected_time":229000000000,"state":"active","ping":64},{"user_id":128,"name":"F0restFerret","steam_id":76561199112458876,"connected_time":1030000000000,"state":"active","ping":60},{"user_id":145,"name":"PileofPolygons","steam_id":76561199321343460,"connected_time":18000000000,"state":"active","ping":114},{"user_id":129,"name":"CamSoup","steam_id":76561198202483168,"connected_time":988000000000,"state":"active","ping":70},{"user_id":96,"name":"TOOL fan","steam_id":76561198272021214,"connected_time":2306000000000,"state":"active","ping":104},{"user_id":139,"name":"Emails","steam_id":76561198836919458,"connected_time":609000000000,"state":"active","ping":70},{"user_id":97,"name":"Uncle Majic the Hip Hop Magicia","steam_id":76561198107924303,"connected_time":2306000000000,"state":"active","ping":57},{"user_id":109,"name":"BUNGACOWA","steam_id":76561198979176018,"connected_time":1948000000000,"state":"active","ping":85},{"user_id":140,"name":"garfield","steam_id":76561198114119308,"connected_time":558000000000,"state":"active","ping":61},{"user_id":131,"name":"Siless","steam_id":76561198040803878,"connected_time":940000000000,"state":"active","ping":58},{"user_id":137,"name":"future milf manor contestant","steam_id":76561198081220016,"connected_time":784000000000,"state":"active","ping":46},{"user_id":110,"name":"Sir Iasis","steam_id":76561198035666760,"connected_time":1944000000000,"state":"active","ping":60},{"user_id":133,"name":"Nukem","steam_id":76561198166236574,"connected_time":905000000000,"state":"active","ping":83},{"user_id":135,"name":"epic","steam_id":76561198353171475,"connected_time":891000000000,"state":"active","ping":88},{"user_id":116,"name":"Booz Lityar","steam_id":76561199056842761,"connected_time":1581000000000,"state":"active","ping":104}]},{"server_id":36,"name":"Uncletopia | Chicago | 5 | All Maps","name_short":"chi-5","host":"chi-2.us.uncletopia.com","port":27015,"enabled":true,"region":"us-central","cc":"us","latitude":41.881832,"longitude":-87.62318,"reserved":0,"last_update":"0001-01-01T00:00:00Z","name_a2s":"Uncletopia | Chicago | 5 | All Maps","protocol":17,"map":"pl_snowycoast","folder":"tf","game":"Team Fortress","app_id":440,"player_count":1,"max_players":24,"Bots":0,"server_type":"Dedicated","server_os":"Linux","password":true,"vac":true,"version":"7757534","steam_id":85568392924866362,"keywords":["nocrits","nodmgspread","payload","uncletopia"],"game_id":440,"stv_port":27016,"stv_name":"Uncletopia | Chicago | 5 | All Maps | STV","players":[{"user_id":11,"name":"volta","steam_id":76561199214283884,"connected_time":37000000000,"state":"active","ping":97}]},{"server_id":37,"name":"Uncletopia | Chicago | 6 | All Maps","name_short":"chi-6","host":"chi-2.us.uncletopia.com","port":27025,"enabled":true,"region":"us-central","cc":"us","latitude":41.881832,"longitude":-87.62318,"reserved":0,"last_update":"0001-01-01T00:00:00Z","name_a2s":"Uncletopia | Chicago | 6 | All Maps","protocol":17,"map":"cp_altitude","folder":"tf","game":"Team Fortress","app_id":440,"player_count":22,"max_players":24,"Bots":0,"server_type":"Dedicated","server_os":"Linux","password":true,"vac":true,"version":"7757534","steam_id":85568392924866363,"keywords":["cp","nocrits","nodmgspread","uncletopia"],"game_id":440,"stv_port":27026,"stv_name":"Uncletopia | Chicago | 6 | All Maps | STV","players":[{"user_id":7,"name":"Randomguy","steam_id":76561198207058079,"connected_time":3355000000000,"state":"active","ping":72},{"user_id":8,"name":"Pugman363","steam_id":76561198264641080,"connected_time":3326000000000,"state":"active","ping":85},{"user_id":64,"name":"BabyBARKing","steam_id":76561198362318243,"connected_time":32000000000,"state":"active","ping":73},{"user_id":10,"name":"48","steam_id":76561198156422760,"connected_time":2966000000000,"state":"active","ping":56},{"user_id":11,"name":"Chris is Bliss","steam_id":76561198253919037,"connected_time":2963000000000,"state":"active","ping":84},{"user_id":12,"name":"Sweet","steam_id":76561198140456369,"connected_time":2960000000000,"state":"active","ping":50},{"user_id":13,"name":"TrashyAnimal","steam_id":76561199210739171,"connected_time":2947000000000,"state":"active","ping":57},{"user_id":35,"name":"penguinlord","steam_id":76561198305192692,"connected_time":1467000000000,"state":"active","ping":56},{"user_id":15,"name":"Flyingmeadow","steam_id":76561198144687723,"connected_time":2538000000000,"state":"active","ping":69},{"user_id":61,"name":"NUt","steam_id":76561198031007966,"connected_time":174000000000,"state":"active","ping":75},{"user_id":43,"name":"Amazingamerhawk","steam_id":76561199064935924,"connected_time":1149000000000,"state":"active","ping":56},{"user_id":34,"name":"Ta5K","steam_id":76561198939558155,"connected_time":1512000000000,"state":"active","ping":45},{"user_id":63,"name":"Snimca","steam_id":76561198453519709,"connected_time":154000000000,"state":"active","ping":78},{"user_id":49,"name":"ZofoJackson","steam_id":76561197998366861,"connected_time":965000000000,"state":"active","ping":47},{"user_id":57,"name":"Potion seller (They/Them)","steam_id":76561199078306687,"connected_time":224000000000,"state":"active","ping":89},{"user_id":54,"name":"Stupid Tuna","steam_id":76561198048733643,"connected_time":771000000000,"state":"active","ping":67},{"user_id":51,"name":"ping","steam_id":76561198095878137,"connected_time":925000000000,"state":"active","ping":45},{"user_id":39,"name":"Spectre","steam_id":76561198025652246,"connected_time":1246000000000,"state":"active","ping":53},{"user_id":52,"name":"sumo dumplings","steam_id":76561198115553314,"connected_time":871000000000,"state":"active","ping":58},{"user_id":56,"name":"PrinceGrotle","steam_id":76561198206131603,"connected_time":292000000000,"state":"active","ping":74},{"user_id":47,"name":"Luft","steam_id":76561198114404178,"connected_time":1032000000000,"state":"active","ping":153},{"user_id":53,"name":"GlitchGame","steam_id":76561198935134697,"connected_time":784000000000,"state":"active","ping":42}]},{"server_id":38,"name":"Uncletopia | Chicago | 7 | Stopwatch Beta","name_short":"chi-7","host":"chi-2.us.uncletopia.com","port":27035,"enabled":true,"region":"us-central","cc":"us","latitude":41.881832,"longitude":-87.62318,"reserved":0,"last_update":"0001-01-01T00:00:00Z","name_a2s":"Uncletopia | Chicago | 7 | Stopwatch Beta","protocol":17,"map":"pl_upward","folder":"tf","game":"Team Fortress","app_id":440,"player_count":0,"max_players":24,"Bots":0,"server_type":"Dedicated","server_os":"Linux","password":true,"vac":true,"version":"7757534","steam_id":85568392924866364,"keywords":["nocrits","nodmgspread","payload","uncletopia"],"game_id":440,"stv_port":27036,"stv_name":"Uncletopia | Chicago | 7 | Stopwatch Beta | STV","players":null},{"server_id":39,"name":"Uncletopia | Chicago | 8 | Community","name_short":"chi-8","host":"chi-2.us.uncletopia.com","port":27045,"enabled":true,"region":"us-central","cc":"us","latitude":41.881832,"longitude":-87.62318,"reserved":0,"last_update":"0001-01-01T00:00:00Z","name_a2s":"Uncletopia | Chicago | 8 | Community","protocol":17,"map":"pl_barnblitz","folder":"tf","game":"Team Fortress","app_id":440,"player_count":0,"max_players":24,"Bots":0,"server_type":"Dedicated","server_os":"Linux","password":true,"vac":true,"version":"7757534","steam_id":85568392924866365,"keywords":["nocrits","nodmgspread","payload","uncletopia"],"game_id":440,"stv_port":27046,"stv_name":"Uncletopia | Chicago | 8 | Community | STV","players":null},{"server_id":8,"name":"Uncletopia | Dallas | 1 | All Maps","name_short":"dal-1","host":"dal-1.us.uncletopia.com","port":27015,"enabled":true,"region":"us-central","cc":"us","latitude":32.779167,"longitude":-96.80889,"reserved":0,"last_update":"0001-01-01T00:00:00Z","name_a2s":"Uncletopia | Dallas | 1 | All Maps","protocol":17,"map":"koth_cascade","folder":"tf","game":"Team Fortress","app_id":440,"player_count":0,"max_players":24,"Bots":0,"server_type":"Dedicated","server_os":"Linux","password":true,"vac":true,"version":"7757534","steam_id":85568392924469986,"keywords":["cp","nocrits","nodmgspread","uncletopia"],"game_id":440,"stv_port":27016,"stv_name":"Uncletopia | Dallas | 1 | All Maps | STV","players":null},{"server_id":108,"name":"Uncletopia | Dallas | 2 | All Maps","name_short":"dal-2","host":"dal-1.us.uncletopia.com","port":27025,"enabled":true,"region":"us-central","cc":"us","latitude":32.779167,"longitude":-96.80889,"reserved":0,"last_update":"0001-01-01T00:00:00Z","name_a2s":"Uncletopia | Dallas | 2 | All Maps","protocol":17,"map":"pl_barnblitz","folder":"tf","game":"Team Fortress","app_id":440,"player_count":24,"max_players":24,"Bots":0,"server_type":"Dedicated","server_os":"Linux","password":true,"vac":true,"version":"7757534","steam_id":85568392924469988,"keywords":["nocrits","nodmgspread","payload","uncletopia"],"game_id":440,"stv_port":27026,"stv_name":"Uncletopia | Dallas | 2 | All Maps | STV","players":[{"user_id":249,"name":"EmptyB33R","steam_id":76561198993166528,"connected_time":1018000000000,"state":"active","ping":134},{"user_id":218,"name":"Kraftlos","steam_id":76561198074350350,"connected_time":2903000000000,"state":"active","ping":96},{"user_id":215,"name":"magotago","steam_id":76561198013650292,"connected_time":3078000000000,"state":"active","ping":104},{"user_id":255,"name":"dan","steam_id":76561197984998426,"connected_time":131000000000,"state":"active","ping":89},{"user_id":256,"name":"Coffee_Addict@Home","steam_id":76561198297673004,"connected_time":131000000000,"state":"active","ping":87},{"user_id":257,"name":"Smirky","steam_id":76561198982807882,"connected_time":127000000000,"state":"active","ping":78},{"user_id":259,"name":"Foomfa","steam_id":76561198007033616,"connected_time":80000000000,"state":"active","ping":62},{"user_id":246,"name":"DrBenjas","steam_id":76561198345883103,"connected_time":1224000000000,"state":"active","ping":89},{"user_id":226,"name":"ttv/meow4389","steam_id":76561198851731574,"connected_time":2102000000000,"state":"active","ping":58},{"user_id":258,"name":"Fishstall","steam_id":76561198038126034,"connected_time":120000000000,"state":"active","ping":69},{"user_id":228,"name":"simpsons capitalist","steam_id":76561198054731676,"connected_time":1823000000000,"state":"active","ping":95},{"user_id":240,"name":"AleXandriX","steam_id":76561198035203950,"connected_time":1357000000000,"state":"active","ping":166},{"user_id":248,"name":"Chuck Tucson`","steam_id":76561197991896434,"connected_time":1110000000000,"state":"active","ping":73},{"user_id":260,"name":"drdoofus123","steam_id":76561198016826181,"connected_time":71000000000,"state":"active","ping":68},{"user_id":220,"name":"_JohnnyFiveAces_","steam_id":76561199433571219,"connected_time":2812000000000,"state":"active","ping":38},{"user_id":241,"name":"Weezer Enjoyer (real)","steam_id":76561199104932706,"connected_time":1344000000000,"state":"active","ping":94},{"user_id":254,"name":"ANiceGuy","steam_id":76561199386745066,"connected_time":356000000000,"state":"active","ping":100},{"user_id":261,"name":"Osix","steam_id":76561198008288376,"connected_time":56000000000,"state":"active","ping":93},{"user_id":262,"name":"BigBubble42","steam_id":76561198136286123,"connected_time":56000000000,"state":"active","ping":31},{"user_id":251,"name":"Kit Carson","steam_id":76561198115691546,"connected_time":943000000000,"state":"active","ping":84},{"user_id":227,"name":"|-[LINUX]-| Purple Pybro","steam_id":76561198093538786,"connected_time":1966000000000,"state":"active","ping":47},{"user_id":263,"name":"Superangel","steam_id":76561197985566989,"connected_time":55000000000,"state":"active","ping":101},{"user_id":247,"name":"Tue","steam_id":76561198181668501,"connected_time":1164000000000,"state":"active","ping":77}]},{"server_id":5,"name":"Uncletopia | Frankfurt | 1 | All Maps","name_short":"frk-1","host":"frk-1.de.uncletopia.com","port":27015,"enabled":true,"region":"eu","cc":"de","latitude":50.110924,"longitude":8.682127,"reserved":0,"last_update":"0001-01-01T00:00:00Z","name_a2s":"Uncletopia | Frankfurt | 1 | All Maps","protocol":17,"map":"pl_borneo","folder":"tf","game":"Team Fortress","app_id":440,"player_count":24,"max_players":24,"Bots":0,"server_type":"Dedicated","server_os":"Linux","password":true,"vac":true,"version":"7757534","steam_id":85568392924469989,"keywords":["nocrits","nodmgspread","payload","uncletopia"],"game_id":440,"stv_port":27016,"stv_name":"Uncletopia | Frankfurt | 1 | All Maps | STV","players":[{"user_id":687,"name":"Rythillian","steam_id":76561198099651920,"connected_time":1140000000000,"state":"active","ping":129},{"user_id":709,"name":"I have 9 fingersch","steam_id":76561198366759496,"connected_time":264000000000,"state":"active","ping":92},{"user_id":681,"name":"Potat Master |Potato Industries","steam_id":76561199112380553,"connected_time":1655000000000,"state":"active","ping":88},{"user_id":663,"name":"Pepperonipizza","steam_id":76561198044471610,"connected_time":2571000000000,"state":"active","ping":71},{"user_id":697,"name":"Behind you","steam_id":76561198102420849,"connected_time":863000000000,"state":"active","ping":60},{"user_id":683,"name":"Bobo","steam_id":76561198052308399,"connected_time":1533000000000,"state":"active","ping":58},{"user_id":667,"name":"iki","steam_id":76561198119607160,"connected_time":2499000000000,"state":"active","ping":52},{"user_id":710,"name":"Oxer","steam_id":76561198055942412,"connected_time":244000000000,"state":"active","ping":76},{"user_id":691,"name":"kiki","steam_id":76561198838277022,"connected_time":1025000000000,"state":"active","ping":58},{"user_id":634,"name":"ChesseKnight","steam_id":76561198102476339,"connected_time":4709000000000,"state":"active","ping":84},{"user_id":704,"name":"H-say","steam_id":76561198177400362,"connected_time":696000000000,"state":"active","ping":87},{"user_id":673,"name":"¬°Nice","steam_id":76561198387871867,"connected_time":2283000000000,"state":"active","ping":78},{"user_id":679,"name":"syms","steam_id":76561198066679812,"connected_time":1676000000000,"state":"active","ping":77},{"user_id":711,"name":"Prison Mike","steam_id":76561198014221596,"connected_time":203000000000,"state":"active","ping":75},{"user_id":680,"name":"dn4k","steam_id":76561199221755690,"connected_time":1675000000000,"state":"active","ping":76},{"user_id":695,"name":"Agro | KritzKast","steam_id":76561197970498549,"connected_time":875000000000,"state":"active","ping":56},{"user_id":708,"name":"Sultan Mohammad Süleyman II.","steam_id":76561198124568025,"connected_time":284000000000,"state":"active","ping":45},{"user_id":698,"name":"paguro","steam_id":76561198119560871,"connected_time":861000000000,"state":"active","ping":66},{"user_id":712,"name":"kactus","steam_id":76561198154630875,"connected_time":190000000000,"state":"active","ping":69},{"user_id":707,"name":"Doddomc","steam_id":76561199084932836,"connected_time":561000000000,"state":"active","ping":104},{"user_id":700,"name":"KillerQueen (he/they/she)","steam_id":76561199019399725,"connected_time":857000000000,"state":"active","ping":61},{"user_id":713,"name":"N0clipZ","steam_id":76561198365489036,"connected_time":176000000000,"state":"active","ping":86},{"user_id":703,"name":"sbren sbeve","steam_id":76561198116530769,"connected_time":779000000000,"state":"active","ping":87},{"user_id":714,"name":"let me cook","steam_id":76561198010380786,"connected_time":169000000000,"state":"active","ping":57}]},{"server_id":110,"name":"Uncletopia | Frankfurt | 2 | All Maps","name_short":"frk-2","host":"frk-1.de.uncletopia.com","port":27025,"enabled":true,"region":"eu","cc":"de","latitude":50.110924,"longitude":8.682127,"reserved":0,"last_update":"0001-01-01T00:00:00Z","name_a2s":"Uncletopia | Frankfurt | 2 | All Maps","protocol":17,"map":"pl_upward","folder":"tf","game":"Team Fortress","app_id":440,"player_count":24,"max_players":24,"Bots":0,"server_type":"Dedicated","server_os":"Linux","password":true,"vac":true,"version":"7757534","steam_id":85568392924469990,"keywords":["nocrits","nodmgspread","payload","uncletopia"],"game_id":440,"stv_port":27026,"stv_name":"Uncletopia | Frankfurt | 2 | All Maps | STV","players":[{"user_id":545,"name":"The pot-bellied hobgoblin","steam_id":76561199190918059,"connected_time":2027000000000,"state":"active","ping":74},{"user_id":549,"name":"KILL HER, KILL HER.","steam_id":76561199042470246,"connected_time":1710000000000,"state":"active","ping":52},{"user_id":531,"name":"Noodle","steam_id":76561198306486695,"connected_time":3177000000000,"state":"active","ping":57},{"user_id":479,"name":"stuntz","steam_id":76561197974814348,"connected_time":6617000000000,"state":"active","ping":75},{"user_id":538,"name":"Baki ඞ","steam_id":76561198193615529,"connected_time":2818000000000,"state":"active","ping":53},{"user_id":555,"name":"mcdonaldburger54@yahoo.com","steam_id":76561198846982793,"connected_time":1276000000000,"state":"active","ping":55},{"user_id":562,"name":"Rarky","steam_id":76561198054398642,"connected_time":349000000000,"state":"active","ping":59},{"user_id":533,"name":"Vershal Smershal","steam_id":76561198116223995,"connected_time":3161000000000,"state":"active","ping":61},{"user_id":535,"name":"Dogdigger","steam_id":76561198032893130,"connected_time":3152000000000,"state":"active","ping":80},{"user_id":550,"name":"Tomfool","steam_id":76561197993256481,"connected_time":1662000000000,"state":"active","ping":75},{"user_id":463,"name":"Mussolini","steam_id":76561198218384865,"connected_time":8128000000000,"state":"active","ping":94},{"user_id":561,"name":"The Masterplan","steam_id":76561198158631465,"connected_time":736000000000,"state":"active","ping":68},{"user_id":560,"name":"LEGEND FUMO.","steam_id":76561198061033903,"connected_time":848000000000,"state":"active","ping":47},{"user_id":540,"name":"turtlemode","steam_id":76561198047725928,"connected_time":2621000000000,"state":"active","ping":47},{"user_id":541,"name":"Pepegi","steam_id":76561198001230113,"connected_time":2306000000000,"state":"active","ping":79},{"user_id":548,"name":"sinkuchan","steam_id":76561198054012474,"connected_time":1769000000000,"state":"active","ping":59},{"user_id":519,"name":"sometimes i chew on the tea bag","steam_id":76561198058012525,"connected_time":3861000000000,"state":"active","ping":70},{"user_id":552,"name":"Joseph Joestar","steam_id":76561198865424276,"connected_time":1590000000000,"state":"active","ping":93},{"user_id":553,"name":"IEatBananaStrings","steam_id":76561198158203877,"connected_time":1572000000000,"state":"active","ping":56},{"user_id":537,"name":"Udinese Dion","steam_id":76561198067931573,"connected_time":3111000000000,"state":"active","ping":43},{"user_id":556,"name":"mei","steam_id":76561198028078806,"connected_time":935000000000,"state":"active","ping":60},{"user_id":539,"name":"Cosmetic brain","steam_id":76561198055936410,"connected_time":2734000000000,"state":"active","ping":84},{"user_id":558,"name":"Kvicha Kvaratskhelia","steam_id":76561198179339326,"connected_time":920000000000,"state":"active","ping":75},{"user_id":490,"name":"jo bidn' | ETLARTORM","steam_id":76561198869576262,"connected_time":6152000000000,"state":"active","ping":105}]},{"server_id":308,"name":"Uncletopia | Frankfurt | 3 | All Maps","name_short":"frk-3","host":"frk-1.de.uncletopia.com","port":27035,"enabled":true,"region":"eu","cc":"de","latitude":50.110924,"longitude":8.682127,"reserved":0,"last_update":"0001-01-01T00:00:00Z","name_a2s":"Uncletopia | Frankfurt | 3 | All Maps","protocol":17,"map":"pl_pier","folder":"tf","game":"Team Fortress","app_id":440,"player_count":24,"max_players":24,"Bots":0,"server_type":"Dedicated","server_os":"Linux","password":true,"vac":true,"version":"7757534","steam_id":85568392924504274,"keywords":["nocrits","nodmgspread","payload","uncletopia"],"game_id":440,"stv_port":27036,"stv_name":"Uncletopia | Frankfurt | 3 | All Maps | STV","players":[{"user_id":300,"name":"maKU","steam_id":76561198073943958,"connected_time":2963000000000,"state":"active","ping":49},{"user_id":305,"name":"Nickbro101","steam_id":76561198044271692,"connected_time":2604000000000,"state":"active","ping":63},{"user_id":323,"name":"Bumblebee","steam_id":76561198033551105,"connected_time":1649000000000,"state":"active","ping":60},{"user_id":345,"name":"Zero (Orbital Gear Mastermind)","steam_id":76561198017416816,"connected_time":8000000000,"state":"active","ping":85},{"user_id":307,"name":"Nugget","steam_id":76561198338916407,"connected_time":2507000000000,"state":"active","ping":77},{"user_id":154,"name":"Arturias","steam_id":76561198188720263,"connected_time":6583000000000,"state":"active","ping":45},{"user_id":330,"name":"Warped","steam_id":76561197989916494,"connected_time":796000000000,"state":"active","ping":46},{"user_id":309,"name":"eeeeee","steam_id":76561198017786875,"connected_time":2431000000000,"state":"active","ping":46},{"user_id":313,"name":"zak","steam_id":76561197998895428,"connected_time":2312000000000,"state":"active","ping":52},{"user_id":333,"name":"E","steam_id":76561198166340115,"connected_time":719000000000,"state":"active","ping":80},{"user_id":332,"name":"dolo","steam_id":76561198206672297,"connected_time":787000000000,"state":"active","ping":45},{"user_id":324,"name":"Sergeant Soldier","steam_id":76561198054375832,"connected_time":1642000000000,"state":"active","ping":54},{"user_id":328,"name":"Bonca","steam_id":76561198137503531,"connected_time":1139000000000,"state":"active","ping":75},{"user_id":311,"name":"Carrotcracker","steam_id":76561198034862396,"connected_time":2381000000000,"state":"active","ping":61},{"user_id":338,"name":"♥ ♥ Sp3ll soo SeXy 殺手#1","steam_id":76561197970593737,"connected_time":596000000000,"state":"active","ping":68},{"user_id":344,"name":"Knez","steam_id":76561198043806388,"connected_time":66000000000,"state":"active","ping":54},{"user_id":341,"name":"TiredOcean","steam_id":76561198177747195,"connected_time":341000000000,"state":"active","ping":57},{"user_id":272,"name":"Mario3ghj","steam_id":76561198069804561,"connected_time":4100000000000,"state":"active","ping":95},{"user_id":339,"name":"Superiumentarius","steam_id":76561198081642249,"connected_time":545000000000,"state":"active","ping":45},{"user_id":318,"name":"Orochi","steam_id":76561198265192382,"connected_time":2005000000000,"state":"active","ping":61},{"user_id":342,"name":"\u003eSix in swedish + y","steam_id":76561198372971096,"connected_time":291000000000,"state":"active","ping":75},{"user_id":343,"name":"heavy sings (real)","steam_id":76561199023804405,"connected_time":266000000000,"state":"active","ping":77},{"user_id":298,"name":"Miloš","steam_id":76561198129684105,"connected_time":3040000000000,"state":"active","ping":60},{"user_id":340,"name":"Ghorkin","steam_id":76561198070923312,"connected_time":505000000000,"state":"active","ping":83}]},{"server_id":309,"name":"Uncletopia | Frankfurt | 4 | All Maps","name_short":"frk-4","host":"frk-1.de.uncletopia.com","port":27045,"enabled":true,"region":"eu","cc":"de","latitude":50.110924,"longitude":8.682127,"reserved":0,"last_update":"0001-01-01T00:00:00Z","name_a2s":"Uncletopia | Frankfurt | 4 | All Maps","protocol":17,"map":"cp_foundry","folder":"tf","game":"Team Fortress","app_id":440,"player_count":0,"max_players":24,"Bots":0,"server_type":"Dedicated","server_os":"Linux","password":true,"vac":true,"version":"7757534","steam_id":85568392924504275,"keywords":["cp","nocrits","nodmgspread","uncletopia"],"game_id":440,"stv_port":27046,"stv_name":"Uncletopia | Frankfurt | 4 | All Maps | STV","players":null},{"server_id":310,"name":"Uncletopia | Frankfurt | 5 | All Maps","name_short":"frk-5","host":"frk-1.de.uncletopia.com","port":27055,"enabled":true,"region":"eu","cc":"de","latitude":50.110924,"longitude":8.682127,"reserved":0,"last_update":"0001-01-01T00:00:00Z","name_a2s":"Uncletopia | Frankfurt | 5 | All Maps","protocol":17,"map":"plr_bananabay","folder":"tf","game":"Team Fortress","app_id":440,"player_count":24,"max_players":24,"Bots":0,"server_type":"Dedicated","server_os":"Linux","password":true,"vac":true,"version":"7757534","steam_id":85568392924504277,"keywords":["nocrits","nodmgspread","payload","uncletopia"],"game_id":440,"stv_port":27056,"stv_name":"Uncletopia | Frankfurt | 5 | All Maps | STV","players":[{"user_id":231,"name":"McHatin","steam_id":76561198057806691,"connected_time":539000000000,"state":"active","ping":72},{"user_id":127,"name":"LoliCatgirls.swf","steam_id":76561198055900955,"connected_time":6404000000000,"state":"active","ping":69},{"user_id":229,"name":"glyphoglossus molossus","steam_id":76561198191291749,"connected_time":597000000000,"state":"active","ping":71},{"user_id":180,"name":"akakez","steam_id":76561198095432821,"connected_time":3857000000000,"state":"active","ping":137},{"user_id":197,"name":"Penis Contortionist","steam_id":76561198073663784,"connected_time":3193000000000,"state":"active","ping":51},{"user_id":203,"name":"Rolloden","steam_id":76561198069414404,"connected_time":2877000000000,"state":"active","ping":59},{"user_id":239,"name":"that fat croc from donkey kong","steam_id":76561198159172495,"connected_time":103000000000,"state":"active","ping":73},{"user_id":232,"name":"Mr Eui","steam_id":76561198080355745,"connected_time":532000000000,"state":"active","ping":84},{"user_id":219,"name":"pezza","steam_id":76561197995173247,"connected_time":1481000000000,"state":"active","ping":72},{"user_id":168,"name":"RubyTheUnicorn","steam_id":76561198091772218,"connected_time":4714000000000,"state":"active","ping":62},{"user_id":228,"name":"lexapro dellirium","steam_id":76561199221733094,"connected_time":812000000000,"state":"active","ping":60},{"user_id":220,"name":"Acid","steam_id":76561198102110680,"connected_time":1481000000000,"state":"active","ping":105},{"user_id":215,"name":"Flostro","steam_id":76561198259793697,"connected_time":1965000000000,"state":"active","ping":67},{"user_id":227,"name":"Silent Person","steam_id":76561198107763537,"connected_time":1083000000000,"state":"active","ping":75},{"user_id":233,"name":"Patrick Sigman","steam_id":76561198057936333,"connected_time":498000000000,"state":"active","ping":76},{"user_id":209,"name":"GuyWithoutAPie","steam_id":76561198054512149,"connected_time":2491000000000,"state":"active","ping":54},{"user_id":235,"name":"mangle plushie","steam_id":76561198067519686,"connected_time":434000000000,"state":"active","ping":73},{"user_id":210,"name":"Spetse","steam_id":76561197990649972,"connected_time":2484000000000,"state":"active","ping":87},{"user_id":211,"name":"Manslayer","steam_id":76561198063956707,"connected_time":2444000000000,"state":"active","ping":59},{"user_id":194,"name":"pablo","steam_id":76561198089285014,"connected_time":3375000000000,"state":"active","ping":88},{"user_id":138,"name":"--","steam_id":76561198837706438,"connected_time":6253000000000,"state":"active","ping":75},{"user_id":237,"name":"Grumpuss","steam_id":76561198113570918,"connected_time":298000000000,"state":"spawning","ping":80},{"user_id":124,"name":"dirty","steam_id":76561197995572935,"connected_time":6515000000000,"state":"active","ping":85},{"user_id":238,"name":"o_o","steam_id":76561198113045011,"connected_time":296000000000,"state":"active","ping":90}]},{"server_id":311,"name":"Uncletopia | Frankfurt | 6 | All Maps","name_short":"frk-6","host":"frk-1.de.uncletopia.com","port":27065,"enabled":true,"region":"eu","cc":"de","latitude":50.110924,"longitude":8.682127,"reserved":0,"last_update":"0001-01-01T00:00:00Z","name_a2s":"Uncletopia | Frankfurt | 6 | All Maps","protocol":17,"map":"pl_thundermountain","folder":"tf","game":"Team Fortress","app_id":440,"player_count":22,"max_players":24,"Bots":0,"server_type":"Dedicated","server_os":"Linux","password":true,"vac":true,"version":"7757534","steam_id":85568392924504278,"keywords":["nocrits","nodmgspread","payload","uncletopia"],"game_id":440,"stv_port":27066,"stv_name":"Uncletopia | Frankfurt | 6 | All Maps | STV","players":[{"user_id":744,"name":"children.lover.hahah.1939","steam_id":76561198875472890,"connected_time":4044000000000,"state":"active","ping":76},{"user_id":785,"name":"MikeyMoo","steam_id":76561198106748328,"connected_time":96000000000,"state":"active","ping":68},{"user_id":786,"name":"Goon Spoons","steam_id":76561198116391675,"connected_time":71000000000,"state":"active","ping":72},{"user_id":739,"name":"beurgeur","steam_id":76561198872426314,"connected_time":4248000000000,"state":"active","ping":46},{"user_id":781,"name":"Silverdarlin","steam_id":76561198118540970,"connected_time":438000000000,"state":"active","ping":65},{"user_id":763,"name":"lark","steam_id":76561198091724522,"connected_time":2614000000000,"state":"active","ping":63},{"user_id":779,"name":"Juiceydough","steam_id":76561197997323419,"connected_time":695000000000,"state":"active","ping":93},{"user_id":773,"name":"outin","steam_id":76561198137734730,"connected_time":1065000000000,"state":"active","ping":76},{"user_id":782,"name":"Daniel Day-Lewis","steam_id":76561198147249160,"connected_time":334000000000,"state":"active","ping":93},{"user_id":787,"name":"Leszy","steam_id":76561198372172135,"connected_time":51000000000,"state":"active","ping":64},{"user_id":768,"name":"harizzment","steam_id":76561198890409949,"connected_time":2047000000000,"state":"active","ping":92},{"user_id":784,"name":"ScarredPixel123","steam_id":76561199165112703,"connected_time":149000000000,"state":"active","ping":78},{"user_id":788,"name":"Ork","steam_id":76561197968575924,"connected_time":6000000000,"state":"spawning","ping":72},{"user_id":729,"name":"Seb, Comrade","steam_id":76561198040279587,"connected_time":4499000000000,"state":"active","ping":106},{"user_id":743,"name":"Mr.Weis","steam_id":76561198115443579,"connected_time":4116000000000,"state":"active","ping":70},{"user_id":765,"name":"monke gaming","steam_id":76561199062738005,"connected_time":2376000000000,"state":"active","ping":63},{"user_id":758,"name":"Rops","steam_id":76561198031608011,"connected_time":3303000000000,"state":"active","ping":84},{"user_id":770,"name":"kreeekz","steam_id":76561198014431602,"connected_time":1671000000000,"state":"active","ping":69},{"user_id":736,"name":"Floyd","steam_id":76561198125333672,"connected_time":4293000000000,"state":"active","ping":104},{"user_id":764,"name":"Saken","steam_id":76561198049075295,"connected_time":2427000000000,"state":"active","ping":55},{"user_id":766,"name":"Segra blw.tf","steam_id":76561198441974031,"connected_time":2350000000000,"state":"active","ping":72},{"user_id":778,"name":"avenje","steam_id":76561198155824845,"connected_time":960000000000,"state":"active","ping":59}]},{"server_id":23,"name":"Uncletopia | Frankfurt | 7 | Stopwatch Beta","name_short":"frk-7","host":"frk-1.de.uncletopia.com","port":27075,"enabled":true,"region":"eu","cc":"de","latitude":50.110924,"longitude":8.682127,"reserved":0,"last_update":"0001-01-01T00:00:00Z","name_a2s":"Uncletopia | Frankfurt | 7 | Stopwatch Beta","protocol":17,"map":"cp_sunshine","folder":"tf","game":"Team Fortress","app_id":440,"player_count":0,"max_players":24,"Bots":0,"server_type":"Dedicated","server_os":"Linux","password":true,"vac":true,"version":"7757534","steam_id":85568392924742827,"keywords":["cp","nocrits","nodmgspread","uncletopia"],"game_id":440,"stv_port":27076,"stv_name":"Uncletopia | Frankfurt | 7 | Stopwatch Beta | STV","players":null},{"server_id":24,"name":"Uncletopia | Frankfurt | 8 | Community","name_short":"frk-8","host":"frk-1.de.uncletopia.com","port":27085,"enabled":true,"region":"eu","cc":"de","latitude":50.110924,"longitude":8.682127,"reserved":0,"last_update":"0001-01-01T00:00:00Z","name_a2s":"Uncletopia | Frankfurt | 8 | Community","protocol":17,"map":"workshop/koth_ashville_final.ugc2130459942","folder":"tf","game":"Team Fortress","app_id":440,"player_count":0,"max_players":24,"Bots":0,"server_type":"Dedicated","server_os":"Linux","password":true,"vac":true,"version":"7757534","steam_id":85568392924742828,"keywords":["cp","nocrits","nodmgspread","uncletopia"],"game_id":440,"stv_port":27086,"stv_name":"Uncletopia | Frankfurt | 8 | Community | STV","players":null},{"server_id":202,"name":"Uncletopia | Hong Kong | 1 | All Maps","name_short":"hgk-1","host":"hgk-1.hk.uncletopia.com","port":27015,"enabled":true,"region":"asia","cc":"hk","latitude":22.302711,"longitude":114.177216,"reserved":0,"last_update":"0001-01-01T00:00:00Z","name_a2s":"Uncletopia | Hong Kong | 1 | All Maps","protocol":17,"map":"ctf_2fort","folder":"tf","game":"Team Fortress","app_id":440,"player_count":1,"max_players":24,"Bots":0,"server_type":"Dedicated","server_os":"Linux","password":true,"vac":true,"version":"7757534","steam_id":85568392924494504,"keywords":["ctf","nocrits","nodmgspread","uncletopia"],"game_id":440,"stv_port":27016,"stv_name":"Uncletopia | Hong Kong | 1 | All Maps | STV","players":[{"user_id":362,"name":"Cloud","steam_id":76561198272454184,"connected_time":526000000000,"state":"active","ping":91}]},{"server_id":1,"name":"Uncletopia | Los Angeles | 1 | All Maps","name_short":"lax-1","host":"lax-1.us.uncletopia.com","port":27015,"enabled":true,"region":"us-west","cc":"us","latitude":33.94279,"longitude":-118.41004,"reserved":0,"last_update":"0001-01-01T00:00:00Z","name_a2s":"Uncletopia | Los Angeles | 1 | All Maps","protocol":17,"map":"pl_upward","folder":"tf","game":"Team Fortress","app_id":440,"player_count":21,"max_players":24,"Bots":0,"server_type":"Dedicated","server_os":"Linux","password":true,"vac":true,"version":"7757534","steam_id":85568392924469991,"keywords":["nocrits","nodmgspread","payload","uncletopia"],"game_id":440,"stv_port":27016,"stv_name":"Uncletopia | Los Angeles | 1 | All Maps | STV","players":[{"user_id":109,"name":"ORANGE","steam_id":76561198000401769,"connected_time":573000000000,"state":"active","ping":65},{"user_id":111,"name":"DaBeatGoOff?","steam_id":76561198106507400,"connected_time":413000000000,"state":"active","ping":50},{"user_id":110,"name":"Baldcoin","steam_id":76561198079193722,"connected_time":478000000000,"state":"active","ping":36},{"user_id":105,"name":"WannaSeeA","steam_id":76561198097701042,"connected_time":1343000000000,"state":"active","ping":76},{"user_id":117,"name":"gamer_hater","steam_id":76561198973306314,"connected_time":65000000000,"state":"active","ping":53},{"user_id":112,"name":"NickMcAwesome","steam_id":76561197997818869,"connected_time":400000000000,"state":"active","ping":79},{"user_id":63,"name":"Anthid","steam_id":76561198074493797,"connected_time":4479000000000,"state":"active","ping":67},{"user_id":68,"name":"CaptainPikachu","steam_id":76561198075667401,"connected_time":4237000000000,"state":"active","ping":82},{"user_id":96,"name":"cardboardwarrior1","steam_id":76561199145044693,"connected_time":2111000000000,"state":"active","ping":107},{"user_id":114,"name":"nexus","steam_id":76561198795914625,"connected_time":253000000000,"state":"active","ping":93},{"user_id":115,"name":"Pinder","steam_id":76561198176708643,"connected_time":177000000000,"state":"active","ping":84},{"user_id":100,"name":"Gooner Witch","steam_id":76561198305488625,"connected_time":1873000000000,"state":"active","ping":88},{"user_id":98,"name":"CJDGuy","steam_id":76561198213009545,"connected_time":1994000000000,"state":"active","ping":125},{"user_id":107,"name":"Shamrock Shake Oct.10.2020 @8pm","steam_id":76561198833313201,"connected_time":980000000000,"state":"active","ping":50},{"user_id":31,"name":"🅜🅔🅔🅚🅢🅣🅔\ufffd\ufffd\ufffd","steam_id":76561197999748343,"connected_time":6542000000000,"state":"active","ping":62},{"user_id":90,"name":"AlyOop","steam_id":76561198990950767,"connected_time":2775000000000,"state":"active","ping":100},{"user_id":23,"name":"Blitzy","steam_id":76561198149472890,"connected_time":7155000000000,"state":"active","ping":88},{"user_id":66,"name":"flo rida","steam_id":76561198226169704,"connected_time":4291000000000,"state":"active","ping":46},{"user_id":101,"name":"Unban Level Eater (She/They)","steam_id":76561198823616667,"connected_time":1864000000000,"state":"active","ping":86},{"user_id":108,"name":"Juanelo","steam_id":76561199096390505,"connected_time":918000000000,"state":"active","ping":96},{"user_id":116,"name":"rat boy mao","steam_id":76561198283687382,"connected_time":155000000000,"state":"active","ping":89}]},{"server_id":112,"name":"Uncletopia | Los Angeles | 2 | All Maps","name_short":"lax-2","host":"lax-1.us.uncletopia.com","port":27025,"enabled":true,"region":"us-west","cc":"us","latitude":33.94279,"longitude":-118.41004,"reserved":0,"last_update":"0001-01-01T00:00:00Z","name_a2s":"Uncletopia | Los Angeles | 2 | All Maps","protocol":17,"map":"koth_cascade","folder":"tf","game":"Team Fortress","app_id":440,"player_count":0,"max_players":24,"Bots":0,"server_type":"Dedicated","server_os":"Linux","password":true,"vac":true,"version":"7757534","steam_id":85568392924469992,"keywords":["cp","nocrits","nodmgspread","uncletopia"],"game_id":440,"stv_port":27026,"stv_name":"Uncletopia | Los Angeles | 2 | All Maps | STV","players":null},{"server_id":324,"name":"Uncletopia | Los Angeles | 3 | All Maps","name_short":"lax-3","host":"lax-1.us.uncletopia.com","port":27035,"enabled":true,"region":"us-west","cc":"us","latitude":33.94279,"longitude":-118.41004,"reserved":0,"last_update":"0001-01-01T00:00:00Z","name_a2s":"Uncletopia | Los Angeles | 3 | All Maps","protocol":17,"map":"pl_barnblitz","folder":"tf","game":"Team Fortress","app_id":440,"player_count":0,"max_players":24,"Bots":0,"server_type":"Dedicated","server_os":"Linux","password":true,"vac":true,"version":"7757534","steam_id":85568392924510198,"keywords":["nocrits","nodmgspread","payload","uncletopia"],"game_id":440,"stv_port":27036,"stv_name":"Uncletopia | Los Angeles | 3 | All Maps | STV","players":null},{"server_id":25,"name":"Uncletopia | Los Angeles | 4 | Stopwatch Beta","name_short":"lax-4","host":"lax-1.us.uncletopia.com","port":27045,"enabled":true,"region":"us-west","cc":"us","latitude":33.94279,"longitude":-118.41004,"reserved":0,"last_update":"0001-01-01T00:00:00Z","name_a2s":"Uncletopia | Los Angeles | 4 | Stopwatch Beta","protocol":17,"map":"pl_frontier_final","folder":"tf","game":"Team Fortress","app_id":440,"player_count":0,"max_players":24,"Bots":0,"server_type":"Dedicated","server_os":"Linux","password":true,"vac":true,"version":"7757534","steam_id":85568392924510199,"keywords":["nocrits","nodmgspread","payload","uncletopia"],"game_id":440,"stv_port":27046,"stv_name":"Uncletopia | Los Angeles | 4 | Stopwatch Beta | STV","players":null},{"server_id":11,"name":"Uncletopia | London | 1 | All Maps","name_short":"lon-1","host":"lon-1.uk.uncletopia.com","port":27015,"enabled":true,"region":"eu","cc":"gb","latitude":51.509865,"longitude":-0.118092,"reserved":0,"last_update":"0001-01-01T00:00:00Z","name_a2s":"Uncletopia | London | 1 | All Maps","protocol":17,"map":"pl_swiftwater_final1","folder":"tf","game":"Team Fortress","app_id":440,"player_count":24,"max_players":24,"Bots":0,"server_type":"Dedicated","server_os":"Linux","password":true,"vac":true,"version":"7757534","steam_id":85568392924367362,"keywords":["nocrits","nodmgspread","payload","uncletopia"],"game_id":440,"stv_port":27016,"stv_name":"Uncletopia | London | 1 | All Maps | STV","players":[{"user_id":616,"name":"Qwerty","steam_id":76561198023525894,"connected_time":2340000000000,"state":"active","ping":86},{"user_id":651,"name":"Baron","steam_id":76561198021901783,"connected_time":1666000000000,"state":"active","ping":61},{"user_id":639,"name":"Pancakes","steam_id":76561198196259989,"connected_time":1987000000000,"state":"active","ping":47},{"user_id":647,"name":"Meki","steam_id":76561198108279631,"connected_time":1787000000000,"state":"active","ping":80},{"user_id":660,"name":"SuperBob103","steam_id":76561199175360012,"connected_time":1151000000000,"state":"active","ping":47},{"user_id":598,"name":"Night Fury","steam_id":76561197995207032,"connected_time":2705000000000,"state":"active","ping":81},{"user_id":259,"name":"Joseph Stalin","steam_id":76561198033199746,"connected_time":6853000000000,"state":"active","ping":46},{"user_id":653,"name":"Teecho","steam_id":76561197995269610,"connected_time":1527000000000,"state":"active","ping":53},{"user_id":658,"name":"Vani","steam_id":76561198089874662,"connected_time":1235000000000,"state":"active","ping":174},{"user_id":668,"name":"Laru","steam_id":76561197998838438,"connected_time":138000000000,"state":"active","ping":75},{"user_id":652,"name":"Kwizine","steam_id":76561198147999400,"connected_time":1565000000000,"state":"active","ping":73},{"user_id":661,"name":"hananamanna","steam_id":76561198006570285,"connected_time":1136000000000,"state":"active","ping":118},{"user_id":666,"name":"jim","steam_id":76561198172003783,"connected_time":579000000000,"state":"active","ping":93},{"user_id":662,"name":"triangle","steam_id":76561198046838168,"connected_time":1134000000000,"state":"active","ping":62},{"user_id":634,"name":"Hasamnas","steam_id":76561199125038537,"connected_time":2106000000000,"state":"active","ping":60},{"user_id":655,"name":"crime child rachel","steam_id":76561198038525800,"connected_time":1419000000000,"state":"active","ping":55},{"user_id":656,"name":"MYASSTRO","steam_id":76561198046513151,"connected_time":1299000000000,"state":"active","ping":105},{"user_id":262,"name":"Boil em mash em","steam_id":76561198026508026,"connected_time":6634000000000,"state":"active","ping":76},{"user_id":667,"name":"Jon (alt)","steam_id":76561199380849468,"connected_time":554000000000,"state":"active","ping":66},{"user_id":546,"name":"dec","steam_id":76561198009660168,"connected_time":3347000000000,"state":"active","ping":58},{"user_id":669,"name":"tonedude","steam_id":76561198280837376,"connected_time":107000000000,"state":"active","ping":47},{"user_id":633,"name":"NightyKnight","steam_id":76561198146549416,"connected_time":2130000000000,"state":"active","ping":62},{"user_id":663,"name":"Bob","steam_id":76561198211772015,"connected_time":1108000000000,"state":"active","ping":103},{"user_id":664,"name":"Tomau5","steam_id":76561198027409468,"connected_time":952000000000,"state":"active","ping":53}]},{"server_id":114,"name":"Uncletopia | London | 2 | All Maps","name_short":"lon-2","host":"lon-1.uk.uncletopia.com","port":27025,"enabled":true,"region":"eu","cc":"gb","latitude":51.509865,"longitude":-0.118092,"reserved":0,"last_update":"0001-01-01T00:00:00Z","name_a2s":"Uncletopia | London | 2 | All Maps","protocol":17,"map":"koth_viaduct","folder":"tf","game":"Team Fortress","app_id":440,"player_count":0,"max_players":24,"Bots":0,"server_type":"Dedicated","server_os":"Linux","password":true,"vac":true,"version":"7757534","steam_id":85568392924470941,"keywords":["cp","nocrits","nodmgspread","uncletopia"],"game_id":440,"stv_port":27026,"stv_name":"Uncletopia | London | 2 | All Maps | STV","players":null},{"server_id":320,"name":"Uncletopia | London | 3 | All Maps","name_short":"lon-3","host":"lon-1.uk.uncletopia.com","port":27035,"enabled":true,"region":"eu","cc":"gb","latitude":51.509865,"longitude":-0.118092,"reserved":0,"last_update":"0001-01-01T00:00:00Z","name_a2s":"Uncletopia | London | 3 | All Maps","protocol":17,"map":"pl_badwater","folder":"tf","game":"Team Fortress","app_id":440,"player_count":23,"max_players":24,"Bots":0,"server_type":"Dedicated","server_os":"Linux","password":true,"vac":true,"version":"7757534","steam_id":85568392924510192,"keywords":["nocrits","nodmgspread","payload","uncletopia"],"game_id":440,"stv_port":27036,"stv_name":"Uncletopia | London | 3 | All Maps | STV","players":[{"user_id":487,"name":"Vectillion","steam_id":76561198074292454,"connected_time":3088000000000,"state":"active","ping":68},{"user_id":473,"name":"AsuX","steam_id":76561197990333289,"connected_time":4001000000000,"state":"active","ping":59},{"user_id":495,"name":"☞LaZe☜","steam_id":76561198202191400,"connected_time":2232000000000,"state":"active","ping":56},{"user_id":498,"name":"Minigrim0","steam_id":76561198087819466,"connected_time":2024000000000,"state":"active","ping":90},{"user_id":437,"name":"Anri Okita's Massive Milkers","steam_id":76561199186352720,"connected_time":5110000000000,"state":"active","ping":53},{"user_id":500,"name":"meriones","steam_id":76561198034234373,"connected_time":1944000000000,"state":"active","ping":35},{"user_id":381,"name":"dotdotdot","steam_id":76561198057628751,"connected_time":8933000000000,"state":"active","ping":61},{"user_id":455,"name":"NiKoRo","steam_id":76561197963686614,"connected_time":4551000000000,"state":"active","ping":95},{"user_id":490,"name":"Lyell","steam_id":76561198350329389,"connected_time":2738000000000,"state":"active","ping":74},{"user_id":397,"name":"Fat Pigeon","steam_id":76561198817940142,"connected_time":7977000000000,"state":"active","ping":45},{"user_id":511,"name":"Uncle Owen","steam_id":76561198157999291,"connected_time":548000000000,"state":"active","ping":87},{"user_id":509,"name":"Gorgeous George","steam_id":76561198144256544,"connected_time":738000000000,"state":"active","ping":47},{"user_id":501,"name":"nutlube","steam_id":76561198128831131,"connected_time":1937000000000,"state":"active","ping":59},{"user_id":513,"name":"Clark","steam_id":76561197998520785,"connected_time":325000000000,"state":"active","ping":77},{"user_id":512,"name":"Archer","steam_id":76561198132860299,"connected_time":413000000000,"state":"active","ping":54},{"user_id":515,"name":"kotamine","steam_id":76561198068907991,"connected_time":122000000000,"state":"active","ping":75},{"user_id":497,"name":"bog","steam_id":76561198118412910,"connected_time":2174000000000,"state":"active","ping":90},{"user_id":394,"name":"Grillem Dafoe","steam_id":76561198306874574,"connected_time":8051000000000,"state":"active","ping":64},{"user_id":431,"name":"kbbq","steam_id":76561198346638308,"connected_time":5526000000000,"state":"active","ping":47},{"user_id":505,"name":"Miss Bari","steam_id":76561198365286092,"connected_time":1833000000000,"state":"active","ping":36},{"user_id":469,"name":"Economic crisis","steam_id":76561198063562843,"connected_time":4046000000000,"state":"active","ping":61},{"user_id":471,"name":"salmon meta","steam_id":76561199385280253,"connected_time":4038000000000,"state":"active","ping":126},{"user_id":506,"name":"Relix18144","steam_id":76561199202454318,"connected_time":1699000000000,"state":"active","ping":86}]},{"server_id":321,"name":"Uncletopia | London | 4 | All Maps","name_short":"lon-4","host":"lon-1.uk.uncletopia.com","port":27045,"enabled":true,"region":"eu","cc":"gb","latitude":51.509865,"longitude":-0.118092,"reserved":0,"last_update":"0001-01-01T00:00:00Z","name_a2s":"Uncletopia | London | 4 | All Maps","protocol":17,"map":"koth_viaduct","folder":"tf","game":"Team Fortress","app_id":440,"player_count":0,"max_players":24,"Bots":0,"server_type":"Dedicated","server_os":"Linux","password":true,"vac":true,"version":"7757534","steam_id":85568392924510193,"keywords":["cp","nocrits","nodmgspread","uncletopia"],"game_id":440,"stv_port":27046,"stv_name":"Uncletopia | London | 4 | All Maps | STV","players":null},{"server_id":21,"name":"Uncletopia | London | 5 | All Maps","name_short":"lon-5","host":"lon-1.uk.uncletopia.com","port":27055,"enabled":true,"region":"eu","cc":"gb","latitude":51.509865,"longitude":-0.118092,"reserved":0,"last_update":"0001-01-01T00:00:00Z","name_a2s":"Uncletopia | London | 5 | All Maps","protocol":17,"map":"pl_badwater","folder":"tf","game":"Team Fortress","app_id":440,"player_count":19,"max_players":24,"Bots":0,"server_type":"Dedicated","server_os":"Linux","password":true,"vac":true,"version":"7757534","steam_id":85568392924742829,"keywords":["nocrits","nodmgspread","payload","uncletopia"],"game_id":440,"stv_port":27056,"stv_name":"Uncletopia | London | 5 | All Maps | STV","players":[{"user_id":173,"name":"armadillo","steam_id":76561198324656652,"connected_time":1531000000000,"state":"active","ping":54},{"user_id":198,"name":"Rubi","steam_id":76561198139410003,"connected_time":89000000000,"state":"active","ping":64},{"user_id":192,"name":"Dag!","steam_id":76561198030147941,"connected_time":868000000000,"state":"active","ping":67},{"user_id":157,"name":"Pablo","steam_id":76561198160394046,"connected_time":2159000000000,"state":"active","ping":113},{"user_id":175,"name":"Xeronuclear","steam_id":76561198167712775,"connected_time":1490000000000,"state":"active","ping":55},{"user_id":132,"name":"Niki","steam_id":76561198028601798,"connected_time":3978000000000,"state":"active","ping":81},{"user_id":113,"name":"doopsuiker","steam_id":76561198025916703,"connected_time":6260000000000,"state":"active","ping":69},{"user_id":206,"name":"Guuse","steam_id":76561198030956814,"connected_time":19000000000,"state":"active","ping":86},{"user_id":197,"name":"risco1bolota","steam_id":76561198323074603,"connected_time":207000000000,"state":"active","ping":75},{"user_id":160,"name":"waffle toaster","steam_id":76561198799089628,"connected_time":2042000000000,"state":"active","ping":42},{"user_id":201,"name":"Archos","steam_id":76561198181820631,"connected_time":71000000000,"state":"active","ping":54},{"user_id":177,"name":"UndercoverFurbyHunter","steam_id":76561198265722644,"connected_time":1485000000000,"state":"active","ping":105},{"user_id":193,"name":"whatever","steam_id":76561198095943461,"connected_time":852000000000,"state":"active","ping":75},{"user_id":205,"name":"kristapsmeng6969420","steam_id":76561199431826465,"connected_time":33000000000,"state":"active","ping":71},{"user_id":202,"name":"Dewotter","steam_id":76561198007653168,"connected_time":68000000000,"state":"active","ping":59},{"user_id":171,"name":"torn","steam_id":76561198223003236,"connected_time":1819000000000,"state":"active","ping":76},{"user_id":203,"name":"BIGGERDANGO","steam_id":76561198247876394,"connected_time":61000000000,"state":"active","ping":46},{"user_id":204,"name":"✿Jak✿","steam_id":76561198409389852,"connected_time":60000000000,"state":"active","ping":84},{"user_id":194,"name":"zareski29","steam_id":76561199239730098,"connected_time":441000000000,"state":"active","ping":148}]},{"server_id":22,"name":"Uncletopia | London | 6 | All Maps","name_short":"lon-6","host":"lon-1.uk.uncletopia.com","port":27065,"enabled":true,"region":"eu","cc":"gb","latitude":51.509865,"longitude":-0.118092,"reserved":0,"last_update":"0001-01-01T00:00:00Z","name_a2s":"Uncletopia | London | 6 | All Maps","protocol":17,"map":"koth_cascade","folder":"tf","game":"Team Fortress","app_id":440,"player_count":0,"max_players":24,"Bots":0,"server_type":"Dedicated","server_os":"Linux","password":true,"vac":true,"version":"7757534","steam_id":85568392924742830,"keywords":["cp","nocrits","nodmgspread","uncletopia"],"game_id":440,"stv_port":27066,"stv_name":"Uncletopia | London | 6 | All Maps | STV","players":null},{"server_id":40,"name":"Uncletopia | London | 7 | No Payload","name_short":"lon-7","host":"lon-1.uk.uncletopia.com","port":27075,"enabled":true,"region":"eu","cc":"gb","latitude":51.509865,"longitude":-0.118092,"reserved":0,"last_update":"0001-01-01T00:00:00Z","name_a2s":"Uncletopia | London | 7 | No Payload","protocol":17,"map":"plr_pipeline","folder":"tf","game":"Team Fortress","app_id":440,"player_count":4,"max_players":24,"Bots":0,"server_type":"Dedicated","server_os":"Linux","password":true,"vac":true,"version":"7757534","steam_id":85568392924964314,"keywords":["nocrits","nodmgspread","payload","uncletopia"],"game_id":440,"stv_port":27076,"stv_name":"Uncletopia | London | 7 | No Payload | STV","players":[{"user_id":193,"name":"Petight","steam_id":76561197999438798,"connected_time":3828000000000,"state":"active","ping":31},{"user_id":199,"name":"Bast The Cat","steam_id":76561198370217342,"connected_time":2921000000000,"state":"active","ping":46},{"user_id":205,"name":"Doctor Glizzy","steam_id":76561198315474018,"connected_time":2105000000000,"state":"active","ping":65},{"user_id":198,"name":"for_the_cat","steam_id":76561199258813149,"connected_time":3221000000000,"state":"active","ping":155}]},{"server_id":41,"name":"Uncletopia | London | 8 | Community","name_short":"lon-8","host":"lon-1.uk.uncletopia.com","port":27085,"enabled":true,"region":"eu","cc":"gb","latitude":51.509865,"longitude":-0.118092,"reserved":0,"last_update":"0001-01-01T00:00:00Z","name_a2s":"Uncletopia | London | 8 | Community","protocol":17,"map":"workshop/cp_sulfur_rc2.ugc619869471","folder":"tf","game":"Team Fortress","app_id":440,"player_count":0,"max_players":24,"Bots":0,"server_type":"Dedicated","server_os":"Linux","password":true,"vac":true,"version":"7757534","steam_id":85568392924964315,"keywords":["cp","nocrits","nodmgspread","uncletopia"],"game_id":440,"stv_port":27086,"stv_name":"Uncletopia | London | 8 | Community | STV","players":null},{"server_id":300,"name":"Uncletopia | Montréal | 1 | All Maps","name_short":"mtl-1","host":"mtl-1.ca.uncletopia.com","port":27015,"enabled":true,"region":"us-east","cc":"ca","latitude":45.50889,"longitude":-73.56167,"reserved":0,"last_update":"0001-01-01T00:00:00Z","name_a2s":"Uncletopia | Montréal | 1 | All Maps","protocol":17,"map":"pl_snowycoast","folder":"tf","game":"Team Fortress","app_id":440,"player_count":0,"max_players":24,"Bots":0,"server_type":"Dedicated","server_os":"Linux","password":true,"vac":true,"version":"7757534","steam_id":85568392924500087,"keywords":["nocrits","nodmgspread","payload","uncletopia"],"game_id":440,"stv_port":27016,"stv_name":"Uncletopia | Montréal | 1 | All Maps | STV","players":null},{"server_id":301,"name":"Uncletopia | Montréal | 2 | All Maps","name_short":"mtl-2","host":"mtl-1.ca.uncletopia.com","port":27025,"enabled":true,"region":"us-east","cc":"ca","latitude":45.50889,"longitude":-73.56167,"reserved":0,"last_update":"0001-01-01T00:00:00Z","name_a2s":"Uncletopia | Montréal | 2 | All Maps","protocol":17,"map":"pl_snowycoast","folder":"tf","game":"Team Fortress","app_id":440,"player_count":0,"max_players":24,"Bots":0,"server_type":"Dedicated","server_os":"Linux","password":true,"vac":true,"version":"7757534","steam_id":85568392924500088,"keywords":["nocrits","nodmgspread","payload","uncletopia"],"game_id":440,"stv_port":27026,"stv_name":"Uncletopia | Montréal | 2 | All Maps | STV","players":null},{"server_id":302,"name":"Uncletopia | Montréal | 3 | All Maps","name_short":"mtl-3","host":"mtl-1.ca.uncletopia.com","port":27035,"enabled":true,"region":"us-east","cc":"ca","latitude":45.50889,"longitude":-73.56167,"reserved":0,"last_update":"0001-01-01T00:00:00Z","name_a2s":"Uncletopia | Montréal | 3 | All Maps","protocol":17,"map":"pl_swiftwater_final1","folder":"tf","game":"Team Fortress","app_id":440,"player_count":0,"max_players":24,"Bots":0,"server_type":"Dedicated","server_os":"Linux","password":true,"vac":true,"version":"7757534","steam_id":85568392924500089,"keywords":["nocrits","nodmgspread","payload","uncletopia"],"game_id":440,"stv_port":27036,"stv_name":"Uncletopia | Montréal | 3 | All Maps | STV","players":null},{"server_id":303,"name":"Uncletopia | Montréal | 4 | No Payload","name_short":"mtl-4","host":"mtl-1.ca.uncletopia.com","port":27045,"enabled":true,"region":"us-east","cc":"ca","latitude":45.50889,"longitude":-73.56167,"reserved":0,"last_update":"0001-01-01T00:00:00Z","name_a2s":"Uncletopia | Montréal | 4 | No Payload","protocol":17,"map":"cp_gullywash_final1","folder":"tf","game":"Team Fortress","app_id":440,"player_count":0,"max_players":24,"Bots":0,"server_type":"Dedicated","server_os":"Linux","password":true,"vac":true,"version":"7757534","steam_id":85568392924500090,"keywords":["cp","nocrits","nodmgspread","uncletopia"],"game_id":440,"stv_port":27046,"stv_name":"Uncletopia | Montréal | 4 | No Payload | STV","players":null},{"server_id":13,"name":"Uncletopia | New York City | 1 | All Maps","name_short":"nyc-1","host":"nyc-1.us.uncletopia.com","port":27015,"enabled":true,"region":"us-east","cc":"us","latitude":40.73061,"longitude":-73.93524,"reserved":0,"last_update":"0001-01-01T00:00:00Z","name_a2s":"Uncletopia | New York City | 1 | All Maps","protocol":17,"map":"koth_lakeside_final","folder":"tf","game":"Team Fortress","app_id":440,"player_count":0,"max_players":24,"Bots":0,"server_type":"Dedicated","server_os":"Linux","password":true,"vac":true,"version":"7757534","steam_id":85568392924469993,"keywords":["cp","nocrits","nodmgspread","uncletopia"],"game_id":440,"stv_port":27016,"stv_name":"Uncletopia | New York City | 1 | All Maps | STV","players":null},{"server_id":14,"name":"Uncletopia | New York City | 2 | All Maps","name_short":"nyc-2","host":"nyc-1.us.uncletopia.com","port":27025,"enabled":true,"region":"us-east","cc":"us","latitude":40.73061,"longitude":-73.93524,"reserved":0,"last_update":"0001-01-01T00:00:00Z","name_a2s":"Uncletopia | New York City | 2 | All Maps","protocol":17,"map":"pl_barnblitz","folder":"tf","game":"Team Fortress","app_id":440,"player_count":16,"max_players":24,"Bots":0,"server_type":"Dedicated","server_os":"Linux","password":true,"vac":true,"version":"7757534","steam_id":85568392924469994,"keywords":["nocrits","nodmgspread","payload","uncletopia"],"game_id":440,"stv_port":27026,"stv_name":"Uncletopia | New York City | 2 | All Maps | STV","players":[{"user_id":16,"name":"ryssaleigh.mc","steam_id":76561199163270868,"connected_time":2486000000000,"state":"active","ping":68},{"user_id":32,"name":"wall hax","steam_id":76561198069065342,"connected_time":799000000000,"state":"active","ping":67},{"user_id":35,"name":"rain.","steam_id":76561198164010002,"connected_time":618000000000,"state":"active","ping":70},{"user_id":45,"name":"pant shidder","steam_id":76561198013308693,"connected_time":247000000000,"state":"active","ping":45},{"user_id":22,"name":"rip muhammad ali","steam_id":76561198072640720,"connected_time":2215000000000,"state":"active","ping":47},{"user_id":46,"name":"Chechens Spotted","steam_id":76561199028910893,"connected_time":243000000000,"state":"active","ping":74},{"user_id":34,"name":"imtheguy","steam_id":76561197976550673,"connected_time":637000000000,"state":"active","ping":71},{"user_id":33,"name":"Bob Th","steam_id":76561198856284930,"connected_time":704000000000,"state":"active","ping":67},{"user_id":49,"name":"dirty dank","steam_id":76561198360904432,"connected_time":171000000000,"state":"active","ping":55},{"user_id":52,"name":"emerge","steam_id":76561198186882891,"connected_time":30000000000,"state":"active","ping":75},{"user_id":47,"name":"Chachi","steam_id":76561199045511890,"connected_time":227000000000,"state":"active","ping":57},{"user_id":40,"name":"crankshaft","steam_id":76561197992798282,"connected_time":419000000000,"state":"active","ping":105},{"user_id":41,"name":"SkeechBox 1.1.3","steam_id":76561198119215388,"connected_time":417000000000,"state":"active","ping":99},{"user_id":44,"name":"ern","steam_id":76561198209177156,"connected_time":371000000000,"state":"active","ping":43},{"user_id":48,"name":"fast","steam_id":76561198311704368,"connected_time":210000000000,"state":"active","ping":58},{"user_id":51,"name":"GAUGUIN","steam_id":76561198246193520,"connected_time":114000000000,"state":"active","ping":46}]},{"server_id":15,"name":"Uncletopia | New York City | 3 | Stopwatch Beta","name_short":"nyc-3","host":"nyc-1.us.uncletopia.com","port":27035,"enabled":true,"region":"us-east","cc":"us","latitude":40.73061,"longitude":-73.93524,"reserved":0,"last_update":"0001-01-01T00:00:00Z","name_a2s":"Uncletopia | New York City | 3 | Stopwatch Beta","protocol":17,"map":"pl_borneo","folder":"tf","game":"Team Fortress","app_id":440,"player_count":0,"max_players":24,"Bots":0,"server_type":"Dedicated","server_os":"Linux","password":true,"vac":true,"version":"7757534","steam_id":85568392924742820,"keywords":["nocrits","nodmgspread","payload","uncletopia"],"game_id":440,"stv_port":27036,"stv_name":"Uncletopia | New York City | 3 | Stopwatch Beta | STV","players":null},{"server_id":16,"name":"Uncletopia | New York City | 4 | Community","name_short":"nyc-4","host":"nyc-1.us.uncletopia.com","port":27045,"enabled":true,"region":"us-east","cc":"us","latitude":40.73061,"longitude":-73.93524,"reserved":0,"last_update":"0001-01-01T00:00:00Z","name_a2s":"Uncletopia | New York City | 4 | Community","protocol":17,"map":"workshop/koth_kemptown_rc1.ugc767410655","folder":"tf","game":"Team Fortress","app_id":440,"player_count":0,"max_players":24,"Bots":0,"server_type":"Dedicated","server_os":"Linux","password":true,"vac":true,"version":"7757534","steam_id":85568392924742821,"keywords":["cp","nocrits","nodmgspread","uncletopia"],"game_id":440,"stv_port":27046,"stv_name":"Uncletopia | New York City | 4 | Community | STV","players":null},{"server_id":142,"name":"Uncletopia | São Paulo | 1 | All Maps","name_short":"sao-1","host":"sao-1.br.uncletopia.com","port":27015,"enabled":true,"region":"sa","cc":"br","latitude":-23.533773,"longitude":-46.62529,"reserved":0,"last_update":"0001-01-01T00:00:00Z","name_a2s":"Uncletopia | São Paulo | 1 | All Maps","protocol":17,"map":"cp_snakewater_final1","folder":"tf","game":"Team Fortress","app_id":440,"player_count":0,"max_players":24,"Bots":0,"server_type":"Dedicated","server_os":"Linux","password":true,"vac":true,"version":"7757534","steam_id":85568392924469996,"keywords":["cp","nocrits","nodmgspread","uncletopia"],"game_id":440,"stv_port":27016,"stv_name":"Uncletopia | São Paulo | 1 | All Maps | STV","players":null},{"server_id":143,"name":"Uncletopia | São Paulo | 2 | All Maps","name_short":"sao-2","host":"sao-2.br.uncletopia.com","port":27015,"enabled":true,"region":"sa","cc":"br","latitude":-23.533773,"longitude":-46.62529,"reserved":0,"last_update":"0001-01-01T00:00:00Z","name_a2s":"Uncletopia | São Paulo | 2 | All Maps","protocol":17,"map":"pl_snowycoast","folder":"tf","game":"Team Fortress","app_id":440,"player_count":9,"max_players":24,"Bots":0,"server_type":"Dedicated","server_os":"Linux","password":true,"vac":true,"version":"7757534","steam_id":85568392924485349,"keywords":["nocrits","nodmgspread","payload","uncletopia"],"game_id":440,"stv_port":27016,"stv_name":"Uncletopia | São Paulo | 2 | All Maps | STV","players":[{"user_id":53,"name":"StarGold284","steam_id":76561198360354972,"connected_time":1017000000000,"state":"active","ping":52},{"user_id":48,"name":"-=X8X=- XZDX #BBSandman #TF3","steam_id":76561198032141246,"connected_time":1743000000000,"state":"active","ping":183},{"user_id":54,"name":"KamiJoJo","steam_id":76561198085284013,"connected_time":972000000000,"state":"active","ping":60},{"user_id":55,"name":"jmanbins","steam_id":76561199438744798,"connected_time":965000000000,"state":"active","ping":161},{"user_id":49,"name":"Anders575","steam_id":76561198220386384,"connected_time":1721000000000,"state":"active","ping":46},{"user_id":62,"name":"Stalin","steam_id":76561198073356694,"connected_time":105000000000,"state":"active","ping":61},{"user_id":64,"name":"Mrtakeyotaco","steam_id":76561199429653513,"connected_time":35000000000,"state":"active","ping":263},{"user_id":58,"name":"in-game","steam_id":76561198309404084,"connected_time":452000000000,"state":"active","ping":53},{"user_id":61,"name":"Indicative","steam_id":76561199076612537,"connected_time":339000000000,"state":"active","ping":189}]},{"server_id":7,"name":"Uncletopia | Seattle | 1 | All Maps","name_short":"sea-1","host":"sea-1.us.uncletopia.com","port":27015,"enabled":true,"region":"us-west","cc":"us","latitude":47.608013,"longitude":-122.33517,"reserved":0,"last_update":"0001-01-01T00:00:00Z","name_a2s":"Uncletopia | Seattle | 1 | All Maps","protocol":17,"map":"pl_barnblitz","folder":"tf","game":"Team Fortress","app_id":440,"player_count":24,"max_players":24,"Bots":0,"server_type":"Dedicated","server_os":"Linux","password":true,"vac":true,"version":"7757534","steam_id":85568392924469997,"keywords":["nocrits","nodmgspread","payload","uncletopia"],"game_id":440,"stv_port":27016,"stv_name":"Uncletopia | Seattle | 1 | All Maps | STV","players":[{"user_id":325,"name":"Rei Ayanami","steam_id":76561198853092631,"connected_time":6597000000000,"state":"active","ping":65},{"user_id":389,"name":"iNGNORX","steam_id":76561198807649258,"connected_time":1873000000000,"state":"active","ping":64},{"user_id":406,"name":"mega","steam_id":76561198089520959,"connected_time":890000000000,"state":"active","ping":97},{"user_id":391,"name":"DennethThaThinather","steam_id":76561198098121768,"connected_time":1760000000000,"state":"active","ping":56},{"user_id":409,"name":"Cobalt-60","steam_id":76561199121908507,"connected_time":549000000000,"state":"active","ping":130},{"user_id":393,"name":"EchoHunter","steam_id":76561199165491231,"connected_time":1694000000000,"state":"active","ping":100},{"user_id":407,"name":"〣dust〣 -she/her-","steam_id":76561198045218909,"connected_time":857000000000,"state":"active","ping":42},{"user_id":394,"name":"UndeadZomboy","steam_id":76561198048425072,"connected_time":1674000000000,"state":"active","ping":77},{"user_id":408,"name":"oxbudy","steam_id":76561198022120207,"connected_time":784000000000,"state":"active","ping":75},{"user_id":360,"name":"johnny karate","steam_id":76561198165847261,"connected_time":3920000000000,"state":"active","ping":45},{"user_id":376,"name":"Little Linguine","steam_id":76561198816986370,"connected_time":3238000000000,"state":"active","ping":59},{"user_id":370,"name":"COOL master_9","steam_id":76561198073041151,"connected_time":3517000000000,"state":"active","ping":102},{"user_id":395,"name":"S1B0RG2","steam_id":76561198103951211,"connected_time":1656000000000,"state":"active","ping":102},{"user_id":399,"name":"rlty","steam_id":76561198009395055,"connected_time":1583000000000,"state":"active","ping":119},{"user_id":410,"name":"Varrick","steam_id":76561198018461983,"connected_time":301000000000,"state":"active","ping":85},{"user_id":396,"name":"Roberto Del Fuego","steam_id":76561198043458554,"connected_time":1643000000000,"state":"active","ping":94},{"user_id":364,"name":"goongremlin","steam_id":76561198278196215,"connected_time":3824000000000,"state":"active","ping":69},{"user_id":397,"name":"Eris","steam_id":76561199471434875,"connected_time":1619000000000,"state":"active","ping":41},{"user_id":398,"name":"kentuckyfriedsocks","steam_id":76561198311122883,"connected_time":1616000000000,"state":"active","ping":135},{"user_id":371,"name":"Jorge_dude_2008","steam_id":76561198870649125,"connected_time":3418000000000,"state":"active","ping":85},{"user_id":402,"name":"Chief","steam_id":76561198155699202,"connected_time":1433000000000,"state":"active","ping":100},{"user_id":104,"name":"THE NUT","steam_id":76561198067813626,"connected_time":22026000000000,"state":"active","ping":51},{"user_id":386,"name":"Reposas","steam_id":76561198058803197,"connected_time":2205000000000,"state":"active","ping":95},{"user_id":357,"name":"Hassium","steam_id":76561198162541373,"connected_time":4103000000000,"state":"active","ping":59}]},{"server_id":119,"name":"Uncletopia | Seattle | 2 | All Maps","name_short":"sea-2","host":"sea-1.us.uncletopia.com","port":27025,"enabled":true,"region":"us-west","cc":"us","latitude":47.608013,"longitude":-122.33517,"reserved":0,"last_update":"0001-01-01T00:00:00Z","name_a2s":"Uncletopia | Seattle | 2 | All Maps","protocol":17,"map":"pl_upward","folder":"tf","game":"Team Fortress","app_id":440,"player_count":24,"max_players":24,"Bots":0,"server_type":"Dedicated","server_os":"Linux","password":true,"vac":true,"version":"7757534","steam_id":85568392924469998,"keywords":["nocrits","nodmgspread","payload","uncletopia"],"game_id":440,"stv_port":27026,"stv_name":"Uncletopia | Seattle | 2 | All Maps | STV","players":[{"user_id":408,"name":"spvceghvstpvrrpfangirl","steam_id":76561199017754044,"connected_time":1779000000000,"state":"active","ping":60},{"user_id":427,"name":"gromit","steam_id":76561198037746805,"connected_time":786000000000,"state":"active","ping":120},{"user_id":390,"name":"Zeora","steam_id":76561198799145251,"connected_time":2727000000000,"state":"active","ping":123},{"user_id":415,"name":"Malmart_Employee","steam_id":76561198320388704,"connected_time":1222000000000,"state":"active","ping":62},{"user_id":392,"name":"Hi, I'm Jesus","steam_id":76561198015327152,"connected_time":2692000000000,"state":"active","ping":127},{"user_id":255,"name":"Broccoli248","steam_id":76561199162687374,"connected_time":11790000000000,"state":"active","ping":194},{"user_id":413,"name":"Doinnoid","steam_id":76561198262276139,"connected_time":1465000000000,"state":"active","ping":77},{"user_id":429,"name":"Duck","steam_id":76561199236708672,"connected_time":750000000000,"state":"active","ping":85},{"user_id":395,"name":"Cave Dweller","steam_id":76561198374825685,"connected_time":2614000000000,"state":"active","ping":76},{"user_id":426,"name":"Oshiwashi","steam_id":76561198205519169,"connected_time":790000000000,"state":"active","ping":56},{"user_id":428,"name":"bopy","steam_id":76561198845789946,"connected_time":783000000000,"state":"active","ping":150},{"user_id":435,"name":"BroBama","steam_id":76561198203732587,"connected_time":562000000000,"state":"active","ping":128},{"user_id":421,"name":"Mac_Rat","steam_id":76561199227104228,"connected_time":880000000000,"state":"active","ping":120},{"user_id":417,"name":"trackpad gaming | f2p","steam_id":76561198840414371,"connected_time":1086000000000,"state":"active","ping":49},{"user_id":418,"name":"Futa Lover","steam_id":76561198056775795,"connected_time":1016000000000,"state":"active","ping":121},{"user_id":431,"name":"Azzy","steam_id":76561198195409931,"connected_time":696000000000,"state":"active","ping":102},{"user_id":419,"name":"76561198075224361","steam_id":76561198075224361,"connected_time":965000000000,"state":"active","ping":131},{"user_id":387,"name":"ulysses","steam_id":76561198059313367,"connected_time":2952000000000,"state":"active","ping":42},{"user_id":420,"name":"meatBALL sub lova 38 (meatball)","steam_id":76561198965781031,"connected_time":930000000000,"state":"active","ping":127},{"user_id":407,"name":"rock gaming","steam_id":76561199402868311,"connected_time":2332000000000,"state":"active","ping":85},{"user_id":422,"name":"MEEPking","steam_id":76561198277668880,"connected_time":872000000000,"state":"active","ping":82},{"user_id":432,"name":"TheGreatCatsby","steam_id":76561198358757709,"connected_time":695000000000,"state":"active","ping":146},{"user_id":424,"name":"oil","steam_id":76561198099980149,"connected_time":863000000000,"state":"active","ping":78},{"user_id":433,"name":"most stable bladee enjoyer","steam_id":76561198321277216,"connected_time":683000000000,"state":"active","ping":86}]},{"server_id":406,"name":"Uncletopia | Seattle | 3 | Stopwatch Beta","name_short":"sea-3","host":"sea-1.us.uncletopia.com","port":27035,"enabled":true,"region":"us-west","cc":"us","latitude":47.608013,"longitude":-122.33517,"reserved":0,"last_update":"0001-01-01T00:00:00Z","name_a2s":"Uncletopia | Seattle | 3 | Stopwatch Beta","protocol":17,"map":"pl_barnblitz","folder":"tf","game":"Team Fortress","app_id":440,"player_count":0,"max_players":24,"Bots":0,"server_type":"Dedicated","server_os":"Linux","password":true,"vac":true,"version":"7757534","steam_id":85568392924515217,"keywords":["nocrits","nodmgspread","payload","uncletopia"],"game_id":440,"stv_port":27036,"stv_name":"Uncletopia | Seattle | 3 | Stopwatch Beta | STV","players":null},{"server_id":17,"name":"Uncletopia | San Francisco | 1 | All Maps","name_short":"sfo-1","host":"sfo-1.us.uncletopia.com","port":27015,"enabled":true,"region":"us-west","cc":"us","latitude":37.77397,"longitude":-122.4313,"reserved":0,"last_update":"0001-01-01T00:00:00Z","name_a2s":"Uncletopia | San Francisco | 1 | All Maps","protocol":17,"map":"cp_sunshine","folder":"tf","game":"Team Fortress","app_id":440,"player_count":0,"max_players":24,"Bots":0,"server_type":"Dedicated","server_os":"Linux","password":true,"vac":true,"version":"7757534","steam_id":85568392924469999,"keywords":["cp","nocrits","nodmgspread","uncletopia"],"game_id":440,"stv_port":27016,"stv_name":"Uncletopia | San Francisco | 1 | All Maps | STV","players":null},{"server_id":18,"name":"Uncletopia | San Francisco | 2 | All Maps","name_short":"sfo-2","host":"sfo-1.us.uncletopia.com","port":27025,"enabled":true,"region":"us-west","cc":"us","latitude":37.77397,"longitude":-122.4313,"reserved":0,"last_update":"0001-01-01T00:00:00Z","name_a2s":"Uncletopia | San Francisco | 2 | All Maps","protocol":17,"map":"koth_lakeside_final","folder":"tf","game":"Team Fortress","app_id":440,"player_count":0,"max_players":24,"Bots":0,"server_type":"Dedicated","server_os":"Linux","password":true,"vac":true,"version":"7757534","steam_id":85568392924470000,"keywords":["cp","nocrits","nodmgspread","uncletopia"],"game_id":440,"stv_port":27026,"stv_name":"Uncletopia | San Francisco | 2 | All Maps | STV","players":null},{"server_id":19,"name":"Uncletopia | San Francisco | 3 | Stopwatch Beta","name_short":"sfo-3","host":"sfo-1.us.uncletopia.com","port":27035,"enabled":true,"region":"us-west","cc":"us","latitude":37.77397,"longitude":-122.4313,"reserved":0,"last_update":"0001-01-01T00:00:00Z","name_a2s":"Uncletopia | San Francisco | 3 | Stopwatch Beta","protocol":17,"map":"pl_borneo","folder":"tf","game":"Team Fortress","app_id":440,"player_count":0,"max_players":24,"Bots":0,"server_type":"Dedicated","server_os":"Linux","password":true,"vac":true,"version":"7757534","steam_id":85568392924742824,"keywords":["nocrits","nodmgspread","payload","uncletopia"],"game_id":440,"stv_port":27036,"stv_name":"Uncletopia | San Francisco | 3 | Stopwatch Beta | STV","players":null},{"server_id":20,"name":"Uncletopia | San Francisco | 4 | Community","name_short":"sfo-4","host":"sfo-1.us.uncletopia.com","port":27045,"enabled":true,"region":"us-west","cc":"us","latitude":37.77397,"longitude":-122.4313,"reserved":0,"last_update":"0001-01-01T00:00:00Z","name_a2s":"Uncletopia | San Francisco | 4 | Community","protocol":17,"map":"koth_highpass","folder":"tf","game":"Team Fortress","app_id":440,"player_count":0,"max_players":24,"Bots":0,"server_type":"Dedicated","server_os":"Linux","password":true,"vac":true,"version":"7757534","steam_id":85568392924742826,"keywords":["cp","nocrits","nodmgspread","uncletopia"],"game_id":440,"stv_port":27046,"stv_name":"Uncletopia | San Francisco | 4 | Community | STV","players":null},{"server_id":141,"name":"Uncletopia | Sydney | 1 | All Maps","name_short":"syd-1","host":"syd-1.au.uncletopia.com","port":27015,"enabled":true,"region":"au","cc":"au","latitude":-33.865143,"longitude":151.2099,"reserved":0,"last_update":"0001-01-01T00:00:00Z","name_a2s":"Uncletopia | Sydney | 1 | All Maps","protocol":17,"map":"koth_viaduct","folder":"tf","game":"Team Fortress","app_id":440,"player_count":0,"max_players":24,"Bots":0,"server_type":"Dedicated","server_os":"Linux","password":true,"vac":true,"version":"7757534","steam_id":85568392924470001,"keywords":["cp","nocrits","nodmgspread","uncletopia"],"game_id":440,"stv_port":27016,"stv_name":"Uncletopia | Sydney | 1 | All Maps | STV","players":null},{"server_id":123,"name":"Uncletopia | Sydney | 2 | All Maps","name_short":"syd-2","host":"syd-1.au.uncletopia.com","port":27025,"enabled":true,"region":"au","cc":"au","latitude":-33.865143,"longitude":151.2099,"reserved":0,"last_update":"0001-01-01T00:00:00Z","name_a2s":"Uncletopia | Sydney | 2 | All Maps","protocol":17,"map":"koth_viaduct","folder":"tf","game":"Team Fortress","app_id":440,"player_count":0,"max_players":24,"Bots":0,"server_type":"Dedicated","server_os":"Linux","password":true,"vac":true,"version":"7757534","steam_id":85568392924470002,"keywords":["cp","nocrits","nodmgspread","uncletopia"],"game_id":440,"stv_port":27026,"stv_name":"Uncletopia | Sydney | 2 | All Maps | STV","players":null},{"server_id":395,"name":"Uncletopia | Sydney | 3 | All Maps","name_short":"syd-3","host":"syd-1.au.uncletopia.com","port":27035,"enabled":true,"region":"au","cc":"au","latitude":-33.865143,"longitude":151.2099,"reserved":0,"last_update":"0001-01-01T00:00:00Z","name_a2s":"Uncletopia | Sydney | 3 | All Maps","protocol":17,"map":"pl_barnblitz","folder":"tf","game":"Team Fortress","app_id":440,"player_count":0,"max_players":24,"Bots":0,"server_type":"Dedicated","server_os":"Linux","password":true,"vac":true,"version":"7757534","steam_id":85568392925194467,"keywords":["nocrits","nodmgspread","payload","uncletopia"],"game_id":440,"stv_port":27036,"stv_name":"Uncletopia | Sydney | 3 | All Maps | STV","players":null},{"server_id":396,"name":"Uncletopia | Sydney | 4 | All Maps","name_short":"syd-4","host":"syd-1.au.uncletopia.com","port":27045,"enabled":true,"region":"au","cc":"au","latitude":-33.865143,"longitude":151.2099,"reserved":0,"last_update":"0001-01-01T00:00:00Z","name_a2s":"Uncletopia | Sydney | 4 | All Maps","protocol":17,"map":"koth_lakeside_final","folder":"tf","game":"Team Fortress","app_id":440,"player_count":0,"max_players":24,"Bots":0,"server_type":"Dedicated","server_os":"Linux","password":true,"vac":true,"version":"7757534","steam_id":85568392925397958,"keywords":["cp","nocrits","nodmgspread","uncletopia"],"game_id":440,"stv_port":27046,"stv_name":"Uncletopia | Sydney | 4 | All Maps | STV","players":null},{"server_id":58,"name":"Uncletopia | Sydney | 5 | Stopwatch Beta","name_short":"syd-5","host":"syd-1.au.uncletopia.com","port":27055,"enabled":true,"region":"au","cc":"au","latitude":-33.865143,"longitude":151.2099,"reserved":0,"last_update":"0001-01-01T00:00:00Z","name_a2s":"Uncletopia | Sydney | 5 | Stopwatch Beta","protocol":17,"map":"koth_highpass","folder":"tf","game":"Team Fortress","app_id":440,"player_count":0,"max_players":24,"Bots":0,"server_type":"Dedicated","server_os":"Linux","password":true,"vac":true,"version":"7757534","steam_id":85568392925397959,"keywords":["cp","nocrits","nodmgspread","uncletopia"],"game_id":440,"stv_port":27056,"stv_name":"Uncletopia | Sydney | 5 | Stopwatch Beta | STV","players":null},{"server_id":59,"name":"Uncletopia | Sydney | 6 | Community","name_short":"syd-6","host":"syd-1.au.uncletopia.com","port":27065,"enabled":true,"region":"au","cc":"au","latitude":-33.865143,"longitude":151.2099,"reserved":0,"last_update":"0001-01-01T00:00:00Z","name_a2s":"Uncletopia | Sydney | 6 | Community","protocol":17,"map":"cp_sunshine","folder":"tf","game":"Team Fortress","app_id":440,"player_count":0,"max_players":24,"Bots":0,"server_type":"Dedicated","server_os":"Linux","password":true,"vac":true,"version":"7757534","steam_id":85568392925397960,"keywords":["cp","nocrits","nodmgspread","uncletopia"],"game_id":440,"stv_port":27066,"stv_name":"Uncletopia | Sydney | 6 | Community | STV","players":null},{"server_id":49,"name":"Uncletopia | Warsaw | 1 | All Maps","name_short":"waw-1","host":"waw-1.pl.uncletopia.com","port":27015,"enabled":true,"region":"eu","cc":"pl","latitude":52.2297,"longitude":21.017532,"reserved":0,"last_update":"0001-01-01T00:00:00Z","name_a2s":"","protocol":0,"map":"","folder":"","game":"","app_id":0,"player_count":0,"max_players":0,"Bots":0,"server_type":"","server_os":"","password":false,"vac":false,"version":"","steam_id":0,"keywords":null,"game_id":0,"stv_port":0,"stv_name":"","players":null},{"server_id":50,"name":"Uncletopia | Warsaw | 2 | All Maps","name_short":"waw-2","host":"waw-1.pl.uncletopia.com","port":27025,"enabled":true,"region":"eu","cc":"pl","latitude":52.2297,"longitude":21.017532,"reserved":0,"last_update":"0001-01-01T00:00:00Z","name_a2s":"Uncletopia | Warsaw | 2 | All Maps","protocol":17,"map":"cp_altitude","folder":"tf","game":"Team Fortress","app_id":440,"player_count":0,"max_players":24,"Bots":0,"server_type":"Dedicated","server_os":"Linux","password":true,"vac":true,"version":"7757534","steam_id":85568392925397851,"keywords":["cp","nocrits","nodmgspread","uncletopia"],"game_id":440,"stv_port":27026,"stv_name":"Uncletopia | Warsaw | 2 | All Maps | STV","players":null},{"server_id":51,"name":"Uncletopia | Warsaw | 3 | All Maps","name_short":"waw-3","host":"waw-1.pl.uncletopia.com","port":27035,"enabled":true,"region":"eu","cc":"pl","latitude":52.2297,"longitude":21.017532,"reserved":0,"last_update":"0001-01-01T00:00:00Z","name_a2s":"Uncletopia | Warsaw | 3 | All Maps","protocol":17,"map":"cp_dustbowl","folder":"tf","game":"Team Fortress","app_id":440,"player_count":0,"max_players":24,"Bots":0,"server_type":"Dedicated","server_os":"Linux","password":true,"vac":true,"version":"7757534","steam_id":85568392925397852,"keywords":["cp","nocrits","nodmgspread","uncletopia"],"game_id":440,"stv_port":27036,"stv_name":"Uncletopia | Warsaw | 3 | All Maps | STV","players":null},{"server_id":52,"name":"Uncletopia | Warsaw | 4 | All Maps","name_short":"waw-4","host":"waw-1.pl.uncletopia.com","port":27045,"enabled":true,"region":"eu","cc":"pl","latitude":52.2297,"longitude":21.017532,"reserved":0,"last_update":"0001-01-01T00:00:00Z","name_a2s":"Uncletopia | Warsaw | 4 | All Maps","protocol":17,"map":"cp_process_final","folder":"tf","game":"Team Fortress","app_id":440,"player_count":0,"max_players":24,"Bots":0,"server_type":"Dedicated","server_os":"Linux","password":true,"vac":true,"version":"7757534","steam_id":85568392925397853,"keywords":["cp","nocrits","nodmgspread","uncletopia"],"game_id":440,"stv_port":27046,"stv_name":"Uncletopia | Warsaw | 4 | All Maps | STV","players":null},{"server_id":53,"name":"Uncletopia | Warsaw | 5 | Stopwatch Beta","name_short":"waw-5","host":"waw-1.pl.uncletopia.com","port":27055,"enabled":true,"region":"eu","cc":"pl","latitude":52.2297,"longitude":21.017532,"reserved":0,"last_update":"0001-01-01T00:00:00Z","name_a2s":"Uncletopia | Warsaw | 5 | Stopwatch Beta","protocol":17,"map":"pl_barnblitz","folder":"tf","game":"Team Fortress","app_id":440,"player_count":0,"max_players":24,"Bots":0,"server_type":"Dedicated","server_os":"Linux","password":true,"vac":true,"version":"7757534","steam_id":85568392925397854,"keywords":["nocrits","nodmgspread","payload","uncletopia"],"game_id":440,"stv_port":27056,"stv_name":"Uncletopia | Warsaw | 5 | Stopwatch Beta | STV","players":null},{"server_id":54,"name":"Uncletopia | Warsaw | 6 | Community","name_short":"waw-6","host":"waw-1.pl.uncletopia.com","port":27065,"enabled":true,"region":"eu","cc":"pl","latitude":52.2297,"longitude":21.017532,"reserved":0,"last_update":"0001-01-01T00:00:00Z","name_a2s":"Uncletopia | Warsaw | 6 | Community","protocol":17,"map":"pl_swiftwater_final1","folder":"tf","game":"Team Fortress","app_id":440,"player_count":0,"max_players":24,"Bots":0,"server_type":"Dedicated","server_os":"Linux","password":true,"vac":true,"version":"7757534","steam_id":85568392925397856,"keywords":["nocrits","nodmgspread","payload","uncletopia"],"game_id":440,"stv_port":27066,"stv_name":"Uncletopia | Warsaw | 6 | Community | STV","players":null}]}