{"status":true,"message":"","result":[{"server_id":9,"name":"Uncletopia | Atlanta | 1 | All Maps","name_short":"atl-1","host":"atl-1.us.uncletopia.com","port":27015,"enabled":true,"region":"us-east","cc":"us","latitude":33.753746,"longitude":-84.38633,"reserved":0,"last_update":"0001-01-01T00:00:00Z","name_a2s":"Uncletopia | Atlanta | 1 | All Maps","protocol":17,"map":"koth_cascade","folder":"tf","game":"Team Fortress","app_id":440,"player_count":5,"max_players":24,"Bots":0,"server_type":"Dedicated","server_os":"Linux","password":true,"vac":true,"version":"7757534","steam_id":85568392924469982,"keywords":["cp","nocrits","nodmgspread","uncletopia"],"game_id":440,"stv_port":27016,"stv_name":"Uncletopia | Atlanta | 1 | All Maps | STV","players":[{"user_id":6,"name":"ATL1 | on my hunting trip","steam_id":76561198315341646,"connected_time":1092000000000,"state":"active","ping":70},{"user_id":5,"name":"Kiso 火","steam_id":76561198141026844,"connected_time":1147000000000,"state":"active","ping":105},{"user_id":7,"name":"JustPlayn10","steam_id":76561198388676207,"connected_time":546000000000,"state":"active","ping":98},{"user_id":8,"name":"Eosson","steam_id":76561198108642113,"connected_time":131000000000,"state":"active","ping":82},{"user_id":9,"name":"cultmechanicus4","steam_id":76561199472574539,"connected_time":19000000000,"state":"active","ping":61}]},{"server_id":104,"name":"Uncletopia | Atlanta | 2 | All Maps","name_short":"atl-2","host":"atl-1.us.uncletopia.com","port":27025,"enabled":true,"region":"us-east","cc":"us","latitude":33.753746,"longitude":-84.38633,"reserved":0,"last_update":"0001-01-01T00:00:00Z","name_a2s":"Uncletopia | Atlanta | 2 | All Maps","protocol":17,"map":"koth_highpass","folder":"tf","game":"Team Fortress","app_id":440,"player_count":0,"max_players":24,"Bots":0,"server_type":"Dedicated","server_os":"Linux","password":true,"vac":true,"version":"7757534","steam_id":85568392924469983,"keywords":["cp","nocrits","nodmgspread","uncletopia"],"game_id":440,"stv_port":27026,"stv_name":"Uncletopia | Atlanta | 2 | All Maps | STV","players":null},{"server_id":400,"name":"Uncletopia | Atlanta | 3 | Community","name_short":"atl-3","host":"atl-1.us.uncletopia.com","port":27035,"enabled":true,"region":"us-east","cc":"us","latitude":33.753746,"longitude":-84.38633,"reserved":0,"last_update":"0001-01-01T00:00:00Z","name_a2s":"Uncletopia | Atlanta | 3 | Community","protocol":17,"map":"workshop/koth_ashville_final.ugc2130459942","folder":"tf","game":"Team Fortress","app_id":440,"player_count":0,"max_players":24,"Bots":0,"server_type":"Dedicated","server_os":"Linux","password":true,"vac":true,"version":"7757534","steam_id":85568392924515187,"keywords":["cp","nocrits","nodmgspread","uncletopia"],"game_id":440,"stv_port":27036,"stv_name":"Uncletopia | Atlanta | 3 | Community | STV","players":null},{"server_id":401,"name":"Uncletopia | Atlanta | 4 | No Payload","name_short":"atl-4","host":"atl-1.us.uncletopia.com","port":27045,"enabled":true,"region":"us-east","cc":"us","latitude":33.753746,"longitude":-84.38633,"reserved":0,"last_update":"0001-01-01T00:00:00Z","name_a2s":"","protocol":0,"map":"","folder":"","game":"","app_id":0,"player_count":0,"max_players":0,"Bots":0,"server_type":"","server_os":"","password":false,"vac":false,"version":"","steam_id":0,"keywords":null,"game_id":0,"stv_port":0,"stv_name":"","players":null},{"server_id":2,"name":"Uncletopia | Chicago | 1 | All Maps","name_short":"chi-1","host":"chi-1.us.uncletopia.com","port":27015,"enabled":true,"region":"us-central","cc":"us","latitude":41.881832,"longitude":-87.62318,"reserved":0,"last_update":"0001-01-01T00:00:00Z","name_a2s":"Uncletopia | Chicago | 1 | All Maps","protocol":17,"map":"cp_dustbowl","folder":"tf","game":"Team Fortress","app_id":440,"player_count":24,"max_players":24,"Bots":0,"server_type":"Dedicated","server_os":"Linux","password":true,"vac":true,"version":"7757534","steam_id":85568392924469984,"keywords":["cp","nocrits","nodmgspread","uncletopia"],"game_id":440,"stv_port":27016,"stv_name":"Uncletopia | Chicago | 1 | All Maps | STV","players":[{"user_id":125,"name":"Kurayami","steam_id":76561198089630547,"connected_time":1613000000000,"state":"active","ping":66},{"user_id":147,"name":"Speedy","steam_id":76561198080761661,"connected_time":613000000000,"state":"active","ping":76},{"user_id":111,"name":"Howard Hamlin","steam_id":76561198881039861,"connected_time":3512000000000,"state":"active","ping":44},{"user_id":148,"name":"WatchWill","steam_id":76561198157237945,"connected_time":564000000000,"state":"active","ping":81},{"user_id":128,"name":"Massive Conquistador","steam_id":76561197961138002,"connected_time":1585000000000,"state":"active","ping":76},{"user_id":129,"name":"[scumge] sketchie","steam_id":76561198015655864,"connected_time":1583000000000,"state":"active","ping":35},{"user_id":130,"name":"^4Superman","steam_id":76561198022919237,"connected_time":1560000000000,"state":"active","ping":52},{"user_id":64,"name":"TATARA","steam_id":76561199098759517,"connected_time":7121000000000,"state":"active","ping":128},{"user_id":144,"name":"Proof by close enough","steam_id":76561198083345384,"connected_time":880000000000,"state":"active","ping":84},{"user_id":150,"name":"☂Bliffenstimmers☂","steam_id":76561198059984896,"connected_time":375000000000,"state":"active","ping":85},{"user_id":151,"name":"Gaben Gaming","steam_id":76561198330119627,"connected_time":344000000000,"state":"active","ping":74},{"user_id":132,"name":"{Arp} Ðesider","steam_id":76561198046754508,"connected_time":1540000000000,"state":"active","ping":90},{"user_id":149,"name":"AlterFait","steam_id":76561198183864749,"connected_time":522000000000,"state":"active","ping":85},{"user_id":154,"name":"Z4LTte","steam_id":76561198283258068,"connected_time":231000000000,"state":"active","ping":61},{"user_id":79,"name":"Nebula","steam_id":76561198795878862,"connected_time":5879000000000,"state":"active","ping":69},{"user_id":139,"name":"Dr. Nobotnik","steam_id":76561198357339092,"connected_time":1389000000000,"state":"active","ping":96},{"user_id":153,"name":"Bulgarian Nationalist","steam_id":76561198856494882,"connected_time":241000000000,"state":"active","ping":74},{"user_id":115,"name":"Schleep","steam_id":76561198132879659,"connected_time":3268000000000,"state":"active","ping":45},{"user_id":135,"name":"subdromeda","steam_id":76561198884351860,"connected_time":1499000000000,"state":"active","ping":61},{"user_id":141,"name":"Jimpanzee","steam_id":76561198253565380,"connected_time":1276000000000,"state":"active","ping":64},{"user_id":81,"name":"blakejack226","steam_id":76561199128917566,"connected_time":4991000000000,"state":"active","ping":84},{"user_id":137,"name":"obese farts","steam_id":76561198206922028,"connected_time":1486000000000,"state":"active","ping":96},{"user_id":106,"name":"Mister Frank","steam_id":76561198161473385,"connected_time":3609000000000,"state":"active","ping":57},{"user_id":122,"name":"^2Moving^1shadoW","steam_id":76561198078674411,"connected_time":2011000000000,"state":"active","ping":77}]},{"server_id":106,"name":"Uncletopia | Chicago | 2 | All Maps","name_short":"chi-2","host":"chi-1.us.uncletopia.com","port":27025,"enabled":true,"region":"us-central","cc":"us","latitude":41.881832,"longitude":-87.62318,"reserved":0,"last_update":"0001-01-01T00:00:00Z","name_a2s":"Uncletopia | Chicago | 2 | All Maps","protocol":17,"map":"cp_badlands","folder":"tf","game":"Team Fortress","app_id":440,"player_count":24,"max_players":24,"Bots":0,"server_type":"Dedicated","server_os":"Linux","password":true,"vac":true,"version":"7757534","steam_id":85568392924469985,"keywords":["cp","nocrits","nodmgspread","uncletopia"],"game_id":440,"stv_port":27026,"stv_name":"Uncletopia | Chicago | 2 | All Maps | STV","players":[{"user_id":66,"name":"Danex4","steam_id":76561198880611966,"connected_time":1117000000000,"state":"active","ping":87},{"user_id":67,"name":"BIG HOG","steam_id":76561198079923652,"connected_time":1109000000000,"state":"active","ping":75},{"user_id":7,"name":"Fangirl (deck gaming)","steam_id":76561198253710690,"connected_time":4817000000000,"state":"active","ping":90},{"user_id":72,"name":"magickxanadu","steam_id":76561199117360103,"connected_time":986000000000,"state":"active","ping":77},{"user_id":82,"name":"I keep it halal bro","steam_id":76561198076163949,"connected_time":334000000000,"state":"active","ping":57},{"user_id":83,"name":"Tforcer3519","steam_id":76561198383268065,"connected_time":311000000000,"state":"active","ping":56},{"user_id":77,"name":"2Jit","steam_id":76561198282714473,"connected_time":704000000000,"state":"active","ping":72},{"user_id":37,"name":"BTS | Bumbler","steam_id":76561198048895038,"connected_time":2856000000000,"state":"active","ping":77},{"user_id":81,"name":"Jarvis from Avengers","steam_id":76561198164035863,"connected_time":508000000000,"state":"active","ping":50},{"user_id":27,"name":"Red","steam_id":76561198082958231,"connected_time":3211000000000,"state":"active","ping":60},{"user_id":85,"name":"B)","steam_id":76561198093921290,"connected_time":291000000000,"state":"active","ping":46},{"user_id":86,"name":"le chef","steam_id":76561197960463103,"connected_time":109000000000,"state":"active","ping":59},{"user_id":73,"name":"Dewgong (real)","steam_id":76561198045999391,"connected_time":963000000000,"state":"active","ping":63},{"user_id":24,"name":"ECCO","steam_id":76561198002821513,"connected_time":3308000000000,"state":"active","ping":57},{"user_id":64,"name":"Candy Sparkles","steam_id":76561198126871264,"connected_time":1265000000000,"state":"active","ping":85},{"user_id":76,"name":"Banks","steam_id":76561198276505537,"connected_time":824000000000,"state":"active","ping":63},{"user_id":78,"name":"Hulkster","steam_id":76561198278156353,"connected_time":563000000000,"state":"active","ping":113},{"user_id":53,"name":"Ajax","steam_id":76561197962240140,"connected_time":1962000000000,"state":"active","ping":61},{"user_id":75,"name":"Bill Carr","steam_id":76561198110033943,"connected_time":938000000000,"state":"active","ping":134},{"user_id":32,"name":"Mopwater","steam_id":76561198113607272,"connected_time":3121000000000,"state":"active","ping":60},{"user_id":44,"name":"hatchetax","steam_id":76561199013337543,"connected_time":2599000000000,"state":"active","ping":71},{"user_id":46,"name":"Cactus Man","steam_id":76561198358584155,"connected_time":2587000000000,"state":"active","ping":78},{"user_id":52,"name":"Capitan Shyguy","steam_id":76561199224215610,"connected_time":1993000000000,"state":"active","ping":133},{"user_id":80,"name":"Porsy","steam_id":76561198041850843,"connected_time":529000000000,"state":"active","ping":44}]},{"server_id":402,"name":"Uncletopia | Chicago | 3 | All Maps","name_short":"chi-3","host":"chi-1.us.uncletopia.com","port":27035,"enabled":true,"region":"us-central","cc":"us","latitude":41.881832,"longitude":-87.62318,"reserved":0,"last_update":"0001-01-01T00:00:00Z","name_a2s":"Uncletopia | Chicago | 3 | All Maps","protocol":17,"map":"cp_sunshine","folder":"tf","game":"Team Fortress","app_id":440,"player_count":0,"max_players":24,"Bots":0,"server_type":"Dedicated","server_os":"Linux","password":true,"vac":true,"version":"7757534","steam_id":85568392924515191,"keywords":["cp","nocrits","nodmgspread","uncletopia"],"game_id":440,"stv_port":27036,"stv_name":"Uncletopia | Chicago | 3 | All Maps | STV","players":null},{"server_id":403,"name":"Uncletopia | Chicago | 4 | All Maps","name_short":"chi-4","host":"chi-1.us.uncletopia.com","port":27045,"enabled":true,"region":"us-central","cc":"us","latitude":41.881832,"longitude":-87.62318,"reserved":0,"last_update":"0001-01-01T00:00:00Z","name_a2s":"Uncletopia | Chicago | 4 | All Maps","protocol":17,"map":"koth_lakeside_final","folder":"tf","game":"Team Fortress","app_id":440,"player_count":0,"max_players":24,"Bots":0,"server_type":"Dedicated","server_os":"Linux","password":true,"vac":true,"version":"7757534","steam_id":85568392924515193,"keywords":["cp","nocrits","nodmgspread","uncletopia"],"game_id":440,"stv_port":27046,"stv_name":"Uncletopia | Chicago | 4 | All Maps | STV","players":null},{"server_id":36,"name":"Uncletopia | Chicago | 5 | All Maps","name_short":"chi-5","host":"chi-2.us.uncletopia.com","port":27015,"enabled":true,"region":"us-central","cc":"us","latitude":41.881832,"longitude":-87.62318,"reserved":0,"last_update":"0001-01-01T00:00:00Z","name_a2s":"Uncletopia | Chicago | 5 | All Maps","protocol":17,"map":"koth_cascade","folder":"tf","game":"Team Fortress","app_id":440,"player_count":0,"max_players":24,"Bots":0,"server_type":"Dedicated","server_os":"Linux","password":true,"vac":true,"version":"7757534","steam_id":85568392924866362,"keywords":["cp","nocrits","nodmgspread","uncletopia"],"game_id":440,"stv_port":27016,"stv_name":"Uncletopia | Chicago | 5 | All Maps | STV","players":null},{"server_id":37,"name":"Uncletopia | Chicago | 6 | All Maps","name_short":"chi-6","host":"chi-2.us.uncletopia.com","port":27025,"enabled":true,"region":"us-central","cc":"us","latitude":41.881832,"longitude":-87.62318,"reserved":0,"last_update":"0001-01-01T00:00:00Z","name_a2s":"Uncletopia | Chicago | 6 | All Maps","protocol":17,"map":"pl_borneo","folder":"tf","game":"Team Fortress","app_id":440,"player_count":0,"max_players":24,"Bots":0,"server_type":"Dedicated","server_os":"Linux","password":true,"vac":true,"version":"7757534","steam_id":85568392924866363,"keywords":["nocrits","nodmgspread","payload","uncletopia"],"game_id":440,"stv_port":27026,"stv_name":"Uncletopia | Chicago | 6 | All Maps | STV","players":null},{"server_id":38,"name":"Uncletopia | Chicago | 7 | Stopwatch Beta","name_short":"chi-7","host":"chi-2.us.uncletopia.com","port":27035,"enabled":true,"region":"us-central","cc":"us","latitude":41.881832,"longitude":-87.62318,"reserved":0,"last_update":"0001-01-01T00:00:00Z","name_a2s":"Uncletopia | Chicago | 7 | Stopwatch Beta","protocol":17,"map":"pl_barnblitz","folder":"tf","game":"Team Fortress","app_id":440,"player_count":0,"max_players":24,"Bots":0,"server_type":"Dedicated","server_os":"Linux","password":true,"vac":true,"version":"7757534","steam_id":85568392924866364,"keywords":["nocrits","nodmgspread","payload","uncletopia"],"game_id":440,"stv_port":27036,"stv_name":"Uncletopia | Chicago | 7 | Stopwatch Beta | STV","players":null},{"server_id":39,"name":"Uncletopia | Chicago | 8 | Community","name_short":"chi-8","host":"chi-2.us.uncletopia.com","port":27045,"enabled":true,"region":"us-central","cc":"us","latitude":41.881832,"longitude":-87.62318,"reserved":0,"last_update":"0001-01-01T00:00:00Z","name_a2s":"Uncletopia | Chicago | 8 | Community","protocol":17,"map":"koth_cascade","folder":"tf","game":"Team Fortress","app_id":440,"player_count":0,"max_players":24,"Bots":0,"server_type":"Dedicated","server_os":"Linux","password":true,"vac":true,"version":"7757534","steam_id":85568392924866365,"keywords":["cp","nocrits","nodmgspread","uncletopia"],"game_id":440,"stv_port":27046,"stv_name":"Uncletopia | Chicago | 8 | Community | STV","players":null},{"server_id":8,"name":"Uncletopia | Dallas | 1 | All Maps","name_short":"dal-1","host":"dal-1.us.uncletopia.com","port":27015,"enabled":true,"region":"us-central","cc":"us","latitude":32.779167,"longitude":-96.80889,"reserved":0,"last_update":"0001-01-01T00:00:00Z","name_a2s":"Uncletopia | Dallas | 1 | All Maps","protocol":17,"map":"koth_lakeside_final","folder":"tf","game":"Team Fortress","app_id":440,"player_count":8,"max_players":24,"Bots":0,"server_type":"Dedicated","server_os":"Linux","password":true,"vac":true,"version":"7757534","steam_id":85568392924469986,"keywords":["cp","nocrits","nodmgspread","uncletopia"],"game_id":440,"stv_port":27016,"stv_name":"Uncletopia | Dallas | 1 | All Maps | STV","players":[{"user_id":20,"name":"[LINUX] Purple Penguin Pybro","steam_id":76561198093538786,"connected_time":436000000000,"state":"active","ping":45},{"user_id":13,"name":"CrackedSanity","steam_id":76561198279841251,"connected_time":1046000000000,"state":"active","ping":64},{"user_id":14,"name":"NV.3e00","steam_id":76561198089671934,"connected_time":1020000000000,"state":"active","ping":89},{"user_id":15,"name":"TheGreatDong","steam_id":76561198000634178,"connected_time":927000000000,"state":"active","ping":89},{"user_id":16,"name":"SOULDOG","steam_id":76561199212057006,"connected_time":676000000000,"state":"active","ping":179},{"user_id":19,"name":"Captain Bink 'em","steam_id":76561198062334679,"connected_time":574000000000,"state":"active","ping":40},{"user_id":21,"name":"R3allyDAvid011","steam_id":76561199221392345,"connected_time":161000000000,"state":"active","ping":90},{"user_id":22,"name":"username","steam_id":76561198130826890,"connected_time":102000000000,"state":"active","ping":72}]},{"server_id":108,"name":"Uncletopia | Dallas | 2 | All Maps","name_short":"dal-2","host":"dal-1.us.uncletopia.com","port":27025,"enabled":true,"region":"us-central","cc":"us","latitude":32.779167,"longitude":-96.80889,"reserved":0,"last_update":"0001-01-01T00:00:00Z","name_a2s":"Uncletopia | Dallas | 2 | All Maps","protocol":17,"map":"koth_cascade","folder":"tf","game":"Team Fortress","app_id":440,"player_count":2,"max_players":24,"Bots":0,"server_type":"Dedicated","server_os":"Linux","password":true,"vac":true,"version":"7757534","steam_id":85568392924469988,"keywords":["cp","nocrits","nodmgspread","uncletopia"],"game_id":440,"stv_port":27026,"stv_name":"Uncletopia | Dallas | 2 | All Maps | STV","players":[{"user_id":7,"name":"cesartele3000","steam_id":76561198142149479,"connected_time":621000000000,"state":"active","ping":88},{"user_id":8,"name":"BONK you're dead","steam_id":76561199088566283,"connected_time":441000000000,"state":"active","ping":219}]},{"server_id":5,"name":"Uncletopia | Frankfurt | 1 | All Maps","name_short":"frk-1","host":"frk-1.de.uncletopia.com","port":27015,"enabled":true,"region":"eu","cc":"de","latitude":50.110924,"longitude":8.682127,"reserved":0,"last_update":"0001-01-01T00:00:00Z","name_a2s":"Uncletopia | Frankfurt | 1 | All Maps","protocol":17,"map":"cp_mountainlab","folder":"tf","game":"Team Fortress","app_id":440,"player_count":0,"max_players":24,"Bots":0,"server_type":"Dedicated","server_os":"Linux","password":true,"vac":true,"version":"7757534","steam_id":85568392924469989,"keywords":["cp","nocrits","nodmgspread","uncletopia"],"game_id":440,"stv_port":27016,"stv_name":"Uncletopia | Frankfurt | 1 | All Maps | STV","players":null},{"server_id":110,"name":"Uncletopia | Frankfurt | 2 | All Maps","name_short":"frk-2","host":"frk-1.de.uncletopia.com","port":27025,"enabled":true,"region":"eu","cc":"de","latitude":50.110924,"longitude":8.682127,"reserved":0,"last_update":"0001-01-01T00:00:00Z","name_a2s":"Uncletopia | Frankfurt | 2 | All Maps","protocol":17,"map":"pl_frontier_final","folder":"tf","game":"Team Fortress","app_id":440,"player_count":24,"max_players":24,"Bots":0,"server_type":"Dedicated","server_os":"Linux","password":true,"vac":true,"version":"7757534","steam_id":85568392924469990,"keywords":["nocrits","nodmgspread","payload","uncletopia"],"game_id":440,"stv_port":27026,"stv_name":"Uncletopia | Frankfurt | 2 | All Maps | STV","players":[{"user_id":9,"name":"soppasetä | trade.tf","steam_id":76561198800563349,"connected_time":3316000000000,"state":"active","ping":95},{"user_id":10,"name":"Robsu235","steam_id":76561198387475345,"connected_time":3313000000000,"state":"active","ping":106},{"user_id":52,"name":"BigG","steam_id":76561199370914730,"connected_time":1046000000000,"state":"active","ping":116},{"user_id":12,"name":"gyfter","steam_id":76561198913806444,"connected_time":3208000000000,"state":"active","ping":119},{"user_id":36,"name":"w0rm","steam_id":76561197981402363,"connected_time":1835000000000,"state":"active","ping":60},{"user_id":20,"name":"Doriian","steam_id":76561198071438810,"connected_time":2665000000000,"state":"active","ping":75},{"user_id":62,"name":"cracker","steam_id":76561198062107879,"connected_time":424000000000,"state":"active","ping":74},{"user_id":56,"name":"zwbl","steam_id":76561198360811196,"connected_time":863000000000,"state":"active","ping":80},{"user_id":44,"name":"kontad","steam_id":76561198044538694,"connected_time":1429000000000,"state":"active","ping":145},{"user_id":18,"name":"Hat Lover","steam_id":76561198312283433,"connected_time":2803000000000,"state":"active","ping":91},{"user_id":54,"name":"Shellshock","steam_id":76561197985934338,"connected_time":939000000000,"state":"active","ping":47},{"user_id":59,"name":"joebot","steam_id":76561197975606100,"connected_time":443000000000,"state":"active","ping":141},{"user_id":60,"name":"Kombucha Mushroom Person","steam_id":76561198246990590,"connected_time":432000000000,"state":"active","ping":48},{"user_id":24,"name":"HAHAHAE23HWQEH","steam_id":76561198393727973,"connected_time":2465000000000,"state":"active","ping":106},{"user_id":28,"name":"Spacerain","steam_id":76561198316971970,"connected_time":2183000000000,"state":"active","ping":54},{"user_id":29,"name":"Mowelic","steam_id":76561198873641222,"connected_time":2181000000000,"state":"active","ping":82},{"user_id":61,"name":"demps","steam_id":76561198049405872,"connected_time":427000000000,"state":"active","ping":44},{"user_id":72,"name":"zWerTy","steam_id":76561197995660453,"connected_time":206000000000,"state":"active","ping":90},{"user_id":64,"name":"♛ Sancho ♛ #SaveTF2","steam_id":76561198159344089,"connected_time":365000000000,"state":"active","ping":64},{"user_id":65,"name":"enorme","steam_id":76561198151480944,"connected_time":344000000000,"state":"active","ping":61},{"user_id":68,"name":"Brinier","steam_id":76561199012604288,"connected_time":320000000000,"state":"active","ping":68},{"user_id":67,"name":"MrCartof","steam_id":76561198090319222,"connected_time":330000000000,"state":"active","ping":99},{"user_id":69,"name":"RiX","steam_id":76561197969053733,"connected_time":318000000000,"state":"active","ping":69},{"user_id":51,"name":"roog","steam_id":76561198188652402,"connected_time":1184000000000,"state":"active","ping":67}]},{"server_id":308,"name":"Uncletopia | Frankfurt | 3 | All Maps","name_short":"frk-3","host":"frk-1.de.uncletopia.com","port":27035,"enabled":true,"region":"eu","cc":"de","latitude":50.110924,"longitude":8.682127,"reserved":0,"last_update":"0001-01-01T00:00:00Z","name_a2s":"Uncletopia | Frankfurt | 3 | All Maps","protocol":17,"map":"cp_dustbowl","folder":"tf","game":"Team Fortress","app_id":440,"player_count":0,"max_players":24,"Bots":0,"server_type":"Dedicated","server_os":"Linux","password":true,"vac":true,"version":"7757534","steam_id":85568392924504274,"keywords":["cp","nocrits","nodmgspread","uncletopia"],"game_id":440,"stv_port":27036,"stv_name":"Uncletopia | Frankfurt | 3 | All Maps | STV","players":null},{"server_id":309,"name":"Uncletopia | Frankfurt | 4 | All Maps","name_short":"frk-4","host":"frk-1.de.uncletopia.com","port":27045,"enabled":true,"region":"eu","cc":"de","latitude":50.110924,"longitude":8.682127,"reserved":0,"last_update":"0001-01-01T00:00:00Z","name_a2s":"Uncletopia | Frankfurt | 4 | All Maps","protocol":17,"map":"koth_viaduct","folder":"tf","game":"Team Fortress","app_id":440,"player_count":0,"max_players":24,"Bots":0,"server_type":"Dedicated","server_os":"Linux","password":true,"vac":true,"version":"7757534","steam_id":85568392924504275,"keywords":["cp","nocrits","nodmgspread","uncletopia"],"game_id":440,"stv_port":27046,"stv_name":"Uncletopia | Frankfurt | 4 | All Maps | STV","players":null},{"server_id":310,"name":"Uncletopia | Frankfurt | 5 | All Maps","name_short":"frk-5","host":"frk-1.de.uncletopia.com","port":27055,"enabled":true,"region":"eu","cc":"de","latitude":50.110924,"longitude":8.682127,"reserved":0,"last_update":"0001-01-01T00:00:00Z","name_a2s":"Uncletopia | Frankfurt | 5 | All Maps","protocol":17,"map":"pl_upward","folder":"tf","game":"Team Fortress","app_id":440,"player_count":24,"max_players":24,"Bots":0,"server_type":"Dedicated","server_os":"Linux","password":true,"vac":true,"version":"7757534","steam_id":85568392924504277,"keywords":["nocrits","nodmgspread","payload","uncletopia"],"game_id":440,"stv_port":27056,"stv_name":"Uncletopia | Frankfurt | 5 | All Maps | STV","players":[{"user_id":128,"name":"Techm32","steam_id":76561198317134994,"connected_time":1690000000000,"state":"active","ping":53},{"user_id":144,"name":"rva","steam_id":76561199232442508,"connected_time":537000000000,"state":"active","ping":72},{"user_id":106,"name":"XPullaHiiri","steam_id":76561198031652375,"connected_time":3508000000000,"state":"active","ping":85},{"user_id":130,"name":"godmodule","steam_id":76561198165995444,"connected_time":1629000000000,"state":"active","ping":73},{"user_id":131,"name":"Zalbart","steam_id":76561198286576943,"connected_time":1626000000000,"state":"active","ping":76},{"user_id":68,"name":"e36 1.8","steam_id":76561198134203031,"connected_time":6726000000000,"state":"active","ping":54},{"user_id":99,"name":"JeanCorben","steam_id":76561197965133561,"connected_time":4048000000000,"state":"active","ping":45},{"user_id":120,"name":"Rambi","steam_id":76561199058078505,"connected_time":2820000000000,"state":"active","ping":154},{"user_id":127,"name":"Totalfet","steam_id":76561198979468432,"connected_time":1707000000000,"state":"active","ping":84},{"user_id":146,"name":"Leituga","steam_id":76561198051127598,"connected_time":474000000000,"state":"active","ping":86},{"user_id":154,"name":"DraGOs512","steam_id":76561198438519964,"connected_time":24000000000,"state":"spawning","ping":74},{"user_id":148,"name":"Kurage","steam_id":76561198021221288,"connected_time":457000000000,"state":"active","ping":61},{"user_id":149,"name":"Psychicpie","steam_id":76561198126065206,"connected_time":448000000000,"state":"active","ping":46},{"user_id":136,"name":"where is my egg?","steam_id":76561198172542535,"connected_time":1401000000000,"state":"active","ping":88},{"user_id":87,"name":"Anti_Dragon","steam_id":76561198969060607,"connected_time":5083000000000,"state":"active","ping":107},{"user_id":137,"name":"Peanut","steam_id":76561197995312454,"connected_time":1387000000000,"state":"active","ping":70},{"user_id":138,"name":"elijah","steam_id":76561198093936708,"connected_time":1379000000000,"state":"active","ping":60},{"user_id":77,"name":"ITA-Arma55","steam_id":76561198105782406,"connected_time":6312000000000,"state":"active","ping":64},{"user_id":79,"name":"i am really dead","steam_id":76561199087055541,"connected_time":5854000000000,"state":"active","ping":108},{"user_id":75,"name":"jabar7","steam_id":76561198055137986,"connected_time":6394000000000,"state":"active","ping":47},{"user_id":139,"name":"your pocket hoovy","steam_id":76561199116860491,"connected_time":1367000000000,"state":"active","ping":86},{"user_id":150,"name":"simp_fan256","steam_id":76561198129314304,"connected_time":427000000000,"state":"active","ping":136},{"user_id":153,"name":"Shpilli Willy","steam_id":76561198005197553,"connected_time":306000000000,"state":"active","ping":82},{"user_id":141,"name":"Tweehoek","steam_id":76561197993796913,"connected_time":1346000000000,"state":"active","ping":71}]},{"server_id":311,"name":"Uncletopia | Frankfurt | 6 | All Maps","name_short":"frk-6","host":"frk-1.de.uncletopia.com","port":27065,"enabled":true,"region":"eu","cc":"de","latitude":50.110924,"longitude":8.682127,"reserved":0,"last_update":"0001-01-01T00:00:00Z","name_a2s":"Uncletopia | Frankfurt | 6 | All Maps","protocol":17,"map":"pl_frontier_final","folder":"tf","game":"Team Fortress","app_id":440,"player_count":0,"max_players":24,"Bots":0,"server_type":"Dedicated","server_os":"Linux","password":true,"vac":true,"version":"7757534","steam_id":85568392924504278,"keywords":["nocrits","nodmgspread","payload","uncletopia"],"game_id":440,"stv_port":27066,"stv_name":"Uncletopia | Frankfurt | 6 | All Maps | STV","players":null},{"server_id":23,"name":"Uncletopia | Frankfurt | 7 | Stopwatch Beta","name_short":"frk-7","host":"frk-1.de.uncletopia.com","port":27075,"enabled":true,"region":"eu","cc":"de","latitude":50.110924,"longitude":8.682127,"reserved":0,"last_update":"0001-01-01T00:00:00Z","name_a2s":"Uncletopia | Frankfurt | 7 | Stopwatch Beta","protocol":17,"map":"workshop/pl_summercoast_rc8e.ugc1761528829","folder":"tf","game":"Team Fortress","app_id":440,"player_count":0,"max_players":24,"Bots":0,"server_type":"Dedicated","server_os":"Linux","password":true,"vac":true,"version":"7757534","steam_id":85568392924742827,"keywords":["nocrits","nodmgspread","payload","uncletopia"],"game_id":440,"stv_port":27076,"stv_name":"Uncletopia | Frankfurt | 7 | Stopwatch Beta | STV","players":null},{"server_id":24,"name":"Uncletopia | Frankfurt | 8 | Community","name_short":"frk-8","host":"frk-1.de.uncletopia.com","port":27085,"enabled":true,"region":"eu","cc":"de","latitude":50.110924,"longitude":8.682127,"reserved":0,"last_update":"0001-01-01T00:00:00Z","name_a2s":"Uncletopia | Frankfurt | 8 | Community","protocol":17,"map":"koth_lakeside_final","folder":"tf","game":"Team Fortress","app_id":440,"player_count":0,"max_players":24,"Bots":0,"server_type":"Dedicated","server_os":"Linux","password":true,"vac":true,"version":"7757534","steam_id":85568392924742828,"keywords":["cp","nocrits","nodmgspread","uncletopia"],"game_id":440,"stv_port":27086,"stv_name":"Uncletopia | Frankfurt | 8 | Community | STV","players":null},{"server_id":202,"name":"Uncletopia | Hong Kong | 1 | All Maps","name_short":"hgk-1","host":"hgk-1.hk.uncletopia.com","port":27015,"enabled":true,"region":"asia","cc":"hk","latitude":22.302711,"longitude":114.177216,"reserved":0,"last_update":"0001-01-01T00:00:00Z","name_a2s":"Uncletopia | Hong Kong | 1 | All Maps","protocol":17,"map":"pl_borneo","folder":"tf","game":"Team Fortress","app_id":440,"player_count":24,"max_players":24,"Bots":0,"server_type":"Dedicated","server_os":"Linux","password":true,"vac":true,"version":"7757534","steam_id":85568392924494504,"keywords":["nocrits","nodmgspread","payload","uncletopia"],"game_id":440,"stv_port":27016,"stv_name":"Uncletopia | Hong Kong | 1 | All Maps | STV","players":[{"user_id":339,"name":"쿠키","steam_id":76561197997220367,"connected_time":5475000000000,"state":"active","ping":48},{"user_id":369,"name":"Medic Targeter","steam_id":76561198210380077,"connected_time":2522000000000,"state":"active","ping":130},{"user_id":363,"name":"母の肉団子@hao123.com","steam_id":76561198069561896,"connected_time":3346000000000,"state":"active","ping":43},{"user_id":375,"name":"mister beast","steam_id":76561198346128694,"connected_time":1599000000000,"state":"active","ping":68},{"user_id":371,"name":"8091573212","steam_id":76561198968776439,"connected_time":2007000000000,"state":"active","ping":74},{"user_id":380,"name":"Michael Scott","steam_id":76561198023082794,"connected_time":554000000000,"state":"active","ping":51},{"user_id":307,"name":"煙海 | Enkai","steam_id":76561198050460825,"connected_time":8865000000000,"state":"active","ping":76},{"user_id":299,"name":"WoChao","steam_id":76561198234487088,"connected_time":9658000000000,"state":"active","ping":79},{"user_id":354,"name":"haha-manヾ(･ω･｡)ｼ","steam_id":76561198113626204,"connected_time":4325000000000,"state":"active","ping":50},{"user_id":368,"name":"erwynmurphy711","steam_id":76561198288311270,"connected_time":2636000000000,"state":"active","ping":91},{"user_id":361,"name":"Lelouch","steam_id":76561198828840546,"connected_time":3514000000000,"state":"active","ping":79},{"user_id":335,"name":"RedBee (Femboy Nurse 雙)","steam_id":76561198976736971,"connected_time":6236000000000,"state":"active","ping":41},{"user_id":348,"name":"Milf (The Milk fan)","steam_id":76561198213031155,"connected_time":4944000000000,"state":"active","ping":99},{"user_id":387,"name":"Kyo","steam_id":76561198088550274,"connected_time":364000000000,"state":"active","ping":44},{"user_id":344,"name":"dumgall","steam_id":76561198061634407,"connected_time":5438000000000,"state":"active","ping":134},{"user_id":384,"name":"Lyle","steam_id":76561198145166845,"connected_time":421000000000,"state":"active","ping":149},{"user_id":345,"name":"505","steam_id":76561198400698408,"connected_time":5359000000000,"state":"active","ping":93},{"user_id":382,"name":"Officer Jane Doe","steam_id":76561198101362002,"connected_time":458000000000,"state":"active","ping":81},{"user_id":324,"name":"UltraFat","steam_id":76561198253918132,"connected_time":7272000000000,"state":"active","ping":86},{"user_id":383,"name":"angelDivine","steam_id":76561198872518955,"connected_time":430000000000,"state":"active","ping":85},{"user_id":352,"name":"bocchini","steam_id":76561198138187921,"connected_time":4788000000000,"state":"active","ping":52},{"user_id":378,"name":"Samsung Galaxy","steam_id":76561199418137152,"connected_time":1469000000000,"state":"active","ping":64},{"user_id":370,"name":"AmaiRetarded","steam_id":76561199122491157,"connected_time":2202000000000,"state":"active","ping":120},{"user_id":379,"name":"Nimbus","steam_id":76561198877713016,"connected_time":1453000000000,"state":"active","ping":131}]},{"server_id":1,"name":"Uncletopia | Los Angeles | 1 | All Maps","name_short":"lax-1","host":"lax-1.us.uncletopia.com","port":27015,"enabled":true,"region":"us-west","cc":"us","latitude":33.94279,"longitude":-118.41004,"reserved":0,"last_update":"0001-01-01T00:00:00Z","name_a2s":"Uncletopia | Los Angeles | 1 | All Maps","protocol":17,"map":"koth_lakeside_final","folder":"tf","game":"Team Fortress","app_id":440,"player_count":0,"max_players":24,"Bots":0,"server_type":"Dedicated","server_os":"Linux","password":true,"vac":true,"version":"7757534","steam_id":85568392924469991,"keywords":["cp","nocrits","nodmgspread","uncletopia"],"game_id":440,"stv_port":27016,"stv_name":"Uncletopia | Los Angeles | 1 | All Maps | STV","players":null},{"server_id":112,"name":"Uncletopia | Los Angeles | 2 | All Maps","name_short":"lax-2","host":"lax-1.us.uncletopia.com","port":27025,"enabled":true,"region":"us-west","cc":"us","latitude":33.94279,"longitude":-118.41004,"reserved":0,"last_update":"0001-01-01T00:00:00Z","name_a2s":"Uncletopia | Los Angeles | 2 | All Maps","protocol":17,"map":"cp_dustbowl","folder":"tf","game":"Team Fortress","app_id":440,"player_count":21,"max_players":24,"Bots":0,"server_type":"Dedicated","server_os":"Linux","password":true,"vac":true,"version":"7757534","steam_id":85568392924469992,"keywords":["cp","nocrits","nodmgspread","uncletopia"],"game_id":440,"stv_port":27026,"stv_name":"Uncletopia | Los Angeles | 2 | All Maps | STV","players":[{"user_id":19,"name":"PiNKWiTCH","steam_id":76561199184728918,"connected_time":2889000000000,"state":"active","ping":115},{"user_id":4,"name":"Conclusion E²","steam_id":76561198100017156,"connected_time":3202000000000,"state":"active","ping":105},{"user_id":18,"name":"oh wow","steam_id":76561199187075221,"connected_time":2916000000000,"state":"active","ping":105},{"user_id":49,"name":"BasedUser22","steam_id":76561199429505155,"connected_time":742000000000,"state":"active","ping":65},{"user_id":53,"name":"Maxx","steam_id":76561198045405304,"connected_time":430000000000,"state":"active","ping":78},{"user_id":54,"name":"Uncle Dale","steam_id":76561199144302768,"connected_time":39000000000,"state":"active","ping":139},{"user_id":9,"name":"Slumpbuster23","steam_id":76561198890029912,"connected_time":3191000000000,"state":"active","ping":45},{"user_id":10,"name":"blozet","steam_id":76561199120161035,"connected_time":3184000000000,"state":"active","ping":138},{"user_id":11,"name":"William Murdoch","steam_id":76561198031394373,"connected_time":3168000000000,"state":"active","ping":119},{"user_id":44,"name":"GodOfBeefy","steam_id":76561198796420092,"connected_time":985000000000,"state":"active","ping":189},{"user_id":15,"name":"Pro Box","steam_id":76561198035990809,"connected_time":3107000000000,"state":"active","ping":525},{"user_id":16,"name":"kris the deer","steam_id":76561198170928310,"connected_time":3096000000000,"state":"active","ping":108},{"user_id":46,"name":"MasterAmongRust","steam_id":76561198010160233,"connected_time":907000000000,"state":"active","ping":117},{"user_id":51,"name":"Clit Yeastwood","steam_id":76561198066207418,"connected_time":554000000000,"state":"active","ping":83},{"user_id":52,"name":"anakinsewkartstsss","steam_id":76561198095221202,"connected_time":457000000000,"state":"active","ping":162},{"user_id":33,"name":"Don't Fuckle with Shuckle","steam_id":76561199020102367,"connected_time":1731000000000,"state":"active","ping":123},{"user_id":34,"name":"Impadop","steam_id":76561198964240347,"connected_time":1723000000000,"state":"active","ping":85},{"user_id":42,"name":"Fluffypillow64","steam_id":76561198853272694,"connected_time":1495000000000,"state":"active","ping":124},{"user_id":50,"name":"yomommasabitch","steam_id":76561198323217150,"connected_time":614000000000,"state":"active","ping":61},{"user_id":40,"name":"Chris","steam_id":76561198180625579,"connected_time":1653000000000,"state":"active","ping":69},{"user_id":41,"name":"carp","steam_id":76561198262554336,"connected_time":1614000000000,"state":"active","ping":190}]},{"server_id":324,"name":"Uncletopia | Los Angeles | 3 | All Maps","name_short":"lax-3","host":"lax-1.us.uncletopia.com","port":27035,"enabled":true,"region":"us-west","cc":"us","latitude":33.94279,"longitude":-118.41004,"reserved":0,"last_update":"0001-01-01T00:00:00Z","name_a2s":"Uncletopia | Los Angeles | 3 | All Maps","protocol":17,"map":"pl_barnblitz","folder":"tf","game":"Team Fortress","app_id":440,"player_count":0,"max_players":24,"Bots":0,"server_type":"Dedicated","server_os":"Linux","password":true,"vac":true,"version":"7757534","steam_id":85568392924510198,"keywords":["nocrits","nodmgspread","payload","uncletopia"],"game_id":440,"stv_port":27036,"stv_name":"Uncletopia | Los Angeles | 3 | All Maps | STV","players":null},{"server_id":25,"name":"Uncletopia | Los Angeles | 4 | Stopwatch Beta","name_short":"lax-4","host":"lax-1.us.uncletopia.com","port":27045,"enabled":true,"region":"us-west","cc":"us","latitude":33.94279,"longitude":-118.41004,"reserved":0,"last_update":"0001-01-01T00:00:00Z","name_a2s":"Uncletopia | Los Angeles | 4 | Stopwatch Beta","protocol":17,"map":"pl_swiftwater_final1","folder":"tf","game":"Team Fortress","app_id":440,"player_count":0,"max_players":24,"Bots":0,"server_type":"Dedicated","server_os":"Linux","password":true,"vac":true,"version":"7757534","steam_id":85568392924510199,"keywords":["nocrits","nodmgspread","payload","uncletopia"],"game_id":440,"stv_port":27046,"stv_name":"Uncletopia | Los Angeles | 4 | Stopwatch Beta | STV","players":null},{"server_id":11,"name":"Uncletopia | London | 1 | All Maps","name_short":"lon-1","host":"lon-1.uk.uncletopia.com","port":27015,"enabled":true,"region":"eu","cc":"gb","latitude":51.509865,"longitude":-0.118092,"reserved":0,"last_update":"0001-01-01T00:00:00Z","name_a2s":"Uncletopia | London | 1 | All Maps","protocol":17,"map":"pl_upward","folder":"tf","game":"Team Fortress","app_id":440,"player_count":24,"max_players":24,"Bots":0,"server_type":"Dedicated","server_os":"Linux","password":true,"vac":true,"version":"7757534","steam_id":85568392924367362,"keywords":["nocrits","nodmgspread","payload","uncletopia"],"game_id":440,"stv_port":27016,"stv_name":"Uncletopia | London | 1 | All Maps | STV","players":[{"user_id":248,"name":"Ziemniaczki z koperkiem","steam_id":76561198829123464,"connected_time":5396000000000,"state":"active","ping":86},{"user_id":273,"name":"Zoran Snajper","steam_id":76561198312564061,"connected_time":3480000000000,"state":"active","ping":71},{"user_id":274,"name":"ThatTFguy","steam_id":76561198056794321,"connected_time":3442000000000,"state":"active","ping":53},{"user_id":299,"name":"Vibing Wave","steam_id":76561198866358613,"connected_time":1934000000000,"state":"active","ping":168},{"user_id":303,"name":"Air","steam_id":76561198271025518,"connected_time":1511000000000,"state":"active","ping":111},{"user_id":288,"name":"TheFallenFox","steam_id":76561199074190919,"connected_time":2804000000000,"state":"active","ping":68},{"user_id":304,"name":"Poppy Stingray","steam_id":76561198049673783,"connected_time":1371000000000,"state":"active","ping":66},{"user_id":300,"name":"foof","steam_id":76561198308439257,"connected_time":1894000000000,"state":"active","ping":43},{"user_id":260,"name":"Kotlet schabowy","steam_id":76561198048983509,"connected_time":4365000000000,"state":"active","ping":82},{"user_id":314,"name":"Kedy","steam_id":76561198308990457,"connected_time":266000000000,"state":"active","ping":111},{"user_id":313,"name":"Fred Durst","steam_id":76561198056595268,"connected_time":293000000000,"state":"active","ping":56},{"user_id":305,"name":"[placeholder]","steam_id":76561198092615776,"connected_time":1333000000000,"state":"active","ping":147},{"user_id":311,"name":"WiiSportKing","steam_id":76561198114139081,"connected_time":1051000000000,"state":"active","ping":55},{"user_id":315,"name":"hawkblob","steam_id":76561198803720565,"connected_time":265000000000,"state":"active","ping":61},{"user_id":153,"name":"poliakov.noam","steam_id":76561199259322961,"connected_time":11222000000000,"state":"active","ping":104},{"user_id":318,"name":"Slash #SaveTF2","steam_id":76561199047081427,"connected_time":109000000000,"state":"active","ping":55},{"user_id":312,"name":"Purplenoogie","steam_id":76561198081872160,"connected_time":1045000000000,"state":"active","ping":41},{"user_id":238,"name":"NLSAM","steam_id":76561199111154916,"connected_time":6359000000000,"state":"active","ping":63},{"user_id":279,"name":"BIG JOEY","steam_id":76561198045634257,"connected_time":3131000000000,"state":"active","ping":127},{"user_id":284,"name":"romaingallo","steam_id":76561198268112907,"connected_time":2968000000000,"state":"active","ping":75},{"user_id":237,"name":"Dakeyras","steam_id":76561198057069564,"connected_time":6465000000000,"state":"active","ping":109},{"user_id":319,"name":"Canis[Magnus]Pectus","steam_id":76561198363775072,"connected_time":96000000000,"state":"active","ping":134},{"user_id":289,"name":"Sirky","steam_id":76561198082407725,"connected_time":2752000000000,"state":"active","ping":55},{"user_id":316,"name":"TheTiredMario","steam_id":76561199062425739,"connected_time":251000000000,"state":"active","ping":132}]},{"server_id":114,"name":"Uncletopia | London | 2 | All Maps","name_short":"lon-2","host":"lon-1.uk.uncletopia.com","port":27025,"enabled":true,"region":"eu","cc":"gb","latitude":51.509865,"longitude":-0.118092,"reserved":0,"last_update":"0001-01-01T00:00:00Z","name_a2s":"Uncletopia | London | 2 | All Maps","protocol":17,"map":"pl_upward","folder":"tf","game":"Team Fortress","app_id":440,"player_count":24,"max_players":24,"Bots":0,"server_type":"Dedicated","server_os":"Linux","password":true,"vac":true,"version":"7757534","steam_id":85568392924470941,"keywords":["nocrits","nodmgspread","payload","uncletopia"],"game_id":440,"stv_port":27026,"stv_name":"Uncletopia | London | 2 | All Maps | STV","players":[{"user_id":386,"name":"Big Al","steam_id":76561198067692439,"connected_time":324000000000,"state":"active","ping":111},{"user_id":100,"name":"finger","steam_id":76561198133782205,"connected_time":23115000000000,"state":"active","ping":136},{"user_id":365,"name":"AverageName","steam_id":76561199114333959,"connected_time":1789000000000,"state":"active","ping":63},{"user_id":374,"name":"Montrose","steam_id":76561198338911736,"connected_time":1241000000000,"state":"active","ping":186},{"user_id":381,"name":"Gearless","steam_id":76561198362367074,"connected_time":683000000000,"state":"active","ping":87},{"user_id":362,"name":"Jinx my beloved","steam_id":76561198819986745,"connected_time":1919000000000,"state":"active","ping":93},{"user_id":364,"name":"grim reaper god","steam_id":76561199394194512,"connected_time":1824000000000,"state":"active","ping":60},{"user_id":352,"name":"Redkiller","steam_id":76561199453655288,"connected_time":3406000000000,"state":"active","ping":128},{"user_id":341,"name":"AmericanHessian","steam_id":76561198236694548,"connected_time":3799000000000,"state":"active","ping":160},{"user_id":346,"name":"Capu","steam_id":76561198114301162,"connected_time":3674000000000,"state":"active","ping":69},{"user_id":377,"name":"Sítheach","steam_id":76561198138915310,"connected_time":1122000000000,"state":"active","ping":60},{"user_id":348,"name":"Jacknerik","steam_id":76561198041365662,"connected_time":3580000000000,"state":"active","ping":127},{"user_id":382,"name":"Cillian","steam_id":76561199046965320,"connected_time":615000000000,"state":"active","ping":79},{"user_id":376,"name":"Carreidas","steam_id":76561198056957730,"connected_time":1229000000000,"state":"active","ping":60},{"user_id":358,"name":"The Weakest Brazilian Male","steam_id":76561198273215396,"connected_time":2647000000000,"state":"active","ping":39},{"user_id":335,"name":"Jakk","steam_id":76561198041537908,"connected_time":4147000000000,"state":"active","ping":94},{"user_id":387,"name":"Acheron","steam_id":76561198306593373,"connected_time":178000000000,"state":"active","ping":75},{"user_id":379,"name":"generic alias","steam_id":76561198271607226,"connected_time":757000000000,"state":"active","ping":96},{"user_id":384,"name":"RileyNiko","steam_id":76561198162093639,"connected_time":475000000000,"state":"active","ping":122},{"user_id":371,"name":"Joy","steam_id":76561198155314925,"connected_time":1610000000000,"state":"active","ping":55},{"user_id":388,"name":"Saint","steam_id":76561198003296382,"connected_time":119000000000,"state":"active","ping":76},{"user_id":378,"name":"Alfred","steam_id":76561198348799252,"connected_time":1096000000000,"state":"active","ping":51},{"user_id":327,"name":"Tremilta","steam_id":76561198063299674,"connected_time":4338000000000,"state":"active","ping":60},{"user_id":383,"name":"(You)","steam_id":76561198032359132,"connected_time":589000000000,"state":"active","ping":46}]},{"server_id":320,"name":"Uncletopia | London | 3 | All Maps","name_short":"lon-3","host":"lon-1.uk.uncletopia.com","port":27035,"enabled":true,"region":"eu","cc":"gb","latitude":51.509865,"longitude":-0.118092,"reserved":0,"last_update":"0001-01-01T00:00:00Z","name_a2s":"Uncletopia | London | 3 | All Maps","protocol":17,"map":"cp_mountainlab","folder":"tf","game":"Team Fortress","app_id":440,"player_count":24,"max_players":24,"Bots":0,"server_type":"Dedicated","server_os":"Linux","password":true,"vac":true,"version":"7757534","steam_id":85568392924510192,"keywords":["cp","nocrits","nodmgspread","uncletopia"],"game_id":440,"stv_port":27036,"stv_name":"Uncletopia | London | 3 | All Maps | STV","players":[{"user_id":72,"name":"Le père Volca","steam_id":76561198235814492,"connected_time":1552000000000,"state":"active","ping":76},{"user_id":82,"name":"BluDiamynt","steam_id":76561198894231340,"connected_time":817000000000,"state":"active","ping":86},{"user_id":88,"name":"twitch.tv/morvill_","steam_id":76561198809859945,"connected_time":264000000000,"state":"active","ping":43},{"user_id":73,"name":"DocTwoEight","steam_id":76561198153488940,"connected_time":1508000000000,"state":"active","ping":75},{"user_id":86,"name":"Hetmanych","steam_id":76561198870926865,"connected_time":663000000000,"state":"active","ping":37},{"user_id":79,"name":"Bromoneto","steam_id":76561198876695014,"connected_time":862000000000,"state":"active","ping":64},{"user_id":80,"name":"edmund","steam_id":76561198378470149,"connected_time":850000000000,"state":"active","ping":55},{"user_id":92,"name":"FunynMan","steam_id":76561198070387328,"connected_time":108000000000,"state":"active","ping":60},{"user_id":81,"name":"KAZAM | Tervez","steam_id":76561198045459068,"connected_time":838000000000,"state":"active","ping":85},{"user_id":67,"name":"It's a me Malario","steam_id":76561198176546013,"connected_time":2053000000000,"state":"active","ping":47},{"user_id":89,"name":"Dooble donk man look at me donk","steam_id":76561198225523596,"connected_time":260000000000,"state":"active","ping":57},{"user_id":64,"name":"Caro-Kann","steam_id":76561198065506317,"connected_time":2442000000000,"state":"active","ping":66},{"user_id":40,"name":"PlushtrapDev","steam_id":76561199109026519,"connected_time":3920000000000,"state":"active","ping":109},{"user_id":83,"name":"applez","steam_id":76561198252942184,"connected_time":793000000000,"state":"active","ping":118},{"user_id":87,"name":"smrk","steam_id":76561198066926098,"connected_time":328000000000,"state":"active","ping":61},{"user_id":65,"name":"Eggcracker","steam_id":76561199274850641,"connected_time":2425000000000,"state":"active","ping":82},{"user_id":90,"name":"Nitrogue","steam_id":76561198349928418,"connected_time":255000000000,"state":"active","ping":41},{"user_id":94,"name":"micnea","steam_id":76561199069974587,"connected_time":44000000000,"state":"active","ping":83},{"user_id":69,"name":"Lovely dove bombing diarrhea","steam_id":76561198042593027,"connected_time":1879000000000,"state":"active","ping":96},{"user_id":77,"name":"You slumber","steam_id":76561198344639692,"connected_time":927000000000,"state":"active","ping":88},{"user_id":91,"name":"Disco | Hot Remy","steam_id":76561198111462976,"connected_time":228000000000,"state":"active","ping":60},{"user_id":93,"name":"Omni","steam_id":76561197964320557,"connected_time":84000000000,"state":"active","ping":64},{"user_id":95,"name":"Penguinoverlord999","steam_id":76561199231051116,"connected_time":37000000000,"state":"active","ping":132},{"user_id":96,"name":"New","steam_id":76561198402195911,"connected_time":10000000000,"state":"spawning","ping":106}]},{"server_id":321,"name":"Uncletopia | London | 4 | All Maps","name_short":"lon-4","host":"lon-1.uk.uncletopia.com","port":27045,"enabled":true,"region":"eu","cc":"gb","latitude":51.509865,"longitude":-0.118092,"reserved":0,"last_update":"0001-01-01T00:00:00Z","name_a2s":"Uncletopia | London | 4 | All Maps","protocol":17,"map":"cp_dustbowl","folder":"tf","game":"Team Fortress","app_id":440,"player_count":0,"max_players":24,"Bots":0,"server_type":"Dedicated","server_os":"Linux","password":true,"vac":true,"version":"7757534","steam_id":85568392924510193,"keywords":["cp","nocrits","nodmgspread","uncletopia"],"game_id":440,"stv_port":27046,"stv_name":"Uncletopia | London | 4 | All Maps | STV","players":null},{"server_id":21,"name":"Uncletopia | London | 5 | All Maps","name_short":"lon-5","host":"lon-1.uk.uncletopia.com","port":27055,"enabled":true,"region":"eu","cc":"gb","latitude":51.509865,"longitude":-0.118092,"reserved":0,"last_update":"0001-01-01T00:00:00Z","name_a2s":"Uncletopia | London | 5 | All Maps","protocol":17,"map":"cp_snakewater_final1","folder":"tf","game":"Team Fortress","app_id":440,"player_count":24,"max_players":24,"Bots":0,"server_type":"Dedicated","server_os":"Linux","password":true,"vac":true,"version":"7757534","steam_id":85568392924742829,"keywords":["cp","nocrits","nodmgspread","uncletopia"],"game_id":440,"stv_port":27056,"stv_name":"Uncletopia | London | 5 | All Maps | STV","players":[{"user_id":78,"name":"texory","steam_id":76561198060339391,"connected_time":4890000000000,"state":"active","ping":56},{"user_id":121,"name":"Raingnome @SaveTF2","steam_id":76561198007394958,"connected_time":1748000000000,"state":"active","ping":55},{"user_id":102,"name":"Jyghc","steam_id":76561198405980575,"connected_time":3171000000000,"state":"active","ping":70},{"user_id":133,"name":"Lewylow","steam_id":76561198005425686,"connected_time":944000000000,"state":"active","ping":55},{"user_id":87,"name":"Flare","steam_id":76561198039098320,"connected_time":4459000000000,"state":"active","ping":48},{"user_id":110,"name":"godspeed","steam_id":76561198216693185,"connected_time":2830000000000,"state":"active","ping":66},{"user_id":144,"name":"keen zoomer","steam_id":76561198281647082,"connected_time":363000000000,"state":"active","ping":108},{"user_id":126,"name":"Hookiest Owler","steam_id":76561198872013525,"connected_time":1287000000000,"state":"active","ping":105},{"user_id":86,"name":"。。。","steam_id":76561198101624996,"connected_time":4499000000000,"state":"active","ping":98},{"user_id":117,"name":"꧁๖乡Ðe·SexyLion乡꧂","steam_id":76561198123539320,"connected_time":2160000000000,"state":"active","ping":97},{"user_id":104,"name":"SÜLEYMAN ÇAKIR","steam_id":76561199068170005,"connected_time":3105000000000,"state":"active","ping":91},{"user_id":120,"name":"tf2 snake","steam_id":76561198193971167,"connected_time":1956000000000,"state":"active","ping":63},{"user_id":145,"name":"murderwow","steam_id":76561198024566944,"connected_time":311000000000,"state":"active","ping":101},{"user_id":112,"name":"Pink Cheese","steam_id":76561198972186436,"connected_time":2666000000000,"state":"active","ping":52},{"user_id":146,"name":"Potato","steam_id":76561198883934935,"connected_time":298000000000,"state":"active","ping":69},{"user_id":124,"name":"lelecobi324","steam_id":76561198878030367,"connected_time":1466000000000,"state":"active","ping":108},{"user_id":134,"name":"matoni","steam_id":76561198285461719,"connected_time":907000000000,"state":"active","ping":148},{"user_id":140,"name":"yeldad","steam_id":76561198447264153,"connected_time":554000000000,"state":"active","ping":132},{"user_id":131,"name":"Dehydrated","steam_id":76561198970587989,"connected_time":1126000000000,"state":"active","ping":93},{"user_id":141,"name":"Phee","steam_id":76561198014317211,"connected_time":548000000000,"state":"active","ping":66},{"user_id":99,"name":"Fluffy","steam_id":76561198084447725,"connected_time":3537000000000,"state":"active","ping":59},{"user_id":118,"name":"ApartCactus","steam_id":76561199383047989,"connected_time":2135000000000,"state":"active","ping":136},{"user_id":138,"name":"quickfast","steam_id":76561199438900919,"connected_time":702000000000,"state":"active","ping":45},{"user_id":142,"name":"Anxiety","steam_id":76561198110232383,"connected_time":498000000000,"state":"active","ping":106}]},{"server_id":22,"name":"Uncletopia | London | 6 | All Maps","name_short":"lon-6","host":"lon-1.uk.uncletopia.com","port":27065,"enabled":true,"region":"eu","cc":"gb","latitude":51.509865,"longitude":-0.118092,"reserved":0,"last_update":"0001-01-01T00:00:00Z","name_a2s":"Uncletopia | London | 6 | All Maps","protocol":17,"map":"cp_mountainlab","folder":"tf","game":"Team Fortress","app_id":440,"player_count":0,"max_players":24,"Bots":0,"server_type":"Dedicated","server_os":"Linux","password":true,"vac":true,"version":"7757534","steam_id":85568392924742830,"keywords":["cp","nocrits","nodmgspread","uncletopia"],"game_id":440,"stv_port":27066,"stv_name":"Uncletopia | London | 6 | All Maps | STV","players":null},{"server_id":40,"name":"Uncletopia | London | 7 | No Payload","name_short":"lon-7","host":"lon-1.uk.uncletopia.com","port":27075,"enabled":true,"region":"eu","cc":"gb","latitude":51.509865,"longitude":-0.118092,"reserved":0,"last_update":"0001-01-01T00:00:00Z","name_a2s":"Uncletopia | London | 7 | No Payload","protocol":17,"map":"pl_badwater","folder":"tf","game":"Team Fortress","app_id":440,"player_count":0,"max_players":24,"Bots":0,"server_type":"Dedicated","server_os":"Linux","password":true,"vac":true,"version":"7757534","steam_id":85568392924964314,"keywords":["nocrits","nodmgspread","payload","uncletopia"],"game_id":440,"stv_port":27076,"stv_name":"Uncletopia | London | 7 | No Payload | STV","players":null},{"server_id":41,"name":"Uncletopia | London | 8 | Community","name_short":"lon-8","host":"lon-1.uk.uncletopia.com","port":27085,"enabled":true,"region":"eu","cc":"gb","latitude":51.509865,"longitude":-0.118092,"reserved":0,"last_update":"0001-01-01T00:00:00Z","name_a2s":"Uncletopia | London | 8 | Community","protocol":17,"map":"pl_barnblitz","folder":"tf","game":"Team Fortress","app_id":440,"player_count":0,"max_players":24,"Bots":0,"server_type":"Dedicated","server_os":"Linux","password":true,"vac":true,"version":"7757534","steam_id":85568392924964315,"keywords":["nocrits","nodmgspread","payload","uncletopia"],"game_id":440,"stv_port":27086,"stv_name":"Uncletopia | London | 8 | Community | STV","players":null},{"server_id":300,"name":"Uncletopia | Montréal | 1 | All Maps","name_short":"mtl-1","host":"mtl-1.ca.uncletopia.com","port":27015,"enabled":true,"region":"us-east","cc":"ca","latitude":45.50889,"longitude":-73.56167,"reserved":0,"last_update":"0001-01-01T00:00:00Z","name_a2s":"Uncletopia | Montréal | 1 | All Maps","protocol":17,"map":"pl_upward","folder":"tf","game":"Team Fortress","app_id":440,"player_count":0,"max_players":24,"Bots":0,"server_type":"Dedicated","server_os":"Linux","password":true,"vac":true,"version":"7757534","steam_id":85568392924500087,"keywords":["nocrits","nodmgspread","payload","uncletopia"],"game_id":440,"stv_port":27016,"stv_name":"Uncletopia | Montréal | 1 | All Maps | STV","players":null},{"server_id":301,"name":"Uncletopia | Montréal | 2 | All Maps","name_short":"mtl-2","host":"mtl-1.ca.uncletopia.com","port":27025,"enabled":true,"region":"us-east","cc":"ca","latitude":45.50889,"longitude":-73.56167,"reserved":0,"last_update":"0001-01-01T00:00:00Z","name_a2s":"Uncletopia | Montréal | 2 | All Maps","protocol":17,"map":"pl_snowycoast","folder":"tf","game":"Team Fortress","app_id":440,"player_count":0,"max_players":24,"Bots":0,"server_type":"Dedicated","server_os":"Linux","password":true,"vac":true,"version":"7757534","steam_id":85568392924500088,"keywords":["nocrits","nodmgspread","payload","uncletopia"],"game_id":440,"stv_port":27026,"stv_name":"Uncletopia | Montréal | 2 | All Maps | STV","players":null},{"server_id":302,"name":"Uncletopia | Montréal | 3 | All Maps","name_short":"mtl-3","host":"mtl-1.ca.uncletopia.com","port":27035,"enabled":true,"region":"us-east","cc":"ca","latitude":45.50889,"longitude":-73.56167,"reserved":0,"last_update":"0001-01-01T00:00:00Z","name_a2s":"Uncletopia | Montréal | 3 | All Maps","protocol":17,"map":"pl_swiftwater_final1","folder":"tf","game":"Team Fortress","app_id":440,"player_count":0,"max_players":24,"Bots":0,"server_type":"Dedicated","server_os":"Linux","password":true,"vac":true,"version":"7757534","steam_id":85568392924500089,"keywords":["nocrits","nodmgspread","payload","uncletopia"],"game_id":440,"stv_port":27036,"stv_name":"Uncletopia | Montréal | 3 | All Maps | STV","players":null},{"server_id":303,"name":"Uncletopia | Montréal | 4 | No Payload","name_short":"mtl-4","host":"mtl-1.ca.uncletopia.com","port":27045,"enabled":true,"region":"us-east","cc":"ca","latitude":45.50889,"longitude":-73.56167,"reserved":0,"last_update":"0001-01-01T00:00:00Z","name_a2s":"Uncletopia | Montréal | 4 | No Payload","protocol":17,"map":"pl_pier","folder":"tf","game":"Team Fortress","app_id":440,"player_count":0,"max_players":24,"Bots":0,"server_type":"Dedicated","server_os":"Linux","password":true,"vac":true,"version":"7757534","steam_id":85568392924500090,"keywords":["nocrits","nodmgspread","payload","uncletopia"],"game_id":440,"stv_port":27046,"stv_name":"Uncletopia | Montréal | 4 | No Payload | STV","players":null},{"server_id":13,"name":"Uncletopia | New York City | 1 | All Maps","name_short":"nyc-1","host":"nyc-1.us.uncletopia.com","port":27015,"enabled":true,"region":"us-east","cc":"us","latitude":40.73061,"longitude":-73.93524,"reserved":0,"last_update":"0001-01-01T00:00:00Z","name_a2s":"Uncletopia | New York City | 1 | All Maps","protocol":17,"map":"koth_viaduct","folder":"tf","game":"Team Fortress","app_id":440,"player_count":0,"max_players":24,"Bots":0,"server_type":"Dedicated","server_os":"Linux","password":true,"vac":true,"version":"7757534","steam_id":85568392924469993,"keywords":["cp","nocrits","nodmgspread","uncletopia"],"game_id":440,"stv_port":27016,"stv_name":"Uncletopia | New York City | 1 | All Maps | STV","players":null},{"server_id":14,"name":"Uncletopia | New York City | 2 | All Maps","name_short":"nyc-2","host":"nyc-1.us.uncletopia.com","port":27025,"enabled":true,"region":"us-east","cc":"us","latitude":40.73061,"longitude":-73.93524,"reserved":0,"last_update":"0001-01-01T00:00:00Z","name_a2s":"Uncletopia | New York City | 2 | All Maps","protocol":17,"map":"cp_dustbowl","folder":"tf","game":"Team Fortress","app_id":440,"player_count":24,"max_players":24,"Bots":0,"server_type":"Dedicated","server_os":"Linux","password":true,"vac":true,"version":"7757534","steam_id":85568392924469994,"keywords":["cp","nocrits","nodmgspread","uncletopia"],"game_id":440,"stv_port":27026,"stv_name":"Uncletopia | New York City | 2 | All Maps | STV","players":[{"user_id":6,"name":"MagicMuffinman","steam_id":76561198149255313,"connected_time":8686000000000,"state":"active","ping":79},{"user_id":10,"name":"That70sDog","steam_id":76561198119396142,"connected_time":6347000000000,"state":"active","ping":98},{"user_id":89,"name":"Metapod","steam_id":76561198008725465,"connected_time":590000000000,"state":"active","ping":61},{"user_id":87,"name":"Zenabie","steam_id":76561198088372680,"connected_time":660000000000,"state":"active","ping":76},{"user_id":13,"name":"The Responder","steam_id":76561198080822379,"connected_time":6201000000000,"state":"active","ping":83},{"user_id":71,"name":"Alexhcgarヅ","steam_id":76561198085706389,"connected_time":1851000000000,"state":"active","ping":94},{"user_id":88,"name":"shaoer","steam_id":76561198071376804,"connected_time":654000000000,"state":"active","ping":75},{"user_id":90,"name":"codwarn","steam_id":76561198060079656,"connected_time":551000000000,"state":"active","ping":80},{"user_id":100,"name":"floppy muppet","steam_id":76561198003076261,"connected_time":124000000000,"state":"active","ping":87},{"user_id":94,"name":"DualiTea","steam_id":76561198081733870,"connected_time":488000000000,"state":"active","ping":64},{"user_id":91,"name":"Damian","steam_id":76561198159390231,"connected_time":544000000000,"state":"active","ping":68},{"user_id":92,"name":"Large Charles","steam_id":76561197999663001,"connected_time":537000000000,"state":"active","ping":83},{"user_id":96,"name":"「iam3nigma」","steam_id":76561198081580177,"connected_time":295000000000,"state":"active","ping":56},{"user_id":93,"name":"StevieNicholai","steam_id":76561198327310266,"connected_time":516000000000,"state":"active","ping":75},{"user_id":43,"name":"John","steam_id":76561197960965850,"connected_time":4261000000000,"state":"active","ping":149},{"user_id":56,"name":"ZellowJaques","steam_id":76561198230908488,"connected_time":3080000000000,"state":"active","ping":80},{"user_id":27,"name":"Oppressor","steam_id":76561198880977190,"connected_time":4962000000000,"state":"active","ping":71},{"user_id":97,"name":"FS Jorda","steam_id":76561198071421459,"connected_time":287000000000,"state":"active","ping":43},{"user_id":55,"name":"Roc","steam_id":76561197988484579,"connected_time":3129000000000,"state":"active","ping":57},{"user_id":98,"name":"{(.:A.o.S:.)}gumby","steam_id":76561197970528239,"connected_time":274000000000,"state":"active","ping":74},{"user_id":99,"name":"MoldyChip","steam_id":76561198032074317,"connected_time":250000000000,"state":"active","ping":69},{"user_id":69,"name":"Aviyarn","steam_id":76561199074194652,"connected_time":1940000000000,"state":"active","ping":70},{"user_id":85,"name":"|AG| Level","steam_id":76561198063633592,"connected_time":796000000000,"state":"active","ping":101},{"user_id":80,"name":"CakeBlock","steam_id":76561198067238228,"connected_time":1095000000000,"state":"active","ping":49}]},{"server_id":15,"name":"Uncletopia | New York City | 3 | Stopwatch Beta","name_short":"nyc-3","host":"nyc-1.us.uncletopia.com","port":27035,"enabled":true,"region":"us-east","cc":"us","latitude":40.73061,"longitude":-73.93524,"reserved":0,"last_update":"0001-01-01T00:00:00Z","name_a2s":"Uncletopia | New York City | 3 | Stopwatch Beta","protocol":17,"map":"workshop/pl_barnblitz_pro7.ugc582280235","folder":"tf","game":"Team Fortress","app_id":440,"player_count":0,"max_players":24,"Bots":0,"server_type":"Dedicated","server_os":"Linux","password":true,"vac":true,"version":"7757534","steam_id":85568392924742820,"keywords":["nocrits","nodmgspread","payload","uncletopia"],"game_id":440,"stv_port":27036,"stv_name":"Uncletopia | New York City | 3 | Stopwatch Beta | STV","players":null},{"server_id":16,"name":"Uncletopia | New York City | 4 | Community","name_short":"nyc-4","host":"nyc-1.us.uncletopia.com","port":27045,"enabled":true,"region":"us-east","cc":"us","latitude":40.73061,"longitude":-73.93524,"reserved":0,"last_update":"0001-01-01T00:00:00Z","name_a2s":"Uncletopia | New York City | 4 | Community","protocol":17,"map":"pl_swiftwater_final1","folder":"tf","game":"Team Fortress","app_id":440,"player_count":2,"max_players":24,"Bots":0,"server_type":"Dedicated","server_os":"Linux","password":true,"vac":true,"version":"7757534","steam_id":85568392924742821,"keywords":["nocrits","nodmgspread","payload","uncletopia"],"game_id":440,"stv_port":27046,"stv_name":"Uncletopia | New York City | 4 | Community | STV","players":[{"user_id":3,"name":"Sparky","steam_id":76561198086845464,"connected_time":46000000000,"state":"active","ping":61},{"user_id":4,"name":"Kirsk","steam_id":76561198084397649,"connected_time":26000000000,"state":"active","ping":71}]},{"server_id":142,"name":"Uncletopia | São Paulo | 1 | All Maps","name_short":"sao-1","host":"sao-1.br.uncletopia.com","port":27015,"enabled":true,"region":"sa","cc":"br","latitude":-23.533773,"longitude":-46.62529,"reserved":0,"last_update":"0001-01-01T00:00:00Z","name_a2s":"Uncletopia | São Paulo | 1 | All Maps","protocol":17,"map":"koth_cascade","folder":"tf","game":"Team Fortress","app_id":440,"player_count":0,"max_players":24,"Bots":0,"server_type":"Dedicated","server_os":"Linux","password":true,"vac":true,"version":"7757534","steam_id":85568392924469996,"keywords":["cp","nocrits","nodmgspread","uncletopia"],"game_id":440,"stv_port":27016,"stv_name":"Uncletopia | São Paulo | 1 | All Maps | STV","players":null},{"server_id":143,"name":"Uncletopia | São Paulo | 2 | All Maps","name_short":"sao-2","host":"sao-2.br.uncletopia.com","port":27015,"enabled":true,"region":"sa","cc":"br","latitude":-23.533773,"longitude":-46.62529,"reserved":0,"last_update":"0001-01-01T00:00:00Z","name_a2s":"Uncletopia | São Paulo | 2 | All Maps","protocol":17,"map":"pl_swiftwater_final1","folder":"tf","game":"Team Fortress","app_id":440,"player_count":0,"max_players":24,"Bots":0,"server_type":"Dedicated","server_os":"Linux","password":true,"vac":true,"version":"7757534","steam_id":85568392924485349,"keywords":["nocrits","nodmgspread","payload","uncletopia"],"game_id":440,"stv_port":27016,"stv_name":"Uncletopia | São Paulo | 2 | All Maps | STV","players":null},{"server_id":7,"name":"Uncletopia | Seattle | 1 | All Maps","name_short":"sea-1","host":"sea-1.us.uncletopia.com","port":27015,"enabled":true,"region":"us-west","cc":"us","latitude":47.608013,"longitude":-122.33517,"reserved":0,"last_update":"0001-01-01T00:00:00Z","name_a2s":"Uncletopia | Seattle | 1 | All Maps","protocol":17,"map":"koth_viaduct","folder":"tf","game":"Team Fortress","app_id":440,"player_count":16,"max_players":24,"Bots":0,"server_type":"Dedicated","server_os":"Linux","password":true,"vac":true,"version":"7757534","steam_id":85568392924469997,"keywords":["cp","nocrits","nodmgspread","uncletopia"],"game_id":440,"stv_port":27016,"stv_name":"Uncletopia | Seattle | 1 | All Maps | STV","players":[{"user_id":61,"name":"Lobotomite Scout Player","steam_id":76561198046526036,"connected_time":1000000000,"state":"spawning","ping":51},{"user_id":59,"name":"box","steam_id":76561198049531483,"connected_time":56000000000,"state":"spawning","ping":121},{"user_id":5,"name":"lucil3 on Bandcamp","steam_id":76561198149063013,"connected_time":3181000000000,"state":"spawning","ping":111},{"user_id":9,"name":"aisu","steam_id":76561198043768507,"connected_time":3178000000000,"state":"spawning","ping":97},{"user_id":10,"name":"Bryguy","steam_id":76561198092096120,"connected_time":3176000000000,"state":"spawning","ping":98},{"user_id":12,"name":"gay but mostly not","steam_id":76561198141873995,"connected_time":3170000000000,"state":"spawning","ping":65},{"user_id":39,"name":"Sasquatch","steam_id":76561198075815759,"connected_time":1947000000000,"state":"spawning","ping":47},{"user_id":15,"name":"Unikson","steam_id":76561198351504294,"connected_time":3152000000000,"state":"spawning","ping":95},{"user_id":52,"name":"Frodo T Baggins","steam_id":76561198048090297,"connected_time":1103000000000,"state":"spawning","ping":79},{"user_id":46,"name":"83 DPM medic","steam_id":76561198067994868,"connected_time":1601000000000,"state":"spawning","ping":80},{"user_id":55,"name":"lego star wars on the psp","steam_id":76561198148014773,"connected_time":686000000000,"state":"spawning","ping":102},{"user_id":48,"name":"Maxx.Yuri","steam_id":76561199000920577,"connected_time":1580000000000,"state":"spawning","ping":88},{"user_id":27,"name":"xXBootysquirterXx","steam_id":76561198958369544,"connected_time":2884000000000,"state":"spawning","ping":79},{"user_id":29,"name":"pantherfan001","steam_id":76561198329658895,"connected_time":2753000000000,"state":"spawning","ping":109},{"user_id":60,"name":"yug7707","steam_id":76561199239443061,"connected_time":51000000000,"state":"spawning","ping":233},{"user_id":51,"name":"Grassman (Cc)","steam_id":76561198026488532,"connected_time":1196000000000,"state":"spawning","ping":60}]},{"server_id":119,"name":"Uncletopia | Seattle | 2 | All Maps","name_short":"sea-2","host":"sea-1.us.uncletopia.com","port":27025,"enabled":true,"region":"us-west","cc":"us","latitude":47.608013,"longitude":-122.33517,"reserved":0,"last_update":"0001-01-01T00:00:00Z","name_a2s":"Uncletopia | Seattle | 2 | All Maps","protocol":17,"map":"pl_badwater","folder":"tf","game":"Team Fortress","app_id":440,"player_count":0,"max_players":24,"Bots":0,"server_type":"Dedicated","server_os":"Linux","password":true,"vac":true,"version":"7757534","steam_id":85568392924469998,"keywords":["nocrits","nodmgspread","payload","uncletopia"],"game_id":440,"stv_port":27026,"stv_name":"Uncletopia | Seattle | 2 | All Maps | STV","players":null},{"server_id":406,"name":"Uncletopia | Seattle | 3 | Stopwatch Beta","name_short":"sea-3","host":"sea-1.us.uncletopia.com","port":27035,"enabled":true,"region":"us-west","cc":"us","latitude":47.608013,"longitude":-122.33517,"reserved":0,"last_update":"0001-01-01T00:00:00Z","name_a2s":"Uncletopia | Seattle | 3 | Stopwatch Beta","protocol":17,"map":"cp_dustbowl","folder":"tf","game":"Team Fortress","app_id":440,"player_count":0,"max_players":24,"Bots":0,"server_type":"Dedicated","server_os":"Linux","password":true,"vac":true,"version":"7757534","steam_id":85568392924515217,"keywords":["cp","nocrits","nodmgspread","uncletopia"],"game_id":440,"stv_port":27036,"stv_name":"Uncletopia | Seattle | 3 | Stopwatch Beta | STV","players":null},{"server_id":17,"name":"Uncletopia | San Francisco | 1 | All Maps","name_short":"sfo-1","host":"sfo-1.us.uncletopia.com","port":27015,"enabled":true,"region":"us-west","cc":"us","latitude":37.77397,"longitude":-122.4313,"reserved":0,"last_update":"0001-01-01T00:00:00Z","name_a2s":"Uncletopia | San Francisco | 1 | All Maps","protocol":17,"map":"cp_process_final","folder":"tf","game":"Team Fortress","app_id":440,"player_count":0,"max_players":24,"Bots":0,"server_type":"Dedicated","server_os":"Linux","password":true,"vac":true,"version":"7757534","steam_id":85568392924469999,"keywords":["cp","nocrits","nodmgspread","uncletopia"],"game_id":440,"stv_port":27016,"stv_name":"Uncletopia | San Francisco | 1 | All Maps | STV","players":null},{"server_id":18,"name":"Uncletopia | San Francisco | 2 | All Maps","name_short":"sfo-2","host":"sfo-1.us.uncletopia.com","port":27025,"enabled":true,"region":"us-west","cc":"us","latitude":37.77397,"longitude":-122.4313,"reserved":0,"last_update":"0001-01-01T00:00:00Z","name_a2s":"Uncletopia | San Francisco | 2 | All Maps","protocol":17,"map":"koth_highpass","folder":"tf","game":"Team Fortress","app_id":440,"player_count":0,"max_players":24,"Bots":0,"server_type":"Dedicated","server_os":"Linux","password":true,"vac":true,"version":"7757534","steam_id":85568392924470000,"keywords":["cp","nocrits","nodmgspread","uncletopia"],"game_id":440,"stv_port":27026,"stv_name":"Uncletopia | San Francisco | 2 | All Maps | STV","players":null},{"server_id":19,"name":"Uncletopia | San Francisco | 3 | Stopwatch Beta","name_short":"sfo-3","host":"sfo-1.us.uncletopia.com","port":27035,"enabled":true,"region":"us-west","cc":"us","latitude":37.77397,"longitude":-122.4313,"reserved":0,"last_update":"0001-01-01T00:00:00Z","name_a2s":"Uncletopia | San Francisco | 3 | Stopwatch Beta","protocol":17,"map":"koth_lakeside_final","folder":"tf","game":"Team Fortress","app_id":440,"player_count":0,"max_players":24,"Bots":0,"server_type":"Dedicated","server_os":"Linux","password":true,"vac":true,"version":"7757534","steam_id":85568392924742824,"keywords":["cp","nocrits","nodmgspread","uncletopia"],"game_id":440,"stv_port":27036,"stv_name":"Uncletopia | San Francisco | 3 | Stopwatch Beta | STV","players":null},{"server_id":20,"name":"Uncletopia | San Francisco | 4 | Community","name_short":"sfo-4","host":"sfo-1.us.uncletopia.com","port":27045,"enabled":true,"region":"us-west","cc":"us","latitude":37.77397,"longitude":-122.4313,"reserved":0,"last_update":"0001-01-01T00:00:00Z","name_a2s":"Uncletopia | San Francisco | 4 | Community","protocol":17,"map":"cp_altitude","folder":"tf","game":"Team Fortress","app_id":440,"player_count":0,"max_players":24,"Bots":0,"server_type":"Dedicated","server_os":"Linux","password":true,"vac":true,"version":"7757534","steam_id":85568392924742826,"keywords":["cp","nocrits","nodmgspread","uncletopia"],"game_id":440,"stv_port":27046,"stv_name":"Uncletopia | San Francisco | 4 | Community | STV","players":null},{"server_id":141,"name":"Uncletopia | Sydney | 1 | All Maps","name_short":"syd-1","host":"syd-1.au.uncletopia.com","port":27015,"enabled":true,"region":"au","cc":"au","latitude":-33.865143,"longitude":151.2099,"reserved":0,"last_update":"0001-01-01T00:00:00Z","name_a2s":"Uncletopia | Sydney | 1 | All Maps","protocol":17,"map":"pl_barnblitz","folder":"tf","game":"Team Fortress","app_id":440,"player_count":0,"max_players":24,"Bots":0,"server_type":"Dedicated","server_os":"Linux","password":true,"vac":true,"version":"7757534","steam_id":85568392924470001,"keywords":["nocrits","nodmgspread","payload","uncletopia"],"game_id":440,"stv_port":27016,"stv_name":"Uncletopia | Sydney | 1 | All Maps | STV","players":null},{"server_id":123,"name":"Uncletopia | Sydney | 2 | All Maps","name_short":"syd-2","host":"syd-1.au.uncletopia.com","port":27025,"enabled":true,"region":"au","cc":"au","latitude":-33.865143,"longitude":151.2099,"reserved":0,"last_update":"0001-01-01T00:00:00Z","name_a2s":"Uncletopia | Sydney | 2 | All Maps","protocol":17,"map":"pl_barnblitz","folder":"tf","game":"Team Fortress","app_id":440,"player_count":10,"max_players":24,"Bots":0,"server_type":"Dedicated","server_os":"Linux","password":true,"vac":true,"version":"7757534","steam_id":85568392924470002,"keywords":["nocrits","nodmgspread","payload","uncletopia"],"game_id":440,"stv_port":27026,"stv_name":"Uncletopia | Sydney | 2 | All Maps | STV","players":[{"user_id":519,"name":"IZ*","steam_id":76561198834621927,"connected_time":2186000000000,"state":"active","ping":161},{"user_id":540,"name":"Cris.p bacon","steam_id":76561199230423491,"connected_time":758000000000,"state":"active","ping":133},{"user_id":542,"name":"¿eTheRealMe?","steam_id":76561198033297147,"connected_time":288000000000,"state":"active","ping":102},{"user_id":544,"name":"NeuBerlin","steam_id":76561199437569781,"connected_time":79000000000,"state":"active","ping":327},{"user_id":515,"name":"Branko","steam_id":76561199262196710,"connected_time":2694000000000,"state":"active","ping":39},{"user_id":533,"name":"\u003e:FrozenDragon:\u003c","steam_id":76561198227960928,"connected_time":1201000000000,"state":"active","ping":99},{"user_id":545,"name":"Dodge5000","steam_id":76561199129693833,"connected_time":78000000000,"state":"spawning","ping":295},{"user_id":504,"name":"Dung Pie","steam_id":76561198172990938,"connected_time":3273000000000,"state":"active","ping":106},{"user_id":548,"name":"imjusttryinghere","steam_id":76561199010713883,"connected_time":42000000000,"state":"active","ping":293},{"user_id":503,"name":"Liam","steam_id":76561198110580096,"connected_time":3423000000000,"state":"active","ping":72}]},{"server_id":395,"name":"Uncletopia | Sydney | 3 | All Maps","name_short":"syd-3","host":"syd-1.au.uncletopia.com","port":27035,"enabled":true,"region":"au","cc":"au","latitude":-33.865143,"longitude":151.2099,"reserved":0,"last_update":"0001-01-01T00:00:00Z","name_a2s":"Uncletopia | Sydney | 3 | All Maps","protocol":17,"map":"koth_lakeside_final","folder":"tf","game":"Team Fortress","app_id":440,"player_count":0,"max_players":24,"Bots":0,"server_type":"Dedicated","server_os":"Linux","password":true,"vac":true,"version":"7757534","steam_id":85568392925194467,"keywords":["cp","nocrits","nodmgspread","uncletopia"],"game_id":440,"stv_port":27036,"stv_name":"Uncletopia | Sydney | 3 | All Maps | STV","players":null},{"server_id":396,"name":"Uncletopia | Sydney | 4 | All Maps","name_short":"syd-4","host":"syd-1.au.uncletopia.com","port":27045,"enabled":true,"region":"au","cc":"au","latitude":-33.865143,"longitude":151.2099,"reserved":0,"last_update":"0001-01-01T00:00:00Z","name_a2s":"Uncletopia | Sydney | 4 | All Maps","protocol":17,"map":"cp_altitude","folder":"tf","game":"Team Fortress","app_id":440,"player_count":0,"max_players":24,"Bots":0,"server_type":"Dedicated","server_os":"Linux","password":true,"vac":true,"version":"7757534","steam_id":85568392925397958,"keywords":["cp","nocrits","nodmgspread","uncletopia"],"game_id":440,"stv_port":27046,"stv_name":"Uncletopia | Sydney | 4 | All Maps | STV","players":null},{"server_id":58,"name":"Uncletopia | Sydney | 5 | Stopwatch Beta","name_short":"syd-5","host":"syd-1.au.uncletopia.com","port":27055,"enabled":true,"region":"au","cc":"au","latitude":-33.865143,"longitude":151.2099,"reserved":0,"last_update":"0001-01-01T00:00:00Z","name_a2s":"Uncletopia | Sydney | 5 | Stopwatch Beta","protocol":17,"map":"koth_cascade","folder":"tf","game":"Team Fortress","app_id":440,"player_count":0,"max_players":24,"Bots":0,"server_type":"Dedicated","server_os":"Linux","password":true,"vac":true,"version":"7757534","steam_id":85568392925397959,"keywords":["cp","nocrits","nodmgspread","uncletopia"],"game_id":440,"stv_port":27056,"stv_name":"Uncletopia | Sydney | 5 | Stopwatch Beta | STV","players":null},{"server_id":59,"name":"Uncletopia | Sydney | 6 | Community","name_short":"syd-6","host":"syd-1.au.uncletopia.com","port":27065,"enabled":true,"region":"au","cc":"au","latitude":-33.865143,"longitude":151.2099,"reserved":0,"last_update":"0001-01-01T00:00:00Z","name_a2s":"Uncletopia | Sydney | 6 | Community","protocol":17,"map":"workshop/pl_divulgence_b4b.ugc2884808746","folder":"tf","game":"Team Fortress","app_id":440,"player_count":0,"max_players":24,"Bots":0,"server_type":"Dedicated","server_os":"Linux","password":true,"vac":true,"version":"7757534","steam_id":85568392925397960,"keywords":["nocrits","nodmgspread","payload","uncletopia"],"game_id":440,"stv_port":27066,"stv_name":"Uncletopia | Sydney | 6 | Community | STV","players":null},{"server_id":49,"name":"Uncletopia | Warsaw | 1 | All Maps","name_short":"waw-1","host":"waw-1.pl.uncletopia.com","port":27015,"enabled":true,"region":"eu","cc":"pl","latitude":52.2297,"longitude":21.017532,"reserved":0,"last_update":"0001-01-01T00:00:00Z","name_a2s":"","protocol":0,"map":"","folder":"","game":"","app_id":0,"player_count":0,"max_players":0,"Bots":0,"server_type":"","server_os":"","password":false,"vac":false,"version":"","steam_id":0,"keywords":null,"game_id":0,"stv_port":0,"stv_name":"","players":null},{"server_id":50,"name":"Uncletopia | Warsaw | 2 | All Maps","name_short":"waw-2","host":"waw-1.pl.uncletopia.com","port":27025,"enabled":true,"region":"eu","cc":"pl","latitude":52.2297,"longitude":21.017532,"reserved":0,"last_update":"0001-01-01T00:00:00Z","name_a2s":"Uncletopia | Warsaw | 2 | All Maps","protocol":17,"map":"koth_viaduct","folder":"tf","game":"Team Fortress","app_id":440,"player_count":0,"max_players":24,"Bots":0,"server_type":"Dedicated","server_os":"Linux","password":true,"vac":true,"version":"7757534","steam_id":85568392925397851,"keywords":["cp","nocrits","nodmgspread","uncletopia"],"game_id":440,"stv_port":27026,"stv_name":"Uncletopia | Warsaw | 2 | All Maps | STV","players":null},{"server_id":51,"name":"Uncletopia | Warsaw | 3 | All Maps","name_short":"waw-3","host":"waw-1.pl.uncletopia.com","port":27035,"enabled":true,"region":"eu","cc":"pl","latitude":52.2297,"longitude":21.017532,"reserved":0,"last_update":"0001-01-01T00:00:00Z","name_a2s":"Uncletopia | Warsaw | 3 | All Maps","protocol":17,"map":"pl_badwater","folder":"tf","game":"Team Fortress","app_id":440,"player_count":0,"max_players":24,"Bots":0,"server_type":"Dedicated","server_os":"Linux","password":true,"vac":true,"version":"7757534","steam_id":85568392925397852,"keywords":["nocrits","nodmgspread","payload","uncletopia"],"game_id":440,"stv_port":27036,"stv_name":"Uncletopia | Warsaw | 3 | All Maps | STV","players":null},{"server_id":52,"name":"Uncletopia | Warsaw | 4 | All Maps","name_short":"waw-4","host":"waw-1.pl.uncletopia.com","port":27045,"enabled":true,"region":"eu","cc":"pl","latitude":52.2297,"longitude":21.017532,"reserved":0,"last_update":"0001-01-01T00:00:00Z","name_a2s":"Uncletopia | Warsaw | 4 | All Maps","protocol":17,"map":"koth_lakeside_final","folder":"tf","game":"Team Fortress","app_id":440,"player_count":0,"max_players":24,"Bots":0,"server_type":"Dedicated","server_os":"Linux","password":true,"vac":true,"version":"7757534","steam_id":85568392925397853,"keywords":["cp","nocrits","nodmgspread","uncletopia"],"game_id":440,"stv_port":27046,"stv_name":"Uncletopia | Warsaw | 4 | All Maps | STV","players":null},{"server_id":53,"name":"Uncletopia | Warsaw | 5 | Stopwatch Beta","name_short":"waw-5","host":"waw-1.pl.uncletopia.com","port":27055,"enabled":true,"region":"eu","cc":"pl","latitude":52.2297,"longitude":21.017532,"reserved":0,"last_update":"0001-01-01T00:00:00Z","name_a2s":"Uncletopia | Warsaw | 5 | Stopwatch Beta","protocol":17,"map":"pl_borneo","folder":"tf","game":"Team Fortress","app_id":440,"player_count":0,"max_players":24,"Bots":0,"server_type":"Dedicated","server_os":"Linux","password":true,"vac":true,"version":"7757534","steam_id":85568392925397854,"keywords":["nocrits","nodmgspread","payload","uncletopia"],"game_id":440,"stv_port":27056,"stv_name":"Uncletopia | Warsaw | 5 | Stopwatch Beta | STV","players":null},{"server_id":54,"name":"Uncletopia | Warsaw | 6 | Community","name_short":"waw-6","host":"waw-1.pl.uncletopia.com","port":27065,"enabled":true,"region":"eu","cc":"pl","latitude":52.2297,"longitude":21.017532,"reserved":0,"last_update":"0001-01-01T00:00:00Z","name_a2s":"Uncletopia | Warsaw | 6 | Community","protocol":17,"map":"koth_lakeside_final","folder":"tf","game":"Team Fortress","app_id":440,"player_count":0,"max_players":24,"Bots":0,"server_type":"Dedicated","server_os":"Linux","password":true,"vac":true,"version":"7757534","steam_id":85568392925397856,"keywords":["cp","nocrits","nodmgspread","uncletopia"],"game_id":440,"stv_port":27066,"stv_name":"Uncletopia | Warsaw | 6 | Community | STV","players":null}]}