{"status":true,"message":"","result":[{"server_id":9,"name":"Uncletopia | Atlanta | 1 | All Maps","name_short":"atl-1","host":"atl-1.us.uncletopia.com","port":27015,"enabled":true,"region":"us-east","cc":"us","latitude":33.753746,"longitude":-84.38633,"reserved":0,"last_update":"0001-01-01T00:00:00Z","name_a2s":"Uncletopia | Atlanta | 1 | All Maps","protocol":17,"map":"koth_nucleus","folder":"tf","game":"Team Fortress","app_id":440,"player_count":22,"max_players":24,"Bots":0,"server_type":"Dedicated","server_os":"Linux","password":true,"vac":true,"version":"7961495","steam_id":85568392924469982,"keywords":["cp","nocrits","nodmgspread","uncletopia"],"game_id":440,"stv_port":27016,"stv_name":"Uncletopia | Atlanta | 1 | All Maps | STV","players":[{"user_id":361,"name":"Dr.Inkmix(femboy)","steam_id":76561198854070384,"connected_time":369000000000,"state":"active","ping":105},{"user_id":329,"name":"hill of the king","steam_id":76561198099491925,"connected_time":3010000000000,"state":"active","ping":47},{"user_id":344,"name":"Motorolª","steam_id":76561198358119669,"connected_time":1620000000000,"state":"active","ping":107},{"user_id":356,"name":"MichaelBurger2","steam_id":76561198151131323,"connected_time":692000000000,"state":"active","ping":75},{"user_id":290,"name":"lynt","steam_id":76561198988333976,"connected_time":5537000000000,"state":"active","ping":45},{"user_id":358,"name":"tmm (theManMan)","steam_id":76561199488457138,"connected_time":581000000000,"state":"active","ping":104},{"user_id":336,"name":"silly goose","steam_id":76561198196572230,"connected_time":2395000000000,"state":"active","ping":60},{"user_id":352,"name":"lucin","steam_id":76561198258062078,"connected_time":1057000000000,"state":"active","ping":56},{"user_id":295,"name":"i cum","steam_id":76561198379574232,"connected_time":5427000000000,"state":"active","ping":34},{"user_id":353,"name":"Tmiracle","steam_id":76561198052375275,"connected_time":1054000000000,"state":"active","ping":118},{"user_id":254,"name":"Oxygen User","steam_id":76561199111975528,"connected_time":7757000000000,"state":"active","ping":57},{"user_id":328,"name":"a yummy meal","steam_id":76561198249206656,"connected_time":3035000000000,"state":"active","ping":84},{"user_id":298,"name":"nested deep in the dirty dirty","steam_id":76561198142756572,"connected_time":5330000000000,"state":"active","ping":45},{"user_id":345,"name":"andyiscolorless","steam_id":76561199239870921,"connected_time":1533000000000,"state":"active","ping":129},{"user_id":338,"name":"squaggles!","steam_id":76561197994995011,"connected_time":1915000000000,"state":"active","ping":30},{"user_id":363,"name":"Hertz","steam_id":76561198310927351,"connected_time":294000000000,"state":"active","ping":121},{"user_id":351,"name":"1drowsyboi","steam_id":76561198152626025,"connected_time":1088000000000,"state":"active","ping":76},{"user_id":357,"name":"jackass","steam_id":76561198209380493,"connected_time":624000000000,"state":"active","ping":68},{"user_id":241,"name":"Ashes!","steam_id":76561197998475441,"connected_time":8179000000000,"state":"active","ping":68},{"user_id":339,"name":"☼ girl u my everything bagel","steam_id":76561198074180953,"connected_time":1914000000000,"state":"active","ping":61},{"user_id":374,"name":"SirNomegusta","steam_id":76561198108929789,"connected_time":94000000000,"state":"active","ping":60},{"user_id":292,"name":"Scrux","steam_id":76561198129763115,"connected_time":5518000000000,"state":"active","ping":91}]},{"server_id":104,"name":"Uncletopia | Atlanta | 2 | All Maps","name_short":"atl-2","host":"atl-1.us.uncletopia.com","port":27025,"enabled":true,"region":"us-east","cc":"us","latitude":33.753746,"longitude":-84.38633,"reserved":0,"last_update":"0001-01-01T00:00:00Z","name_a2s":"Uncletopia | Atlanta | 2 | All Maps","protocol":17,"map":"pl_frontier_final","folder":"tf","game":"Team Fortress","app_id":440,"player_count":21,"max_players":24,"Bots":0,"server_type":"Dedicated","server_os":"Linux","password":true,"vac":true,"version":"7961495","steam_id":85568392924469983,"keywords":["nocrits","nodmgspread","payload","uncletopia"],"game_id":440,"stv_port":27026,"stv_name":"Uncletopia | Atlanta | 2 | All Maps | STV","players":[{"user_id":33,"name":"Peengus","steam_id":76561199091953940,"connected_time":12233000000000,"state":"active","ping":61},{"user_id":197,"name":"josh","steam_id":76561198092176972,"connected_time":5089000000000,"state":"active","ping":80},{"user_id":259,"name":"BreezeDanish","steam_id":76561198029758057,"connected_time":1262000000000,"state":"active","ping":74},{"user_id":200,"name":"caleb","steam_id":76561198119306966,"connected_time":4981000000000,"state":"active","ping":104},{"user_id":80,"name":"tack","steam_id":76561198408477421,"connected_time":9562000000000,"state":"active","ping":63},{"user_id":241,"name":"Genetic Komodo (He/Him)","steam_id":76561198174806758,"connected_time":2613000000000,"state":"active","ping":58},{"user_id":271,"name":"Quick-Fix Fan","steam_id":76561198872845740,"connected_time":696000000000,"state":"active","ping":61},{"user_id":256,"name":"DlTTO","steam_id":76561199427026752,"connected_time":1327000000000,"state":"active","ping":83},{"user_id":257,"name":"parque","steam_id":76561198088325483,"connected_time":1300000000000,"state":"active","ping":92},{"user_id":252,"name":"KBoneski ♡","steam_id":76561198307409065,"connected_time":1366000000000,"state":"active","ping":69},{"user_id":214,"name":"Big Ol Critties","steam_id":76561198054269834,"connected_time":3842000000000,"state":"active","ping":68},{"user_id":274,"name":"Shrebbie","steam_id":76561198875230824,"connected_time":141000000000,"state":"active","ping":67},{"user_id":253,"name":"Pistol Engie Monday","steam_id":76561198409907417,"connected_time":1357000000000,"state":"active","ping":104},{"user_id":275,"name":"Acro","steam_id":76561198092451804,"connected_time":109000000000,"state":"active","ping":67},{"user_id":261,"name":"Varveer","steam_id":76561198218897383,"connected_time":1247000000000,"state":"active","ping":89},{"user_id":88,"name":"Lee?","steam_id":76561199060892634,"connected_time":8766000000000,"state":"active","ping":63},{"user_id":239,"name":"Koala Bear","steam_id":76561198118025990,"connected_time":2703000000000,"state":"active","ping":74},{"user_id":272,"name":"I_amgeneric","steam_id":76561198058605649,"connected_time":664000000000,"state":"active","ping":62},{"user_id":248,"name":"Draekonik","steam_id":76561198327492856,"connected_time":1748000000000,"state":"active","ping":63},{"user_id":242,"name":"Gaming","steam_id":76561198107080532,"connected_time":2556000000000,"state":"active","ping":78},{"user_id":247,"name":"Monkey Mode","steam_id":76561197961267543,"connected_time":1764000000000,"state":"active","ping":60}]},{"server_id":400,"name":"Uncletopia | Atlanta | 3 | Stopwatch","name_short":"atl-3","host":"atl-1.us.uncletopia.com","port":27035,"enabled":true,"region":"us-east","cc":"us","latitude":33.753746,"longitude":-84.38633,"reserved":0,"last_update":"0001-01-01T00:00:00Z","name_a2s":"Uncletopia | Atlanta | 3 | Stopwatch","protocol":17,"map":"workshop/koth_product_final.ugc454272353","folder":"tf","game":"Team Fortress","app_id":440,"player_count":0,"max_players":24,"Bots":0,"server_type":"Dedicated","server_os":"Linux","password":true,"vac":true,"version":"7961495","steam_id":85568392924515187,"keywords":["cp","nocrits","nodmgspread","uncletopia"],"game_id":440,"stv_port":27036,"stv_name":"Uncletopia | Atlanta | 3 | Stopwatch | STV","players":null},{"server_id":401,"name":"Uncletopia | Atlanta | 4 | Community","name_short":"atl-4","host":"atl-1.us.uncletopia.com","port":27045,"enabled":true,"region":"us-east","cc":"us","latitude":33.753746,"longitude":-84.38633,"reserved":0,"last_update":"0001-01-01T00:00:00Z","name_a2s":"Uncletopia | Atlanta | 4 | Community","protocol":17,"map":"workshop/cp_caldera_rc3.ugc2834196889","folder":"tf","game":"Team Fortress","app_id":440,"player_count":0,"max_players":24,"Bots":0,"server_type":"Dedicated","server_os":"Linux","password":true,"vac":true,"version":"7961495","steam_id":85568392924515188,"keywords":["cp","nocrits","nodmgspread","uncletopia"],"game_id":440,"stv_port":27046,"stv_name":"Uncletopia | Atlanta | 4 | Community | STV","players":null},{"server_id":2,"name":"Uncletopia | Chicago | 1 | All Maps","name_short":"chi-1","host":"chi-1.us.uncletopia.com","port":27015,"enabled":true,"region":"us-central","cc":"us","latitude":41.881832,"longitude":-87.62318,"reserved":0,"last_update":"0001-01-01T00:00:00Z","name_a2s":"Uncletopia | Chicago | 1 | All Maps","protocol":17,"map":"pl_frontier_final","folder":"tf","game":"Team Fortress","app_id":440,"player_count":24,"max_players":24,"Bots":0,"server_type":"Dedicated","server_os":"Linux","password":true,"vac":true,"version":"7961495","steam_id":85568392924469984,"keywords":["nocrits","nodmgspread","payload","uncletopia"],"game_id":440,"stv_port":27016,"stv_name":"Uncletopia | Chicago | 1 | All Maps | STV","players":[{"user_id":310,"name":"Scum Knight | T.I.D.K.","steam_id":76561198282444763,"connected_time":3838000000000,"state":"active","ping":61},{"user_id":324,"name":"Clean Lines","steam_id":76561197960691518,"connected_time":2365000000000,"state":"active","ping":56},{"user_id":342,"name":"shit bro","steam_id":76561199178885266,"connected_time":1060000000000,"state":"active","ping":59},{"user_id":325,"name":"Tlaloc","steam_id":76561198375215983,"connected_time":1791000000000,"state":"active","ping":121},{"user_id":354,"name":"I shovel mayonnaise in mouth","steam_id":76561199123118241,"connected_time":111000000000,"state":"active","ping":110},{"user_id":288,"name":"Chadmander","steam_id":76561197974136337,"connected_time":7530000000000,"state":"active","ping":41},{"user_id":328,"name":"TheSnipersHat","steam_id":76561198057684066,"connected_time":1773000000000,"state":"active","ping":55},{"user_id":326,"name":"Stacks63bs","steam_id":76561198067797130,"connected_time":1788000000000,"state":"active","ping":73},{"user_id":329,"name":"rat eater","steam_id":76561199216874750,"connected_time":1773000000000,"state":"active","ping":43},{"user_id":313,"name":"Tomathy","steam_id":76561198036378226,"connected_time":3527000000000,"state":"active","ping":147},{"user_id":346,"name":"yourlocalforecast","steam_id":76561198042243083,"connected_time":535000000000,"state":"active","ping":70},{"user_id":330,"name":"Bloop","steam_id":76561198253563271,"connected_time":1770000000000,"state":"active","ping":42},{"user_id":348,"name":"Zonk","steam_id":76561198846893994,"connected_time":529000000000,"state":"active","ping":82},{"user_id":327,"name":"Monterfart","steam_id":76561198125034271,"connected_time":1786000000000,"state":"active","ping":67},{"user_id":333,"name":"MOB101","steam_id":76561198360491038,"connected_time":1734000000000,"state":"active","ping":63},{"user_id":344,"name":"x = ( -b ± √( b^2 - 4ac)/ (2","steam_id":76561198059220458,"connected_time":762000000000,"state":"active","ping":61},{"user_id":343,"name":"Milkmur","steam_id":76561198210043821,"connected_time":910000000000,"state":"active","ping":56},{"user_id":355,"name":"Festive Conch Shell","steam_id":76561198042072993,"connected_time":82000000000,"state":"active","ping":70},{"user_id":350,"name":"Orange Triangle","steam_id":76561198320498182,"connected_time":477000000000,"state":"active","ping":54},{"user_id":309,"name":"bobbybrown","steam_id":76561198193218282,"connected_time":3848000000000,"state":"active","ping":61},{"user_id":351,"name":"Hyjinx","steam_id":76561197967830452,"connected_time":449000000000,"state":"active","ping":60},{"user_id":352,"name":"ISATNT","steam_id":76561199220208069,"connected_time":443000000000,"state":"active","ping":78},{"user_id":336,"name":"G4SP4CKM4Ni4C420","steam_id":76561198181340953,"connected_time":1690000000000,"state":"active","ping":77},{"user_id":353,"name":"blob","steam_id":76561198122375328,"connected_time":437000000000,"state":"active","ping":60}]},{"server_id":106,"name":"Uncletopia | Chicago | 2 | All Maps","name_short":"chi-2","host":"chi-1.us.uncletopia.com","port":27025,"enabled":true,"region":"us-central","cc":"us","latitude":41.881832,"longitude":-87.62318,"reserved":0,"last_update":"0001-01-01T00:00:00Z","name_a2s":"Uncletopia | Chicago | 2 | All Maps","protocol":17,"map":"pl_borneo","folder":"tf","game":"Team Fortress","app_id":440,"player_count":24,"max_players":24,"Bots":0,"server_type":"Dedicated","server_os":"Linux","password":true,"vac":true,"version":"7961495","steam_id":85568392924469985,"keywords":["nocrits","nodmgspread","payload","uncletopia"],"game_id":440,"stv_port":27026,"stv_name":"Uncletopia | Chicago | 2 | All Maps | STV","players":[{"user_id":262,"name":"SlaaneshBish","steam_id":76561198323219832,"connected_time":1341000000000,"state":"active","ping":51},{"user_id":130,"name":"rstrom","steam_id":76561197961225022,"connected_time":9468000000000,"state":"active","ping":62},{"user_id":285,"name":"Docolation","steam_id":76561199445100850,"connected_time":779000000000,"state":"active","ping":118},{"user_id":178,"name":"Swash","steam_id":76561197969421355,"connected_time":6352000000000,"state":"active","ping":48},{"user_id":242,"name":"Logical Lime","steam_id":76561198292540230,"connected_time":2681000000000,"state":"active","ping":83},{"user_id":263,"name":"gulch","steam_id":76561199227946025,"connected_time":1324000000000,"state":"active","ping":60},{"user_id":296,"name":"Scoutaholic","steam_id":76561199481093425,"connected_time":301000000000,"state":"active","ping":74},{"user_id":244,"name":"PageBoiSkull","steam_id":76561198237353578,"connected_time":2660000000000,"state":"active","ping":99},{"user_id":132,"name":"Baby Medic","steam_id":76561198061507741,"connected_time":9440000000000,"state":"active","ping":56},{"user_id":208,"name":"Kukri","steam_id":76561198142132522,"connected_time":4303000000000,"state":"active","ping":41},{"user_id":213,"name":"Allister","steam_id":76561197999823352,"connected_time":3922000000000,"state":"active","ping":68},{"user_id":134,"name":"MedRed™ #IATAH","steam_id":76561198002962970,"connected_time":9377000000000,"state":"active","ping":96},{"user_id":302,"name":"thecal","steam_id":76561198307893384,"connected_time":13000000000,"state":"active","ping":61},{"user_id":291,"name":"Dr Oshawott","steam_id":76561198042021629,"connected_time":391000000000,"state":"active","ping":51},{"user_id":298,"name":"crumbles","steam_id":76561198168707036,"connected_time":284000000000,"state":"active","ping":95},{"user_id":205,"name":"hej","steam_id":76561197996366940,"connected_time":4616000000000,"state":"active","ping":60},{"user_id":303,"name":"the flying spoon","steam_id":76561199039152146,"connected_time":9000000000,"state":"spawning","ping":67},{"user_id":223,"name":"4d4 civilnetworks.net","steam_id":76561198402360789,"connected_time":3537000000000,"state":"active","ping":66},{"user_id":272,"name":"sans undertale","steam_id":76561199128903858,"connected_time":1025000000000,"state":"active","ping":107},{"user_id":288,"name":"Fennel Seeds","steam_id":76561198183977255,"connected_time":660000000000,"state":"active","ping":76},{"user_id":274,"name":"Letters","steam_id":76561198035508148,"connected_time":868000000000,"state":"active","ping":75},{"user_id":275,"name":"The Soup","steam_id":76561198156746320,"connected_time":856000000000,"state":"active","ping":46},{"user_id":300,"name":"Kerpal45","steam_id":76561198153340350,"connected_time":223000000000,"state":"active","ping":79},{"user_id":301,"name":"Klip","steam_id":76561198316254429,"connected_time":223000000000,"state":"active","ping":88}]},{"server_id":402,"name":"Uncletopia | Chicago | 3 | All Maps","name_short":"chi-3","host":"chi-1.us.uncletopia.com","port":27035,"enabled":true,"region":"us-central","cc":"us","latitude":41.881832,"longitude":-87.62318,"reserved":0,"last_update":"0001-01-01T00:00:00Z","name_a2s":"Uncletopia | Chicago | 3 | All Maps","protocol":17,"map":"pl_badwater","folder":"tf","game":"Team Fortress","app_id":440,"player_count":24,"max_players":24,"Bots":0,"server_type":"Dedicated","server_os":"Linux","password":true,"vac":true,"version":"7961495","steam_id":85568392924515191,"keywords":["nocrits","nodmgspread","payload","uncletopia"],"game_id":440,"stv_port":27036,"stv_name":"Uncletopia | Chicago | 3 | All Maps | STV","players":[{"user_id":161,"name":"Ryoko","steam_id":76561198084725087,"connected_time":6738000000000,"state":"active","ping":68},{"user_id":232,"name":"Lord_Manship","steam_id":76561198045168765,"connected_time":1802000000000,"state":"active","ping":67},{"user_id":73,"name":"The World's Softest Sandwich","steam_id":76561198015577707,"connected_time":12447000000000,"state":"active","ping":80},{"user_id":102,"name":"Fresh Lychee","steam_id":76561198045399559,"connected_time":10333000000000,"state":"active","ping":60},{"user_id":252,"name":"awesome","steam_id":76561198248656836,"connected_time":330000000000,"state":"active","ping":87},{"user_id":196,"name":"monke12344","steam_id":76561199274757725,"connected_time":4087000000000,"state":"active","ping":46},{"user_id":256,"name":"chilis baby back ribs","steam_id":76561198813516435,"connected_time":218000000000,"state":"active","ping":104},{"user_id":204,"name":"a Salty Individual","steam_id":76561197979951077,"connected_time":3091000000000,"state":"active","ping":103},{"user_id":244,"name":"Dan","steam_id":76561199236719411,"connected_time":773000000000,"state":"active","ping":75},{"user_id":234,"name":"SubZeroDestruction","steam_id":76561198145082209,"connected_time":1796000000000,"state":"active","ping":64},{"user_id":175,"name":"Brotein","steam_id":76561198053743602,"connected_time":5784000000000,"state":"active","ping":56},{"user_id":250,"name":"Colonel Knacker","steam_id":76561198151578423,"connected_time":551000000000,"state":"active","ping":45},{"user_id":242,"name":"Carl Brutananadilewski","steam_id":76561198004884267,"connected_time":917000000000,"state":"active","ping":46},{"user_id":257,"name":"Rin \"Hindwing\" Redtail","steam_id":76561199074865638,"connected_time":207000000000,"state":"active","ping":106},{"user_id":225,"name":"Tidwell","steam_id":76561198037414410,"connected_time":2336000000000,"state":"active","ping":74},{"user_id":221,"name":"jjjjjjjj","steam_id":76561198346210579,"connected_time":2564000000000,"state":"active","ping":60},{"user_id":214,"name":"for the king","steam_id":76561197973488858,"connected_time":2786000000000,"state":"active","ping":57},{"user_id":228,"name":"Smellfeast","steam_id":76561198418165673,"connected_time":1912000000000,"state":"active","ping":45},{"user_id":258,"name":"pittypier","steam_id":76561199447222783,"connected_time":68000000000,"state":"active","ping":150},{"user_id":254,"name":"Trash Man","steam_id":76561198130036002,"connected_time":317000000000,"state":"active","ping":73},{"user_id":219,"name":"Jurassicsteel24","steam_id":76561199019369817,"connected_time":2632000000000,"state":"active","ping":87},{"user_id":226,"name":"Marisa Kirisame","steam_id":76561198337692867,"connected_time":2328000000000,"state":"active","ping":80},{"user_id":255,"name":"Snoopy","steam_id":76561198273735974,"connected_time":241000000000,"state":"active","ping":93},{"user_id":246,"name":"Bopping Cat","steam_id":76561198848085071,"connected_time":730000000000,"state":"active","ping":109}]},{"server_id":403,"name":"Uncletopia | Chicago | 4 | All Maps","name_short":"chi-4","host":"chi-1.us.uncletopia.com","port":27045,"enabled":true,"region":"us-central","cc":"us","latitude":41.881832,"longitude":-87.62318,"reserved":0,"last_update":"0001-01-01T00:00:00Z","name_a2s":"Uncletopia | Chicago | 4 | All Maps","protocol":17,"map":"pl_upward","folder":"tf","game":"Team Fortress","app_id":440,"player_count":24,"max_players":24,"Bots":0,"server_type":"Dedicated","server_os":"Linux","password":true,"vac":true,"version":"7961495","steam_id":85568392924515193,"keywords":["nocrits","nodmgspread","payload","uncletopia"],"game_id":440,"stv_port":27046,"stv_name":"Uncletopia | Chicago | 4 | All Maps | STV","players":[{"user_id":100,"name":"Eager99","steam_id":76561198975382876,"connected_time":1497000000000,"state":"active","ping":77},{"user_id":128,"name":"rizzard of oz","steam_id":76561198040907214,"connected_time":78000000000,"state":"active","ping":60},{"user_id":106,"name":"Cosmo","steam_id":76561198042147273,"connected_time":1079000000000,"state":"active","ping":60},{"user_id":54,"name":"MangoMaster7834","steam_id":76561199231165397,"connected_time":3300000000000,"state":"active","ping":82},{"user_id":123,"name":"fresco","steam_id":76561199101199477,"connected_time":190000000000,"state":"active","ping":47},{"user_id":121,"name":"charKYLE_","steam_id":76561198399417231,"connected_time":477000000000,"state":"active","ping":103},{"user_id":62,"name":"a baby","steam_id":76561198008662184,"connected_time":3197000000000,"state":"active","ping":60},{"user_id":92,"name":"Soda","steam_id":76561198219209367,"connected_time":1895000000000,"state":"active","ping":69},{"user_id":117,"name":"Mediocre Gaming","steam_id":76561199230467980,"connected_time":835000000000,"state":"active","ping":47},{"user_id":129,"name":"Oddjob","steam_id":76561198976160793,"connected_time":30000000000,"state":"active","ping":72},{"user_id":116,"name":"WolfNinja","steam_id":76561199218099629,"connected_time":885000000000,"state":"active","ping":52},{"user_id":118,"name":"BumpofNight","steam_id":76561198011581312,"connected_time":754000000000,"state":"active","ping":75},{"user_id":72,"name":"Spooni_Boi","steam_id":76561198308140374,"connected_time":2546000000000,"state":"active","ping":60},{"user_id":34,"name":"Dr.StrangeGlove","steam_id":76561198286114229,"connected_time":4521000000000,"state":"active","ping":62},{"user_id":111,"name":"Strangelove","steam_id":76561198353773611,"connected_time":1011000000000,"state":"active","ping":85},{"user_id":108,"name":"firetamer2","steam_id":76561198040886980,"connected_time":1062000000000,"state":"active","ping":64},{"user_id":83,"name":"thrompo","steam_id":76561197996845059,"connected_time":2281000000000,"state":"active","ping":60},{"user_id":125,"name":"Charlie","steam_id":76561198798127908,"connected_time":157000000000,"state":"active","ping":64},{"user_id":122,"name":"pinkissocool {f2p}","steam_id":76561198989599828,"connected_time":448000000000,"state":"active","ping":50},{"user_id":119,"name":"1st place love live fan","steam_id":76561198037951506,"connected_time":557000000000,"state":"active","ping":60},{"user_id":113,"name":"we love casting spells","steam_id":76561199226253326,"connected_time":973000000000,"state":"active","ping":54},{"user_id":114,"name":"Xenowo","steam_id":76561198120574708,"connected_time":966000000000,"state":"active","ping":77},{"user_id":130,"name":"Ratlympics Gold Medalist","steam_id":76561198064981004,"connected_time":20000000000,"state":"active","ping":46},{"user_id":126,"name":"Steak-Pocketer","steam_id":76561198277651410,"connected_time":146000000000,"state":"active","ping":55}]},{"server_id":36,"name":"Uncletopia | Chicago | 5 | All Maps","name_short":"chi-5","host":"chi-2.us.uncletopia.com","port":27015,"enabled":true,"region":"us-central","cc":"us","latitude":41.881832,"longitude":-87.62318,"reserved":0,"last_update":"0001-01-01T00:00:00Z","name_a2s":"Uncletopia | Chicago | 5 | All Maps","protocol":17,"map":"pl_badwater","folder":"tf","game":"Team Fortress","app_id":440,"player_count":18,"max_players":24,"Bots":0,"server_type":"Dedicated","server_os":"Linux","password":true,"vac":true,"version":"7961495","steam_id":85568392924866362,"keywords":["nocrits","nodmgspread","payload","uncletopia"],"game_id":440,"stv_port":27016,"stv_name":"Uncletopia | Chicago | 5 | All Maps | STV","players":[{"user_id":405,"name":"I WAS BUMPING KELPY G","steam_id":76561198254216920,"connected_time":348000000000,"state":"active","ping":81},{"user_id":385,"name":"carrot cake","steam_id":76561198055174915,"connected_time":1482000000000,"state":"active","ping":64},{"user_id":371,"name":"starfungus","steam_id":76561198158312789,"connected_time":2124000000000,"state":"spawning","ping":176},{"user_id":319,"name":"The Final Terminus","steam_id":76561197964985183,"connected_time":5244000000000,"state":"active","ping":54},{"user_id":365,"name":"Cthulwho?","steam_id":76561198165550810,"connected_time":2322000000000,"state":"active","ping":66},{"user_id":409,"name":"crunch","steam_id":76561198058209703,"connected_time":150000000000,"state":"active","ping":45},{"user_id":366,"name":"The Foreskin Knight","steam_id":76561197995525419,"connected_time":2305000000000,"state":"active","ping":39},{"user_id":401,"name":"nicolas the mercenary","steam_id":76561199077641644,"connected_time":404000000000,"state":"active","ping":59},{"user_id":410,"name":"Thx2u","steam_id":76561198122807068,"connected_time":144000000000,"state":"active","ping":84},{"user_id":380,"name":"Fobby #Savetf2","steam_id":76561198047681469,"connected_time":1867000000000,"state":"active","ping":80},{"user_id":411,"name":"The Hoagie Hero","steam_id":76561198057569298,"connected_time":135000000000,"state":"active","ping":62},{"user_id":407,"name":"VibingVicinity","steam_id":76561198208211285,"connected_time":282000000000,"state":"active","ping":46},{"user_id":324,"name":"paddle gaming","steam_id":76561199250055131,"connected_time":5197000000000,"state":"active","ping":67},{"user_id":379,"name":"dak","steam_id":76561198076596506,"connected_time":2029000000000,"state":"active","ping":60},{"user_id":412,"name":"sleebysyd","steam_id":76561198146749756,"connected_time":132000000000,"state":"active","ping":81},{"user_id":413,"name":"TheForgotenFaun","steam_id":76561199004700412,"connected_time":129000000000,"state":"active","ping":80},{"user_id":394,"name":"itsPanzerPanda","steam_id":76561199441946346,"connected_time":689000000000,"state":"active","ping":43},{"user_id":384,"name":"Lennu","steam_id":76561198060730154,"connected_time":1628000000000,"state":"active","ping":73}]},{"server_id":37,"name":"Uncletopia | Chicago | 6 | All Maps","name_short":"chi-6","host":"chi-2.us.uncletopia.com","port":27025,"enabled":true,"region":"us-central","cc":"us","latitude":41.881832,"longitude":-87.62318,"reserved":0,"last_update":"0001-01-01T00:00:00Z","name_a2s":"Uncletopia | Chicago | 6 | All Maps","protocol":17,"map":"pl_barnblitz","folder":"tf","game":"Team Fortress","app_id":440,"player_count":16,"max_players":24,"Bots":0,"server_type":"Dedicated","server_os":"Linux","password":true,"vac":true,"version":"7961495","steam_id":85568392924866363,"keywords":["nocrits","nodmgspread","payload","uncletopia"],"game_id":440,"stv_port":27026,"stv_name":"Uncletopia | Chicago | 6 | All Maps | STV","players":[{"user_id":406,"name":"Fancy Clown Sultan","steam_id":76561198447852406,"connected_time":8286000000000,"state":"active","ping":67},{"user_id":494,"name":"Hovg9000","steam_id":76561199191556710,"connected_time":2779000000000,"state":"active","ping":73},{"user_id":448,"name":"Young-OG","steam_id":76561198058800479,"connected_time":5977000000000,"state":"active","ping":75},{"user_id":534,"name":"The Glute Guardian","steam_id":76561198189330642,"connected_time":160000000000,"state":"active","ping":104},{"user_id":530,"name":"D-Girl Fights God","steam_id":76561198062937822,"connected_time":522000000000,"state":"active","ping":62},{"user_id":536,"name":"Goredude","steam_id":76561198041048764,"connected_time":94000000000,"state":"active","ping":59},{"user_id":535,"name":"hazel (she/her)","steam_id":76561198879911815,"connected_time":153000000000,"state":"active","ping":57},{"user_id":528,"name":"SoftRamenBoi","steam_id":76561198983846180,"connected_time":674000000000,"state":"active","ping":95},{"user_id":480,"name":"Meme Supreme","steam_id":76561198116265509,"connected_time":3378000000000,"state":"active","ping":52},{"user_id":513,"name":"Inevitable","steam_id":76561198210050169,"connected_time":1523000000000,"state":"active","ping":71},{"user_id":508,"name":"Reznika","steam_id":76561198116144377,"connected_time":1988000000000,"state":"active","ping":73},{"user_id":522,"name":"Skelebob","steam_id":76561198880649335,"connected_time":851000000000,"state":"active","ping":60},{"user_id":533,"name":"Pong Lenis","steam_id":76561198039251333,"connected_time":410000000000,"state":"active","ping":173},{"user_id":517,"name":"snark","steam_id":76561199046993811,"connected_time":1262000000000,"state":"active","ping":119},{"user_id":526,"name":"BOOMER DOOMER","steam_id":76561198262318826,"connected_time":749000000000,"state":"active","ping":75},{"user_id":500,"name":"milk","steam_id":76561198053410877,"connected_time":2626000000000,"state":"active","ping":103}]},{"server_id":38,"name":"Uncletopia | Chicago | 7 | Stopwatch","name_short":"chi-7","host":"chi-2.us.uncletopia.com","port":27035,"enabled":true,"region":"us-central","cc":"us","latitude":41.881832,"longitude":-87.62318,"reserved":0,"last_update":"0001-01-01T00:00:00Z","name_a2s":"Uncletopia | Chicago | 7 | Stopwatch","protocol":17,"map":"pl_borneo","folder":"tf","game":"Team Fortress","app_id":440,"player_count":0,"max_players":24,"Bots":0,"server_type":"Dedicated","server_os":"Linux","password":true,"vac":true,"version":"7961495","steam_id":85568392924866364,"keywords":["nocrits","nodmgspread","payload","uncletopia"],"game_id":440,"stv_port":27036,"stv_name":"Uncletopia | Chicago | 7 | Stopwatch | STV","players":null},{"server_id":39,"name":"Uncletopia | Chicago | 8 | Community","name_short":"chi-8","host":"chi-2.us.uncletopia.com","port":27045,"enabled":true,"region":"us-central","cc":"us","latitude":41.881832,"longitude":-87.62318,"reserved":0,"last_update":"0001-01-01T00:00:00Z","name_a2s":"Uncletopia | Chicago | 8 | Community","protocol":17,"map":"workshop/koth_slaughter_rc1.ugc1712845210","folder":"tf","game":"Team Fortress","app_id":440,"player_count":8,"max_players":24,"Bots":0,"server_type":"Dedicated","server_os":"Linux","password":true,"vac":true,"version":"7961495","steam_id":85568392924866365,"keywords":["cp","nocrits","nodmgspread","uncletopia"],"game_id":440,"stv_port":27046,"stv_name":"Uncletopia | Chicago | 8 | Community | STV","players":[{"user_id":4,"name":"ttv/daws__","steam_id":76561198283322034,"connected_time":556000000000,"state":"active","ping":52},{"user_id":5,"name":"StillChill0","steam_id":76561199027811851,"connected_time":545000000000,"state":"active","ping":123},{"user_id":6,"name":"Howdy Howdy","steam_id":76561198413313486,"connected_time":543000000000,"state":"active","ping":104},{"user_id":7,"name":"seven","steam_id":76561198979319783,"connected_time":530000000000,"state":"active","ping":56},{"user_id":8,"name":"SpicyDamage","steam_id":76561198173239705,"connected_time":520000000000,"state":"active","ping":179},{"user_id":9,"name":"The Real Tim Allen (Official)","steam_id":76561197972595312,"connected_time":509000000000,"state":"active","ping":78},{"user_id":14,"name":"Feet Bandit","steam_id":76561199152252878,"connected_time":154000000000,"state":"active","ping":63},{"user_id":11,"name":"GobTheBird","steam_id":76561199029857712,"connected_time":316000000000,"state":"active","ping":51}]},{"server_id":8,"name":"Uncletopia | Dallas | 1 | All Maps","name_short":"dal-1","host":"dal-1.us.uncletopia.com","port":27015,"enabled":true,"region":"us-central","cc":"us","latitude":32.779167,"longitude":-96.80889,"reserved":0,"last_update":"0001-01-01T00:00:00Z","name_a2s":"Uncletopia | Dallas | 1 | All Maps","protocol":17,"map":"pl_snowycoast","folder":"tf","game":"Team Fortress","app_id":440,"player_count":24,"max_players":24,"Bots":0,"server_type":"Dedicated","server_os":"Linux","password":true,"vac":true,"version":"7961495","steam_id":85568392924469986,"keywords":["nocrits","nodmgspread","payload","uncletopia"],"game_id":440,"stv_port":27016,"stv_name":"Uncletopia | Dallas | 1 | All Maps | STV","players":[{"user_id":163,"name":"V@nn1e","steam_id":76561199099194994,"connected_time":329000000000,"state":"active","ping":60},{"user_id":143,"name":"Sweet Tooth","steam_id":76561198830158092,"connected_time":2270000000000,"state":"active","ping":74},{"user_id":110,"name":"Tuvok Shakur","steam_id":76561198018875334,"connected_time":5202000000000,"state":"active","ping":62},{"user_id":131,"name":"Nixon Me, Dixon Me","steam_id":76561198126519537,"connected_time":3527000000000,"state":"active","ping":77},{"user_id":151,"name":"Imrgrim","steam_id":76561198135866481,"connected_time":1512000000000,"state":"active","ping":69},{"user_id":156,"name":"Fizzle","steam_id":76561199466859396,"connected_time":1451000000000,"state":"active","ping":49},{"user_id":167,"name":"bushy","steam_id":76561198138088830,"connected_time":79000000000,"state":"active","ping":63},{"user_id":144,"name":"Serene Salamander","steam_id":76561198001094770,"connected_time":2207000000000,"state":"active","ping":75},{"user_id":161,"name":"chrisd149","steam_id":76561198018710480,"connected_time":587000000000,"state":"active","ping":97},{"user_id":159,"name":"a chicken","steam_id":76561198313121580,"connected_time":753000000000,"state":"active","ping":79},{"user_id":157,"name":"joryduran","steam_id":76561199199564544,"connected_time":972000000000,"state":"active","ping":84},{"user_id":136,"name":"Johno","steam_id":76561199231993886,"connected_time":3146000000000,"state":"active","ping":78},{"user_id":109,"name":"DMM","steam_id":76561198065426171,"connected_time":5226000000000,"state":"active","ping":57},{"user_id":164,"name":"Jerphf","steam_id":76561198328825964,"connected_time":314000000000,"state":"active","ping":59},{"user_id":145,"name":"Mr.Rogers","steam_id":76561198043878683,"connected_time":2150000000000,"state":"active","ping":74},{"user_id":168,"name":"ACKNOWLEDGE ME ☝","steam_id":76561198288743767,"connected_time":78000000000,"state":"active","ping":76},{"user_id":149,"name":"MenacingMekhet","steam_id":76561198053165462,"connected_time":2001000000000,"state":"active","ping":64},{"user_id":147,"name":"X-Parasite","steam_id":76561198111178095,"connected_time":2078000000000,"state":"active","ping":66},{"user_id":160,"name":"Stick O' Feesh","steam_id":76561198208394397,"connected_time":715000000000,"state":"active","ping":55},{"user_id":150,"name":"A/funny/dream","steam_id":76561198354481597,"connected_time":1843000000000,"state":"active","ping":59},{"user_id":152,"name":"SAGE(सगे*)","steam_id":76561198811114074,"connected_time":1502000000000,"state":"active","ping":51},{"user_id":133,"name":"Nixon's the One","steam_id":76561198046688278,"connected_time":3497000000000,"state":"active","ping":55},{"user_id":154,"name":"Tricky Dick","steam_id":76561198049068522,"connected_time":1495000000000,"state":"active","ping":46}]},{"server_id":108,"name":"Uncletopia | Dallas | 2 | All Maps","name_short":"dal-2","host":"dal-1.us.uncletopia.com","port":27025,"enabled":true,"region":"us-central","cc":"us","latitude":32.779167,"longitude":-96.80889,"reserved":0,"last_update":"0001-01-01T00:00:00Z","name_a2s":"Uncletopia | Dallas | 2 | All Maps","protocol":17,"map":"pl_badwater","folder":"tf","game":"Team Fortress","app_id":440,"player_count":24,"max_players":24,"Bots":0,"server_type":"Dedicated","server_os":"Linux","password":true,"vac":true,"version":"7961495","steam_id":85568392924469988,"keywords":["nocrits","nodmgspread","payload","uncletopia"],"game_id":440,"stv_port":27026,"stv_name":"Uncletopia | Dallas | 2 | All Maps | STV","players":[{"user_id":199,"name":"the keebler","steam_id":76561199486326945,"connected_time":1290000000000,"state":"active","ping":83},{"user_id":182,"name":"Howell at the Moon","steam_id":76561198060827426,"connected_time":2050000000000,"state":"active","ping":71},{"user_id":188,"name":"MenInHatz","steam_id":76561198825094263,"connected_time":1663000000000,"state":"active","ping":75},{"user_id":204,"name":"StretchySnail59","steam_id":76561198073535005,"connected_time":1192000000000,"state":"active","ping":75},{"user_id":206,"name":"SushiMooshi","steam_id":76561198080644275,"connected_time":1079000000000,"state":"active","ping":37},{"user_id":209,"name":"COITUS CRASHER","steam_id":76561198284868084,"connected_time":597000000000,"state":"active","ping":64},{"user_id":191,"name":"|-HyperCube-|","steam_id":76561198167133597,"connected_time":1492000000000,"state":"active","ping":59},{"user_id":210,"name":"Bloody Hydra","steam_id":76561198133939192,"connected_time":493000000000,"state":"active","ping":130},{"user_id":213,"name":"slime ( ,'' w'' )","steam_id":76561198198984282,"connected_time":385000000000,"state":"active","ping":90},{"user_id":207,"name":"Creature","steam_id":76561198132691820,"connected_time":1068000000000,"state":"active","ping":95},{"user_id":185,"name":"Sneed-poster","steam_id":76561198206198937,"connected_time":1921000000000,"state":"active","ping":57},{"user_id":155,"name":"Western_dragon","steam_id":76561198130456105,"connected_time":3022000000000,"state":"active","ping":80},{"user_id":214,"name":"Aeris","steam_id":76561198287271028,"connected_time":188000000000,"state":"active","ping":62},{"user_id":198,"name":"SHUSH nikoOS","steam_id":76561198180020521,"connected_time":1304000000000,"state":"active","ping":161},{"user_id":212,"name":"blobb","steam_id":76561198950448488,"connected_time":458000000000,"state":"active","ping":75},{"user_id":164,"name":"ronald_stackerusa55","steam_id":76561198150406851,"connected_time":2670000000000,"state":"active","ping":95},{"user_id":173,"name":"nick","steam_id":76561198041362771,"connected_time":2400000000000,"state":"active","ping":88},{"user_id":205,"name":"plutonium","steam_id":76561198319442494,"connected_time":1162000000000,"state":"active","ping":80},{"user_id":184,"name":"Lolxdloldx","steam_id":76561198136887125,"connected_time":1945000000000,"state":"active","ping":75},{"user_id":165,"name":"drank baby","steam_id":76561199483723843,"connected_time":2660000000000,"state":"active","ping":108},{"user_id":202,"name":"SoCal Kaizer","steam_id":76561198334361081,"connected_time":1232000000000,"state":"active","ping":106},{"user_id":195,"name":"OwningTundra2","steam_id":76561198936893224,"connected_time":1384000000000,"state":"active","ping":42},{"user_id":203,"name":"FaeTheNefarious","steam_id":76561198133218035,"connected_time":1223000000000,"state":"active","ping":76},{"user_id":208,"name":"Eden","steam_id":76561198081284664,"connected_time":741000000000,"state":"active","ping":88}]},{"server_id":404,"name":"Uncletopia | Dallas | 3 | All Maps","name_short":"dal-3","host":"dal-1.us.uncletopia.com","port":27035,"enabled":true,"region":"us-central","cc":"us","latitude":32.779167,"longitude":-96.80889,"reserved":0,"last_update":"0001-01-01T00:00:00Z","name_a2s":"Uncletopia | Dallas | 3 | All Maps","protocol":17,"map":"cp_sunshine","folder":"tf","game":"Team Fortress","app_id":440,"player_count":0,"max_players":24,"Bots":0,"server_type":"Dedicated","server_os":"Linux","password":true,"vac":true,"version":"7961495","steam_id":85568392924515219,"keywords":["cp","nocrits","nodmgspread","uncletopia"],"game_id":440,"stv_port":27036,"stv_name":"Uncletopia | Dallas | 3 | All Maps | STV","players":null},{"server_id":405,"name":"Uncletopia | Dallas | 4 | Community","name_short":"dal-4","host":"dal-1.us.uncletopia.com","port":27045,"enabled":true,"region":"us-central","cc":"us","latitude":32.779167,"longitude":-96.80889,"reserved":0,"last_update":"0001-01-01T00:00:00Z","name_a2s":"Uncletopia | Dallas | 4 | Community","protocol":17,"map":"workshop/koth_synthetic_rc6a.ugc1549817316","folder":"tf","game":"Team Fortress","app_id":440,"player_count":0,"max_players":24,"Bots":0,"server_type":"Dedicated","server_os":"Linux","password":true,"vac":true,"version":"7961495","steam_id":85568392924515220,"keywords":["cp","nocrits","nodmgspread","uncletopia"],"game_id":440,"stv_port":27046,"stv_name":"Uncletopia | Dallas | 4 | Community | STV","players":null},{"server_id":5,"name":"Uncletopia | Frankfurt | 1 | All Maps","name_short":"frk-1","host":"frk-1.de.uncletopia.com","port":27015,"enabled":true,"region":"eu","cc":"de","latitude":50.110924,"longitude":8.682127,"reserved":0,"last_update":"0001-01-01T00:00:00Z","name_a2s":"Uncletopia | Frankfurt | 1 | All Maps","protocol":17,"map":"cp_sunshine","folder":"tf","game":"Team Fortress","app_id":440,"player_count":24,"max_players":24,"Bots":0,"server_type":"Dedicated","server_os":"Linux","password":true,"vac":true,"version":"7961495","steam_id":85568392924469989,"keywords":["cp","nocrits","nodmgspread","uncletopia"],"game_id":440,"stv_port":27016,"stv_name":"Uncletopia | Frankfurt | 1 | All Maps | STV","players":[{"user_id":718,"name":"oGod","steam_id":76561198971536843,"connected_time":213000000000,"state":"active","ping":62},{"user_id":701,"name":"AddyD","steam_id":76561198201834415,"connected_time":686000000000,"state":"active","ping":50},{"user_id":714,"name":"Laysketchup","steam_id":76561198798891390,"connected_time":352000000000,"state":"active","ping":51},{"user_id":713,"name":"Hildreth","steam_id":76561197995254867,"connected_time":365000000000,"state":"active","ping":54},{"user_id":699,"name":"Cosmetic brain","steam_id":76561198055936410,"connected_time":704000000000,"state":"active","ping":85},{"user_id":712,"name":"B. Montiel","steam_id":76561197978847518,"connected_time":431000000000,"state":"active","ping":57},{"user_id":717,"name":"miruku","steam_id":76561198010340861,"connected_time":216000000000,"state":"active","ping":48},{"user_id":648,"name":"Liam","steam_id":76561198010346323,"connected_time":5541000000000,"state":"active","ping":52},{"user_id":670,"name":"zvekan","steam_id":76561198381101196,"connected_time":3035000000000,"state":"active","ping":61},{"user_id":716,"name":"RatWithHat","steam_id":76561198292377805,"connected_time":256000000000,"state":"active","ping":71},{"user_id":719,"name":"Makkie","steam_id":76561198118950916,"connected_time":210000000000,"state":"active","ping":70},{"user_id":720,"name":"Sushi","steam_id":76561198129405170,"connected_time":195000000000,"state":"active","ping":91},{"user_id":684,"name":"Nonok","steam_id":76561199480685498,"connected_time":2379000000000,"state":"active","ping":51},{"user_id":722,"name":"KarAkma","steam_id":76561198072365138,"connected_time":163000000000,"state":"active","ping":86},{"user_id":707,"name":"TidB","steam_id":76561198055342304,"connected_time":635000000000,"state":"active","ping":58},{"user_id":665,"name":"Rasec","steam_id":76561198352909289,"connected_time":3441000000000,"state":"active","ping":75},{"user_id":700,"name":"HumorlessButton","steam_id":76561198170128638,"connected_time":703000000000,"state":"active","ping":52},{"user_id":721,"name":"Fofenho","steam_id":76561198436817109,"connected_time":185000000000,"state":"active","ping":60},{"user_id":702,"name":"scotty7","steam_id":76561197973301297,"connected_time":674000000000,"state":"active","ping":47},{"user_id":692,"name":"gosi","steam_id":76561198084111532,"connected_time":1540000000000,"state":"active","ping":60},{"user_id":651,"name":"habibi69","steam_id":76561198141989573,"connected_time":5350000000000,"state":"active","ping":75},{"user_id":706,"name":"Cream","steam_id":76561198204266952,"connected_time":643000000000,"state":"active","ping":104},{"user_id":710,"name":"sokige","steam_id":76561198167112371,"connected_time":487000000000,"state":"active","ping":94},{"user_id":683,"name":"Sippie","steam_id":76561198130393388,"connected_time":2430000000000,"state":"active","ping":55}]},{"server_id":110,"name":"Uncletopia | Frankfurt | 2 | All Maps","name_short":"frk-2","host":"frk-1.de.uncletopia.com","port":27025,"enabled":true,"region":"eu","cc":"de","latitude":50.110924,"longitude":8.682127,"reserved":0,"last_update":"0001-01-01T00:00:00Z","name_a2s":"Uncletopia | Frankfurt | 2 | All Maps","protocol":17,"map":"cp_metalworks","folder":"tf","game":"Team Fortress","app_id":440,"player_count":24,"max_players":24,"Bots":0,"server_type":"Dedicated","server_os":"Linux","password":true,"vac":true,"version":"7961495","steam_id":85568392924469990,"keywords":["cp","nocrits","nodmgspread","uncletopia"],"game_id":440,"stv_port":27026,"stv_name":"Uncletopia | Frankfurt | 2 | All Maps | STV","players":[{"user_id":618,"name":"The economy","steam_id":76561198358275344,"connected_time":313000000000,"state":"active","ping":69},{"user_id":608,"name":"ValJul456","steam_id":76561198254622005,"connected_time":1884000000000,"state":"active","ping":48},{"user_id":598,"name":"s3rg_","steam_id":76561198024043213,"connected_time":3350000000000,"state":"active","ping":61},{"user_id":619,"name":"Trash Mimic","steam_id":76561198020933215,"connected_time":279000000000,"state":"active","ping":67},{"user_id":624,"name":"Glitchas","steam_id":76561198883610618,"connected_time":233000000000,"state":"active","ping":78},{"user_id":625,"name":"Lag","steam_id":76561198159360376,"connected_time":11000000000,"state":"spawning","ping":170},{"user_id":520,"name":"totis","steam_id":76561198968410569,"connected_time":8465000000000,"state":"active","ping":100},{"user_id":595,"name":"Bobirulez","steam_id":76561198009125458,"connected_time":3701000000000,"state":"active","ping":75},{"user_id":615,"name":"KrAk3rs","steam_id":76561198298179344,"connected_time":414000000000,"state":"active","ping":68},{"user_id":610,"name":"MeSeaBass","steam_id":76561198390822393,"connected_time":1332000000000,"state":"active","ping":106},{"user_id":545,"name":"Fat Pigeon","steam_id":76561198817940142,"connected_time":6663000000000,"state":"active","ping":53},{"user_id":617,"name":"Chongy BO","steam_id":76561198128907311,"connected_time":314000000000,"state":"active","ping":75},{"user_id":612,"name":"Egor Pomidor","steam_id":76561199175688390,"connected_time":1063000000000,"state":"active","ping":75},{"user_id":555,"name":"Udinese Dion","steam_id":76561198067931573,"connected_time":6121000000000,"state":"active","ping":52},{"user_id":620,"name":"Obscure Rock Album","steam_id":76561198032359132,"connected_time":273000000000,"state":"active","ping":57},{"user_id":621,"name":"Killer8880","steam_id":76561199094449560,"connected_time":263000000000,"state":"active","ping":87},{"user_id":613,"name":"Maximilian1359","steam_id":76561198152439608,"connected_time":696000000000,"state":"active","ping":45},{"user_id":602,"name":"mt","steam_id":76561197961319303,"connected_time":2472000000000,"state":"active","ping":46},{"user_id":561,"name":"KnugenIV","steam_id":76561198127091993,"connected_time":5406000000000,"state":"active","ping":77},{"user_id":609,"name":"zinzyk","steam_id":76561198128011822,"connected_time":1726000000000,"state":"active","ping":60},{"user_id":558,"name":"Just Navlis","steam_id":76561198090479609,"connected_time":5555000000000,"state":"active","ping":46},{"user_id":539,"name":"CiVillain","steam_id":76561198059617732,"connected_time":7145000000000,"state":"active","ping":60},{"user_id":594,"name":"Yo' Local NPC","steam_id":76561198129474001,"connected_time":3715000000000,"state":"active","ping":64},{"user_id":623,"name":"ArPapar","steam_id":76561198327540328,"connected_time":244000000000,"state":"active","ping":100}]},{"server_id":308,"name":"Uncletopia | Frankfurt | 3 | All Maps","name_short":"frk-3","host":"frk-1.de.uncletopia.com","port":27035,"enabled":true,"region":"eu","cc":"de","latitude":50.110924,"longitude":8.682127,"reserved":0,"last_update":"0001-01-01T00:00:00Z","name_a2s":"Uncletopia | Frankfurt | 3 | All Maps","protocol":17,"map":"cp_altitude","folder":"tf","game":"Team Fortress","app_id":440,"player_count":16,"max_players":24,"Bots":0,"server_type":"Dedicated","server_os":"Linux","password":true,"vac":true,"version":"7961495","steam_id":85568392924504274,"keywords":["cp","nocrits","nodmgspread","uncletopia"],"game_id":440,"stv_port":27036,"stv_name":"Uncletopia | Frankfurt | 3 | All Maps | STV","players":[{"user_id":393,"name":"Munch n Chomp","steam_id":76561197996341804,"connected_time":2198000000000,"state":"active","ping":63},{"user_id":414,"name":"Conan the Librarian","steam_id":76561198007224654,"connected_time":155000000000,"state":"active","ping":56},{"user_id":375,"name":"Leviticus Cornwall","steam_id":76561197993702685,"connected_time":3209000000000,"state":"active","ping":63},{"user_id":384,"name":"Armand","steam_id":76561198236126774,"connected_time":2576000000000,"state":"active","ping":44},{"user_id":415,"name":"TommySleepyEyes","steam_id":76561198261007349,"connected_time":130000000000,"state":"active","ping":46},{"user_id":416,"name":"khan bram","steam_id":76561198034596820,"connected_time":91000000000,"state":"active","ping":47},{"user_id":417,"name":"GüçlüAYraNsAĞ","steam_id":76561199184988396,"connected_time":75000000000,"state":"active","ping":109},{"user_id":362,"name":"Drojdier","steam_id":76561198080789836,"connected_time":3534000000000,"state":"active","ping":78},{"user_id":418,"name":"[SQ UA] MartianDill","steam_id":76561198405382822,"connected_time":41000000000,"state":"active","ping":61},{"user_id":419,"name":"Jankos","steam_id":76561198398944564,"connected_time":28000000000,"state":"active","ping":91},{"user_id":420,"name":"✚Чыж✚","steam_id":76561198273074492,"connected_time":17000000000,"state":"active","ping":131},{"user_id":363,"name":"DEFENDOR62","steam_id":76561199386703896,"connected_time":3517000000000,"state":"active","ping":50},{"user_id":397,"name":"rts","steam_id":76561199090876980,"connected_time":1968000000000,"state":"active","ping":67},{"user_id":387,"name":"soupalognionycrouton","steam_id":76561199021878433,"connected_time":2522000000000,"state":"active","ping":73},{"user_id":379,"name":"I'm past the point of insanity","steam_id":76561198800954471,"connected_time":3129000000000,"state":"active","ping":75},{"user_id":403,"name":"Petight","steam_id":76561197999438798,"connected_time":1349000000000,"state":"active","ping":49}]},{"server_id":309,"name":"Uncletopia | Frankfurt | 4 | All Maps","name_short":"frk-4","host":"frk-1.de.uncletopia.com","port":27045,"enabled":true,"region":"eu","cc":"de","latitude":50.110924,"longitude":8.682127,"reserved":0,"last_update":"0001-01-01T00:00:00Z","name_a2s":"Uncletopia | Frankfurt | 4 | All Maps","protocol":17,"map":"pl_pier","folder":"tf","game":"Team Fortress","app_id":440,"player_count":24,"max_players":24,"Bots":0,"server_type":"Dedicated","server_os":"Linux","password":true,"vac":true,"version":"7961495","steam_id":85568392924504275,"keywords":["nocrits","nodmgspread","payload","uncletopia"],"game_id":440,"stv_port":27046,"stv_name":"Uncletopia | Frankfurt | 4 | All Maps | STV","players":[{"user_id":544,"name":"AWP Bodyshot :) ❤","steam_id":76561198029928533,"connected_time":1600000000000,"state":"active","ping":45},{"user_id":504,"name":"Musicano","steam_id":76561198114541088,"connected_time":4874000000000,"state":"active","ping":75},{"user_id":552,"name":"Real (Real)","steam_id":76561198323425034,"connected_time":881000000000,"state":"active","ping":60},{"user_id":555,"name":"Ulven","steam_id":76561199198504187,"connected_time":814000000000,"state":"active","ping":60},{"user_id":537,"name":"C.H.E.R.E.P.","steam_id":76561198026938595,"connected_time":2663000000000,"state":"active","ping":65},{"user_id":561,"name":"r","steam_id":76561198239927434,"connected_time":231000000000,"state":"active","ping":60},{"user_id":511,"name":"Efeca","steam_id":76561198018923829,"connected_time":4109000000000,"state":"active","ping":66},{"user_id":512,"name":"onixed","steam_id":76561198995478547,"connected_time":4106000000000,"state":"active","ping":48},{"user_id":523,"name":"HoneyBe_","steam_id":76561198288930154,"connected_time":3807000000000,"state":"active","ping":74},{"user_id":543,"name":"8 Ball","steam_id":76561197960988736,"connected_time":1686000000000,"state":"active","ping":60},{"user_id":551,"name":"Qare","steam_id":76561198410284756,"connected_time":892000000000,"state":"active","ping":140},{"user_id":548,"name":"Sebastian","steam_id":76561197996502215,"connected_time":1238000000000,"state":"active","ping":87},{"user_id":564,"name":"Chappi","steam_id":76561198075512843,"connected_time":4000000000,"state":"spawning","ping":268},{"user_id":509,"name":"Clydios","steam_id":76561198332311225,"connected_time":4249000000000,"state":"active","ping":89},{"user_id":519,"name":"soup","steam_id":76561198386933065,"connected_time":3870000000000,"state":"active","ping":57},{"user_id":538,"name":"kingofdoom","steam_id":76561199057759945,"connected_time":2488000000000,"state":"active","ping":69},{"user_id":546,"name":"Family guy try not to laugh","steam_id":76561198031455800,"connected_time":1304000000000,"state":"active","ping":77},{"user_id":562,"name":"smiley","steam_id":76561198042245117,"connected_time":223000000000,"state":"active","ping":69},{"user_id":559,"name":"skeleton_archer_1","steam_id":76561198407636430,"connected_time":368000000000,"state":"active","ping":95},{"user_id":515,"name":"Woad Raider","steam_id":76561198215485788,"connected_time":4078000000000,"state":"active","ping":70},{"user_id":545,"name":"L + Bomzis","steam_id":76561198118747192,"connected_time":1586000000000,"state":"active","ping":69},{"user_id":520,"name":"bigwish | bmod.tf","steam_id":76561197997859723,"connected_time":3870000000000,"state":"active","ping":67},{"user_id":557,"name":"idontlikeyou","steam_id":76561199388851226,"connected_time":551000000000,"state":"active","ping":50},{"user_id":542,"name":"I'm listening to PKMN Ruby ost","steam_id":76561199067665036,"connected_time":1794000000000,"state":"active","ping":75}]},{"server_id":310,"name":"Uncletopia | Frankfurt | 5 | All Maps","name_short":"frk-5","host":"frk-1.de.uncletopia.com","port":27055,"enabled":true,"region":"eu","cc":"de","latitude":50.110924,"longitude":8.682127,"reserved":0,"last_update":"0001-01-01T00:00:00Z","name_a2s":"Uncletopia | Frankfurt | 5 | All Maps","protocol":17,"map":"pl_barnblitz","folder":"tf","game":"Team Fortress","app_id":440,"player_count":24,"max_players":24,"Bots":0,"server_type":"Dedicated","server_os":"Linux","password":true,"vac":true,"version":"7961495","steam_id":85568392924504277,"keywords":["nocrits","nodmgspread","payload","uncletopia"],"game_id":440,"stv_port":27056,"stv_name":"Uncletopia | Frankfurt | 5 | All Maps | STV","players":[{"user_id":495,"name":"I shitted my a$$","steam_id":76561198981017406,"connected_time":3766000000000,"state":"active","ping":67},{"user_id":521,"name":"Jeffrey Harpen","steam_id":76561199073314677,"connected_time":1201000000000,"state":"active","ping":59},{"user_id":533,"name":"realness","steam_id":76561199129226935,"connected_time":930000000000,"state":"active","ping":100},{"user_id":523,"name":"SysioWhat","steam_id":76561198282396672,"connected_time":1172000000000,"state":"active","ping":60},{"user_id":542,"name":"GrumpyGrey","steam_id":76561199504695656,"connected_time":455000000000,"state":"active","ping":45},{"user_id":514,"name":"Mléčný Cecek","steam_id":76561198138939377,"connected_time":1939000000000,"state":"active","ping":42},{"user_id":541,"name":"Vitamin Weee","steam_id":76561199183937747,"connected_time":477000000000,"state":"active","ping":74},{"user_id":549,"name":"Lynx","steam_id":76561199274008207,"connected_time":157000000000,"state":"active","ping":75},{"user_id":525,"name":"Super medyk","steam_id":76561198170125887,"connected_time":1165000000000,"state":"active","ping":60},{"user_id":547,"name":"Watermelon","steam_id":76561198078349914,"connected_time":238000000000,"state":"active","ping":62},{"user_id":536,"name":"mercedes ben","steam_id":76561198000147423,"connected_time":876000000000,"state":"active","ping":58},{"user_id":520,"name":"romov","steam_id":76561199182288871,"connected_time":1372000000000,"state":"active","ping":90},{"user_id":527,"name":"tealoverr.190","steam_id":76561199028497703,"connected_time":1066000000000,"state":"active","ping":105},{"user_id":528,"name":"haha A-10 Warthog go bbrrrrrrrr","steam_id":76561198247954030,"connected_time":1065000000000,"state":"active","ping":79},{"user_id":529,"name":"Davidox Vu","steam_id":76561198373047051,"connected_time":994000000000,"state":"active","ping":50},{"user_id":548,"name":"LOBZIK","steam_id":76561198114830120,"connected_time":236000000000,"state":"active","ping":75},{"user_id":512,"name":"Gregor Samsa","steam_id":76561198973069177,"connected_time":2399000000000,"state":"active","ping":73},{"user_id":544,"name":"Doctor Mobius","steam_id":76561197971281806,"connected_time":310000000000,"state":"active","ping":51},{"user_id":538,"name":"Hóňa","steam_id":76561198096006081,"connected_time":717000000000,"state":"active","ping":50},{"user_id":479,"name":"WaiGee♡✰","steam_id":76561198072293341,"connected_time":5278000000000,"state":"active","ping":74},{"user_id":469,"name":"Dunk","steam_id":76561198063091532,"connected_time":5928000000000,"state":"active","ping":70},{"user_id":551,"name":"Seliush","steam_id":76561198313583650,"connected_time":58000000000,"state":"active","ping":62},{"user_id":545,"name":"kelm","steam_id":76561198027166144,"connected_time":275000000000,"state":"active","ping":84},{"user_id":550,"name":"RIBS GROW BACK","steam_id":76561198123659806,"connected_time":125000000000,"state":"active","ping":87}]},{"server_id":311,"name":"Uncletopia | Frankfurt | 6 | All Maps","name_short":"frk-6","host":"frk-1.de.uncletopia.com","port":27065,"enabled":true,"region":"eu","cc":"de","latitude":50.110924,"longitude":8.682127,"reserved":0,"last_update":"0001-01-01T00:00:00Z","name_a2s":"Uncletopia | Frankfurt | 6 | All Maps","protocol":17,"map":"cp_dustbowl","folder":"tf","game":"Team Fortress","app_id":440,"player_count":22,"max_players":24,"Bots":0,"server_type":"Dedicated","server_os":"Linux","password":true,"vac":true,"version":"7961495","steam_id":85568392924504278,"keywords":["cp","nocrits","nodmgspread","uncletopia"],"game_id":440,"stv_port":27066,"stv_name":"Uncletopia | Frankfurt | 6 | All Maps | STV","players":[{"user_id":266,"name":"duleduldule295","steam_id":76561199476131758,"connected_time":1465000000000,"state":"active","ping":63},{"user_id":265,"name":"Conan","steam_id":76561198158321202,"connected_time":1619000000000,"state":"active","ping":51},{"user_id":276,"name":"[Plotholers] odacovA","steam_id":76561199383345208,"connected_time":1128000000000,"state":"active","ping":158},{"user_id":270,"name":"bruh","steam_id":76561197993922244,"connected_time":1317000000000,"state":"active","ping":51},{"user_id":221,"name":"CarbonPan","steam_id":76561198072169983,"connected_time":3504000000000,"state":"active","ping":90},{"user_id":242,"name":"calywtrawie","steam_id":76561197986723054,"connected_time":2235000000000,"state":"active","ping":66},{"user_id":290,"name":"Chlorine","steam_id":76561198995993972,"connected_time":301000000000,"state":"active","ping":53},{"user_id":225,"name":"PLSNO (RYAN)","steam_id":76561198086542505,"connected_time":3411000000000,"state":"active","ping":75},{"user_id":271,"name":"AftiksPL","steam_id":76561198875182686,"connected_time":1259000000000,"state":"active","ping":78},{"user_id":272,"name":"ay","steam_id":76561198033695429,"connected_time":1205000000000,"state":"active","ping":53},{"user_id":273,"name":"Aisforlike","steam_id":76561199482110668,"connected_time":1186000000000,"state":"active","ping":158},{"user_id":227,"name":"selkie","steam_id":76561198329321007,"connected_time":3388000000000,"state":"active","ping":98},{"user_id":277,"name":"Skepingawich","steam_id":76561198038736553,"connected_time":1028000000000,"state":"active","ping":62},{"user_id":278,"name":"Ourseem","steam_id":76561199406432468,"connected_time":993000000000,"state":"active","ping":140},{"user_id":279,"name":"Lord of Birds","steam_id":76561198268952995,"connected_time":971000000000,"state":"active","ping":64},{"user_id":280,"name":"Verul","steam_id":76561198061835471,"connected_time":930000000000,"state":"active","ping":79},{"user_id":288,"name":"Coac","steam_id":76561198085265740,"connected_time":778000000000,"state":"active","ping":60},{"user_id":282,"name":"Phinton","steam_id":76561198014690842,"connected_time":901000000000,"state":"active","ping":83},{"user_id":284,"name":"TranvesTito","steam_id":76561198140034262,"connected_time":856000000000,"state":"active","ping":53},{"user_id":289,"name":"Lux","steam_id":76561198060417740,"connected_time":619000000000,"state":"active","ping":52},{"user_id":286,"name":"Mirru","steam_id":76561198078247594,"connected_time":846000000000,"state":"active","ping":92},{"user_id":287,"name":"Unsalted Butter","steam_id":76561198053118190,"connected_time":844000000000,"state":"active","ping":42}]},{"server_id":23,"name":"Uncletopia | Frankfurt | 7 | Stopwatch","name_short":"frk-7","host":"frk-1.de.uncletopia.com","port":27075,"enabled":true,"region":"eu","cc":"de","latitude":50.110924,"longitude":8.682127,"reserved":0,"last_update":"0001-01-01T00:00:00Z","name_a2s":"Uncletopia | Frankfurt | 7 | Stopwatch","protocol":17,"map":"workshop/pl_badwater_pro_v12.ugc2142942074","folder":"tf","game":"Team Fortress","app_id":440,"player_count":0,"max_players":24,"Bots":0,"server_type":"Dedicated","server_os":"Linux","password":true,"vac":true,"version":"7961495","steam_id":85568392924742827,"keywords":["nocrits","nodmgspread","payload","uncletopia"],"game_id":440,"stv_port":27076,"stv_name":"Uncletopia | Frankfurt | 7 | Stopwatch | STV","players":null},{"server_id":24,"name":"Uncletopia | Frankfurt | 8 | Community","name_short":"frk-8","host":"frk-1.de.uncletopia.com","port":27085,"enabled":true,"region":"eu","cc":"de","latitude":50.110924,"longitude":8.682127,"reserved":0,"last_update":"0001-01-01T00:00:00Z","name_a2s":"Uncletopia | Frankfurt | 8 | Community","protocol":17,"map":"workshop/koth_synthetic_rc6a.ugc1549817316","folder":"tf","game":"Team Fortress","app_id":440,"player_count":0,"max_players":24,"Bots":0,"server_type":"Dedicated","server_os":"Linux","password":true,"vac":true,"version":"7961495","steam_id":85568392924742828,"keywords":["cp","nocrits","nodmgspread","uncletopia"],"game_id":440,"stv_port":27086,"stv_name":"Uncletopia | Frankfurt | 8 | Community | STV","players":null},{"server_id":202,"name":"Uncletopia | Hong Kong | 1 | All Maps","name_short":"hgk-1","host":"hgk-1.hk.uncletopia.com","port":27015,"enabled":true,"region":"asia","cc":"hk","latitude":22.302711,"longitude":114.177216,"reserved":0,"last_update":"0001-01-01T00:00:00Z","name_a2s":"Uncletopia | Hong Kong | 1 | All Maps","protocol":17,"map":"pl_frontier_final","folder":"tf","game":"Team Fortress","app_id":440,"player_count":0,"max_players":24,"Bots":0,"server_type":"Dedicated","server_os":"Linux","password":true,"vac":true,"version":"7961495","steam_id":85568392924494504,"keywords":["nocrits","nodmgspread","payload","uncletopia"],"game_id":440,"stv_port":27016,"stv_name":"Uncletopia | Hong Kong | 1 | All Maps | STV","players":null},{"server_id":1,"name":"Uncletopia | Los Angeles | 1 | All Maps","name_short":"lax-1","host":"lax-1.us.uncletopia.com","port":27015,"enabled":true,"region":"us-west","cc":"us","latitude":33.94279,"longitude":-118.41004,"reserved":0,"last_update":"0001-01-01T00:00:00Z","name_a2s":"Uncletopia | Los Angeles | 1 | All Maps","protocol":17,"map":"cp_snakewater_final1","folder":"tf","game":"Team Fortress","app_id":440,"player_count":0,"max_players":24,"Bots":0,"server_type":"Dedicated","server_os":"Linux","password":true,"vac":true,"version":"7961495","steam_id":85568392924469991,"keywords":["cp","nocrits","nodmgspread","uncletopia"],"game_id":440,"stv_port":27016,"stv_name":"Uncletopia | Los Angeles | 1 | All Maps | STV","players":null},{"server_id":112,"name":"Uncletopia | Los Angeles | 2 | All Maps","name_short":"lax-2","host":"lax-1.us.uncletopia.com","port":27025,"enabled":true,"region":"us-west","cc":"us","latitude":33.94279,"longitude":-118.41004,"reserved":0,"last_update":"0001-01-01T00:00:00Z","name_a2s":"Uncletopia | Los Angeles | 2 | All Maps","protocol":17,"map":"cp_process_final","folder":"tf","game":"Team Fortress","app_id":440,"player_count":0,"max_players":24,"Bots":0,"server_type":"Dedicated","server_os":"Linux","password":true,"vac":true,"version":"7961495","steam_id":85568392924469992,"keywords":["cp","nocrits","nodmgspread","uncletopia"],"game_id":440,"stv_port":27026,"stv_name":"Uncletopia | Los Angeles | 2 | All Maps | STV","players":null},{"server_id":324,"name":"Uncletopia | Los Angeles | 3 | All Maps","name_short":"lax-3","host":"lax-1.us.uncletopia.com","port":27035,"enabled":true,"region":"us-west","cc":"us","latitude":33.94279,"longitude":-118.41004,"reserved":0,"last_update":"0001-01-01T00:00:00Z","name_a2s":"Uncletopia | Los Angeles | 3 | All Maps","protocol":17,"map":"koth_viaduct","folder":"tf","game":"Team Fortress","app_id":440,"player_count":0,"max_players":24,"Bots":0,"server_type":"Dedicated","server_os":"Linux","password":true,"vac":true,"version":"7961495","steam_id":85568392924510198,"keywords":["cp","nocrits","nodmgspread","uncletopia"],"game_id":440,"stv_port":27036,"stv_name":"Uncletopia | Los Angeles | 3 | All Maps | STV","players":null},{"server_id":25,"name":"Uncletopia | Los Angeles | 4 | Stopwatch","name_short":"lax-4","host":"lax-1.us.uncletopia.com","port":27045,"enabled":true,"region":"us-west","cc":"us","latitude":33.94279,"longitude":-118.41004,"reserved":0,"last_update":"0001-01-01T00:00:00Z","name_a2s":"Uncletopia | Los Angeles | 4 | Stopwatch","protocol":17,"map":"pl_upward","folder":"tf","game":"Team Fortress","app_id":440,"player_count":0,"max_players":24,"Bots":0,"server_type":"Dedicated","server_os":"Linux","password":true,"vac":true,"version":"7961495","steam_id":85568392924510199,"keywords":["nocrits","nodmgspread","payload","uncletopia"],"game_id":440,"stv_port":27046,"stv_name":"Uncletopia | Los Angeles | 4 | Stopwatch | STV","players":null},{"server_id":11,"name":"Uncletopia | London | 1 | All Maps","name_short":"lon-1","host":"lon-1.uk.uncletopia.com","port":27015,"enabled":true,"region":"eu","cc":"gb","latitude":51.509865,"longitude":-0.118092,"reserved":0,"last_update":"0001-01-01T00:00:00Z","name_a2s":"Uncletopia | London | 1 | All Maps","protocol":17,"map":"pl_pier","folder":"tf","game":"Team Fortress","app_id":440,"player_count":24,"max_players":24,"Bots":0,"server_type":"Dedicated","server_os":"Linux","password":true,"vac":true,"version":"7961495","steam_id":85568392924367362,"keywords":["nocrits","nodmgspread","payload","uncletopia"],"game_id":440,"stv_port":27016,"stv_name":"Uncletopia | London | 1 | All Maps | STV","players":[{"user_id":511,"name":"Kahvi","steam_id":76561198723244199,"connected_time":3100000000000,"state":"active","ping":82},{"user_id":570,"name":"Fran","steam_id":76561199070516960,"connected_time":2162000000000,"state":"active","ping":76},{"user_id":703,"name":"mingsh'allah","steam_id":76561198254011269,"connected_time":88000000000,"state":"active","ping":69},{"user_id":622,"name":"Behind you","steam_id":76561198102420849,"connected_time":1363000000000,"state":"active","ping":70},{"user_id":620,"name":"fence_","steam_id":76561198150386379,"connected_time":1383000000000,"state":"active","ping":46},{"user_id":452,"name":"Laru","steam_id":76561197998838438,"connected_time":5590000000000,"state":"active","ping":75},{"user_id":428,"name":"ber","steam_id":76561197993892057,"connected_time":8107000000000,"state":"active","ping":92},{"user_id":472,"name":"SENSITIVITY OVERDRIVE!!!!","steam_id":76561198163615254,"connected_time":4216000000000,"state":"active","ping":60},{"user_id":577,"name":"goblin","steam_id":76561198170334258,"connected_time":2087000000000,"state":"active","ping":71},{"user_id":419,"name":"ats","steam_id":76561199383437138,"connected_time":9271000000000,"state":"active","ping":118},{"user_id":652,"name":"Sandshee","steam_id":76561198088574666,"connected_time":946000000000,"state":"active","ping":45},{"user_id":473,"name":"Finkaksu Devourer of Sour Candy","steam_id":76561198201389163,"connected_time":3891000000000,"state":"active","ping":74},{"user_id":475,"name":"BurningJoke","steam_id":76561199014358707,"connected_time":3791000000000,"state":"active","ping":61},{"user_id":629,"name":"whimsy. (live)","steam_id":76561198878171763,"connected_time":1303000000000,"state":"active","ping":54},{"user_id":561,"name":"hydration gaming","steam_id":76561198141961474,"connected_time":2256000000000,"state":"active","ping":45},{"user_id":621,"name":"G_raff","steam_id":76561199048512726,"connected_time":1372000000000,"state":"active","ping":80},{"user_id":579,"name":"GIRLBITER alice","steam_id":76561198180361759,"connected_time":2078000000000,"state":"active","ping":44},{"user_id":471,"name":"Chill Spirit","steam_id":76561198845001725,"connected_time":4314000000000,"state":"active","ping":59},{"user_id":405,"name":"Richard nixon roleplayer","steam_id":76561198236015392,"connected_time":10294000000000,"state":"active","ping":120},{"user_id":491,"name":"Woman (Real)","steam_id":76561199151823932,"connected_time":3369000000000,"state":"active","ping":79},{"user_id":600,"name":"Aaron","steam_id":76561197990046953,"connected_time":1703000000000,"state":"active","ping":59},{"user_id":678,"name":"Speed-Dial","steam_id":76561198012428315,"connected_time":504000000000,"state":"active","ping":45},{"user_id":413,"name":"⚧aura⚧","steam_id":76561198066258544,"connected_time":9405000000000,"state":"active","ping":61},{"user_id":702,"name":"Fearly","steam_id":76561198798684016,"connected_time":193000000000,"state":"active","ping":45}]},{"server_id":114,"name":"Uncletopia | London | 2 | All Maps","name_short":"lon-2","host":"lon-1.uk.uncletopia.com","port":27025,"enabled":true,"region":"eu","cc":"gb","latitude":51.509865,"longitude":-0.118092,"reserved":0,"last_update":"0001-01-01T00:00:00Z","name_a2s":"Uncletopia | London | 2 | All Maps","protocol":17,"map":"pl_upward","folder":"tf","game":"Team Fortress","app_id":440,"player_count":24,"max_players":24,"Bots":0,"server_type":"Dedicated","server_os":"Linux","password":true,"vac":true,"version":"7961495","steam_id":85568392924470941,"keywords":["nocrits","nodmgspread","payload","uncletopia"],"game_id":440,"stv_port":27026,"stv_name":"Uncletopia | London | 2 | All Maps | STV","players":[{"user_id":495,"name":"main weapon machine broke","steam_id":76561198041329823,"connected_time":4258000000000,"state":"active","ping":57},{"user_id":553,"name":"gnarly business","steam_id":76561198832688767,"connected_time":196000000000,"state":"active","ping":58},{"user_id":548,"name":"Skulldow","steam_id":76561198431433977,"connected_time":682000000000,"state":"active","ping":72},{"user_id":544,"name":"fuckbitch mcquaith","steam_id":76561198180865514,"connected_time":1271000000000,"state":"active","ping":118},{"user_id":504,"name":"Joshy","steam_id":76561198059657098,"connected_time":3350000000000,"state":"active","ping":24},{"user_id":528,"name":"cropping","steam_id":76561198026586456,"connected_time":2023000000000,"state":"active","ping":60},{"user_id":556,"name":"nut fast, chucklethink","steam_id":76561198151495820,"connected_time":98000000000,"state":"active","ping":81},{"user_id":507,"name":"Hurans","steam_id":76561198064853199,"connected_time":3284000000000,"state":"active","ping":64},{"user_id":531,"name":"sniper's kangaroo wife","steam_id":76561198334042273,"connected_time":1770000000000,"state":"active","ping":98},{"user_id":497,"name":"Dr. Sex","steam_id":76561198998186161,"connected_time":4231000000000,"state":"active","ping":98},{"user_id":555,"name":"SausageRoll","steam_id":76561197994072622,"connected_time":173000000000,"state":"active","ping":42},{"user_id":533,"name":"Cobalt","steam_id":76561198349228196,"connected_time":1678000000000,"state":"active","ping":42},{"user_id":453,"name":"Lance Corporal Boiled Egg","steam_id":76561197989717358,"connected_time":6423000000000,"state":"active","ping":45},{"user_id":546,"name":"Name","steam_id":76561197990757157,"connected_time":1203000000000,"state":"active","ping":66},{"user_id":549,"name":"anson2623","steam_id":76561198147658525,"connected_time":575000000000,"state":"active","ping":44},{"user_id":529,"name":"Saken","steam_id":76561198049075295,"connected_time":1973000000000,"state":"active","ping":69},{"user_id":547,"name":"glyph","steam_id":76561197980736364,"connected_time":1081000000000,"state":"active","ping":82},{"user_id":493,"name":"meriones","steam_id":76561198034234373,"connected_time":4328000000000,"state":"active","ping":43},{"user_id":557,"name":"Xanz","steam_id":76561198041256739,"connected_time":92000000000,"state":"active","ping":48},{"user_id":539,"name":"SoupEnjoyer","steam_id":76561198044050377,"connected_time":1461000000000,"state":"active","ping":89},{"user_id":540,"name":"Stoneley","steam_id":76561199182443625,"connected_time":1436000000000,"state":"active","ping":47},{"user_id":552,"name":"[T]aKer","steam_id":76561198001778013,"connected_time":231000000000,"state":"active","ping":49},{"user_id":554,"name":"Carney","steam_id":76561198064078751,"connected_time":196000000000,"state":"active","ping":59},{"user_id":518,"name":"Doloro :3","steam_id":76561198309713613,"connected_time":2917000000000,"state":"active","ping":47}]},{"server_id":320,"name":"Uncletopia | London | 3 | All Maps","name_short":"lon-3","host":"lon-1.uk.uncletopia.com","port":27035,"enabled":true,"region":"eu","cc":"gb","latitude":51.509865,"longitude":-0.118092,"reserved":0,"last_update":"0001-01-01T00:00:00Z","name_a2s":"Uncletopia | London | 3 | All Maps","protocol":17,"map":"pl_frontier_final","folder":"tf","game":"Team Fortress","app_id":440,"player_count":24,"max_players":24,"Bots":0,"server_type":"Dedicated","server_os":"Linux","password":true,"vac":true,"version":"7961495","steam_id":85568392924510192,"keywords":["nocrits","nodmgspread","payload","uncletopia"],"game_id":440,"stv_port":27036,"stv_name":"Uncletopia | London | 3 | All Maps | STV","players":[{"user_id":556,"name":"Chopkins","steam_id":76561199242605141,"connected_time":858000000000,"state":"active","ping":35},{"user_id":508,"name":"niandits","steam_id":76561198419798900,"connected_time":4058000000000,"state":"active","ping":141},{"user_id":577,"name":"Verichachachasket","steam_id":76561198090074093,"connected_time":369000000000,"state":"active","ping":44},{"user_id":557,"name":"sillywilly","steam_id":76561199207982479,"connected_time":856000000000,"state":"active","ping":33},{"user_id":475,"name":"･•.","steam_id":76561198049983016,"connected_time":6203000000000,"state":"active","ping":90},{"user_id":571,"name":"lila","steam_id":76561198040690770,"connected_time":474000000000,"state":"active","ping":54},{"user_id":499,"name":"dafran of tf2","steam_id":76561198066287815,"connected_time":4795000000000,"state":"active","ping":120},{"user_id":476,"name":"secunda","steam_id":76561198072250111,"connected_time":6187000000000,"state":"active","ping":58},{"user_id":536,"name":"Oxy","steam_id":76561198058640737,"connected_time":2762000000000,"state":"active","ping":45},{"user_id":554,"name":"Gorgeous George","steam_id":76561198144256544,"connected_time":915000000000,"state":"active","ping":49},{"user_id":559,"name":"quickfast","steam_id":76561199438900919,"connected_time":853000000000,"state":"active","ping":46},{"user_id":576,"name":"ant753","steam_id":76561198103458889,"connected_time":379000000000,"state":"active","ping":60},{"user_id":547,"name":"yush","steam_id":76561198121688934,"connected_time":1322000000000,"state":"active","ping":73},{"user_id":548,"name":"Yimir","steam_id":76561198122584400,"connected_time":1308000000000,"state":"active","ping":27},{"user_id":560,"name":"lawn (evil arc)","steam_id":76561198001243486,"connected_time":827000000000,"state":"active","ping":43},{"user_id":550,"name":"Luxotrics","steam_id":76561198053455161,"connected_time":1120000000000,"state":"active","ping":79},{"user_id":575,"name":"nordstream bomber","steam_id":76561199401283123,"connected_time":389000000000,"state":"active","ping":38},{"user_id":565,"name":"kill your self","steam_id":76561198323757113,"connected_time":657000000000,"state":"active","ping":58},{"user_id":549,"name":"Zel","steam_id":76561198284520120,"connected_time":1172000000000,"state":"active","ping":45},{"user_id":529,"name":"That Guy","steam_id":76561198835358266,"connected_time":3035000000000,"state":"active","ping":80},{"user_id":562,"name":"Melon","steam_id":76561199238680243,"connected_time":734000000000,"state":"active","ping":119},{"user_id":543,"name":"yandere tomboy enthusiast (f2p)","steam_id":76561198403449689,"connected_time":2176000000000,"state":"active","ping":151},{"user_id":561,"name":"Lewylow","steam_id":76561198005425686,"connected_time":819000000000,"state":"active","ping":58},{"user_id":563,"name":"User (Real)","steam_id":76561198302710873,"connected_time":726000000000,"state":"active","ping":73}]},{"server_id":321,"name":"Uncletopia | London | 4 | All Maps","name_short":"lon-4","host":"lon-1.uk.uncletopia.com","port":27045,"enabled":true,"region":"eu","cc":"gb","latitude":51.509865,"longitude":-0.118092,"reserved":0,"last_update":"0001-01-01T00:00:00Z","name_a2s":"Uncletopia | London | 4 | All Maps","protocol":17,"map":"cp_dustbowl","folder":"tf","game":"Team Fortress","app_id":440,"player_count":18,"max_players":24,"Bots":0,"server_type":"Dedicated","server_os":"Linux","password":true,"vac":true,"version":"7961495","steam_id":85568392924510193,"keywords":["cp","nocrits","nodmgspread","uncletopia"],"game_id":440,"stv_port":27046,"stv_name":"Uncletopia | London | 4 | All Maps | STV","players":[{"user_id":759,"name":"baver","steam_id":76561198135293142,"connected_time":518000000000,"state":"active","ping":54},{"user_id":770,"name":"please do not the cat","steam_id":76561198089003514,"connected_time":115000000000,"state":"active","ping":46},{"user_id":735,"name":"Gbus","steam_id":76561198072335838,"connected_time":2771000000000,"state":"active","ping":58},{"user_id":768,"name":"Creative","steam_id":76561198835034247,"connected_time":168000000000,"state":"active","ping":75},{"user_id":769,"name":"kjmana","steam_id":76561199148674138,"connected_time":163000000000,"state":"active","ping":52},{"user_id":771,"name":"Suetolog","steam_id":76561199053090212,"connected_time":70000000000,"state":"active","ping":60},{"user_id":755,"name":"Anus01","steam_id":76561198101884780,"connected_time":851000000000,"state":"active","ping":73},{"user_id":766,"name":"Tree","steam_id":76561198060657113,"connected_time":237000000000,"state":"active","ping":59},{"user_id":764,"name":"Hogs Sidekick","steam_id":76561198136433205,"connected_time":241000000000,"state":"active","ping":39},{"user_id":750,"name":"Grillem Dafoe","steam_id":76561198306874574,"connected_time":2027000000000,"state":"active","ping":48},{"user_id":757,"name":"⛧ AlphaSatanOmega ⛧","steam_id":76561198035125511,"connected_time":810000000000,"state":"active","ping":120},{"user_id":727,"name":"ran is running","steam_id":76561199443185667,"connected_time":3236000000000,"state":"active","ping":146},{"user_id":734,"name":"Snowingle","steam_id":76561199222526482,"connected_time":2911000000000,"state":"active","ping":68},{"user_id":723,"name":"Groofy","steam_id":76561199302859008,"connected_time":3359000000000,"state":"active","ping":118},{"user_id":762,"name":"godmodule","steam_id":76561198165995444,"connected_time":413000000000,"state":"active","ping":76},{"user_id":728,"name":"Plop_","steam_id":76561198112567921,"connected_time":3235000000000,"state":"active","ping":42},{"user_id":763,"name":"Quiet Kid","steam_id":76561199134800446,"connected_time":412000000000,"state":"active","ping":106},{"user_id":748,"name":"MercuryPlate","steam_id":76561199154144220,"connected_time":2218000000000,"state":"active","ping":162}]},{"server_id":21,"name":"Uncletopia | London | 5 | All Maps","name_short":"lon-5","host":"lon-1.uk.uncletopia.com","port":27055,"enabled":true,"region":"eu","cc":"gb","latitude":51.509865,"longitude":-0.118092,"reserved":0,"last_update":"0001-01-01T00:00:00Z","name_a2s":"Uncletopia | London | 5 | All Maps","protocol":17,"map":"pl_thundermountain","folder":"tf","game":"Team Fortress","app_id":440,"player_count":24,"max_players":24,"Bots":0,"server_type":"Dedicated","server_os":"Linux","password":true,"vac":true,"version":"7961495","steam_id":85568392924742829,"keywords":["nocrits","nodmgspread","payload","uncletopia"],"game_id":440,"stv_port":27056,"stv_name":"Uncletopia | London | 5 | All Maps | STV","players":[{"user_id":240,"name":"MistrzJaskier","steam_id":76561198069240119,"connected_time":5240000000000,"state":"active","ping":72},{"user_id":238,"name":"McAtka","steam_id":76561198019759329,"connected_time":5248000000000,"state":"active","ping":50},{"user_id":284,"name":"Skatnaset","steam_id":76561198298457353,"connected_time":2280000000000,"state":"active","ping":58},{"user_id":291,"name":"Nova","steam_id":76561198236108860,"connected_time":1984000000000,"state":"active","ping":50},{"user_id":262,"name":"Drunk","steam_id":76561198129454909,"connected_time":3447000000000,"state":"active","ping":75},{"user_id":307,"name":"mugshot","steam_id":76561198363841749,"connected_time":1026000000000,"state":"active","ping":78},{"user_id":302,"name":"Henry","steam_id":76561198108018305,"connected_time":1153000000000,"state":"active","ping":86},{"user_id":282,"name":"2006 Mitsubishi Lancer","steam_id":76561198036632498,"connected_time":2310000000000,"state":"active","ping":46},{"user_id":311,"name":"magnos62564","steam_id":76561198356968225,"connected_time":582000000000,"state":"active","ping":75},{"user_id":298,"name":"Hegyi tahó F2P","steam_id":76561199219150356,"connected_time":1375000000000,"state":"active","ping":92},{"user_id":277,"name":"Lozo","steam_id":76561198091866601,"connected_time":2766000000000,"state":"active","ping":53},{"user_id":303,"name":"my mom","steam_id":76561199225201569,"connected_time":1151000000000,"state":"active","ping":115},{"user_id":265,"name":"glue gunner","steam_id":76561198330025106,"connected_time":3265000000000,"state":"active","ping":33},{"user_id":308,"name":"lexa","steam_id":76561198153381971,"connected_time":889000000000,"state":"active","ping":80},{"user_id":309,"name":"Eric Catman","steam_id":76561198802117294,"connected_time":757000000000,"state":"active","ping":59},{"user_id":258,"name":"Supercoxylac","steam_id":76561198376300138,"connected_time":4328000000000,"state":"active","ping":58},{"user_id":310,"name":"niunom","steam_id":76561198263158492,"connected_time":753000000000,"state":"active","ping":51},{"user_id":203,"name":":3","steam_id":76561198169471853,"connected_time":7378000000000,"state":"active","ping":41},{"user_id":312,"name":"highest noon","steam_id":76561199103959197,"connected_time":68000000000,"state":"active","ping":90},{"user_id":256,"name":"alaskan.zebra","steam_id":76561199013662328,"connected_time":4448000000000,"state":"active","ping":173},{"user_id":305,"name":"FiuffyDaisy!","steam_id":76561198241732704,"connected_time":1136000000000,"state":"active","ping":28},{"user_id":313,"name":"mexen","steam_id":76561198104415164,"connected_time":65000000000,"state":"active","ping":121},{"user_id":290,"name":"ZA SOUL","steam_id":76561198211277765,"connected_time":2215000000000,"state":"active","ping":58}]},{"server_id":22,"name":"Uncletopia | London | 6 | All Maps","name_short":"lon-6","host":"lon-1.uk.uncletopia.com","port":27065,"enabled":true,"region":"eu","cc":"gb","latitude":51.509865,"longitude":-0.118092,"reserved":0,"last_update":"0001-01-01T00:00:00Z","name_a2s":"Uncletopia | London | 6 | All Maps","protocol":17,"map":"pl_borneo","folder":"tf","game":"Team Fortress","app_id":440,"player_count":19,"max_players":24,"Bots":0,"server_type":"Dedicated","server_os":"Linux","password":true,"vac":true,"version":"7961495","steam_id":85568392924742830,"keywords":["nocrits","nodmgspread","payload","uncletopia"],"game_id":440,"stv_port":27066,"stv_name":"Uncletopia | London | 6 | All Maps | STV","players":[{"user_id":280,"name":"Freshxy","steam_id":76561198250232194,"connected_time":1664000000000,"state":"active","ping":39},{"user_id":307,"name":"Haha?","steam_id":76561198056882245,"connected_time":137000000000,"state":"active","ping":31},{"user_id":306,"name":"[503. ]captain swiftfingers","steam_id":76561198043684517,"connected_time":290000000000,"state":"active","ping":59},{"user_id":292,"name":"Sirzen","steam_id":76561198170155434,"connected_time":1348000000000,"state":"active","ping":45},{"user_id":299,"name":"Ninjeg","steam_id":76561197995307947,"connected_time":560000000000,"state":"active","ping":51},{"user_id":284,"name":"cl_skinnyboi 1","steam_id":76561198042864708,"connected_time":1577000000000,"state":"active","ping":35},{"user_id":300,"name":"Nanope","steam_id":76561198040056071,"connected_time":549000000000,"state":"active","ping":46},{"user_id":302,"name":"Benzo Fury","steam_id":76561198025259336,"connected_time":411000000000,"state":"active","ping":38},{"user_id":278,"name":"FJADL","steam_id":76561198237008214,"connected_time":1991000000000,"state":"active","ping":60},{"user_id":273,"name":"Lucky_Bambr","steam_id":76561198401330527,"connected_time":2801000000000,"state":"active","ping":101},{"user_id":303,"name":"一龙马","steam_id":76561198364121077,"connected_time":371000000000,"state":"active","ping":79},{"user_id":261,"name":"Mati [EST]","steam_id":76561197994743813,"connected_time":3656000000000,"state":"active","ping":93},{"user_id":288,"name":"Gustavo_Fring_6969","steam_id":76561199373610279,"connected_time":1512000000000,"state":"active","ping":88},{"user_id":269,"name":"YARrICk.«+»","steam_id":76561197990126485,"connected_time":2874000000000,"state":"active","ping":56},{"user_id":167,"name":"TylowStar","steam_id":76561198357107806,"connected_time":8803000000000,"state":"active","ping":60},{"user_id":289,"name":"cisgender clown","steam_id":76561199469909295,"connected_time":1494000000000,"state":"active","ping":73},{"user_id":291,"name":"Zoey The Trans Hoey","steam_id":76561199171843194,"connected_time":1452000000000,"state":"active","ping":50},{"user_id":257,"name":"muZ","steam_id":76561198060145190,"connected_time":4119000000000,"state":"active","ping":64},{"user_id":297,"name":"MustangCricket","steam_id":76561197963408317,"connected_time":956000000000,"state":"active","ping":46}]},{"server_id":40,"name":"Uncletopia | London | 7 | Stopwatch","name_short":"lon-7","host":"lon-1.uk.uncletopia.com","port":27075,"enabled":true,"region":"eu","cc":"gb","latitude":51.509865,"longitude":-0.118092,"reserved":0,"last_update":"0001-01-01T00:00:00Z","name_a2s":"Uncletopia | London | 7 | Stopwatch","protocol":17,"map":"workshop/koth_jamram_rc1a.ugc2964065613","folder":"tf","game":"Team Fortress","app_id":440,"player_count":0,"max_players":24,"Bots":0,"server_type":"Dedicated","server_os":"Linux","password":true,"vac":true,"version":"7961495","steam_id":85568392924964314,"keywords":["cp","nocrits","nodmgspread","uncletopia"],"game_id":440,"stv_port":27076,"stv_name":"Uncletopia | London | 7 | Stopwatch | STV","players":null},{"server_id":41,"name":"Uncletopia | London | 8 | Community","name_short":"lon-8","host":"lon-1.uk.uncletopia.com","port":27085,"enabled":true,"region":"eu","cc":"gb","latitude":51.509865,"longitude":-0.118092,"reserved":0,"last_update":"0001-01-01T00:00:00Z","name_a2s":"Uncletopia | London | 8 | Community","protocol":17,"map":"workshop/cp_villa_b19.ugc2113052569","folder":"tf","game":"Team Fortress","app_id":440,"player_count":0,"max_players":24,"Bots":0,"server_type":"Dedicated","server_os":"Linux","password":true,"vac":true,"version":"7961495","steam_id":85568392924964315,"keywords":["cp","nocrits","nodmgspread","uncletopia"],"game_id":440,"stv_port":27086,"stv_name":"Uncletopia | London | 8 | Community | STV","players":null},{"server_id":300,"name":"Uncletopia | Montréal | 1 | One Thousand Uncles","name_short":"mtl-1","host":"mtl-1.ca.uncletopia.com","port":27015,"enabled":true,"region":"us-east","cc":"ca","latitude":45.50889,"longitude":-73.56167,"reserved":0,"last_update":"0001-01-01T00:00:00Z","name_a2s":"Uncletopia | Montréal | 1 | One Thousand Uncles","protocol":17,"map":"pl_snowycoast","folder":"tf","game":"Team Fortress","app_id":440,"player_count":23,"max_players":32,"Bots":16,"server_type":"Dedicated","server_os":"Linux","password":true,"vac":true,"version":"7961495","steam_id":85568392924500087,"keywords":["alltalk","bots","danepve","increased_maxplayers","norespawntime","payload","uncletopia"],"game_id":440,"stv_port":0,"stv_name":"","players":[{"user_id":280,"name":"Heartgold","steam_id":76561199062592062,"connected_time":93000000000,"state":"active","ping":74},{"user_id":227,"name":"Wooper","steam_id":76561198047491931,"connected_time":3173000000000,"state":"active","ping":45},{"user_id":229,"name":"Lucas096br","steam_id":76561198350760997,"connected_time":2974000000000,"state":"active","ping":208},{"user_id":209,"name":"L0nelypumpkin","steam_id":76561198868798085,"connected_time":3626000000000,"state":"active","ping":103},{"user_id":240,"name":"Cynthia","steam_id":76561198874418999,"connected_time":1412000000000,"state":"active","ping":160},{"user_id":233,"name":"fish (2:3)","steam_id":76561198134331073,"connected_time":2246000000000,"state":"active","ping":109},{"user_id":238,"name":"Skiddy","steam_id":76561198125942665,"connected_time":1821000000000,"state":"active","ping":73}]},{"server_id":301,"name":"Uncletopia | Montréal | 2 | One Thousand Uncles","name_short":"mtl-2","host":"mtl-1.ca.uncletopia.com","port":27025,"enabled":true,"region":"us-east","cc":"ca","latitude":45.50889,"longitude":-73.56167,"reserved":0,"last_update":"0001-01-01T00:00:00Z","name_a2s":"Uncletopia | Montréal | 2 | One Thousand Uncles","protocol":17,"map":"pl_chilly","folder":"tf","game":"Team Fortress","app_id":440,"player_count":0,"max_players":32,"Bots":0,"server_type":"Dedicated","server_os":"Linux","password":true,"vac":true,"version":"7961495","steam_id":85568392924500088,"keywords":["alltalk","danepve","increased_maxplayers","norespawntime","payload","uncletopia"],"game_id":440,"stv_port":0,"stv_name":"","players":null},{"server_id":302,"name":"Uncletopia | Montréal | 3 | One Thousand Uncles","name_short":"mtl-3","host":"mtl-1.ca.uncletopia.com","port":27035,"enabled":true,"region":"us-east","cc":"ca","latitude":45.50889,"longitude":-73.56167,"reserved":0,"last_update":"0001-01-01T00:00:00Z","name_a2s":"Uncletopia | Montréal | 3 | One Thousand Uncles","protocol":17,"map":"pl_pier","folder":"tf","game":"Team Fortress","app_id":440,"player_count":20,"max_players":32,"Bots":16,"server_type":"Dedicated","server_os":"Linux","password":true,"vac":true,"version":"7961495","steam_id":85568392924500089,"keywords":["alltalk","bots","danepve","increased_maxplayers","norespawntime","payload","uncletopia"],"game_id":440,"stv_port":0,"stv_name":"","players":[{"user_id":177,"name":"Artificial Taco Intelligence","steam_id":76561199431280503,"connected_time":1189000000000,"state":"active","ping":59},{"user_id":139,"name":"Dragoninventor (He/Him)","steam_id":76561198956224948,"connected_time":6366000000000,"state":"active","ping":133},{"user_id":180,"name":"makotothompson","steam_id":76561199012033756,"connected_time":340000000000,"state":"active","ping":65},{"user_id":150,"name":"Prince Crow","steam_id":76561198211160740,"connected_time":4094000000000,"state":"active","ping":90}]},{"server_id":13,"name":"Uncletopia | New York City | 1 | All Maps","name_short":"nyc-1","host":"nyc-1.us.uncletopia.com","port":27015,"enabled":true,"region":"us-east","cc":"us","latitude":40.73061,"longitude":-73.93524,"reserved":0,"last_update":"0001-01-01T00:00:00Z","name_a2s":"Uncletopia | New York City | 1 | All Maps","protocol":17,"map":"koth_viaduct","folder":"tf","game":"Team Fortress","app_id":440,"player_count":23,"max_players":24,"Bots":0,"server_type":"Dedicated","server_os":"Linux","password":true,"vac":true,"version":"7961495","steam_id":85568392924469993,"keywords":["cp","nocrits","nodmgspread","uncletopia"],"game_id":440,"stv_port":27016,"stv_name":"Uncletopia | New York City | 1 | All Maps | STV","players":[{"user_id":326,"name":"Drake the Pixel","steam_id":76561198131824401,"connected_time":1676000000000,"state":"active","ping":35},{"user_id":274,"name":"ooBah","steam_id":76561198133684216,"connected_time":6183000000000,"state":"active","ping":39},{"user_id":341,"name":"flimsy steve","steam_id":76561198421249296,"connected_time":1085000000000,"state":"active","ping":74},{"user_id":327,"name":"guitarfreak","steam_id":76561198139851357,"connected_time":1675000000000,"state":"active","ping":86},{"user_id":300,"name":"bingus cheese","steam_id":76561198069010944,"connected_time":4200000000000,"state":"active","ping":72},{"user_id":304,"name":"♔JaE♔","steam_id":76561197999325159,"connected_time":3712000000000,"state":"active","ping":55},{"user_id":347,"name":"henchman","steam_id":76561198442851808,"connected_time":329000000000,"state":"active","ping":72},{"user_id":323,"name":"Whisk #GOOD GAMER","steam_id":76561198272318229,"connected_time":2026000000000,"state":"active","ping":61},{"user_id":329,"name":"ToyBox","steam_id":76561199074735423,"connected_time":1634000000000,"state":"active","ping":56},{"user_id":337,"name":"Tony Pizza","steam_id":76561198276513608,"connected_time":1351000000000,"state":"active","ping":162},{"user_id":340,"name":"Milkman Superman","steam_id":76561199106218986,"connected_time":1124000000000,"state":"active","ping":78},{"user_id":350,"name":"booze cruiser","steam_id":76561198203395648,"connected_time":113000000000,"state":"active","ping":66},{"user_id":346,"name":"The jesus guy (FRNK)","steam_id":76561198237997622,"connected_time":395000000000,"state":"active","ping":142},{"user_id":317,"name":"Rocket To Insanity","steam_id":76561197998166266,"connected_time":2682000000000,"state":"active","ping":54},{"user_id":308,"name":"LowRender3","steam_id":76561199491761622,"connected_time":3349000000000,"state":"active","ping":166},{"user_id":315,"name":"Lemon Soda","steam_id":76561198140208761,"connected_time":2992000000000,"state":"active","ping":39},{"user_id":318,"name":"The State of Yo","steam_id":76561198057420746,"connected_time":2680000000000,"state":"active","ping":72},{"user_id":338,"name":"Hellmonger","steam_id":76561198016058155,"connected_time":1235000000000,"state":"active","ping":47},{"user_id":344,"name":"TheGingerOne","steam_id":76561198354203847,"connected_time":622000000000,"state":"active","ping":75},{"user_id":342,"name":"clay","steam_id":76561198045894316,"connected_time":833000000000,"state":"active","ping":78},{"user_id":348,"name":"darKnight | T.I.D.K.","steam_id":76561199012488416,"connected_time":302000000000,"state":"active","ping":151},{"user_id":343,"name":"Ghost","steam_id":76561198110914180,"connected_time":704000000000,"state":"active","ping":170}]},{"server_id":14,"name":"Uncletopia | New York City | 2 | All Maps","name_short":"nyc-2","host":"nyc-1.us.uncletopia.com","port":27025,"enabled":true,"region":"us-east","cc":"us","latitude":40.73061,"longitude":-73.93524,"reserved":0,"last_update":"0001-01-01T00:00:00Z","name_a2s":"Uncletopia | New York City | 2 | All Maps","protocol":17,"map":"cp_dustbowl","folder":"tf","game":"Team Fortress","app_id":440,"player_count":24,"max_players":24,"Bots":0,"server_type":"Dedicated","server_os":"Linux","password":true,"vac":true,"version":"7961495","steam_id":85568392924469994,"keywords":["cp","nocrits","nodmgspread","uncletopia"],"game_id":440,"stv_port":27026,"stv_name":"Uncletopia | New York City | 2 | All Maps | STV","players":[{"user_id":462,"name":"CheetoSmoke7","steam_id":76561198095217273,"connected_time":885000000000,"state":"active","ping":45},{"user_id":391,"name":"Big Yoshi","steam_id":76561199160576376,"connected_time":5567000000000,"state":"active","ping":132},{"user_id":451,"name":"nav","steam_id":76561198872608266,"connected_time":1408000000000,"state":"active","ping":70},{"user_id":445,"name":"PK","steam_id":76561198368722500,"connected_time":1835000000000,"state":"active","ping":59},{"user_id":471,"name":"Xx_Savage_Twerks_xX","steam_id":76561198011665915,"connected_time":205000000000,"state":"active","ping":49},{"user_id":468,"name":"Reiner","steam_id":76561199201762178,"connected_time":619000000000,"state":"active","ping":74},{"user_id":465,"name":"Burnside Special","steam_id":76561198822221762,"connected_time":772000000000,"state":"active","ping":75},{"user_id":472,"name":"Bitter","steam_id":76561198146532457,"connected_time":51000000000,"state":"active","ping":72},{"user_id":420,"name":"Mr. Squirt","steam_id":76561198174755679,"connected_time":3523000000000,"state":"active","ping":45},{"user_id":410,"name":"ipad kid","steam_id":76561198178266978,"connected_time":4204000000000,"state":"active","ping":67},{"user_id":448,"name":"Sea Nawks","steam_id":76561198110023381,"connected_time":1547000000000,"state":"active","ping":74},{"user_id":439,"name":"Stonks","steam_id":76561199490085068,"connected_time":2031000000000,"state":"active","ping":60},{"user_id":314,"name":"yes daddy","steam_id":76561198166100997,"connected_time":9860000000000,"state":"active","ping":74},{"user_id":426,"name":"Aokuma","steam_id":76561198808387179,"connected_time":3075000000000,"state":"active","ping":43},{"user_id":403,"name":"Red_Hatkins","steam_id":76561198214004105,"connected_time":4745000000000,"state":"active","ping":75},{"user_id":467,"name":"1989 Honda Civic","steam_id":76561197999420698,"connected_time":715000000000,"state":"active","ping":59},{"user_id":455,"name":"Kia_the_car","steam_id":76561198882171095,"connected_time":1190000000000,"state":"active","ping":112},{"user_id":458,"name":"Jeremy","steam_id":76561198286240347,"connected_time":1158000000000,"state":"active","ping":61},{"user_id":430,"name":"KhorneBread ︻デ 一","steam_id":76561198097069958,"connected_time":2719000000000,"state":"active","ping":59},{"user_id":444,"name":"mini","steam_id":76561198066319618,"connected_time":1851000000000,"state":"active","ping":46},{"user_id":470,"name":"milk","steam_id":76561198813251405,"connected_time":525000000000,"state":"active","ping":56},{"user_id":408,"name":"The Undead Knight","steam_id":76561198010654500,"connected_time":4436000000000,"state":"active","ping":76},{"user_id":459,"name":"WinterBerry","steam_id":76561198437148505,"connected_time":1151000000000,"state":"active","ping":108},{"user_id":464,"name":"STONEWALL JACKSON","steam_id":76561199500876333,"connected_time":839000000000,"state":"active","ping":61}]},{"server_id":15,"name":"Uncletopia | New York City | 3 | Stopwatch","name_short":"nyc-3","host":"nyc-1.us.uncletopia.com","port":27035,"enabled":true,"region":"us-east","cc":"us","latitude":40.73061,"longitude":-73.93524,"reserved":0,"last_update":"0001-01-01T00:00:00Z","name_a2s":"Uncletopia | New York City | 3 | Stopwatch","protocol":17,"map":"workshop/pl_summercoast_rc8e.ugc1761528829","folder":"tf","game":"Team Fortress","app_id":440,"player_count":0,"max_players":24,"Bots":0,"server_type":"Dedicated","server_os":"Linux","password":true,"vac":true,"version":"7961495","steam_id":85568392924742820,"keywords":["nocrits","nodmgspread","payload","uncletopia"],"game_id":440,"stv_port":27036,"stv_name":"Uncletopia | New York City | 3 | Stopwatch | STV","players":null},{"server_id":16,"name":"Uncletopia | New York City | 4 | Community","name_short":"nyc-4","host":"nyc-1.us.uncletopia.com","port":27045,"enabled":true,"region":"us-east","cc":"us","latitude":40.73061,"longitude":-73.93524,"reserved":0,"last_update":"0001-01-01T00:00:00Z","name_a2s":"Uncletopia | New York City | 4 | Community","protocol":17,"map":"workshop/cp_fulgur_rc2a.ugc2068252300","folder":"tf","game":"Team Fortress","app_id":440,"player_count":0,"max_players":24,"Bots":0,"server_type":"Dedicated","server_os":"Linux","password":true,"vac":true,"version":"7961495","steam_id":85568392924742821,"keywords":["cp","nocrits","nodmgspread","uncletopia"],"game_id":440,"stv_port":27046,"stv_name":"Uncletopia | New York City | 4 | Community | STV","players":null},{"server_id":142,"name":"Uncletopia | São Paulo | 1 | All Maps","name_short":"sao-1","host":"sao-1.br.uncletopia.com","port":27015,"enabled":true,"region":"sa","cc":"br","latitude":-23.533773,"longitude":-46.62529,"reserved":0,"last_update":"0001-01-01T00:00:00Z","name_a2s":"Uncletopia | São Paulo | 1 | All Maps","protocol":17,"map":"koth_cascade","folder":"tf","game":"Team Fortress","app_id":440,"player_count":4,"max_players":24,"Bots":0,"server_type":"Dedicated","server_os":"Linux","password":true,"vac":true,"version":"7961495","steam_id":85568392924469996,"keywords":["cp","nocrits","nodmgspread","uncletopia"],"game_id":440,"stv_port":27016,"stv_name":"Uncletopia | São Paulo | 1 | All Maps | STV","players":[{"user_id":15,"name":"DJ Samurai Cafeteira","steam_id":76561198998614592,"connected_time":1450000000000,"state":"active","ping":47},{"user_id":16,"name":"caesarsalad","steam_id":76561199507206182,"connected_time":1439000000000,"state":"active","ping":62},{"user_id":17,"name":"pepiniyo29","steam_id":76561198365974225,"connected_time":69000000000,"state":"spawning","ping":94},{"user_id":18,"name":"minecraft","steam_id":76561198317090330,"connected_time":27000000000,"state":"active","ping":53}]},{"server_id":143,"name":"Uncletopia | São Paulo | 2 | Community","name_short":"sao-2","host":"sao-2.br.uncletopia.com","port":27015,"enabled":true,"region":"sa","cc":"br","latitude":-23.533773,"longitude":-46.62529,"reserved":0,"last_update":"0001-01-01T00:00:00Z","name_a2s":"Uncletopia | São Paulo | 2 | Community","protocol":17,"map":"workshop/pl_divulgence_b4b.ugc2884808746","folder":"tf","game":"Team Fortress","app_id":440,"player_count":0,"max_players":24,"Bots":0,"server_type":"Dedicated","server_os":"Linux","password":true,"vac":true,"version":"7961495","steam_id":85568392924485349,"keywords":["nocrits","nodmgspread","payload","uncletopia"],"game_id":440,"stv_port":27016,"stv_name":"Uncletopia | São Paulo | 2 | Community | STV","players":null},{"server_id":7,"name":"Uncletopia | Seattle | 1 | All Maps","name_short":"sea-1","host":"sea-1.us.uncletopia.com","port":27015,"enabled":true,"region":"us-west","cc":"us","latitude":47.608013,"longitude":-122.33517,"reserved":0,"last_update":"0001-01-01T00:00:00Z","name_a2s":"Uncletopia | Seattle | 1 | All Maps","protocol":17,"map":"pl_borneo","folder":"tf","game":"Team Fortress","app_id":440,"player_count":25,"max_players":24,"Bots":0,"server_type":"Dedicated","server_os":"Linux","password":true,"vac":true,"version":"7961495","steam_id":85568392924469997,"keywords":["nocrits","nodmgspread","payload","uncletopia"],"game_id":440,"stv_port":27016,"stv_name":"Uncletopia | Seattle | 1 | All Maps | STV","players":[{"user_id":299,"name":"I am NOT a Spy","steam_id":76561199153596010,"connected_time":717000000000,"state":"active","ping":56},{"user_id":300,"name":"RandomIsName","steam_id":76561198351446249,"connected_time":690000000000,"state":"active","ping":65},{"user_id":285,"name":"Greskrendtregk","steam_id":76561197969553142,"connected_time":1849000000000,"state":"active","ping":53},{"user_id":302,"name":"snarl7711","steam_id":76561199249582561,"connected_time":607000000000,"state":"active","ping":115},{"user_id":307,"name":"ebes","steam_id":76561198143028254,"connected_time":289000000000,"state":"active","ping":64},{"user_id":303,"name":"[BBC] myr","steam_id":76561198200786939,"connected_time":545000000000,"state":"active","ping":45},{"user_id":304,"name":"alexander the just ok","steam_id":76561199256886895,"connected_time":543000000000,"state":"active","ping":101},{"user_id":308,"name":"gloobern","steam_id":76561198341190679,"connected_time":192000000000,"state":"active","ping":49},{"user_id":163,"name":"PiolaCat","steam_id":76561199100535345,"connected_time":11119000000000,"state":"active","ping":196},{"user_id":289,"name":"pyrotechnic","steam_id":76561198043558709,"connected_time":1087000000000,"state":"active","ping":49},{"user_id":286,"name":"Postmaster","steam_id":76561198078500859,"connected_time":1717000000000,"state":"active","ping":36},{"user_id":249,"name":"Lol","steam_id":76561198116421319,"connected_time":3737000000000,"state":"active","ping":121},{"user_id":309,"name":"Krysar","steam_id":76561198202077555,"connected_time":91000000000,"state":"active","ping":96},{"user_id":247,"name":"Fh","steam_id":76561198000903511,"connected_time":3966000000000,"state":"active","ping":61},{"user_id":262,"name":"Cr0wd3r","steam_id":76561198153612764,"connected_time":2488000000000,"state":"active","ping":95},{"user_id":297,"name":"Peppy","steam_id":76561198866629645,"connected_time":775000000000,"state":"active","ping":57},{"user_id":256,"name":"butt3r_","steam_id":76561198156374792,"connected_time":2676000000000,"state":"active","ping":46},{"user_id":290,"name":"Greenwood RN","steam_id":76561198088641060,"connected_time":1074000000000,"state":"active","ping":45},{"user_id":281,"name":"Civokat","steam_id":76561198389885427,"connected_time":1921000000000,"state":"active","ping":71},{"user_id":298,"name":"DrD","steam_id":76561198067266383,"connected_time":774000000000,"state":"active","ping":38},{"user_id":293,"name":"Skoad","steam_id":76561198104650528,"connected_time":950000000000,"state":"active","ping":79},{"user_id":260,"name":"June","steam_id":76561198141803658,"connected_time":2516000000000,"state":"active","ping":69},{"user_id":310,"name":"コストコホットドッグ","steam_id":76561198082406533,"connected_time":85000000000,"state":"active","ping":105},{"user_id":295,"name":"Captain Faptain","steam_id":76561198141819053,"connected_time":866000000000,"state":"active","ping":62},{"user_id":311,"name":"jorts","steam_id":76561199041179985,"connected_time":42000000000,"state":"active","ping":46}]},{"server_id":119,"name":"Uncletopia | Seattle | 2 | All Maps","name_short":"sea-2","host":"sea-1.us.uncletopia.com","port":27025,"enabled":true,"region":"us-west","cc":"us","latitude":47.608013,"longitude":-122.33517,"reserved":0,"last_update":"0001-01-01T00:00:00Z","name_a2s":"Uncletopia | Seattle | 2 | All Maps","protocol":17,"map":"pl_swiftwater_final1","folder":"tf","game":"Team Fortress","app_id":440,"player_count":0,"max_players":24,"Bots":0,"server_type":"Dedicated","server_os":"Linux","password":true,"vac":true,"version":"7961495","steam_id":85568392924469998,"keywords":["nocrits","nodmgspread","payload","uncletopia"],"game_id":440,"stv_port":27026,"stv_name":"Uncletopia | Seattle | 2 | All Maps | STV","players":null},{"server_id":406,"name":"Uncletopia | Seattle | 3 | Stopwatch","name_short":"sea-3","host":"sea-1.us.uncletopia.com","port":27035,"enabled":true,"region":"us-west","cc":"us","latitude":47.608013,"longitude":-122.33517,"reserved":0,"last_update":"0001-01-01T00:00:00Z","name_a2s":"Uncletopia | Seattle | 3 | Stopwatch","protocol":17,"map":"workshop/koth_product_final.ugc454272353","folder":"tf","game":"Team Fortress","app_id":440,"player_count":0,"max_players":24,"Bots":0,"server_type":"Dedicated","server_os":"Linux","password":true,"vac":true,"version":"7961495","steam_id":85568392924515217,"keywords":["cp","nocrits","nodmgspread","uncletopia"],"game_id":440,"stv_port":27036,"stv_name":"Uncletopia | Seattle | 3 | Stopwatch | STV","players":null},{"server_id":17,"name":"Uncletopia | San Francisco | 1 | All Maps","name_short":"sfo-1","host":"sfo-1.us.uncletopia.com","port":27015,"enabled":true,"region":"us-west","cc":"us","latitude":37.77397,"longitude":-122.4313,"reserved":0,"last_update":"0001-01-01T00:00:00Z","name_a2s":"Uncletopia | San Francisco | 1 | All Maps","protocol":17,"map":"koth_highpass","folder":"tf","game":"Team Fortress","app_id":440,"player_count":0,"max_players":24,"Bots":0,"server_type":"Dedicated","server_os":"Linux","password":true,"vac":true,"version":"7961495","steam_id":85568392924469999,"keywords":["cp","nocrits","nodmgspread","uncletopia"],"game_id":440,"stv_port":27016,"stv_name":"Uncletopia | San Francisco | 1 | All Maps | STV","players":null},{"server_id":18,"name":"Uncletopia | San Francisco | 2 | All Maps","name_short":"sfo-2","host":"sfo-1.us.uncletopia.com","port":27025,"enabled":true,"region":"us-west","cc":"us","latitude":37.77397,"longitude":-122.4313,"reserved":0,"last_update":"0001-01-01T00:00:00Z","name_a2s":"Uncletopia | San Francisco | 2 | All Maps","protocol":17,"map":"koth_viaduct","folder":"tf","game":"Team Fortress","app_id":440,"player_count":24,"max_players":24,"Bots":0,"server_type":"Dedicated","server_os":"Linux","password":true,"vac":true,"version":"7961495","steam_id":85568392924470000,"keywords":["cp","nocrits","nodmgspread","uncletopia"],"game_id":440,"stv_port":27026,"stv_name":"Uncletopia | San Francisco | 2 | All Maps | STV","players":[{"user_id":20,"name":"Skribbles","steam_id":76561198373073766,"connected_time":1255000000000,"state":"active","ping":42},{"user_id":48,"name":"MikeyGotGibbed","steam_id":76561198053900923,"connected_time":246000000000,"state":"active","ping":59},{"user_id":49,"name":"Grim","steam_id":76561198016978310,"connected_time":201000000000,"state":"active","ping":53},{"user_id":21,"name":"Sudsen","steam_id":76561198370603787,"connected_time":1233000000000,"state":"active","ping":81},{"user_id":23,"name":"Lawyer","steam_id":76561197974126447,"connected_time":1088000000000,"state":"active","ping":77},{"user_id":43,"name":"DJpocalypse","steam_id":76561199230125964,"connected_time":451000000000,"state":"active","ping":120},{"user_id":33,"name":"lil uzi squirt","steam_id":76561198045926594,"connected_time":847000000000,"state":"active","ping":46},{"user_id":25,"name":"Lain","steam_id":76561198118282205,"connected_time":1069000000000,"state":"active","ping":130},{"user_id":26,"name":"\"Nice Boat.\"","steam_id":76561198418288939,"connected_time":1069000000000,"state":"active","ping":43},{"user_id":27,"name":"Leo x.x","steam_id":76561198309760791,"connected_time":1042000000000,"state":"active","ping":117},{"user_id":50,"name":"Bobby Ray","steam_id":76561198044131188,"connected_time":155000000000,"state":"active","ping":65},{"user_id":36,"name":"Fami","steam_id":76561198193580105,"connected_time":756000000000,"state":"active","ping":52},{"user_id":30,"name":"beans","steam_id":76561199082781884,"connected_time":955000000000,"state":"active","ping":57},{"user_id":31,"name":"moewa","steam_id":76561198338739253,"connected_time":936000000000,"state":"active","ping":55},{"user_id":42,"name":"Frenchy","steam_id":76561198064517370,"connected_time":582000000000,"state":"active","ping":51},{"user_id":34,"name":"Wanga P.","steam_id":76561199072479189,"connected_time":842000000000,"state":"active","ping":101},{"user_id":35,"name":"schlemiel","steam_id":76561198133933158,"connected_time":769000000000,"state":"active","ping":59},{"user_id":37,"name":"Lt Lushen","steam_id":76561198124083273,"connected_time":752000000000,"state":"active","ping":76},{"user_id":39,"name":"UnusualTofu","steam_id":76561198060103750,"connected_time":700000000000,"state":"active","ping":50},{"user_id":40,"name":"Soft copper wings","steam_id":76561198092317849,"connected_time":667000000000,"state":"active","ping":60},{"user_id":44,"name":"Youngblood5780","steam_id":76561198113934410,"connected_time":445000000000,"state":"active","ping":60},{"user_id":51,"name":"Cloud804","steam_id":76561199122462997,"connected_time":87000000000,"state":"active","ping":57},{"user_id":46,"name":"Dr. Bubs","steam_id":76561198011696595,"connected_time":357000000000,"state":"active","ping":61},{"user_id":47,"name":"SSINGONN","steam_id":76561198799061250,"connected_time":335000000000,"state":"active","ping":63}]},{"server_id":19,"name":"Uncletopia | San Francisco | 3 | Stopwatch","name_short":"sfo-3","host":"sfo-1.us.uncletopia.com","port":27035,"enabled":true,"region":"us-west","cc":"us","latitude":37.77397,"longitude":-122.4313,"reserved":0,"last_update":"0001-01-01T00:00:00Z","name_a2s":"Uncletopia | San Francisco | 3 | Stopwatch","protocol":17,"map":"workshop/koth_product_final.ugc454272353","folder":"tf","game":"Team Fortress","app_id":440,"player_count":0,"max_players":24,"Bots":0,"server_type":"Dedicated","server_os":"Linux","password":true,"vac":true,"version":"7961495","steam_id":85568392924742824,"keywords":["cp","nocrits","nodmgspread","uncletopia"],"game_id":440,"stv_port":27036,"stv_name":"Uncletopia | San Francisco | 3 | Stopwatch | STV","players":null},{"server_id":20,"name":"Uncletopia | San Francisco | 4 | Community","name_short":"sfo-4","host":"sfo-1.us.uncletopia.com","port":27045,"enabled":true,"region":"us-west","cc":"us","latitude":37.77397,"longitude":-122.4313,"reserved":0,"last_update":"0001-01-01T00:00:00Z","name_a2s":"Uncletopia | San Francisco | 4 | Community","protocol":17,"map":"workshop/cp_alloy_rc3.ugc592805587","folder":"tf","game":"Team Fortress","app_id":440,"player_count":0,"max_players":24,"Bots":0,"server_type":"Dedicated","server_os":"Linux","password":true,"vac":true,"version":"7961495","steam_id":85568392924742826,"keywords":["cp","nocrits","nodmgspread","uncletopia"],"game_id":440,"stv_port":27046,"stv_name":"Uncletopia | San Francisco | 4 | Community | STV","players":null},{"server_id":141,"name":"Uncletopia | Sydney | 1 | All Maps","name_short":"syd-1","host":"syd-1.au.uncletopia.com","port":27015,"enabled":true,"region":"au","cc":"au","latitude":-33.865143,"longitude":151.2099,"reserved":0,"last_update":"0001-01-01T00:00:00Z","name_a2s":"Uncletopia | Sydney | 1 | All Maps","protocol":17,"map":"koth_nucleus","folder":"tf","game":"Team Fortress","app_id":440,"player_count":0,"max_players":24,"Bots":0,"server_type":"Dedicated","server_os":"Linux","password":true,"vac":true,"version":"7961495","steam_id":85568392924470001,"keywords":["cp","nocrits","nodmgspread","uncletopia"],"game_id":440,"stv_port":27016,"stv_name":"Uncletopia | Sydney | 1 | All Maps | STV","players":null},{"server_id":123,"name":"Uncletopia | Sydney | 2 | All Maps","name_short":"syd-2","host":"syd-1.au.uncletopia.com","port":27025,"enabled":true,"region":"au","cc":"au","latitude":-33.865143,"longitude":151.2099,"reserved":0,"last_update":"0001-01-01T00:00:00Z","name_a2s":"Uncletopia | Sydney | 2 | All Maps","protocol":17,"map":"cp_fastlane","folder":"tf","game":"Team Fortress","app_id":440,"player_count":0,"max_players":24,"Bots":0,"server_type":"Dedicated","server_os":"Linux","password":true,"vac":true,"version":"7961495","steam_id":85568392924470002,"keywords":["cp","nocrits","nodmgspread","uncletopia"],"game_id":440,"stv_port":27026,"stv_name":"Uncletopia | Sydney | 2 | All Maps | STV","players":null},{"server_id":395,"name":"Uncletopia | Sydney | 3 | All Maps","name_short":"syd-3","host":"syd-1.au.uncletopia.com","port":27035,"enabled":true,"region":"au","cc":"au","latitude":-33.865143,"longitude":151.2099,"reserved":0,"last_update":"0001-01-01T00:00:00Z","name_a2s":"Uncletopia | Sydney | 3 | All Maps","protocol":17,"map":"cp_metalworks","folder":"tf","game":"Team Fortress","app_id":440,"player_count":0,"max_players":24,"Bots":0,"server_type":"Dedicated","server_os":"Linux","password":true,"vac":true,"version":"7961495","steam_id":85568392925194467,"keywords":["cp","nocrits","nodmgspread","uncletopia"],"game_id":440,"stv_port":27036,"stv_name":"Uncletopia | Sydney | 3 | All Maps | STV","players":null},{"server_id":396,"name":"Uncletopia | Sydney | 4 | All Maps","name_short":"syd-4","host":"syd-1.au.uncletopia.com","port":27045,"enabled":true,"region":"au","cc":"au","latitude":-33.865143,"longitude":151.2099,"reserved":0,"last_update":"0001-01-01T00:00:00Z","name_a2s":"Uncletopia | Sydney | 4 | All Maps","protocol":17,"map":"koth_cascade","folder":"tf","game":"Team Fortress","app_id":440,"player_count":0,"max_players":24,"Bots":0,"server_type":"Dedicated","server_os":"Linux","password":true,"vac":true,"version":"7961495","steam_id":85568392925397958,"keywords":["cp","nocrits","nodmgspread","uncletopia"],"game_id":440,"stv_port":27046,"stv_name":"Uncletopia | Sydney | 4 | All Maps | STV","players":null},{"server_id":58,"name":"Uncletopia | Sydney | 5 | Stopwatch","name_short":"syd-5","host":"syd-1.au.uncletopia.com","port":27055,"enabled":true,"region":"au","cc":"au","latitude":-33.865143,"longitude":151.2099,"reserved":0,"last_update":"0001-01-01T00:00:00Z","name_a2s":"Uncletopia | Sydney | 5 | Stopwatch","protocol":17,"map":"workshop/koth_product_final.ugc454272353","folder":"tf","game":"Team Fortress","app_id":440,"player_count":0,"max_players":24,"Bots":0,"server_type":"Dedicated","server_os":"Linux","password":true,"vac":true,"version":"7961495","steam_id":85568392925397959,"keywords":["cp","nocrits","nodmgspread","uncletopia"],"game_id":440,"stv_port":27056,"stv_name":"Uncletopia | Sydney | 5 | Stopwatch | STV","players":null},{"server_id":59,"name":"Uncletopia | Sydney | 6 | Community","name_short":"syd-6","host":"syd-1.au.uncletopia.com","port":27065,"enabled":true,"region":"au","cc":"au","latitude":-33.865143,"longitude":151.2099,"reserved":0,"last_update":"0001-01-01T00:00:00Z","name_a2s":"Uncletopia | Sydney | 6 | Community","protocol":17,"map":"workshop/koth_trenchfoot_ab1.ugc731436616","folder":"tf","game":"Team Fortress","app_id":440,"player_count":0,"max_players":24,"Bots":0,"server_type":"Dedicated","server_os":"Linux","password":true,"vac":true,"version":"7961495","steam_id":85568392925397960,"keywords":["cp","nocrits","nodmgspread","uncletopia"],"game_id":440,"stv_port":27066,"stv_name":"Uncletopia | Sydney | 6 | Community | STV","players":null},{"server_id":49,"name":"Uncletopia | Warsaw | 1 | One Thousand Uncles","name_short":"waw-1","host":"waw-1.pl.uncletopia.com","port":27015,"enabled":true,"region":"eu","cc":"pl","latitude":52.2297,"longitude":21.017532,"reserved":0,"last_update":"0001-01-01T00:00:00Z","name_a2s":"Uncletopia | Warsaw | 1 | One Thousand Uncles","protocol":17,"map":"pl_barnblitz","folder":"tf","game":"Team Fortress","app_id":440,"player_count":27,"max_players":32,"Bots":16,"server_type":"Dedicated","server_os":"Linux","password":true,"vac":true,"version":"7961495","steam_id":85568392925397850,"keywords":["alltalk","bots","danepve","increased_maxplayers","norespawntime","payload","uncletopia"],"game_id":440,"stv_port":0,"stv_name":"","players":[{"user_id":636,"name":"mago","steam_id":76561199473122342,"connected_time":2795000000000,"state":"active","ping":76},{"user_id":649,"name":"Dell \"Vermineer\" LaFontant","steam_id":76561198371872022,"connected_time":1086000000000,"state":"active","ping":92},{"user_id":650,"name":"KipxSateee","steam_id":76561198149158137,"connected_time":933000000000,"state":"active","ping":60},{"user_id":651,"name":"Red Mimi Sentry","steam_id":76561197967502407,"connected_time":805000000000,"state":"active","ping":76},{"user_id":652,"name":"Mrs.Strange ⛧","steam_id":76561198047370602,"connected_time":676000000000,"state":"active","ping":178},{"user_id":655,"name":"Zodaick","steam_id":76561198083662129,"connected_time":603000000000,"state":"active","ping":65},{"user_id":653,"name":"JayMaloney","steam_id":76561198050173547,"connected_time":655000000000,"state":"active","ping":72},{"user_id":640,"name":"EL Brayan","steam_id":76561199481445037,"connected_time":2563000000000,"state":"active","ping":98},{"user_id":654,"name":"blickaroni and gun grease","steam_id":76561198074807915,"connected_time":632000000000,"state":"active","ping":75},{"user_id":587,"name":"Supermanhandsy","steam_id":76561198396336470,"connected_time":5306000000000,"state":"active","ping":202},{"user_id":589,"name":"Village Gamer","steam_id":76561197973810581,"connected_time":5291000000000,"state":"active","ping":206}]},{"server_id":50,"name":"Uncletopia | Warsaw | 2 | One Thousand Uncles","name_short":"waw-2","host":"waw-1.pl.uncletopia.com","port":27025,"enabled":true,"region":"eu","cc":"pl","latitude":52.2297,"longitude":21.017532,"reserved":0,"last_update":"0001-01-01T00:00:00Z","name_a2s":"Uncletopia | Warsaw | 2 | One Thousand Uncles","protocol":17,"map":"pl_upward","folder":"tf","game":"Team Fortress","app_id":440,"player_count":26,"max_players":32,"Bots":16,"server_type":"Dedicated","server_os":"Linux","password":true,"vac":true,"version":"7961495","steam_id":85568392925397851,"keywords":["alltalk","bots","danepve","increased_maxplayers","norespawntime","payload","uncletopia"],"game_id":440,"stv_port":0,"stv_name":"","players":[{"user_id":699,"name":"Lavi","steam_id":76561198000911853,"connected_time":3263000000000,"state":"active","ping":75},{"user_id":726,"name":"doomer","steam_id":76561198977420882,"connected_time":192000000000,"state":"active","ping":66},{"user_id":622,"name":"Chemax","steam_id":76561198168846882,"connected_time":8441000000000,"state":"active","ping":104},{"user_id":610,"name":"MrHenry","steam_id":76561199249662743,"connected_time":9771000000000,"state":"active","ping":159},{"user_id":698,"name":"Sir Lancelot","steam_id":76561198049709392,"connected_time":3271000000000,"state":"active","ping":99},{"user_id":727,"name":"Underage Undertaker","steam_id":76561198130328543,"connected_time":151000000000,"state":"active","ping":112},{"user_id":700,"name":"Trash Compactor","steam_id":76561199383047989,"connected_time":3220000000000,"state":"active","ping":250},{"user_id":701,"name":"kornetov.vitalya","steam_id":76561199286034833,"connected_time":2830000000000,"state":"active","ping":95},{"user_id":648,"name":"m1nd_s3t","steam_id":76561199503364693,"connected_time":5633000000000,"state":"active","ping":59},{"user_id":577,"name":"Phisor","steam_id":76561198233450952,"connected_time":11200000000000,"state":"active","ping":60}]},{"server_id":51,"name":"Uncletopia | Warsaw | 3 | All Maps","name_short":"waw-3","host":"waw-1.pl.uncletopia.com","port":27035,"enabled":true,"region":"eu","cc":"pl","latitude":52.2297,"longitude":21.017532,"reserved":0,"last_update":"0001-01-01T00:00:00Z","name_a2s":"Uncletopia | Warsaw | 3 | All Maps","protocol":17,"map":"koth_highpass","folder":"tf","game":"Team Fortress","app_id":440,"player_count":2,"max_players":24,"Bots":0,"server_type":"Dedicated","server_os":"Linux","password":true,"vac":true,"version":"7961495","steam_id":85568392925397852,"keywords":["cp","nocrits","nodmgspread","uncletopia"],"game_id":440,"stv_port":27036,"stv_name":"Uncletopia | Warsaw | 3 | All Maps | STV","players":[{"user_id":29,"name":"stellgigant","steam_id":76561199137018273,"connected_time":2027000000000,"state":"active","ping":68},{"user_id":32,"name":"K A M I L","steam_id":76561199377894262,"connected_time":717000000000,"state":"active","ping":50}]},{"server_id":52,"name":"Uncletopia | Warsaw | 4 | All Maps","name_short":"waw-4","host":"waw-1.pl.uncletopia.com","port":27045,"enabled":true,"region":"eu","cc":"pl","latitude":52.2297,"longitude":21.017532,"reserved":0,"last_update":"0001-01-01T00:00:00Z","name_a2s":"Uncletopia | Warsaw | 4 | All Maps","protocol":17,"map":"cp_snakewater_final1","folder":"tf","game":"Team Fortress","app_id":440,"player_count":24,"max_players":24,"Bots":0,"server_type":"Dedicated","server_os":"Linux","password":true,"vac":true,"version":"7961495","steam_id":85568392925397853,"keywords":["cp","nocrits","nodmgspread","uncletopia"],"game_id":440,"stv_port":27046,"stv_name":"Uncletopia | Warsaw | 4 | All Maps | STV","players":[{"user_id":342,"name":"Angcam420","steam_id":76561198019429936,"connected_time":2296000000000,"state":"active","ping":90},{"user_id":366,"name":"★Lily","steam_id":76561198014774371,"connected_time":680000000000,"state":"active","ping":64},{"user_id":367,"name":"Healing bullet","steam_id":76561198138060189,"connected_time":602000000000,"state":"active","ping":33},{"user_id":339,"name":"𝓹𝓱𝓪𝓷𝓽𝓸𝓶","steam_id":76561199095923041,"connected_time":2436000000000,"state":"active","ping":159},{"user_id":357,"name":"kheiroallah","steam_id":76561199499432413,"connected_time":1418000000000,"state":"active","ping":152},{"user_id":376,"name":"Henriette","steam_id":76561198176069630,"connected_time":300000000000,"state":"active","ping":56},{"user_id":374,"name":"deflox","steam_id":76561198087450635,"connected_time":413000000000,"state":"active","ping":59},{"user_id":336,"name":"ws1md","steam_id":76561199405509062,"connected_time":2860000000000,"state":"active","ping":168},{"user_id":378,"name":"pandeux","steam_id":76561198343527617,"connected_time":148000000000,"state":"active","ping":60},{"user_id":368,"name":"Dimi","steam_id":76561198070894569,"connected_time":542000000000,"state":"active","ping":104},{"user_id":348,"name":"Astrya","steam_id":76561198091242337,"connected_time":1980000000000,"state":"active","ping":60},{"user_id":369,"name":"OrangeCrab","steam_id":76561198183706685,"connected_time":534000000000,"state":"active","ping":103},{"user_id":379,"name":"Cabbch","steam_id":76561198045955679,"connected_time":147000000000,"state":"active","ping":63},{"user_id":269,"name":"sAmasam","steam_id":76561198114953928,"connected_time":5439000000000,"state":"active","ping":79},{"user_id":343,"name":"cucumber richard","steam_id":76561198259981729,"connected_time":2284000000000,"state":"active","ping":60},{"user_id":292,"name":"Arche","steam_id":76561198000866089,"connected_time":4515000000000,"state":"active","ping":78},{"user_id":380,"name":"Duktigafred","steam_id":76561199211222396,"connected_time":2000000000,"state":"spawning","ping":66},{"user_id":372,"name":"caramel ice latte","steam_id":76561198273358760,"connected_time":482000000000,"state":"active","ping":60},{"user_id":347,"name":"Siegmeyer","steam_id":76561198328543549,"connected_time":2075000000000,"state":"active","ping":71},{"user_id":365,"name":"Femboy -UwU-","steam_id":76561198083425408,"connected_time":855000000000,"state":"active","ping":60},{"user_id":344,"name":"W.","steam_id":76561198097420050,"connected_time":2273000000000,"state":"active","ping":76},{"user_id":293,"name":"FatAstro","steam_id":76561199162964034,"connected_time":4495000000000,"state":"active","ping":67},{"user_id":294,"name":"Wacht","steam_id":76561199033018467,"connected_time":4480000000000,"state":"active","ping":55},{"user_id":375,"name":"Pestilence","steam_id":76561198140938904,"connected_time":358000000000,"state":"active","ping":60}]},{"server_id":53,"name":"Uncletopia | Warsaw | 5 | Stopwatch","name_short":"waw-5","host":"waw-1.pl.uncletopia.com","port":27055,"enabled":true,"region":"eu","cc":"pl","latitude":52.2297,"longitude":21.017532,"reserved":0,"last_update":"0001-01-01T00:00:00Z","name_a2s":"Uncletopia | Warsaw | 5 | Stopwatch","protocol":17,"map":"workshop/koth_clearcut_b15.ugc2107050255","folder":"tf","game":"Team Fortress","app_id":440,"player_count":0,"max_players":24,"Bots":0,"server_type":"Dedicated","server_os":"Linux","password":true,"vac":true,"version":"7961495","steam_id":85568392925397854,"keywords":["cp","nocrits","nodmgspread","uncletopia"],"game_id":440,"stv_port":27056,"stv_name":"Uncletopia | Warsaw | 5 | Stopwatch | STV","players":null},{"server_id":54,"name":"Uncletopia | Warsaw | 6 | Community","name_short":"waw-6","host":"waw-1.pl.uncletopia.com","port":27065,"enabled":true,"region":"eu","cc":"pl","latitude":52.2297,"longitude":21.017532,"reserved":0,"last_update":"0001-01-01T00:00:00Z","name_a2s":"Uncletopia | Warsaw | 6 | Community","protocol":17,"map":"workshop/cp_coilblaze_rc7.ugc1272700588","folder":"tf","game":"Team Fortress","app_id":440,"player_count":0,"max_players":24,"Bots":0,"server_type":"Dedicated","server_os":"Linux","password":true,"vac":true,"version":"7961495","steam_id":85568392925397856,"keywords":["cp","nocrits","nodmgspread","uncletopia"],"game_id":440,"stv_port":27066,"stv_name":"Uncletopia | Warsaw | 6 | Community | STV","players":null}]}