{"status":true,"message":"","result":[{"server_id":9,"name":"Uncletopia | Atlanta | 1 | All Maps","name_short":"atl-1","host":"atl-1.us.uncletopia.com","port":27015,"enabled":true,"region":"us-east","cc":"us","latitude":33.753746,"longitude":-84.38633,"reserved":0,"last_update":"0001-01-01T00:00:00Z","name_a2s":"Uncletopia | Atlanta | 1 | All Maps","protocol":17,"map":"pl_pier","folder":"tf","game":"Team Fortress","app_id":440,"player_count":24,"max_players":24,"Bots":0,"server_type":"Dedicated","server_os":"Linux","password":true,"vac":true,"version":"7742253","steam_id":85568392924469982,"keywords":["nocrits","nodmgspread","payload","uncletopia"],"game_id":440,"stv_port":27016,"stv_name":"Uncletopia | Atlanta | 1 | All Maps | STV","players":[{"user_id":696,"name":"pilot","steam_id":76561198119582268,"connected_time":280000000000,"state":"active","ping":57},{"user_id":655,"name":"O.N.A","steam_id":76561198047730827,"connected_time":3013000000000,"state":"active","ping":89},{"user_id":697,"name":"Soyboy Atheist Redditor","steam_id":76561198129768826,"connected_time":33000000000,"state":"active","ping":178},{"user_id":664,"name":"Doominic","steam_id":76561198259172209,"connected_time":2130000000000,"state":"active","ping":86},{"user_id":695,"name":"Red","steam_id":76561197998285162,"connected_time":359000000000,"state":"active","ping":77},{"user_id":688,"name":"wungus bungus","steam_id":76561198800027041,"connected_time":721000000000,"state":"active","ping":120},{"user_id":691,"name":"Lwood_420","steam_id":76561198131400543,"connected_time":501000000000,"state":"active","ping":86},{"user_id":549,"name":"Jin","steam_id":76561198119873148,"connected_time":11844000000000,"state":"active","ping":78},{"user_id":679,"name":"ₑᵥₒ.ᵉᵛᵒ \"Guru Tips\"","steam_id":76561198116178506,"connected_time":1417000000000,"state":"active","ping":80},{"user_id":657,"name":"marshmallowdragon999","steam_id":76561199129773712,"connected_time":2983000000000,"state":"active","ping":80},{"user_id":632,"name":"FemboyNate","steam_id":76561198146636410,"connected_time":3911000000000,"state":"active","ping":75},{"user_id":694,"name":"emoscout420","steam_id":76561198414250681,"connected_time":431000000000,"state":"active","ping":54},{"user_id":672,"name":"ArnoldGaming","steam_id":76561198040140247,"connected_time":1630000000000,"state":"active","ping":76},{"user_id":641,"name":"Duckywinner","steam_id":76561198254828139,"connected_time":3439000000000,"state":"active","ping":62},{"user_id":685,"name":"The Caretaker","steam_id":76561198125241411,"connected_time":803000000000,"state":"active","ping":132},{"user_id":693,"name":"big guapo","steam_id":76561198103228695,"connected_time":454000000000,"state":"active","ping":65},{"user_id":675,"name":"David Bowie's Left Nut","steam_id":76561198273203726,"connected_time":1525000000000,"state":"active","ping":85},{"user_id":689,"name":"† Big D1ck Bandit †","steam_id":76561198271966580,"connected_time":618000000000,"state":"active","ping":99},{"user_id":698,"name":"BuddyMocha","steam_id":76561198054654515,"connected_time":19000000000,"state":"active","ping":60},{"user_id":678,"name":"Gay Actor Michael Douglass","steam_id":76561198424709287,"connected_time":1478000000000,"state":"active","ping":82},{"user_id":677,"name":"Avenging Spirit","steam_id":76561198119572121,"connected_time":1485000000000,"state":"active","ping":57},{"user_id":690,"name":"Thebossdude22","steam_id":76561198125202109,"connected_time":571000000000,"state":"active","ping":75},{"user_id":681,"name":"Admiral Shackleford","steam_id":76561198051952755,"connected_time":1386000000000,"state":"active","ping":103},{"user_id":682,"name":"Walter.J.Kovacs","steam_id":76561199034498380,"connected_time":1356000000000,"state":"active","ping":132}]},{"server_id":400,"name":"Uncletopia | Atlanta | 3 | Stopwatch Beta","name_short":"atl-3","host":"atl-1.us.uncletopia.com","port":27035,"enabled":true,"region":"us-east","cc":"us","latitude":33.753746,"longitude":-84.38633,"reserved":0,"last_update":"0001-01-01T00:00:00Z","name_a2s":"Uncletopia | Atlanta | 3 | Stopwatch Beta","protocol":17,"map":"pl_upward","folder":"tf","game":"Team Fortress","app_id":440,"player_count":0,"max_players":24,"Bots":0,"server_type":"Dedicated","server_os":"Linux","password":true,"vac":true,"version":"7742253","steam_id":85568392924515187,"keywords":["nocrits","nodmgspread","payload","uncletopia"],"game_id":440,"stv_port":27036,"stv_name":"Uncletopia | Atlanta | 3 | Stopwatch Beta | STV","players":null},{"server_id":401,"name":"Uncletopia | Atlanta | 4 | No Payload","name_short":"atl-4","host":"atl-1.us.uncletopia.com","port":27045,"enabled":true,"region":"us-east","cc":"us","latitude":33.753746,"longitude":-84.38633,"reserved":0,"last_update":"0001-01-01T00:00:00Z","name_a2s":"Uncletopia | Atlanta | 4 | No Payload","protocol":17,"map":"pl_pier","folder":"tf","game":"Team Fortress","app_id":440,"player_count":0,"max_players":24,"Bots":0,"server_type":"Dedicated","server_os":"Linux","password":true,"vac":true,"version":"7723704","steam_id":85568392924515188,"keywords":["nocrits","nodmgspread","payload","uncletopia"],"game_id":440,"stv_port":27046,"stv_name":"Uncletopia | Atlanta | 4 | No Payload | STV","players":null},{"server_id":2,"name":"Uncletopia | Chicago | 1 | All Maps","name_short":"chi-1","host":"chi-1.us.uncletopia.com","port":27015,"enabled":true,"region":"us-central","cc":"us","latitude":41.881832,"longitude":-87.62318,"reserved":0,"last_update":"0001-01-01T00:00:00Z","name_a2s":"Uncletopia | Chicago | 1 | All Maps","protocol":17,"map":"koth_nucleus","folder":"tf","game":"Team Fortress","app_id":440,"player_count":23,"max_players":24,"Bots":0,"server_type":"Dedicated","server_os":"Linux","password":true,"vac":true,"version":"7742253","steam_id":85568392924469984,"keywords":["cp","nocrits","nodmgspread","uncletopia"],"game_id":440,"stv_port":27016,"stv_name":"Uncletopia | Chicago | 1 | All Maps | STV","players":[{"user_id":779,"name":"Iycedrem","steam_id":76561198000605300,"connected_time":4341000000000,"state":"active","ping":68},{"user_id":817,"name":"Nobody","steam_id":76561199352089107,"connected_time":1721000000000,"state":"active","ping":95},{"user_id":796,"name":"lag","steam_id":76561197963872739,"connected_time":2875000000000,"state":"active","ping":90},{"user_id":825,"name":"Bullet Kin","steam_id":76561198219951947,"connected_time":830000000000,"state":"active","ping":107},{"user_id":611,"name":"Daddy Senpai Chan","steam_id":76561198400204109,"connected_time":15670000000000,"state":"active","ping":55},{"user_id":773,"name":"howtobepker","steam_id":76561198115053865,"connected_time":5032000000000,"state":"active","ping":81},{"user_id":811,"name":"darps","steam_id":76561198105227318,"connected_time":2024000000000,"state":"active","ping":56},{"user_id":780,"name":"IZISOO","steam_id":76561198970380577,"connected_time":4247000000000,"state":"active","ping":85},{"user_id":809,"name":"Jello","steam_id":76561198890633732,"connected_time":2061000000000,"state":"active","ping":86},{"user_id":830,"name":"C papi","steam_id":76561198027779564,"connected_time":133000000000,"state":"active","ping":59},{"user_id":826,"name":"Scout","steam_id":76561198081464125,"connected_time":830000000000,"state":"active","ping":63},{"user_id":806,"name":"shoko","steam_id":76561198431770137,"connected_time":2113000000000,"state":"active","ping":61},{"user_id":828,"name":"Koaladollas","steam_id":76561198196967878,"connected_time":740000000000,"state":"active","ping":95},{"user_id":802,"name":"demolitions guy","steam_id":76561198357231071,"connected_time":2684000000000,"state":"active","ping":47},{"user_id":807,"name":"MantisTobboggan","steam_id":76561197969447887,"connected_time":2112000000000,"state":"active","ping":136},{"user_id":752,"name":"arashsmash","steam_id":76561198277649058,"connected_time":6343000000000,"state":"active","ping":65},{"user_id":821,"name":"Nobuunga","steam_id":76561198100614981,"connected_time":1109000000000,"state":"active","ping":75},{"user_id":829,"name":"pizza","steam_id":76561197988452539,"connected_time":500000000000,"state":"active","ping":59},{"user_id":812,"name":"tanmantincan","steam_id":76561198105044427,"connected_time":2019000000000,"state":"active","ping":81},{"user_id":769,"name":"WitheringLeo","steam_id":76561198046722918,"connected_time":5159000000000,"state":"active","ping":74},{"user_id":742,"name":"burial","steam_id":76561198069431694,"connected_time":7199000000000,"state":"active","ping":80},{"user_id":823,"name":"aeop","steam_id":76561198153671643,"connected_time":1055000000000,"state":"active","ping":62},{"user_id":818,"name":"trash beast","steam_id":76561198015792736,"connected_time":1709000000000,"state":"active","ping":73}]},{"server_id":106,"name":"Uncletopia | Chicago | 2 | All Maps","name_short":"chi-2","host":"chi-1.us.uncletopia.com","port":27025,"enabled":true,"region":"us-central","cc":"us","latitude":41.881832,"longitude":-87.62318,"reserved":0,"last_update":"0001-01-01T00:00:00Z","name_a2s":"Uncletopia | Chicago | 2 | All Maps","protocol":17,"map":"koth_cascade","folder":"tf","game":"Team Fortress","app_id":440,"player_count":0,"max_players":24,"Bots":0,"server_type":"Dedicated","server_os":"Linux","password":true,"vac":true,"version":"7742253","steam_id":85568392924469985,"keywords":["cp","nocrits","nodmgspread","uncletopia"],"game_id":440,"stv_port":27026,"stv_name":"Uncletopia | Chicago | 2 | All Maps | STV","players":null},{"server_id":402,"name":"Uncletopia | Chicago | 3 | All Maps","name_short":"chi-3","host":"chi-1.us.uncletopia.com","port":27035,"enabled":true,"region":"us-central","cc":"us","latitude":41.881832,"longitude":-87.62318,"reserved":0,"last_update":"0001-01-01T00:00:00Z","name_a2s":"Uncletopia | Chicago | 3 | All Maps","protocol":17,"map":"koth_harvest_final","folder":"tf","game":"Team Fortress","app_id":440,"player_count":0,"max_players":24,"Bots":0,"server_type":"Dedicated","server_os":"Linux","password":true,"vac":true,"version":"7742253","steam_id":85568392924515191,"keywords":["cp","nocrits","nodmgspread","uncletopia"],"game_id":440,"stv_port":27036,"stv_name":"Uncletopia | Chicago | 3 | All Maps | STV","players":null},{"server_id":403,"name":"Uncletopia | Chicago | 4 | All Maps","name_short":"chi-4","host":"chi-1.us.uncletopia.com","port":27045,"enabled":true,"region":"us-central","cc":"us","latitude":41.881832,"longitude":-87.62318,"reserved":0,"last_update":"0001-01-01T00:00:00Z","name_a2s":"Uncletopia | Chicago | 4 | All Maps","protocol":17,"map":"pl_borneo","folder":"tf","game":"Team Fortress","app_id":440,"player_count":24,"max_players":24,"Bots":0,"server_type":"Dedicated","server_os":"Linux","password":true,"vac":true,"version":"7742253","steam_id":85568392924515193,"keywords":["nocrits","nodmgspread","payload","uncletopia"],"game_id":440,"stv_port":27046,"stv_name":"Uncletopia | Chicago | 4 | All Maps | STV","players":[{"user_id":453,"name":"mahik","steam_id":76561198012270322,"connected_time":194000000000,"state":"active","ping":62},{"user_id":444,"name":"Carbon8ed","steam_id":76561198188488341,"connected_time":314000000000,"state":"active","ping":56},{"user_id":426,"name":"sweaterfan","steam_id":76561199389567214,"connected_time":2603000000000,"state":"active","ping":62},{"user_id":454,"name":"AliCat","steam_id":76561198308360862,"connected_time":190000000000,"state":"active","ping":120},{"user_id":411,"name":"lemon","steam_id":76561198329179651,"connected_time":4388000000000,"state":"active","ping":106},{"user_id":446,"name":"Atlas","steam_id":76561198127975050,"connected_time":302000000000,"state":"active","ping":64},{"user_id":412,"name":"crimmson","steam_id":76561198416325300,"connected_time":4348000000000,"state":"active","ping":91},{"user_id":433,"name":"Lore","steam_id":76561198098407538,"connected_time":1993000000000,"state":"active","ping":58},{"user_id":404,"name":"kams of christmas past (jolly)","steam_id":76561198076627084,"connected_time":5049000000000,"state":"active","ping":64},{"user_id":447,"name":"Jazz2T","steam_id":76561198154418867,"connected_time":294000000000,"state":"active","ping":105},{"user_id":452,"name":"yungk0shermusic","steam_id":76561199079305051,"connected_time":247000000000,"state":"active","ping":70},{"user_id":415,"name":"NovaSc6ut","steam_id":76561198277163301,"connected_time":3545000000000,"state":"active","ping":78},{"user_id":448,"name":"DAN DONGUS","steam_id":76561198374045865,"connected_time":289000000000,"state":"active","ping":45},{"user_id":449,"name":"mommy","steam_id":76561198129195009,"connected_time":288000000000,"state":"active","ping":75},{"user_id":394,"name":"reis","steam_id":76561199232952016,"connected_time":5600000000000,"state":"active","ping":180},{"user_id":450,"name":"BustedRake","steam_id":76561198130489976,"connected_time":288000000000,"state":"active","ping":61},{"user_id":358,"name":"TÖZI","steam_id":76561198045268695,"connected_time":7990000000000,"state":"active","ping":61},{"user_id":456,"name":"Sir Iasis","steam_id":76561198035666760,"connected_time":74000000000,"state":"active","ping":52},{"user_id":434,"name":".-.","steam_id":76561198820617005,"connected_time":1954000000000,"state":"active","ping":107},{"user_id":435,"name":"Brown $keez","steam_id":76561198053621664,"connected_time":1935000000000,"state":"active","ping":50},{"user_id":428,"name":"oyasumi","steam_id":76561198072950262,"connected_time":2480000000000,"state":"active","ping":54},{"user_id":430,"name":"dreaming of a whyte christmas","steam_id":76561198022597081,"connected_time":2418000000000,"state":"active","ping":102},{"user_id":438,"name":"Candy Sparkles","steam_id":76561198126871264,"connected_time":1700000000000,"state":"active","ping":90},{"user_id":437,"name":"MR. MODE","steam_id":76561198046775352,"connected_time":1865000000000,"state":"active","ping":95}]},{"server_id":36,"name":"Uncletopia | Chicago | 5 | All Maps","name_short":"chi-5","host":"chi-2.us.uncletopia.com","port":27015,"enabled":true,"region":"us-central","cc":"us","latitude":41.881832,"longitude":-87.62318,"reserved":0,"last_update":"0001-01-01T00:00:00Z","name_a2s":"Uncletopia | Chicago | 5 | All Maps","protocol":17,"map":"koth_highpass","folder":"tf","game":"Team Fortress","app_id":440,"player_count":0,"max_players":24,"Bots":0,"server_type":"Dedicated","server_os":"Linux","password":true,"vac":true,"version":"7742253","steam_id":85568392924866362,"keywords":["cp","nocrits","nodmgspread","uncletopia"],"game_id":440,"stv_port":27016,"stv_name":"Uncletopia | Chicago | 5 | All Maps | STV","players":null},{"server_id":37,"name":"Uncletopia | Chicago | 6 | All Maps","name_short":"chi-6","host":"chi-2.us.uncletopia.com","port":27025,"enabled":true,"region":"us-central","cc":"us","latitude":41.881832,"longitude":-87.62318,"reserved":0,"last_update":"0001-01-01T00:00:00Z","name_a2s":"Uncletopia | Chicago | 6 | All Maps","protocol":17,"map":"koth_cascade","folder":"tf","game":"Team Fortress","app_id":440,"player_count":0,"max_players":24,"Bots":0,"server_type":"Dedicated","server_os":"Linux","password":true,"vac":true,"version":"7742253","steam_id":85568392924866363,"keywords":["cp","nocrits","nodmgspread","uncletopia"],"game_id":440,"stv_port":27026,"stv_name":"Uncletopia | Chicago | 6 | All Maps | STV","players":null},{"server_id":38,"name":"Uncletopia | Chicago | 7 | Stopwatch Beta","name_short":"chi-7","host":"chi-2.us.uncletopia.com","port":27035,"enabled":true,"region":"us-central","cc":"us","latitude":41.881832,"longitude":-87.62318,"reserved":0,"last_update":"0001-01-01T00:00:00Z","name_a2s":"Uncletopia | Chicago | 7 | Stopwatch Beta","protocol":17,"map":"cp_altitude","folder":"tf","game":"Team Fortress","app_id":440,"player_count":0,"max_players":24,"Bots":0,"server_type":"Dedicated","server_os":"Linux","password":true,"vac":true,"version":"7742253","steam_id":85568392924866364,"keywords":["cp","nocrits","nodmgspread","uncletopia"],"game_id":440,"stv_port":27036,"stv_name":"Uncletopia | Chicago | 7 | Stopwatch Beta | STV","players":null},{"server_id":39,"name":"Uncletopia | Chicago | 8 | Community","name_short":"chi-8","host":"chi-2.us.uncletopia.com","port":27045,"enabled":true,"region":"us-central","cc":"us","latitude":41.881832,"longitude":-87.62318,"reserved":0,"last_update":"0001-01-01T00:00:00Z","name_a2s":"Uncletopia | Chicago | 8 | Community","protocol":17,"map":"workshop/koth_product_final.ugc454272353","folder":"tf","game":"Team Fortress","app_id":440,"player_count":0,"max_players":24,"Bots":0,"server_type":"Dedicated","server_os":"Linux","password":true,"vac":true,"version":"7742253","steam_id":85568392924866365,"keywords":["cp","nocrits","nodmgspread","uncletopia"],"game_id":440,"stv_port":27046,"stv_name":"Uncletopia | Chicago | 8 | Community | STV","players":null},{"server_id":8,"name":"Uncletopia | Dallas | 1 | All Maps","name_short":"dal-1","host":"dal-1.us.uncletopia.com","port":27015,"enabled":true,"region":"us-central","cc":"us","latitude":32.779167,"longitude":-96.80889,"reserved":0,"last_update":"0001-01-01T00:00:00Z","name_a2s":"Uncletopia | Dallas | 1 | All Maps","protocol":17,"map":"cp_process_final","folder":"tf","game":"Team Fortress","app_id":440,"player_count":0,"max_players":24,"Bots":0,"server_type":"Dedicated","server_os":"Linux","password":true,"vac":true,"version":"7742253","steam_id":85568392924469986,"keywords":["cp","nocrits","nodmgspread","uncletopia"],"game_id":440,"stv_port":27016,"stv_name":"Uncletopia | Dallas | 1 | All Maps | STV","players":null},{"server_id":108,"name":"Uncletopia | Dallas | 2 | All Maps","name_short":"dal-2","host":"dal-1.us.uncletopia.com","port":27025,"enabled":true,"region":"us-central","cc":"us","latitude":32.779167,"longitude":-96.80889,"reserved":0,"last_update":"0001-01-01T00:00:00Z","name_a2s":"Uncletopia | Dallas | 2 | All Maps","protocol":17,"map":"cp_process_final","folder":"tf","game":"Team Fortress","app_id":440,"player_count":2,"max_players":24,"Bots":0,"server_type":"Dedicated","server_os":"Linux","password":true,"vac":true,"version":"7742253","steam_id":85568392924469988,"keywords":["cp","nocrits","nodmgspread","uncletopia"],"game_id":440,"stv_port":27026,"stv_name":"Uncletopia | Dallas | 2 | All Maps | STV","players":[{"user_id":669,"name":"Dick Kickem","steam_id":76561198021846845,"connected_time":143000000000,"state":"active","ping":44},{"user_id":670,"name":"Linakas","steam_id":76561198299757435,"connected_time":41000000000,"state":"active","ping":160}]},{"server_id":5,"name":"Uncletopia | Frankfurt | 1 | All Maps","name_short":"frk-1","host":"frk-1.de.uncletopia.com","port":27015,"enabled":true,"region":"eu","cc":"de","latitude":50.110924,"longitude":8.682127,"reserved":0,"last_update":"0001-01-01T00:00:00Z","name_a2s":"Uncletopia | Frankfurt | 1 | All Maps","protocol":17,"map":"pl_barnblitz","folder":"tf","game":"Team Fortress","app_id":440,"player_count":0,"max_players":24,"Bots":0,"server_type":"Dedicated","server_os":"Linux","password":true,"vac":true,"version":"7742253","steam_id":85568392924469989,"keywords":["nocrits","nodmgspread","payload","uncletopia"],"game_id":440,"stv_port":27016,"stv_name":"Uncletopia | Frankfurt | 1 | All Maps | STV","players":null},{"server_id":110,"name":"Uncletopia | Frankfurt | 2 | All Maps","name_short":"frk-2","host":"frk-1.de.uncletopia.com","port":27025,"enabled":true,"region":"eu","cc":"de","latitude":50.110924,"longitude":8.682127,"reserved":0,"last_update":"0001-01-01T00:00:00Z","name_a2s":"Uncletopia | Frankfurt | 2 | All Maps","protocol":17,"map":"cp_process_final","folder":"tf","game":"Team Fortress","app_id":440,"player_count":21,"max_players":24,"Bots":0,"server_type":"Dedicated","server_os":"Linux","password":true,"vac":true,"version":"7742253","steam_id":85568392924469990,"keywords":["cp","nocrits","nodmgspread","uncletopia"],"game_id":440,"stv_port":27026,"stv_name":"Uncletopia | Frankfurt | 2 | All Maps | STV","players":[{"user_id":61,"name":"Mr.Dies a lot","steam_id":76561199061602946,"connected_time":2111000000000,"state":"active","ping":94},{"user_id":88,"name":"Meladoom2","steam_id":76561198086845387,"connected_time":198000000000,"state":"active","ping":79},{"user_id":71,"name":"engie?","steam_id":76561198331852832,"connected_time":1402000000000,"state":"active","ping":80},{"user_id":89,"name":"Awesome_Welles","steam_id":76561198001582778,"connected_time":135000000000,"state":"active","ping":50},{"user_id":90,"name":"Rasifich","steam_id":76561199106669309,"connected_time":15000000000,"state":"active","ping":145},{"user_id":67,"name":"tealoverr.190","steam_id":76561199028497703,"connected_time":1781000000000,"state":"active","ping":94},{"user_id":20,"name":"Jeg","steam_id":76561198405291408,"connected_time":4741000000000,"state":"active","ping":60},{"user_id":21,"name":"The brown part of the banana","steam_id":76561198323425034,"connected_time":4738000000000,"state":"active","ping":79},{"user_id":65,"name":"Sputnik1","steam_id":76561199059003709,"connected_time":1920000000000,"state":"active","ping":124},{"user_id":55,"name":"TheGreenWolf","steam_id":76561198170607033,"connected_time":2667000000000,"state":"active","ping":64},{"user_id":70,"name":"Pinkchup","steam_id":76561198106802803,"connected_time":1638000000000,"state":"active","ping":75},{"user_id":73,"name":"DoctorTopLeL","steam_id":76561198088533595,"connected_time":1269000000000,"state":"active","ping":107},{"user_id":31,"name":"SkyLine_54","steam_id":76561198439293760,"connected_time":3848000000000,"state":"active","ping":103},{"user_id":74,"name":"yeldad","steam_id":76561198447264153,"connected_time":1222000000000,"state":"active","ping":113},{"user_id":75,"name":"pyro sex","steam_id":76561199225397974,"connected_time":1207000000000,"state":"active","ping":108},{"user_id":81,"name":"noob","steam_id":76561198957419646,"connected_time":708000000000,"state":"active","ping":178},{"user_id":56,"name":"LavenderJayJay","steam_id":76561198966667657,"connected_time":2618000000000,"state":"active","ping":63},{"user_id":87,"name":"ok","steam_id":76561198052575567,"connected_time":322000000000,"state":"active","ping":75},{"user_id":80,"name":"feenjareen","steam_id":76561198125950530,"connected_time":866000000000,"state":"active","ping":136},{"user_id":83,"name":"benifis163","steam_id":76561198420973492,"connected_time":639000000000,"state":"active","ping":99},{"user_id":86,"name":"Nier0x","steam_id":76561198092041526,"connected_time":553000000000,"state":"active","ping":98}]},{"server_id":308,"name":"Uncletopia | Frankfurt | 3 | All Maps","name_short":"frk-3","host":"frk-1.de.uncletopia.com","port":27035,"enabled":true,"region":"eu","cc":"de","latitude":50.110924,"longitude":8.682127,"reserved":0,"last_update":"0001-01-01T00:00:00Z","name_a2s":"Uncletopia | Frankfurt | 3 | All Maps","protocol":17,"map":"koth_viaduct","folder":"tf","game":"Team Fortress","app_id":440,"player_count":0,"max_players":24,"Bots":0,"server_type":"Dedicated","server_os":"Linux","password":true,"vac":true,"version":"7742253","steam_id":85568392924504274,"keywords":["cp","nocrits","nodmgspread","uncletopia"],"game_id":440,"stv_port":27036,"stv_name":"Uncletopia | Frankfurt | 3 | All Maps | STV","players":null},{"server_id":309,"name":"Uncletopia | Frankfurt | 4 | All Maps","name_short":"frk-4","host":"frk-1.de.uncletopia.com","port":27045,"enabled":true,"region":"eu","cc":"de","latitude":50.110924,"longitude":8.682127,"reserved":0,"last_update":"0001-01-01T00:00:00Z","name_a2s":"Uncletopia | Frankfurt | 4 | All Maps","protocol":17,"map":"pl_frontier_final","folder":"tf","game":"Team Fortress","app_id":440,"player_count":0,"max_players":24,"Bots":0,"server_type":"Dedicated","server_os":"Linux","password":true,"vac":true,"version":"7742253","steam_id":85568392924504275,"keywords":["nocrits","nodmgspread","payload","uncletopia"],"game_id":440,"stv_port":27046,"stv_name":"Uncletopia | Frankfurt | 4 | All Maps | STV","players":null},{"server_id":310,"name":"Uncletopia | Frankfurt | 5 | All Maps","name_short":"frk-5","host":"frk-1.de.uncletopia.com","port":27055,"enabled":true,"region":"eu","cc":"de","latitude":50.110924,"longitude":8.682127,"reserved":0,"last_update":"0001-01-01T00:00:00Z","name_a2s":"Uncletopia | Frankfurt | 5 | All Maps","protocol":17,"map":"cp_sunshine","folder":"tf","game":"Team Fortress","app_id":440,"player_count":0,"max_players":24,"Bots":0,"server_type":"Dedicated","server_os":"Linux","password":true,"vac":true,"version":"7742253","steam_id":85568392924504277,"keywords":["cp","nocrits","nodmgspread","uncletopia"],"game_id":440,"stv_port":27056,"stv_name":"Uncletopia | Frankfurt | 5 | All Maps | STV","players":null},{"server_id":311,"name":"Uncletopia | Frankfurt | 6 | All Maps","name_short":"frk-6","host":"frk-1.de.uncletopia.com","port":27065,"enabled":true,"region":"eu","cc":"de","latitude":50.110924,"longitude":8.682127,"reserved":0,"last_update":"0001-01-01T00:00:00Z","name_a2s":"Uncletopia | Frankfurt | 6 | All Maps","protocol":17,"map":"pl_frontier_final","folder":"tf","game":"Team Fortress","app_id":440,"player_count":1,"max_players":24,"Bots":0,"server_type":"Dedicated","server_os":"Linux","password":true,"vac":true,"version":"7742253","steam_id":85568392924504278,"keywords":["nocrits","nodmgspread","payload","uncletopia"],"game_id":440,"stv_port":27066,"stv_name":"Uncletopia | Frankfurt | 6 | All Maps | STV","players":[{"user_id":3,"name":"Elon","steam_id":76561198140751130,"connected_time":69000000000,"state":"active","ping":56}]},{"server_id":23,"name":"Uncletopia | Frankfurt | 7 | Stopwatch Beta","name_short":"frk-7","host":"frk-1.de.uncletopia.com","port":27075,"enabled":true,"region":"eu","cc":"de","latitude":50.110924,"longitude":8.682127,"reserved":0,"last_update":"0001-01-01T00:00:00Z","name_a2s":"Uncletopia | Frankfurt | 7 | Stopwatch Beta","protocol":17,"map":"koth_lakeside_final","folder":"tf","game":"Team Fortress","app_id":440,"player_count":0,"max_players":24,"Bots":0,"server_type":"Dedicated","server_os":"Linux","password":true,"vac":true,"version":"7742253","steam_id":85568392924742827,"keywords":["cp","nocrits","nodmgspread","uncletopia"],"game_id":440,"stv_port":27076,"stv_name":"Uncletopia | Frankfurt | 7 | Stopwatch Beta | STV","players":null},{"server_id":24,"name":"Uncletopia | Frankfurt | 8 | Community","name_short":"frk-8","host":"frk-1.de.uncletopia.com","port":27085,"enabled":true,"region":"eu","cc":"de","latitude":50.110924,"longitude":8.682127,"reserved":0,"last_update":"0001-01-01T00:00:00Z","name_a2s":"Uncletopia | Frankfurt | 8 | Community","protocol":17,"map":"pl_pier","folder":"tf","game":"Team Fortress","app_id":440,"player_count":0,"max_players":24,"Bots":0,"server_type":"Dedicated","server_os":"Linux","password":true,"vac":true,"version":"7742253","steam_id":85568392924742828,"keywords":["nocrits","nodmgspread","payload","uncletopia"],"game_id":440,"stv_port":27086,"stv_name":"Uncletopia | Frankfurt | 8 | Community | STV","players":null},{"server_id":202,"name":"Uncletopia | Hong Kong | 1 | All Maps","name_short":"hgk-1","host":"hgk-1.hk.uncletopia.com","port":27015,"enabled":true,"region":"asia","cc":"hk","latitude":22.302711,"longitude":114.177216,"reserved":0,"last_update":"0001-01-01T00:00:00Z","name_a2s":"Uncletopia | Hong Kong | 1 | All Maps","protocol":17,"map":"pl_snowycoast","folder":"tf","game":"Team Fortress","app_id":440,"player_count":24,"max_players":24,"Bots":0,"server_type":"Dedicated","server_os":"Linux","password":true,"vac":true,"version":"7742253","steam_id":85568392924494504,"keywords":["nocrits","nodmgspread","payload","uncletopia"],"game_id":440,"stv_port":27016,"stv_name":"Uncletopia | Hong Kong | 1 | All Maps | STV","players":[{"user_id":304,"name":"Rephex","steam_id":76561198308185574,"connected_time":1087000000000,"state":"active","ping":69},{"user_id":72,"name":"Bertengkar","steam_id":76561198213031155,"connected_time":13947000000000,"state":"active","ping":97},{"user_id":247,"name":"troll juice","steam_id":76561199146847474,"connected_time":8964000000000,"state":"active","ping":53},{"user_id":33,"name":"Talkk More","steam_id":76561198305424433,"connected_time":16723000000000,"state":"active","ping":101},{"user_id":291,"name":"spinach hero","steam_id":76561198042539541,"connected_time":2970000000000,"state":"active","ping":81},{"user_id":64,"name":"lillalune","steam_id":76561198230213828,"connected_time":14924000000000,"state":"active","ping":66},{"user_id":306,"name":"p1st0n","steam_id":76561198992723983,"connected_time":489000000000,"state":"active","ping":98},{"user_id":268,"name":"lettuce at 58p","steam_id":76561199401283123,"connected_time":6811000000000,"state":"active","ping":97},{"user_id":305,"name":"Buttman","steam_id":76561198044693388,"connected_time":1024000000000,"state":"active","ping":50},{"user_id":173,"name":"Milk❤ (most loved guy in ut)","steam_id":76561198163911560,"connected_time":10214000000000,"state":"active","ping":85},{"user_id":298,"name":"CaptainBozo","steam_id":76561199151959977,"connected_time":1472000000000,"state":"active","ping":59},{"user_id":302,"name":"LudE","steam_id":76561198828840546,"connected_time":1098000000000,"state":"active","ping":72},{"user_id":271,"name":"LOLGAL","steam_id":76561198347418251,"connected_time":6475000000000,"state":"active","ping":70},{"user_id":299,"name":"Half measure","steam_id":76561199135173894,"connected_time":1109000000000,"state":"active","ping":90},{"user_id":286,"name":"Pillboi","steam_id":76561198011172886,"connected_time":3477000000000,"state":"active","ping":45},{"user_id":276,"name":"water tastes good","steam_id":76561199375947670,"connected_time":5627000000000,"state":"active","ping":80},{"user_id":303,"name":"AmaiToxic","steam_id":76561199122491157,"connected_time":1093000000000,"state":"active","ping":63},{"user_id":288,"name":"BAKABAZOOKA","steam_id":76561198061628689,"connected_time":3154000000000,"state":"active","ping":59},{"user_id":279,"name":"aiae by yuyoyuppe","steam_id":76561198412329672,"connected_time":4012000000000,"state":"active","ping":87},{"user_id":300,"name":"In(e)","steam_id":76561198362097007,"connected_time":1105000000000,"state":"active","ping":49},{"user_id":96,"name":"Windmill","steam_id":76561199230997986,"connected_time":12516000000000,"state":"active","ping":73},{"user_id":293,"name":"Giouri","steam_id":76561199152247162,"connected_time":1709000000000,"state":"active","ping":88},{"user_id":292,"name":"Lu","steam_id":76561198320532821,"connected_time":2520000000000,"state":"active","ping":52},{"user_id":297,"name":"I love air conditioning","steam_id":76561198811532659,"connected_time":1565000000000,"state":"active","ping":79}]},{"server_id":1,"name":"Uncletopia | Los Angeles | 1 | All Maps","name_short":"lax-1","host":"lax-1.us.uncletopia.com","port":27015,"enabled":true,"region":"us-west","cc":"us","latitude":33.94279,"longitude":-118.41004,"reserved":0,"last_update":"0001-01-01T00:00:00Z","name_a2s":"Uncletopia | Los Angeles | 1 | All Maps","protocol":17,"map":"koth_lakeside_final","folder":"tf","game":"Team Fortress","app_id":440,"player_count":1,"max_players":24,"Bots":0,"server_type":"Dedicated","server_os":"Linux","password":true,"vac":true,"version":"7742253","steam_id":85568392924469991,"keywords":["cp","nocrits","nodmgspread","uncletopia"],"game_id":440,"stv_port":27016,"stv_name":"Uncletopia | Los Angeles | 1 | All Maps | STV","players":[{"user_id":30,"name":"CrackedSanity","steam_id":76561198279841251,"connected_time":61000000000,"state":"active","ping":44}]},{"server_id":112,"name":"Uncletopia | Los Angeles | 2 | All Maps","name_short":"lax-2","host":"lax-1.us.uncletopia.com","port":27025,"enabled":true,"region":"us-west","cc":"us","latitude":33.94279,"longitude":-118.41004,"reserved":0,"last_update":"0001-01-01T00:00:00Z","name_a2s":"Uncletopia | Los Angeles | 2 | All Maps","protocol":17,"map":"pl_badwater","folder":"tf","game":"Team Fortress","app_id":440,"player_count":24,"max_players":24,"Bots":0,"server_type":"Dedicated","server_os":"Linux","password":true,"vac":true,"version":"7742253","steam_id":85568392924469992,"keywords":["nocrits","nodmgspread","payload","uncletopia"],"game_id":440,"stv_port":27026,"stv_name":"Uncletopia | Los Angeles | 2 | All Maps | STV","players":[{"user_id":345,"name":"goldhed","steam_id":76561198051751133,"connected_time":1467000000000,"state":"active","ping":88},{"user_id":348,"name":"Kamin","steam_id":76561198255299559,"connected_time":1007000000000,"state":"active","ping":89},{"user_id":347,"name":"dildo swaggins","steam_id":76561199059257565,"connected_time":1216000000000,"state":"active","ping":106},{"user_id":350,"name":"red angry bird","steam_id":76561199015668990,"connected_time":897000000000,"state":"active","ping":43},{"user_id":351,"name":"DarthJiggles","steam_id":76561198088383875,"connected_time":871000000000,"state":"active","ping":54},{"user_id":352,"name":"machomelon","steam_id":76561198043683564,"connected_time":864000000000,"state":"active","ping":61},{"user_id":353,"name":"CumBob","steam_id":76561198168693975,"connected_time":863000000000,"state":"active","ping":54},{"user_id":289,"name":"Bobbo","steam_id":76561198055689771,"connected_time":5860000000000,"state":"active","ping":77},{"user_id":354,"name":"science_fan.1948","steam_id":76561199076453501,"connected_time":861000000000,"state":"active","ping":46},{"user_id":288,"name":"dandy","steam_id":76561197967362217,"connected_time":5905000000000,"state":"active","ping":45},{"user_id":358,"name":"ben jamin","steam_id":76561198050211110,"connected_time":631000000000,"state":"active","ping":45},{"user_id":376,"name":"hoopla","steam_id":76561198014920568,"connected_time":66000000000,"state":"active","ping":111},{"user_id":357,"name":"Sugercrash","steam_id":76561199187685119,"connected_time":732000000000,"state":"active","ping":97},{"user_id":360,"name":"Frida","steam_id":76561198317699953,"connected_time":626000000000,"state":"active","ping":113},{"user_id":361,"name":"Anika","steam_id":76561198276724202,"connected_time":597000000000,"state":"active","ping":79},{"user_id":373,"name":"gateron red","steam_id":76561198178228075,"connected_time":239000000000,"state":"active","ping":46},{"user_id":374,"name":"pcaxxruben","steam_id":76561199134102686,"connected_time":188000000000,"state":"active","ping":59},{"user_id":365,"name":"primordialheath","steam_id":76561199386942638,"connected_time":415000000000,"state":"active","ping":119},{"user_id":377,"name":"teesung","steam_id":76561198054541387,"connected_time":27000000000,"state":"active","ping":60},{"user_id":372,"name":"kool_aids3","steam_id":76561198314435679,"connected_time":294000000000,"state":"active","ping":52},{"user_id":319,"name":"o2","steam_id":76561199262570913,"connected_time":3010000000000,"state":"active","ping":180},{"user_id":375,"name":"=PB=","steam_id":76561197999146612,"connected_time":161000000000,"state":"active","ping":180},{"user_id":371,"name":"Christmas Cretin","steam_id":76561198149063013,"connected_time":312000000000,"state":"active","ping":95},{"user_id":370,"name":"bladees saddest, realest verse","steam_id":76561198098099826,"connected_time":323000000000,"state":"active","ping":68}]},{"server_id":324,"name":"Uncletopia | Los Angeles | 3 | All Maps","name_short":"lax-3","host":"lax-1.us.uncletopia.com","port":27035,"enabled":true,"region":"us-west","cc":"us","latitude":33.94279,"longitude":-118.41004,"reserved":0,"last_update":"0001-01-01T00:00:00Z","name_a2s":"Uncletopia | Los Angeles | 3 | All Maps","protocol":17,"map":"cp_dustbowl","folder":"tf","game":"Team Fortress","app_id":440,"player_count":0,"max_players":24,"Bots":0,"server_type":"Dedicated","server_os":"Linux","password":true,"vac":true,"version":"7742253","steam_id":85568392924510198,"keywords":["cp","nocrits","nodmgspread","uncletopia"],"game_id":440,"stv_port":27036,"stv_name":"Uncletopia | Los Angeles | 3 | All Maps | STV","players":null},{"server_id":25,"name":"Uncletopia | Los Angeles | 4 | Stopwatch Beta","name_short":"lax-4","host":"lax-1.us.uncletopia.com","port":27045,"enabled":true,"region":"us-west","cc":"us","latitude":33.94279,"longitude":-118.41004,"reserved":0,"last_update":"0001-01-01T00:00:00Z","name_a2s":"Uncletopia | Los Angeles | 4 | Stopwatch Beta","protocol":17,"map":"cp_process_final","folder":"tf","game":"Team Fortress","app_id":440,"player_count":0,"max_players":24,"Bots":0,"server_type":"Dedicated","server_os":"Linux","password":true,"vac":true,"version":"7742253","steam_id":85568392924510199,"keywords":["cp","nocrits","nodmgspread","uncletopia"],"game_id":440,"stv_port":27046,"stv_name":"Uncletopia | Los Angeles | 4 | Stopwatch Beta | STV","players":null},{"server_id":11,"name":"Uncletopia | London | 1 | All Maps","name_short":"lon-1","host":"lon-1.uk.uncletopia.com","port":27015,"enabled":true,"region":"eu","cc":"gb","latitude":51.509865,"longitude":-0.118092,"reserved":0,"last_update":"0001-01-01T00:00:00Z","name_a2s":"Uncletopia | London | 1 | All Maps","protocol":17,"map":"cp_dustbowl","folder":"tf","game":"Team Fortress","app_id":440,"player_count":0,"max_players":24,"Bots":0,"server_type":"Dedicated","server_os":"Linux","password":true,"vac":true,"version":"7742253","steam_id":85568392924367362,"keywords":["cp","nocrits","nodmgspread","uncletopia"],"game_id":440,"stv_port":27016,"stv_name":"Uncletopia | London | 1 | All Maps | STV","players":null},{"server_id":114,"name":"Uncletopia | London | 2 | All Maps","name_short":"lon-2","host":"lon-1.uk.uncletopia.com","port":27025,"enabled":true,"region":"eu","cc":"gb","latitude":51.509865,"longitude":-0.118092,"reserved":0,"last_update":"0001-01-01T00:00:00Z","name_a2s":"Uncletopia | London | 2 | All Maps","protocol":17,"map":"cp_altitude","folder":"tf","game":"Team Fortress","app_id":440,"player_count":0,"max_players":24,"Bots":0,"server_type":"Dedicated","server_os":"Linux","password":true,"vac":true,"version":"7742253","steam_id":85568392924470941,"keywords":["cp","nocrits","nodmgspread","uncletopia"],"game_id":440,"stv_port":27026,"stv_name":"Uncletopia | London | 2 | All Maps | STV","players":null},{"server_id":320,"name":"Uncletopia | London | 3 | All Maps","name_short":"lon-3","host":"lon-1.uk.uncletopia.com","port":27035,"enabled":true,"region":"eu","cc":"gb","latitude":51.509865,"longitude":-0.118092,"reserved":0,"last_update":"0001-01-01T00:00:00Z","name_a2s":"Uncletopia | London | 3 | All Maps","protocol":17,"map":"cp_process_final","folder":"tf","game":"Team Fortress","app_id":440,"player_count":0,"max_players":24,"Bots":0,"server_type":"Dedicated","server_os":"Linux","password":true,"vac":true,"version":"7742253","steam_id":85568392924510192,"keywords":["cp","nocrits","nodmgspread","uncletopia"],"game_id":440,"stv_port":27036,"stv_name":"Uncletopia | London | 3 | All Maps | STV","players":null},{"server_id":321,"name":"Uncletopia | London | 4 | All Maps","name_short":"lon-4","host":"lon-1.uk.uncletopia.com","port":27045,"enabled":true,"region":"eu","cc":"gb","latitude":51.509865,"longitude":-0.118092,"reserved":0,"last_update":"0001-01-01T00:00:00Z","name_a2s":"Uncletopia | London | 4 | All Maps","protocol":17,"map":"pl_borneo","folder":"tf","game":"Team Fortress","app_id":440,"player_count":0,"max_players":24,"Bots":0,"server_type":"Dedicated","server_os":"Linux","password":true,"vac":true,"version":"7742253","steam_id":85568392924510193,"keywords":["nocrits","nodmgspread","payload","uncletopia"],"game_id":440,"stv_port":27046,"stv_name":"Uncletopia | London | 4 | All Maps | STV","players":null},{"server_id":21,"name":"Uncletopia | London | 5 | All Maps","name_short":"lon-5","host":"lon-1.uk.uncletopia.com","port":27055,"enabled":true,"region":"eu","cc":"gb","latitude":51.509865,"longitude":-0.118092,"reserved":0,"last_update":"0001-01-01T00:00:00Z","name_a2s":"Uncletopia | London | 5 | All Maps","protocol":17,"map":"cp_process_final","folder":"tf","game":"Team Fortress","app_id":440,"player_count":0,"max_players":24,"Bots":0,"server_type":"Dedicated","server_os":"Linux","password":true,"vac":true,"version":"7742253","steam_id":85568392924742829,"keywords":["cp","nocrits","nodmgspread","uncletopia"],"game_id":440,"stv_port":27056,"stv_name":"Uncletopia | London | 5 | All Maps | STV","players":null},{"server_id":22,"name":"Uncletopia | London | 6 | All Maps","name_short":"lon-6","host":"lon-1.uk.uncletopia.com","port":27065,"enabled":true,"region":"eu","cc":"gb","latitude":51.509865,"longitude":-0.118092,"reserved":0,"last_update":"0001-01-01T00:00:00Z","name_a2s":"Uncletopia | London | 6 | All Maps","protocol":17,"map":"pl_badwater","folder":"tf","game":"Team Fortress","app_id":440,"player_count":0,"max_players":24,"Bots":0,"server_type":"Dedicated","server_os":"Linux","password":true,"vac":true,"version":"7742253","steam_id":85568392924742830,"keywords":["nocrits","nodmgspread","payload","uncletopia"],"game_id":440,"stv_port":27066,"stv_name":"Uncletopia | London | 6 | All Maps | STV","players":null},{"server_id":40,"name":"Uncletopia | London | 7 | No Payload","name_short":"lon-7","host":"lon-1.uk.uncletopia.com","port":27075,"enabled":true,"region":"eu","cc":"gb","latitude":51.509865,"longitude":-0.118092,"reserved":0,"last_update":"0001-01-01T00:00:00Z","name_a2s":"Uncletopia | London | 7 | No Payload","protocol":17,"map":"pl_borneo","folder":"tf","game":"Team Fortress","app_id":440,"player_count":0,"max_players":24,"Bots":0,"server_type":"Dedicated","server_os":"Linux","password":true,"vac":true,"version":"7742253","steam_id":85568392924964314,"keywords":["nocrits","nodmgspread","payload","uncletopia"],"game_id":440,"stv_port":27076,"stv_name":"Uncletopia | London | 7 | No Payload | STV","players":null},{"server_id":41,"name":"Uncletopia | London | 8 | Community","name_short":"lon-8","host":"lon-1.uk.uncletopia.com","port":27085,"enabled":true,"region":"eu","cc":"gb","latitude":51.509865,"longitude":-0.118092,"reserved":0,"last_update":"0001-01-01T00:00:00Z","name_a2s":"Uncletopia | London | 8 | Community","protocol":17,"map":"cp_process_final","folder":"tf","game":"Team Fortress","app_id":440,"player_count":0,"max_players":24,"Bots":0,"server_type":"Dedicated","server_os":"Linux","password":true,"vac":true,"version":"7742253","steam_id":85568392924964315,"keywords":["cp","nocrits","nodmgspread","uncletopia"],"game_id":440,"stv_port":27086,"stv_name":"Uncletopia | London | 8 | Community | STV","players":null},{"server_id":300,"name":"Uncletopia | Montréal | 1 | All Maps","name_short":"mtl-1","host":"mtl-1.ca.uncletopia.com","port":27015,"enabled":true,"region":"us-east","cc":"ca","latitude":45.50889,"longitude":-73.56167,"reserved":0,"last_update":"0001-01-01T00:00:00Z","name_a2s":"Uncletopia | Montréal | 1 | All Maps","protocol":17,"map":"cp_sunshine","folder":"tf","game":"Team Fortress","app_id":440,"player_count":0,"max_players":24,"Bots":0,"server_type":"Dedicated","server_os":"Linux","password":true,"vac":true,"version":"7742253","steam_id":85568392924500087,"keywords":["cp","nocrits","nodmgspread","uncletopia"],"game_id":440,"stv_port":27016,"stv_name":"Uncletopia | Montréal | 1 | All Maps | STV","players":null},{"server_id":301,"name":"Uncletopia | Montréal | 2 | All Maps","name_short":"mtl-2","host":"mtl-1.ca.uncletopia.com","port":27025,"enabled":true,"region":"us-east","cc":"ca","latitude":45.50889,"longitude":-73.56167,"reserved":0,"last_update":"0001-01-01T00:00:00Z","name_a2s":"Uncletopia | Montréal | 2 | All Maps","protocol":17,"map":"koth_lakeside_final","folder":"tf","game":"Team Fortress","app_id":440,"player_count":2,"max_players":24,"Bots":0,"server_type":"Dedicated","server_os":"Linux","password":true,"vac":true,"version":"7742253","steam_id":85568392924500088,"keywords":["cp","nocrits","nodmgspread","uncletopia"],"game_id":440,"stv_port":27026,"stv_name":"Uncletopia | Montréal | 2 | All Maps | STV","players":[{"user_id":6,"name":"wititches","steam_id":76561198247169086,"connected_time":260000000000,"state":"active","ping":58},{"user_id":7,"name":"MalTral","steam_id":76561198245824346,"connected_time":150000000000,"state":"active","ping":55}]},{"server_id":302,"name":"Uncletopia | Montréal | 3 | All Maps","name_short":"mtl-3","host":"mtl-1.ca.uncletopia.com","port":27035,"enabled":true,"region":"us-east","cc":"ca","latitude":45.50889,"longitude":-73.56167,"reserved":0,"last_update":"0001-01-01T00:00:00Z","name_a2s":"Uncletopia | Montréal | 3 | All Maps","protocol":17,"map":"pl_badwater","folder":"tf","game":"Team Fortress","app_id":440,"player_count":0,"max_players":24,"Bots":0,"server_type":"Dedicated","server_os":"Linux","password":true,"vac":true,"version":"7742253","steam_id":85568392924500089,"keywords":["nocrits","nodmgspread","payload","uncletopia"],"game_id":440,"stv_port":27036,"stv_name":"Uncletopia | Montréal | 3 | All Maps | STV","players":null},{"server_id":303,"name":"Uncletopia | Montréal | 4 | No Payload","name_short":"mtl-4","host":"mtl-1.ca.uncletopia.com","port":27045,"enabled":true,"region":"us-east","cc":"ca","latitude":45.50889,"longitude":-73.56167,"reserved":0,"last_update":"0001-01-01T00:00:00Z","name_a2s":"Uncletopia | Montréal | 4 | No Payload","protocol":17,"map":"cp_mercenarypark","folder":"tf","game":"Team Fortress","app_id":440,"player_count":0,"max_players":24,"Bots":0,"server_type":"Dedicated","server_os":"Linux","password":true,"vac":true,"version":"7742253","steam_id":85568392924500090,"keywords":["cp","nocrits","nodmgspread","uncletopia"],"game_id":440,"stv_port":27046,"stv_name":"Uncletopia | Montréal | 4 | No Payload | STV","players":null},{"server_id":13,"name":"Uncletopia | New York City | 1 | All Maps","name_short":"nyc-1","host":"nyc-1.us.uncletopia.com","port":27015,"enabled":true,"region":"us-east","cc":"us","latitude":40.73061,"longitude":-73.93524,"reserved":0,"last_update":"0001-01-01T00:00:00Z","name_a2s":"Uncletopia | New York City | 1 | All Maps","protocol":17,"map":"cp_altitude","folder":"tf","game":"Team Fortress","app_id":440,"player_count":0,"max_players":24,"Bots":0,"server_type":"Dedicated","server_os":"Linux","password":true,"vac":true,"version":"7742253","steam_id":85568392924469993,"keywords":["cp","nocrits","nodmgspread","uncletopia"],"game_id":440,"stv_port":27016,"stv_name":"Uncletopia | New York City | 1 | All Maps | STV","players":null},{"server_id":14,"name":"Uncletopia | New York City | 2 | All Maps","name_short":"nyc-2","host":"nyc-1.us.uncletopia.com","port":27025,"enabled":true,"region":"us-east","cc":"us","latitude":40.73061,"longitude":-73.93524,"reserved":0,"last_update":"0001-01-01T00:00:00Z","name_a2s":"Uncletopia | New York City | 2 | All Maps","protocol":17,"map":"cp_sunshine","folder":"tf","game":"Team Fortress","app_id":440,"player_count":0,"max_players":24,"Bots":0,"server_type":"Dedicated","server_os":"Linux","password":true,"vac":true,"version":"7742253","steam_id":85568392924469994,"keywords":["cp","nocrits","nodmgspread","uncletopia"],"game_id":440,"stv_port":27026,"stv_name":"Uncletopia | New York City | 2 | All Maps | STV","players":null},{"server_id":15,"name":"Uncletopia | New York City | 3 | Stopwatch Beta","name_short":"nyc-3","host":"nyc-1.us.uncletopia.com","port":27035,"enabled":true,"region":"us-east","cc":"us","latitude":40.73061,"longitude":-73.93524,"reserved":0,"last_update":"0001-01-01T00:00:00Z","name_a2s":"Uncletopia | New York City | 3 | Stopwatch Beta","protocol":17,"map":"cp_altitude","folder":"tf","game":"Team Fortress","app_id":440,"player_count":0,"max_players":24,"Bots":0,"server_type":"Dedicated","server_os":"Linux","password":true,"vac":true,"version":"7742253","steam_id":85568392924742820,"keywords":["cp","nocrits","nodmgspread","uncletopia"],"game_id":440,"stv_port":27036,"stv_name":"Uncletopia | New York City | 3 | Stopwatch Beta | STV","players":null},{"server_id":16,"name":"Uncletopia | New York City | 4 | Community","name_short":"nyc-4","host":"nyc-1.us.uncletopia.com","port":27045,"enabled":true,"region":"us-east","cc":"us","latitude":40.73061,"longitude":-73.93524,"reserved":0,"last_update":"0001-01-01T00:00:00Z","name_a2s":"Uncletopia | New York City | 4 | Community","protocol":17,"map":"workshop/cp_reckoner_rc6.ugc674719999","folder":"tf","game":"Team Fortress","app_id":440,"player_count":0,"max_players":24,"Bots":0,"server_type":"Dedicated","server_os":"Linux","password":true,"vac":true,"version":"7742253","steam_id":85568392924742821,"keywords":["cp","nocrits","nodmgspread","uncletopia"],"game_id":440,"stv_port":27046,"stv_name":"Uncletopia | New York City | 4 | Community | STV","players":null},{"server_id":142,"name":"Uncletopia | São Paulo | 1 | All Maps","name_short":"sao-1","host":"sao-1.br.uncletopia.com","port":27015,"enabled":true,"region":"sa","cc":"br","latitude":-23.533773,"longitude":-46.62529,"reserved":0,"last_update":"0001-01-01T00:00:00Z","name_a2s":"Uncletopia | São Paulo | 1 | All Maps","protocol":17,"map":"cp_altitude","folder":"tf","game":"Team Fortress","app_id":440,"player_count":0,"max_players":24,"Bots":0,"server_type":"Dedicated","server_os":"Linux","password":true,"vac":true,"version":"7742253","steam_id":85568392924469996,"keywords":["cp","nocrits","nodmgspread","uncletopia"],"game_id":440,"stv_port":27016,"stv_name":"Uncletopia | São Paulo | 1 | All Maps | STV","players":null},{"server_id":143,"name":"Uncletopia | São Paulo | 2 | All Maps","name_short":"sao-2","host":"sao-2.br.uncletopia.com","port":27015,"enabled":true,"region":"sa","cc":"br","latitude":-23.533773,"longitude":-46.62529,"reserved":0,"last_update":"0001-01-01T00:00:00Z","name_a2s":"Uncletopia | São Paulo | 2 | All Maps","protocol":17,"map":"koth_cascade","folder":"tf","game":"Team Fortress","app_id":440,"player_count":0,"max_players":24,"Bots":0,"server_type":"Dedicated","server_os":"Linux","password":true,"vac":true,"version":"7742253","steam_id":85568392924485349,"keywords":["cp","nocrits","nodmgspread","uncletopia"],"game_id":440,"stv_port":27016,"stv_name":"Uncletopia | São Paulo | 2 | All Maps | STV","players":null},{"server_id":7,"name":"Uncletopia | Seattle | 1 | All Maps","name_short":"sea-1","host":"sea-1.us.uncletopia.com","port":27015,"enabled":true,"region":"us-west","cc":"us","latitude":47.608013,"longitude":-122.33517,"reserved":0,"last_update":"0001-01-01T00:00:00Z","name_a2s":"Uncletopia | Seattle | 1 | All Maps","protocol":17,"map":"pl_snowycoast","folder":"tf","game":"Team Fortress","app_id":440,"player_count":24,"max_players":24,"Bots":0,"server_type":"Dedicated","server_os":"Linux","password":true,"vac":true,"version":"7742253","steam_id":85568392924469997,"keywords":["nocrits","nodmgspread","payload","uncletopia"],"game_id":440,"stv_port":27016,"stv_name":"Uncletopia | Seattle | 1 | All Maps | STV","players":[{"user_id":774,"name":"lavender","steam_id":76561199069518286,"connected_time":1191000000000,"state":"active","ping":72},{"user_id":708,"name":"rorytherednosedreindeer","steam_id":76561198065825165,"connected_time":8561000000000,"state":"active","ping":131},{"user_id":765,"name":"Asphodel","steam_id":76561198750101819,"connected_time":2424000000000,"state":"active","ping":52},{"user_id":762,"name":"Scrumfel Nutz","steam_id":76561198123286409,"connected_time":2465000000000,"state":"active","ping":59},{"user_id":729,"name":"Elias","steam_id":76561198031295139,"connected_time":6248000000000,"state":"active","ping":80},{"user_id":740,"name":"Florist","steam_id":76561198009121060,"connected_time":5052000000000,"state":"active","ping":50},{"user_id":763,"name":"Doctor™","steam_id":76561198134309750,"connected_time":2460000000000,"state":"active","ping":108},{"user_id":779,"name":"Can You Believe It Guys?","steam_id":76561198401455467,"connected_time":959000000000,"state":"active","ping":85},{"user_id":758,"name":"a homeless cat","steam_id":76561198058388903,"connected_time":2481000000000,"state":"active","ping":45},{"user_id":764,"name":"Oof","steam_id":76561198066584165,"connected_time":2460000000000,"state":"active","ping":80},{"user_id":780,"name":"ed","steam_id":76561198080475712,"connected_time":919000000000,"state":"active","ping":69},{"user_id":767,"name":"brobtlcehc","steam_id":76561198043558709,"connected_time":1779000000000,"state":"active","ping":50},{"user_id":768,"name":"gorlab","steam_id":76561198025089694,"connected_time":1603000000000,"state":"active","ping":60},{"user_id":751,"name":"bok","steam_id":76561197999411826,"connected_time":3564000000000,"state":"active","ping":76},{"user_id":782,"name":"squash","steam_id":76561198150281353,"connected_time":82000000000,"state":"active","ping":57},{"user_id":743,"name":"Arsonist Goose","steam_id":76561198147441830,"connected_time":4661000000000,"state":"active","ping":73},{"user_id":754,"name":"AxiosIV","steam_id":76561198097613292,"connected_time":2874000000000,"state":"active","ping":53},{"user_id":755,"name":"Sweets","steam_id":76561198998446307,"connected_time":2710000000000,"state":"active","ping":68},{"user_id":769,"name":"resh","steam_id":76561198239598834,"connected_time":1602000000000,"state":"active","ping":131},{"user_id":747,"name":"Pneumo.","steam_id":76561197987911883,"connected_time":4253000000000,"state":"active","ping":52},{"user_id":771,"name":"lets play overwatch","steam_id":76561198377011495,"connected_time":1590000000000,"state":"active","ping":121},{"user_id":752,"name":"οbaba","steam_id":76561198092633845,"connected_time":3381000000000,"state":"active","ping":83},{"user_id":776,"name":"exephur","steam_id":76561198135763234,"connected_time":978000000000,"state":"active","ping":63},{"user_id":777,"name":"Ayayahuasca","steam_id":76561199002906056,"connected_time":978000000000,"state":"active","ping":47}]},{"server_id":119,"name":"Uncletopia | Seattle | 2 | All Maps","name_short":"sea-2","host":"sea-1.us.uncletopia.com","port":27025,"enabled":true,"region":"us-west","cc":"us","latitude":47.608013,"longitude":-122.33517,"reserved":0,"last_update":"0001-01-01T00:00:00Z","name_a2s":"Uncletopia | Seattle | 2 | All Maps","protocol":17,"map":"ctf_2fort","folder":"tf","game":"Team Fortress","app_id":440,"player_count":20,"max_players":24,"Bots":0,"server_type":"Dedicated","server_os":"Linux","password":true,"vac":true,"version":"7742253","steam_id":85568392924469998,"keywords":["ctf","nocrits","nodmgspread","uncletopia"],"game_id":440,"stv_port":27026,"stv_name":"Uncletopia | Seattle | 2 | All Maps | STV","players":[{"user_id":438,"name":"Juri Han","steam_id":76561198041678517,"connected_time":2809000000000,"state":"active","ping":63},{"user_id":452,"name":"How the Beanch Stole Christmas","steam_id":76561198011704464,"connected_time":2123000000000,"state":"active","ping":43},{"user_id":481,"name":"Qepop","steam_id":76561199051354040,"connected_time":50000000000,"state":"active","ping":62},{"user_id":475,"name":"Shaggy Rogers","steam_id":76561198855559452,"connected_time":819000000000,"state":"active","ping":105},{"user_id":471,"name":"ZachTBH","steam_id":76561198028431126,"connected_time":1231000000000,"state":"active","ping":89},{"user_id":415,"name":"Chiaki Nanami","steam_id":76561198164782653,"connected_time":5498000000000,"state":"active","ping":113},{"user_id":454,"name":"Dang","steam_id":76561198288874083,"connected_time":2119000000000,"state":"active","ping":152},{"user_id":410,"name":"gerg","steam_id":76561197997127387,"connected_time":5630000000000,"state":"active","ping":61},{"user_id":478,"name":"Lawbringer","steam_id":76561198158549095,"connected_time":512000000000,"state":"active","ping":81},{"user_id":476,"name":"bdrakey1","steam_id":76561199217865228,"connected_time":789000000000,"state":"active","ping":127},{"user_id":459,"name":"hamster.assassination","steam_id":76561199419949968,"connected_time":1996000000000,"state":"spawning","ping":123},{"user_id":451,"name":"steak","steam_id":76561198016941612,"connected_time":2192000000000,"state":"active","ping":52},{"user_id":473,"name":"Pacbub","steam_id":76561198165198874,"connected_time":1186000000000,"state":"active","ping":71},{"user_id":413,"name":"social distance warrior","steam_id":76561198128992994,"connected_time":5577000000000,"state":"active","ping":45},{"user_id":468,"name":"Finkly","steam_id":76561198049828110,"connected_time":1390000000000,"state":"active","ping":40},{"user_id":458,"name":"Im feeling it now.","steam_id":76561198034785475,"connected_time":2072000000000,"state":"active","ping":50},{"user_id":477,"name":"Ricelover","steam_id":76561198064631164,"connected_time":756000000000,"state":"active","ping":68},{"user_id":474,"name":"3.dlc","steam_id":76561198234377776,"connected_time":958000000000,"state":"active","ping":77},{"user_id":479,"name":"festive jester","steam_id":76561198079609974,"connected_time":496000000000,"state":"active","ping":68},{"user_id":470,"name":"TheLostPyro","steam_id":76561198099991710,"connected_time":1299000000000,"state":"active","ping":129}]},{"server_id":406,"name":"Uncletopia | Seattle | 3 | Stopwatch Beta","name_short":"sea-3","host":"sea-1.us.uncletopia.com","port":27035,"enabled":true,"region":"us-west","cc":"us","latitude":47.608013,"longitude":-122.33517,"reserved":0,"last_update":"0001-01-01T00:00:00Z","name_a2s":"Uncletopia | Seattle | 3 | Stopwatch Beta","protocol":17,"map":"pl_upward","folder":"tf","game":"Team Fortress","app_id":440,"player_count":2,"max_players":24,"Bots":0,"server_type":"Dedicated","server_os":"Linux","password":true,"vac":false,"version":"7742253","steam_id":0,"keywords":["nocrits","nodmgspread","payload","uncletopia"],"game_id":440,"stv_port":27036,"stv_name":"Uncletopia | Seattle | 3 | Stopwatch Beta | STV","players":[{"user_id":10,"name":"Némiscau","steam_id":76561198257979613,"connected_time":105000000000,"state":"active","ping":48},{"user_id":11,"name":"foura","steam_id":76561198181972739,"connected_time":101000000000,"state":"active","ping":58}]},{"server_id":17,"name":"Uncletopia | San Francisco | 1 | All Maps","name_short":"sfo-1","host":"sfo-1.us.uncletopia.com","port":27015,"enabled":true,"region":"us-west","cc":"us","latitude":37.77397,"longitude":-122.4313,"reserved":0,"last_update":"0001-01-01T00:00:00Z","name_a2s":"Uncletopia | San Francisco | 1 | All Maps","protocol":17,"map":"pl_pier","folder":"tf","game":"Team Fortress","app_id":440,"player_count":23,"max_players":24,"Bots":0,"server_type":"Dedicated","server_os":"Linux","password":true,"vac":true,"version":"7742253","steam_id":85568392924469999,"keywords":["nocrits","nodmgspread","payload","uncletopia"],"game_id":440,"stv_port":27016,"stv_name":"Uncletopia | San Francisco | 1 | All Maps | STV","players":[{"user_id":737,"name":"Hendershot and his One Man Army","steam_id":76561198345471582,"connected_time":937000000000,"state":"active","ping":82},{"user_id":741,"name":"Gamut","steam_id":76561199185822800,"connected_time":345000000000,"state":"active","ping":88},{"user_id":707,"name":"Scoron","steam_id":76561198062099305,"connected_time":2685000000000,"state":"active","ping":58},{"user_id":743,"name":"Agent 11","steam_id":76561198007627899,"connected_time":259000000000,"state":"active","ping":61},{"user_id":744,"name":"Ergo","steam_id":76561198163090057,"connected_time":216000000000,"state":"active","ping":101},{"user_id":657,"name":"HAT-WEARING™ Maggot Gamer Cat","steam_id":76561197973992705,"connected_time":5413000000000,"state":"active","ping":46},{"user_id":689,"name":"Ctheillist","steam_id":76561199275451590,"connected_time":3709000000000,"state":"active","ping":90},{"user_id":745,"name":"Ferb Finesse","steam_id":76561198077879284,"connected_time":183000000000,"state":"active","ping":119},{"user_id":746,"name":"beyond bad","steam_id":76561198044443985,"connected_time":164000000000,"state":"active","ping":114},{"user_id":715,"name":"bingle","steam_id":76561198359413453,"connected_time":2379000000000,"state":"active","ping":118},{"user_id":747,"name":"mango cafe","steam_id":76561198142328193,"connected_time":51000000000,"state":"active","ping":61},{"user_id":722,"name":"3neutral","steam_id":76561198196919359,"connected_time":1955000000000,"state":"active","ping":93},{"user_id":740,"name":"Dusty","steam_id":76561198080646732,"connected_time":467000000000,"state":"active","ping":166},{"user_id":748,"name":"Checkmate","steam_id":76561199071968894,"connected_time":43000000000,"state":"active","ping":62},{"user_id":575,"name":"aisu","steam_id":76561198043768507,"connected_time":12039000000000,"state":"active","ping":101},{"user_id":693,"name":"Soviet Potato","steam_id":76561198068546113,"connected_time":3475000000000,"state":"active","ping":45},{"user_id":749,"name":"Sleuth","steam_id":76561198418288939,"connected_time":42000000000,"state":"active","ping":55},{"user_id":723,"name":"Manter","steam_id":76561199248263384,"connected_time":1915000000000,"state":"active","ping":45},{"user_id":750,"name":"Kylo122O","steam_id":76561198010390111,"connected_time":34000000000,"state":"active","ping":67},{"user_id":733,"name":"Koyota","steam_id":76561198069878114,"connected_time":1251000000000,"state":"active","ping":56},{"user_id":724,"name":":D","steam_id":76561198082011283,"connected_time":1898000000000,"state":"active","ping":45},{"user_id":751,"name":"pumpkin patch","steam_id":76561198381020239,"connected_time":28000000000,"state":"active","ping":63},{"user_id":736,"name":"BackToSchoolAds","steam_id":76561198870281128,"connected_time":1009000000000,"state":"active","ping":99}]},{"server_id":18,"name":"Uncletopia | San Francisco | 2 | All Maps","name_short":"sfo-2","host":"sfo-1.us.uncletopia.com","port":27025,"enabled":true,"region":"us-west","cc":"us","latitude":37.77397,"longitude":-122.4313,"reserved":0,"last_update":"0001-01-01T00:00:00Z","name_a2s":"Uncletopia | San Francisco | 2 | All Maps","protocol":17,"map":"cp_altitude","folder":"tf","game":"Team Fortress","app_id":440,"player_count":0,"max_players":24,"Bots":0,"server_type":"Dedicated","server_os":"Linux","password":true,"vac":true,"version":"7742253","steam_id":85568392924470000,"keywords":["cp","nocrits","nodmgspread","uncletopia"],"game_id":440,"stv_port":27026,"stv_name":"Uncletopia | San Francisco | 2 | All Maps | STV","players":null},{"server_id":19,"name":"Uncletopia | San Francisco | 3 | Stopwatch Beta","name_short":"sfo-3","host":"sfo-1.us.uncletopia.com","port":27035,"enabled":true,"region":"us-west","cc":"us","latitude":37.77397,"longitude":-122.4313,"reserved":0,"last_update":"0001-01-01T00:00:00Z","name_a2s":"Uncletopia | San Francisco | 3 | Stopwatch Beta","protocol":17,"map":"cp_snakewater_final1","folder":"tf","game":"Team Fortress","app_id":440,"player_count":0,"max_players":24,"Bots":0,"server_type":"Dedicated","server_os":"Linux","password":true,"vac":true,"version":"7742253","steam_id":85568392924742824,"keywords":["cp","nocrits","nodmgspread","uncletopia"],"game_id":440,"stv_port":27036,"stv_name":"Uncletopia | San Francisco | 3 | Stopwatch Beta | STV","players":null},{"server_id":20,"name":"Uncletopia | San Francisco | 4 | Community","name_short":"sfo-4","host":"sfo-1.us.uncletopia.com","port":27045,"enabled":true,"region":"us-west","cc":"us","latitude":37.77397,"longitude":-122.4313,"reserved":0,"last_update":"0001-01-01T00:00:00Z","name_a2s":"Uncletopia | San Francisco | 4 | Community","protocol":17,"map":"workshop/koth_synthetic_rc6a.ugc1549817316","folder":"tf","game":"Team Fortress","app_id":440,"player_count":0,"max_players":24,"Bots":0,"server_type":"Dedicated","server_os":"Linux","password":true,"vac":true,"version":"7742253","steam_id":85568392924742826,"keywords":["cp","nocrits","nodmgspread","uncletopia"],"game_id":440,"stv_port":27046,"stv_name":"Uncletopia | San Francisco | 4 | Community | STV","players":null},{"server_id":141,"name":"Uncletopia | Sydney | 1 | All Maps","name_short":"syd-1","host":"syd-1.au.uncletopia.com","port":27015,"enabled":true,"region":"au","cc":"au","latitude":-33.865143,"longitude":151.2099,"reserved":0,"last_update":"0001-01-01T00:00:00Z","name_a2s":"Uncletopia | Sydney | 1 | All Maps","protocol":17,"map":"pl_borneo","folder":"tf","game":"Team Fortress","app_id":440,"player_count":24,"max_players":24,"Bots":0,"server_type":"Dedicated","server_os":"Linux","password":true,"vac":true,"version":"7742253","steam_id":85568392924470001,"keywords":["nocrits","nodmgspread","payload","uncletopia"],"game_id":440,"stv_port":27016,"stv_name":"Uncletopia | Sydney | 1 | All Maps | STV","players":[{"user_id":439,"name":"clout","steam_id":76561198073310502,"connected_time":603000000000,"state":"active","ping":74},{"user_id":413,"name":"Average E Girl","steam_id":76561198354523762,"connected_time":2449000000000,"state":"active","ping":45},{"user_id":408,"name":"nojnosbod11","steam_id":76561199176012151,"connected_time":2644000000000,"state":"active","ping":58},{"user_id":420,"name":"Futurechama","steam_id":76561198335842283,"connected_time":2259000000000,"state":"active","ping":56},{"user_id":387,"name":"Tricka •","steam_id":76561197968440123,"connected_time":3898000000000,"state":"active","ping":45},{"user_id":390,"name":"SUCC MY DUCC","steam_id":76561198127068703,"connected_time":3673000000000,"state":"active","ping":65},{"user_id":368,"name":"Bake Potato Cat","steam_id":76561198220460804,"connected_time":5086000000000,"state":"active","ping":172},{"user_id":414,"name":"April","steam_id":76561198848287180,"connected_time":2443000000000,"state":"active","ping":49},{"user_id":440,"name":"CuzzyCuz","steam_id":76561198069054697,"connected_time":516000000000,"state":"active","ping":60},{"user_id":427,"name":"krandlez` (Any/All)","steam_id":76561198044839726,"connected_time":1445000000000,"state":"active","ping":43},{"user_id":430,"name":"hobo","steam_id":76561199046481213,"connected_time":1308000000000,"state":"active","ping":65},{"user_id":409,"name":"Hybrid_Knight76","steam_id":76561199073462213,"connected_time":2609000000000,"state":"active","ping":53},{"user_id":382,"name":"Courage","steam_id":76561198051379740,"connected_time":4246000000000,"state":"active","ping":58},{"user_id":434,"name":"formatic","steam_id":76561198316573006,"connected_time":851000000000,"state":"active","ping":65},{"user_id":424,"name":"sf/k","steam_id":76561198047758776,"connected_time":1469000000000,"state":"active","ping":46},{"user_id":435,"name":"femboy pybro","steam_id":76561198355125370,"connected_time":844000000000,"state":"active","ping":44},{"user_id":444,"name":"Meme Aids","steam_id":76561198847593053,"connected_time":100000000000,"state":"active","ping":48},{"user_id":433,"name":"Yeehaw","steam_id":76561198039684922,"connected_time":899000000000,"state":"active","ping":41},{"user_id":442,"name":"cade is sleepy","steam_id":76561198126719182,"connected_time":318000000000,"state":"active","ping":50},{"user_id":359,"name":"Wake'n'Bake'n'Make'n'Bacon","steam_id":76561198061960926,"connected_time":5655000000000,"state":"active","ping":91},{"user_id":437,"name":"trash","steam_id":76561198110764631,"connected_time":842000000000,"state":"active","ping":53},{"user_id":438,"name":"tex","steam_id":76561198364851711,"connected_time":842000000000,"state":"active","ping":69},{"user_id":443,"name":"Ham Man","steam_id":76561198096630953,"connected_time":258000000000,"state":"active","ping":75},{"user_id":400,"name":"tim88435","steam_id":76561198089653987,"connected_time":3182000000000,"state":"active","ping":47}]},{"server_id":123,"name":"Uncletopia | Sydney | 2 | All Maps","name_short":"syd-2","host":"syd-1.au.uncletopia.com","port":27025,"enabled":true,"region":"au","cc":"au","latitude":-33.865143,"longitude":151.2099,"reserved":0,"last_update":"0001-01-01T00:00:00Z","name_a2s":"Uncletopia | Sydney | 2 | All Maps","protocol":17,"map":"koth_lakeside_final","folder":"tf","game":"Team Fortress","app_id":440,"player_count":0,"max_players":24,"Bots":0,"server_type":"Dedicated","server_os":"Linux","password":true,"vac":true,"version":"7742253","steam_id":85568392924470002,"keywords":["cp","nocrits","nodmgspread","uncletopia"],"game_id":440,"stv_port":27026,"stv_name":"Uncletopia | Sydney | 2 | All Maps | STV","players":null},{"server_id":395,"name":"Uncletopia | Sydney | 3 | All Maps","name_short":"syd-3","host":"syd-1.au.uncletopia.com","port":27035,"enabled":true,"region":"au","cc":"au","latitude":-33.865143,"longitude":151.2099,"reserved":0,"last_update":"0001-01-01T00:00:00Z","name_a2s":"Uncletopia | Sydney | 3 | All Maps","protocol":17,"map":"cp_dustbowl","folder":"tf","game":"Team Fortress","app_id":440,"player_count":0,"max_players":24,"Bots":0,"server_type":"Dedicated","server_os":"Linux","password":true,"vac":true,"version":"7742253","steam_id":85568392925194467,"keywords":["cp","nocrits","nodmgspread","uncletopia"],"game_id":440,"stv_port":27036,"stv_name":"Uncletopia | Sydney | 3 | All Maps | STV","players":null},{"server_id":396,"name":"Uncletopia | Sydney | 4 | All Maps","name_short":"syd-4","host":"syd-1.au.uncletopia.com","port":27045,"enabled":true,"region":"au","cc":"au","latitude":-33.865143,"longitude":151.2099,"reserved":0,"last_update":"0001-01-01T00:00:00Z","name_a2s":"Uncletopia | Sydney | 4 | All Maps","protocol":17,"map":"cp_process_final","folder":"tf","game":"Team Fortress","app_id":440,"player_count":0,"max_players":24,"Bots":0,"server_type":"Dedicated","server_os":"Linux","password":true,"vac":true,"version":"7742253","steam_id":85568392925397958,"keywords":["cp","nocrits","nodmgspread","uncletopia"],"game_id":440,"stv_port":27046,"stv_name":"Uncletopia | Sydney | 4 | All Maps | STV","players":null},{"server_id":58,"name":"Uncletopia | Sydney | 5 | Stopwatch Beta","name_short":"syd-5","host":"syd-1.au.uncletopia.com","port":27055,"enabled":true,"region":"au","cc":"au","latitude":-33.865143,"longitude":151.2099,"reserved":0,"last_update":"0001-01-01T00:00:00Z","name_a2s":"Uncletopia | Sydney | 5 | Stopwatch Beta","protocol":17,"map":"cp_snakewater_final1","folder":"tf","game":"Team Fortress","app_id":440,"player_count":0,"max_players":24,"Bots":0,"server_type":"Dedicated","server_os":"Linux","password":true,"vac":true,"version":"7742253","steam_id":85568392925397959,"keywords":["cp","nocrits","nodmgspread","uncletopia"],"game_id":440,"stv_port":27056,"stv_name":"Uncletopia | Sydney | 5 | Stopwatch Beta | STV","players":null},{"server_id":59,"name":"Uncletopia | Sydney | 6 | Community","name_short":"syd-6","host":"syd-1.au.uncletopia.com","port":27065,"enabled":true,"region":"au","cc":"au","latitude":-33.865143,"longitude":151.2099,"reserved":0,"last_update":"0001-01-01T00:00:00Z","name_a2s":"Uncletopia | Sydney | 6 | Community","protocol":17,"map":"workshop/koth_product_final.ugc454272353","folder":"tf","game":"Team Fortress","app_id":440,"player_count":3,"max_players":24,"Bots":0,"server_type":"Dedicated","server_os":"Linux","password":true,"vac":true,"version":"7742253","steam_id":85568392925397960,"keywords":["cp","nocrits","nodmgspread","uncletopia"],"game_id":440,"stv_port":27066,"stv_name":"Uncletopia | Sydney | 6 | Community | STV","players":[{"user_id":7,"name":"Jim's KFC","steam_id":76561198131282014,"connected_time":1388000000000,"state":"active","ping":49},{"user_id":8,"name":"tt","steam_id":76561198175567701,"connected_time":1333000000000,"state":"active","ping":76},{"user_id":12,"name":"Etra","steam_id":76561198058618294,"connected_time":54000000000,"state":"spawning","ping":128}]},{"server_id":49,"name":"Uncletopia | Warsaw | 1 | All Maps","name_short":"waw-1","host":"waw-1.pl.uncletopia.com","port":27015,"enabled":true,"region":"eu","cc":"pl","latitude":52.2297,"longitude":21.017532,"reserved":0,"last_update":"0001-01-01T00:00:00Z","name_a2s":"Uncletopia | Warsaw | 1 | All Maps","protocol":17,"map":"koth_lakeside_final","folder":"tf","game":"Team Fortress","app_id":440,"player_count":0,"max_players":24,"Bots":0,"server_type":"Dedicated","server_os":"Linux","password":true,"vac":true,"version":"7723704","steam_id":85568392925397850,"keywords":["cp","nocrits","nodmgspread","uncletopia"],"game_id":440,"stv_port":27016,"stv_name":"Uncletopia | Warsaw | 1 | All Maps | STV","players":null},{"server_id":50,"name":"Uncletopia | Warsaw | 2 | All Maps","name_short":"waw-2","host":"waw-1.pl.uncletopia.com","port":27025,"enabled":true,"region":"eu","cc":"pl","latitude":52.2297,"longitude":21.017532,"reserved":0,"last_update":"0001-01-01T00:00:00Z","name_a2s":"Uncletopia | Warsaw | 2 | All Maps","protocol":17,"map":"pl_frontier_final","folder":"tf","game":"Team Fortress","app_id":440,"player_count":0,"max_players":24,"Bots":0,"server_type":"Dedicated","server_os":"Linux","password":true,"vac":true,"version":"7742253","steam_id":85568392925397851,"keywords":["nocrits","nodmgspread","payload","uncletopia"],"game_id":440,"stv_port":27026,"stv_name":"Uncletopia | Warsaw | 2 | All Maps | STV","players":null},{"server_id":51,"name":"Uncletopia | Warsaw | 3 | All Maps","name_short":"waw-3","host":"waw-1.pl.uncletopia.com","port":27035,"enabled":true,"region":"eu","cc":"pl","latitude":52.2297,"longitude":21.017532,"reserved":0,"last_update":"0001-01-01T00:00:00Z","name_a2s":"Uncletopia | Warsaw | 3 | All Maps","protocol":17,"map":"pl_frontier_final","folder":"tf","game":"Team Fortress","app_id":440,"player_count":0,"max_players":24,"Bots":0,"server_type":"Dedicated","server_os":"Linux","password":true,"vac":true,"version":"7742253","steam_id":85568392925397852,"keywords":["nocrits","nodmgspread","payload","uncletopia"],"game_id":440,"stv_port":27036,"stv_name":"Uncletopia | Warsaw | 3 | All Maps | STV","players":null},{"server_id":52,"name":"Uncletopia | Warsaw | 4 | All Maps","name_short":"waw-4","host":"waw-1.pl.uncletopia.com","port":27045,"enabled":true,"region":"eu","cc":"pl","latitude":52.2297,"longitude":21.017532,"reserved":0,"last_update":"0001-01-01T00:00:00Z","name_a2s":"Uncletopia | Warsaw | 4 | All Maps","protocol":17,"map":"pl_swiftwater_final1","folder":"tf","game":"Team Fortress","app_id":440,"player_count":0,"max_players":24,"Bots":0,"server_type":"Dedicated","server_os":"Linux","password":true,"vac":true,"version":"7742253","steam_id":85568392925397853,"keywords":["nocrits","nodmgspread","payload","uncletopia"],"game_id":440,"stv_port":27046,"stv_name":"Uncletopia | Warsaw | 4 | All Maps | STV","players":null},{"server_id":53,"name":"Uncletopia | Warsaw | 5 | Stopwatch Beta","name_short":"waw-5","host":"waw-1.pl.uncletopia.com","port":27055,"enabled":true,"region":"eu","cc":"pl","latitude":52.2297,"longitude":21.017532,"reserved":0,"last_update":"0001-01-01T00:00:00Z","name_a2s":"Uncletopia | Warsaw | 5 | Stopwatch Beta","protocol":17,"map":"pl_pier","folder":"tf","game":"Team Fortress","app_id":440,"player_count":0,"max_players":24,"Bots":0,"server_type":"Dedicated","server_os":"Linux","password":true,"vac":true,"version":"7742253","steam_id":85568392925397854,"keywords":["nocrits","nodmgspread","payload","uncletopia"],"game_id":440,"stv_port":27056,"stv_name":"Uncletopia | Warsaw | 5 | Stopwatch Beta | STV","players":null},{"server_id":54,"name":"Uncletopia | Warsaw | 6 | Community","name_short":"waw-6","host":"waw-1.pl.uncletopia.com","port":27065,"enabled":true,"region":"eu","cc":"pl","latitude":52.2297,"longitude":21.017532,"reserved":0,"last_update":"0001-01-01T00:00:00Z","name_a2s":"Uncletopia | Warsaw | 6 | Community","protocol":17,"map":"cp_sunshine","folder":"tf","game":"Team Fortress","app_id":440,"player_count":0,"max_players":24,"Bots":0,"server_type":"Dedicated","server_os":"Linux","password":true,"vac":true,"version":"7742253","steam_id":85568392925397856,"keywords":["cp","nocrits","nodmgspread","uncletopia"],"game_id":440,"stv_port":27066,"stv_name":"Uncletopia | Warsaw | 6 | Community | STV","players":null}]}