{"status":true,"message":"","result":[{"server_id":9,"name":"Uncletopia | Atlanta | 1 | All Maps","name_short":"atl-1","host":"atl-1.us.uncletopia.com","port":27015,"enabled":true,"region":"us-east","cc":"us","latitude":33.753746,"longitude":-84.38633,"reserved":0,"last_update":"0001-01-01T00:00:00Z","name_a2s":"Uncletopia | Atlanta | 1 | All Maps","protocol":17,"map":"pl_borneo","folder":"tf","game":"Team Fortress","app_id":440,"player_count":24,"max_players":24,"Bots":0,"server_type":"Dedicated","server_os":"Linux","password":true,"vac":true,"version":"7757534","steam_id":85568392924469982,"keywords":["nocrits","nodmgspread","payload","uncletopia"],"game_id":440,"stv_port":27016,"stv_name":"Uncletopia | Atlanta | 1 | All Maps | STV","players":[{"user_id":381,"name":"G_Bob","steam_id":76561198098133233,"connected_time":7477000000000,"state":"active","ping":48},{"user_id":429,"name":"NEM","steam_id":76561199241131104,"connected_time":3090000000000,"state":"active","ping":81},{"user_id":442,"name":"ATL1 | on my hunting trip","steam_id":76561198315341646,"connected_time":1785000000000,"state":"active","ping":71},{"user_id":441,"name":"Matt","steam_id":76561198008108521,"connected_time":1925000000000,"state":"active","ping":168},{"user_id":378,"name":"You Want Me","steam_id":76561198135492119,"connected_time":7636000000000,"state":"active","ping":62},{"user_id":452,"name":"CrankShaft","steam_id":76561197970750813,"connected_time":705000000000,"state":"active","ping":35},{"user_id":428,"name":"Daisy the Pitbull","steam_id":76561198150327877,"connected_time":3096000000000,"state":"active","ping":74},{"user_id":458,"name":"Charlie","steam_id":76561199098209171,"connected_time":8000000000,"state":"spawning","ping":160},{"user_id":456,"name":"Mr. Mister","steam_id":76561198830839783,"connected_time":24000000000,"state":"connecting","ping":120},{"user_id":434,"name":"Monster","steam_id":76561198189429665,"connected_time":2428000000000,"state":"active","ping":111},{"user_id":459,"name":"Sprunk","steam_id":76561198091563713,"connected_time":3000000000,"state":"spawning","ping":54},{"user_id":386,"name":"cola","steam_id":76561198374390458,"connected_time":6798000000000,"state":"active","ping":98},{"user_id":421,"name":"BambuBabyPackRunner","steam_id":76561198320866421,"connected_time":3571000000000,"state":"active","ping":57},{"user_id":319,"name":"Mage","steam_id":76561198285026879,"connected_time":11233000000000,"state":"spawning","ping":58},{"user_id":438,"name":"Basement Grandpa","steam_id":76561198014574925,"connected_time":2004000000000,"state":"active","ping":187},{"user_id":449,"name":"Riptide","steam_id":76561198164930435,"connected_time":880000000000,"state":"spawning","ping":47},{"user_id":406,"name":"fortnite.jimmy.2014","steam_id":76561199177672325,"connected_time":5469000000000,"state":"active","ping":51},{"user_id":453,"name":"floofy","steam_id":76561198389769098,"connected_time":568000000000,"state":"spawning","ping":77},{"user_id":422,"name":"Young-OG","steam_id":76561198058800479,"connected_time":3516000000000,"state":"active","ping":79},{"user_id":446,"name":"eish","steam_id":76561198089463603,"connected_time":1214000000000,"state":"active","ping":114},{"user_id":444,"name":"Doodleshy","steam_id":76561198103799866,"connected_time":1767000000000,"state":"spawning","ping":71},{"user_id":455,"name":"Lawtumn","steam_id":76561198347286009,"connected_time":35000000000,"state":"active","ping":57},{"user_id":457,"name":"Jesse Thinkman","steam_id":76561198061675475,"connected_time":23000000000,"state":"connecting","ping":49},{"user_id":427,"name":"Motorol¬™","steam_id":76561198358119669,"connected_time":3105000000000,"state":"spawning","ping":110}]},{"server_id":400,"name":"Uncletopia | Atlanta | 3 | Community","name_short":"atl-3","host":"atl-1.us.uncletopia.com","port":27035,"enabled":true,"region":"us-east","cc":"us","latitude":33.753746,"longitude":-84.38633,"reserved":0,"last_update":"0001-01-01T00:00:00Z","name_a2s":"Uncletopia | Atlanta | 3 | Community","protocol":17,"map":"workshop/cp_propaganda_b18.ugc1603743849","folder":"tf","game":"Team Fortress","app_id":440,"player_count":0,"max_players":24,"Bots":0,"server_type":"Dedicated","server_os":"Linux","password":true,"vac":true,"version":"7757534","steam_id":85568392924515187,"keywords":["cp","nocrits","nodmgspread","uncletopia"],"game_id":440,"stv_port":27036,"stv_name":"Uncletopia | Atlanta | 3 | Community | STV","players":null},{"server_id":401,"name":"Uncletopia | Atlanta | 4 | No Payload","name_short":"atl-4","host":"atl-1.us.uncletopia.com","port":27045,"enabled":true,"region":"us-east","cc":"us","latitude":33.753746,"longitude":-84.38633,"reserved":0,"last_update":"0001-01-01T00:00:00Z","name_a2s":"","protocol":0,"map":"","folder":"","game":"","app_id":0,"player_count":0,"max_players":0,"Bots":0,"server_type":"","server_os":"","password":false,"vac":false,"version":"","steam_id":0,"keywords":null,"game_id":0,"stv_port":0,"stv_name":"","players":null},{"server_id":2,"name":"Uncletopia | Chicago | 1 | All Maps","name_short":"chi-1","host":"chi-1.us.uncletopia.com","port":27015,"enabled":true,"region":"us-central","cc":"us","latitude":41.881832,"longitude":-87.62318,"reserved":0,"last_update":"0001-01-01T00:00:00Z","name_a2s":"Uncletopia | Chicago | 1 | All Maps","protocol":17,"map":"pl_badwater","folder":"tf","game":"Team Fortress","app_id":440,"player_count":23,"max_players":24,"Bots":0,"server_type":"Dedicated","server_os":"Linux","password":true,"vac":true,"version":"7757534","steam_id":85568392924469984,"keywords":["nocrits","nodmgspread","payload","uncletopia"],"game_id":440,"stv_port":27016,"stv_name":"Uncletopia | Chicago | 1 | All Maps | STV","players":[{"user_id":159,"name":"mel","steam_id":76561198097124190,"connected_time":1609000000000,"state":"active","ping":77},{"user_id":177,"name":"Thatoneguy","steam_id":76561198142317177,"connected_time":430000000000,"state":"active","ping":70},{"user_id":161,"name":"pablo","steam_id":76561198395577807,"connected_time":1511000000000,"state":"active","ping":48},{"user_id":170,"name":"üé£ I'd Rather Be Gooning","steam_id":76561198062410522,"connected_time":722000000000,"state":"active","ping":59},{"user_id":174,"name":"BlueKirbvii","steam_id":76561199021459412,"connected_time":506000000000,"state":"active","ping":74},{"user_id":158,"name":"Smeller","steam_id":76561198041767882,"connected_time":1897000000000,"state":"active","ping":45},{"user_id":175,"name":"Potato PC","steam_id":76561197994217512,"connected_time":503000000000,"state":"active","ping":87},{"user_id":141,"name":"Ginger Jesus","steam_id":76561198052386458,"connected_time":2815000000000,"state":"active","ping":59},{"user_id":176,"name":"Moz","steam_id":76561198027171160,"connected_time":489000000000,"state":"active","ping":42},{"user_id":134,"name":"fish (2:3)","steam_id":76561198134331073,"connected_time":3454000000000,"state":"active","ping":110},{"user_id":132,"name":"Kapitan Bomba","steam_id":76561199102087660,"connected_time":3784000000000,"state":"active","ping":68},{"user_id":90,"name":"Malevo","steam_id":76561198148606522,"connected_time":8116000000000,"state":"active","ping":83},{"user_id":172,"name":"Leviathan","steam_id":76561197997528907,"connected_time":630000000000,"state":"active","ping":54},{"user_id":143,"name":"Amazingamerhawk","steam_id":76561199064935924,"connected_time":2793000000000,"state":"active","ping":62},{"user_id":136,"name":"augs","steam_id":76561199120607417,"connected_time":3285000000000,"state":"active","ping":66},{"user_id":144,"name":"Dip-Shit Dave","steam_id":76561198357468325,"connected_time":2792000000000,"state":"active","ping":76},{"user_id":146,"name":"jstn","steam_id":76561198845283665,"connected_time":2768000000000,"state":"active","ping":74},{"user_id":156,"name":"Frozen-Traveler","steam_id":76561198121748166,"connected_time":2025000000000,"state":"active","ping":68},{"user_id":166,"name":"Ursus Ludius","steam_id":76561198025470722,"connected_time":1175000000000,"state":"active","ping":93},{"user_id":148,"name":"AidenWTD","steam_id":76561198212217552,"connected_time":2737000000000,"state":"active","ping":75},{"user_id":149,"name":"4 life","steam_id":76561198175961598,"connected_time":2687000000000,"state":"active","ping":118},{"user_id":179,"name":"Matt.jpg","steam_id":76561198132469465,"connected_time":78000000000,"state":"active","ping":50},{"user_id":168,"name":"mashallah","steam_id":76561198075111427,"connected_time":908000000000,"state":"active","ping":83}]},{"server_id":106,"name":"Uncletopia | Chicago | 2 | All Maps","name_short":"chi-2","host":"chi-1.us.uncletopia.com","port":27025,"enabled":true,"region":"us-central","cc":"us","latitude":41.881832,"longitude":-87.62318,"reserved":0,"last_update":"0001-01-01T00:00:00Z","name_a2s":"Uncletopia | Chicago | 2 | All Maps","protocol":17,"map":"pl_borneo","folder":"tf","game":"Team Fortress","app_id":440,"player_count":24,"max_players":24,"Bots":0,"server_type":"Dedicated","server_os":"Linux","password":true,"vac":true,"version":"7757534","steam_id":85568392924469985,"keywords":["nocrits","nodmgspread","payload","uncletopia"],"game_id":440,"stv_port":27026,"stv_name":"Uncletopia | Chicago | 2 | All Maps | STV","players":[{"user_id":377,"name":"what","steam_id":76561198082336619,"connected_time":776000000000,"state":"active","ping":73},{"user_id":363,"name":"AX0L_","steam_id":76561199008960175,"connected_time":1522000000000,"state":"active","ping":47},{"user_id":384,"name":"[ŸäŸáŸàÿØŸä] Bill Clinton [◊ê◊ú","steam_id":76561198163291190,"connected_time":254000000000,"state":"active","ping":89},{"user_id":364,"name":"swan","steam_id":76561198012569200,"connected_time":1522000000000,"state":"active","ping":74},{"user_id":373,"name":"Gad","steam_id":76561198020792373,"connected_time":1048000000000,"state":"active","ping":55},{"user_id":359,"name":"Donkski","steam_id":76561198406895347,"connected_time":2487000000000,"state":"active","ping":69},{"user_id":380,"name":"Chesh","steam_id":76561197990316722,"connected_time":462000000000,"state":"active","ping":78},{"user_id":366,"name":"Cave","steam_id":76561198263551216,"connected_time":1515000000000,"state":"active","ping":88},{"user_id":351,"name":"King of The Wood","steam_id":76561198132147358,"connected_time":2676000000000,"state":"active","ping":60},{"user_id":348,"name":"Greg69420","steam_id":76561198211335128,"connected_time":2855000000000,"state":"active","ping":102},{"user_id":326,"name":"Hammerhead","steam_id":76561198897122890,"connected_time":4550000000000,"state":"active","ping":60},{"user_id":371,"name":"Jill the Owl","steam_id":76561197999210583,"connected_time":1452000000000,"state":"active","ping":74},{"user_id":374,"name":"Ceiling Man","steam_id":76561198003959902,"connected_time":964000000000,"state":"active","ping":60},{"user_id":345,"name":"TimTam Tom","steam_id":76561198045988062,"connected_time":3093000000000,"state":"active","ping":99},{"user_id":354,"name":"THRILLHO","steam_id":76561198371663047,"connected_time":2643000000000,"state":"active","ping":60},{"user_id":369,"name":"Bolgerp","steam_id":76561198007792525,"connected_time":1497000000000,"state":"active","ping":128},{"user_id":342,"name":"Garfield","steam_id":76561198427292932,"connected_time":3216000000000,"state":"active","ping":59},{"user_id":376,"name":"Broadsword","steam_id":76561198011160411,"connected_time":886000000000,"state":"active","ping":97},{"user_id":332,"name":"Johnny Lawrence #JohnnyMaxxing","steam_id":76561199367141671,"connected_time":3959000000000,"state":"active","ping":60},{"user_id":176,"name":"Wahooka","steam_id":76561197962240925,"connected_time":14610000000000,"state":"active","ping":58},{"user_id":372,"name":"Snazzi","steam_id":76561198085208276,"connected_time":1447000000000,"state":"active","ping":97},{"user_id":385,"name":"CrazyMate101","steam_id":76561198033966344,"connected_time":208000000000,"state":"active","ping":125},{"user_id":383,"name":"Spoilt Pudding","steam_id":76561198001195423,"connected_time":378000000000,"state":"active","ping":82},{"user_id":284,"name":"Reversed","steam_id":76561198136433466,"connected_time":7076000000000,"state":"active","ping":56}]},{"server_id":402,"name":"Uncletopia | Chicago | 3 | All Maps","name_short":"chi-3","host":"chi-1.us.uncletopia.com","port":27035,"enabled":true,"region":"us-central","cc":"us","latitude":41.881832,"longitude":-87.62318,"reserved":0,"last_update":"0001-01-01T00:00:00Z","name_a2s":"Uncletopia | Chicago | 3 | All Maps","protocol":17,"map":"plr_bananabay","folder":"tf","game":"Team Fortress","app_id":440,"player_count":24,"max_players":24,"Bots":0,"server_type":"Dedicated","server_os":"Linux","password":true,"vac":true,"version":"7757534","steam_id":85568392924515191,"keywords":["nocrits","nodmgspread","payload","uncletopia"],"game_id":440,"stv_port":27036,"stv_name":"Uncletopia | Chicago | 3 | All Maps | STV","players":[{"user_id":99,"name":"Joker","steam_id":76561198825464266,"connected_time":285000000000,"state":"active","ping":71},{"user_id":100,"name":"MrSpleens","steam_id":76561199121455258,"connected_time":270000000000,"state":"active","ping":76},{"user_id":22,"name":"princess musky paws","steam_id":76561198054925421,"connected_time":3863000000000,"state":"active","ping":55},{"user_id":101,"name":"Gongus","steam_id":76561199199194177,"connected_time":179000000000,"state":"active","ping":88},{"user_id":50,"name":"gps","steam_id":76561198067492304,"connected_time":3334000000000,"state":"active","ping":84},{"user_id":88,"name":"cucumper","steam_id":76561198079504588,"connected_time":675000000000,"state":"active","ping":66},{"user_id":102,"name":"Bombat","steam_id":76561198083096946,"connected_time":175000000000,"state":"active","ping":110},{"user_id":86,"name":"Xx_PR3TTY_R4VE_G!R1_xX","steam_id":76561199059016425,"connected_time":722000000000,"state":"active","ping":58},{"user_id":90,"name":"chains","steam_id":76561197988802856,"connected_time":511000000000,"state":"active","ping":153},{"user_id":31,"name":"Wild_Rumpus","steam_id":76561198066393719,"connected_time":3660000000000,"state":"active","ping":68},{"user_id":96,"name":"Bub","steam_id":76561198059791574,"connected_time":385000000000,"state":"active","ping":120},{"user_id":49,"name":"sibling bane","steam_id":76561198196769297,"connected_time":3346000000000,"state":"active","ping":59},{"user_id":103,"name":"JuJuVox","steam_id":76561198052371247,"connected_time":160000000000,"state":"active","ping":64},{"user_id":83,"name":"Luis wid a mic","steam_id":76561198349570006,"connected_time":884000000000,"state":"active","ping":59},{"user_id":70,"name":"Rifter","steam_id":76561198077430698,"connected_time":1057000000000,"state":"active","ping":64},{"user_id":73,"name":"SpringSeas","steam_id":76561199019859624,"connected_time":1040000000000,"state":"active","ping":72},{"user_id":104,"name":"pylot","steam_id":76561198119460618,"connected_time":157000000000,"state":"active","ping":90},{"user_id":87,"name":"Sous-Chef","steam_id":76561198075705827,"connected_time":697000000000,"state":"active","ping":74},{"user_id":52,"name":"LegendaryMister151","steam_id":76561198064890524,"connected_time":3260000000000,"state":"active","ping":89},{"user_id":84,"name":"Luckeater","steam_id":76561198129293584,"connected_time":871000000000,"state":"active","ping":108},{"user_id":92,"name":"nalezinik","steam_id":76561198030026119,"connected_time":503000000000,"state":"active","ping":63},{"user_id":47,"name":"REALLINUSJEWTIP.","steam_id":76561198056647983,"connected_time":3374000000000,"state":"active","ping":75},{"user_id":48,"name":"paisano","steam_id":76561198065575472,"connected_time":3369000000000,"state":"active","ping":64},{"user_id":51,"name":"aversa","steam_id":76561198840460101,"connected_time":3332000000000,"state":"active","ping":66}]},{"server_id":403,"name":"Uncletopia | Chicago | 4 | All Maps","name_short":"chi-4","host":"chi-1.us.uncletopia.com","port":27045,"enabled":true,"region":"us-central","cc":"us","latitude":41.881832,"longitude":-87.62318,"reserved":0,"last_update":"0001-01-01T00:00:00Z","name_a2s":"Uncletopia | Chicago | 4 | All Maps","protocol":17,"map":"pl_barnblitz","folder":"tf","game":"Team Fortress","app_id":440,"player_count":24,"max_players":24,"Bots":0,"server_type":"Dedicated","server_os":"Linux","password":true,"vac":true,"version":"7757534","steam_id":85568392924515193,"keywords":["nocrits","nodmgspread","payload","uncletopia"],"game_id":440,"stv_port":27046,"stv_name":"Uncletopia | Chicago | 4 | All Maps | STV","players":[{"user_id":618,"name":"TacticalGlizzy","steam_id":76561198144786171,"connected_time":404000000000,"state":"active","ping":68},{"user_id":606,"name":"Alpha Goose","steam_id":76561198038927852,"connected_time":1485000000000,"state":"active","ping":70},{"user_id":539,"name":"Jh0n","steam_id":76561198059013774,"connected_time":5968000000000,"state":"active","ping":152},{"user_id":623,"name":"AxonAndroidCM","steam_id":76561198086269391,"connected_time":204000000000,"state":"active","ping":103},{"user_id":621,"name":"HeisenBurger","steam_id":76561198040632080,"connected_time":263000000000,"state":"active","ping":51},{"user_id":575,"name":"TheTruthOfTheCessationOfDukkha","steam_id":76561198214370515,"connected_time":3027000000000,"state":"active","ping":55},{"user_id":583,"name":"GhostCoffee","steam_id":76561198105228900,"connected_time":2594000000000,"state":"active","ping":58},{"user_id":615,"name":"Lzuli","steam_id":76561198799610915,"connected_time":878000000000,"state":"active","ping":93},{"user_id":624,"name":"Moldy Potato","steam_id":76561198044183095,"connected_time":201000000000,"state":"active","ping":79},{"user_id":591,"name":"Colepie","steam_id":76561198037853211,"connected_time":2358000000000,"state":"active","ping":77},{"user_id":598,"name":"Luciender","steam_id":76561198029833049,"connected_time":1965000000000,"state":"active","ping":77},{"user_id":590,"name":"catrick bateman :3","steam_id":76561198211308328,"connected_time":2380000000000,"state":"active","ping":60},{"user_id":586,"name":"Quibbli","steam_id":76561199214866732,"connected_time":2562000000000,"state":"active","ping":65},{"user_id":603,"name":"VX_","steam_id":76561198211529143,"connected_time":1794000000000,"state":"active","ping":59},{"user_id":578,"name":"human (real)","steam_id":76561197962607364,"connected_time":2978000000000,"state":"active","ping":66},{"user_id":593,"name":"cube","steam_id":76561197991759721,"connected_time":2201000000000,"state":"active","ping":60},{"user_id":601,"name":"bobbybeachchair","steam_id":76561198170939290,"connected_time":1913000000000,"state":"active","ping":59},{"user_id":543,"name":"Watatsuki no Yorihime","steam_id":76561198063315650,"connected_time":5958000000000,"state":"active","ping":76},{"user_id":625,"name":"wahooka","steam_id":76561197981211922,"connected_time":75000000000,"state":"active","ping":69},{"user_id":612,"name":"Trolldier 76","steam_id":76561198036504161,"connected_time":897000000000,"state":"active","ping":123},{"user_id":620,"name":"Quark","steam_id":76561198328155605,"connected_time":343000000000,"state":"active","ping":54},{"user_id":614,"name":"Kaleetan","steam_id":76561198388123421,"connected_time":885000000000,"state":"active","ping":105},{"user_id":622,"name":"Ape","steam_id":76561198132535311,"connected_time":255000000000,"state":"active","ping":70},{"user_id":609,"name":"Free F 2","steam_id":76561198045309016,"connected_time":1234000000000,"state":"active","ping":73}]},{"server_id":36,"name":"Uncletopia | Chicago | 5 | All Maps","name_short":"chi-5","host":"chi-2.us.uncletopia.com","port":27015,"enabled":true,"region":"us-central","cc":"us","latitude":41.881832,"longitude":-87.62318,"reserved":0,"last_update":"0001-01-01T00:00:00Z","name_a2s":"Uncletopia | Chicago | 5 | All Maps","protocol":17,"map":"koth_lakeside_final","folder":"tf","game":"Team Fortress","app_id":440,"player_count":25,"max_players":24,"Bots":0,"server_type":"Dedicated","server_os":"Linux","password":true,"vac":true,"version":"7757534","steam_id":85568392924866362,"keywords":["cp","nocrits","nodmgspread","uncletopia"],"game_id":440,"stv_port":27016,"stv_name":"Uncletopia | Chicago | 5 | All Maps | STV","players":[{"user_id":20,"name":"Lakhesis","steam_id":76561197969796919,"connected_time":1539000000000,"state":"active","ping":59},{"user_id":21,"name":"FartExploder01","steam_id":76561199124760806,"connected_time":1518000000000,"state":"active","ping":56},{"user_id":27,"name":"RexTheOnlyOne","steam_id":76561198848396566,"connected_time":434000000000,"state":"active","ping":58},{"user_id":26,"name":"Acorn","steam_id":76561198353480153,"connected_time":519000000000,"state":"active","ping":57},{"user_id":28,"name":"illious","steam_id":76561198169925494,"connected_time":379000000000,"state":"active","ping":70},{"user_id":29,"name":"Da.Beans","steam_id":76561199209376527,"connected_time":371000000000,"state":"active","ping":58},{"user_id":30,"name":"Inquisitribble","steam_id":76561198022402409,"connected_time":367000000000,"state":"active","ping":46},{"user_id":31,"name":"KoolBucky","steam_id":76561198147927648,"connected_time":355000000000,"state":"active","ping":86},{"user_id":33,"name":"PUNISHER_2026","steam_id":76561199076851518,"connected_time":317000000000,"state":"active","ping":94},{"user_id":34,"name":"two one middle road","steam_id":76561198060868125,"connected_time":246000000000,"state":"active","ping":62},{"user_id":35,"name":"Stormz64","steam_id":76561198239036482,"connected_time":244000000000,"state":"active","ping":68},{"user_id":36,"name":"Haula","steam_id":76561198076586592,"connected_time":218000000000,"state":"active","ping":79},{"user_id":37,"name":"Just A Skull","steam_id":76561198404410574,"connected_time":201000000000,"state":"active","ping":66},{"user_id":38,"name":"The World is a Beautiful Place","steam_id":76561198062324500,"connected_time":183000000000,"state":"active","ping":53},{"user_id":39,"name":"sir_glorp","steam_id":76561198074363801,"connected_time":171000000000,"state":"active","ping":46},{"user_id":40,"name":"Veles","steam_id":76561198255964493,"connected_time":162000000000,"state":"active","ping":58},{"user_id":41,"name":"Carbuncle","steam_id":76561198983852058,"connected_time":159000000000,"state":"active","ping":63},{"user_id":42,"name":"Remember Buscemi","steam_id":76561198141832292,"connected_time":150000000000,"state":"active","ping":74},{"user_id":43,"name":"lcy13vv","steam_id":76561197995997446,"connected_time":143000000000,"state":"active","ping":53},{"user_id":44,"name":"evan_is_sauce","steam_id":76561199086802383,"connected_time":139000000000,"state":"active","ping":215},{"user_id":45,"name":"IM A MUUUUUUUUUUNCH!!!","steam_id":76561198112457732,"connected_time":116000000000,"state":"active","ping":64},{"user_id":46,"name":"Transformer6000","steam_id":76561199261627100,"connected_time":114000000000,"state":"active","ping":81},{"user_id":47,"name":"mrsomeoneisreal","steam_id":76561199471566863,"connected_time":107000000000,"state":"active","ping":141},{"user_id":48,"name":"Jim Sock","steam_id":76561198418165673,"connected_time":100000000000,"state":"active","ping":57},{"user_id":49,"name":"cut_the_freakin_steak","steam_id":76561199212945372,"connected_time":68000000000,"state":"active","ping":65}]},{"server_id":37,"name":"Uncletopia | Chicago | 6 | All Maps","name_short":"chi-6","host":"chi-2.us.uncletopia.com","port":27025,"enabled":true,"region":"us-central","cc":"us","latitude":41.881832,"longitude":-87.62318,"reserved":0,"last_update":"0001-01-01T00:00:00Z","name_a2s":"Uncletopia | Chicago | 6 | All Maps","protocol":17,"map":"cp_sunshine","folder":"tf","game":"Team Fortress","app_id":440,"player_count":24,"max_players":24,"Bots":0,"server_type":"Dedicated","server_os":"Linux","password":true,"vac":true,"version":"7757534","steam_id":85568392924866363,"keywords":["cp","nocrits","nodmgspread","uncletopia"],"game_id":440,"stv_port":27026,"stv_name":"Uncletopia | Chicago | 6 | All Maps | STV","players":[{"user_id":396,"name":"Owl Pacino","steam_id":76561197979970666,"connected_time":2753000000000,"state":"active","ping":52},{"user_id":413,"name":"Bird","steam_id":76561198247484514,"connected_time":2264000000000,"state":"active","ping":75},{"user_id":408,"name":"Dyson","steam_id":76561199081837220,"connected_time":2371000000000,"state":"active","ping":104},{"user_id":438,"name":"Godmode","steam_id":76561198076240365,"connected_time":760000000000,"state":"active","ping":60},{"user_id":409,"name":"shut #saveTF2","steam_id":76561199052847189,"connected_time":2361000000000,"state":"active","ping":70},{"user_id":404,"name":"CinnamonBoy","steam_id":76561198882330338,"connected_time":2418000000000,"state":"active","ping":72},{"user_id":410,"name":"DagyDin","steam_id":76561199212257554,"connected_time":2333000000000,"state":"active","ping":53},{"user_id":414,"name":"GamerMan","steam_id":76561199058616824,"connected_time":2249000000000,"state":"active","ping":73},{"user_id":343,"name":"dismissy","steam_id":76561198073904781,"connected_time":6216000000000,"state":"active","ping":152},{"user_id":412,"name":"Raptorria","steam_id":76561198105613110,"connected_time":2274000000000,"state":"active","ping":60},{"user_id":415,"name":"Kubloo","steam_id":76561198067391168,"connected_time":2228000000000,"state":"active","ping":65},{"user_id":426,"name":"Kitt(eh) ‚àë:3","steam_id":76561198110858518,"connected_time":1471000000000,"state":"active","ping":59},{"user_id":433,"name":"YoungApprentice","steam_id":76561198150172218,"connected_time":890000000000,"state":"active","ping":86},{"user_id":432,"name":"jeremimi","steam_id":76561198818225102,"connected_time":901000000000,"state":"active","ping":128},{"user_id":442,"name":"ƒ†1 ‚ô¶ Synth","steam_id":76561198058660228,"connected_time":276000000000,"state":"active","ping":51},{"user_id":425,"name":"fish","steam_id":76561198054070811,"connected_time":1630000000000,"state":"active","ping":107},{"user_id":437,"name":"uluna","steam_id":76561198284102821,"connected_time":768000000000,"state":"active","ping":69},{"user_id":419,"name":"Huntpk","steam_id":76561198340591674,"connected_time":2154000000000,"state":"active","ping":41},{"user_id":364,"name":"=7Cav=CPL.Smith.V","steam_id":76561198104044042,"connected_time":5161000000000,"state":"active","ping":75},{"user_id":443,"name":"Ray629","steam_id":76561198325201646,"connected_time":125000000000,"state":"active","ping":112},{"user_id":403,"name":"CreativeCoffeeCake","steam_id":76561198323542875,"connected_time":2458000000000,"state":"active","ping":135},{"user_id":440,"name":"ShitpostShaman","steam_id":76561198063533972,"connected_time":562000000000,"state":"active","ping":82},{"user_id":430,"name":"emo era","steam_id":76561198277163301,"connected_time":939000000000,"state":"active","ping":69},{"user_id":401,"name":"Crazy__Biscuit","steam_id":76561198399851872,"connected_time":2540000000000,"state":"active","ping":75}]},{"server_id":38,"name":"Uncletopia | Chicago | 7 | Stopwatch Beta","name_short":"chi-7","host":"chi-2.us.uncletopia.com","port":27035,"enabled":true,"region":"us-central","cc":"us","latitude":41.881832,"longitude":-87.62318,"reserved":0,"last_update":"0001-01-01T00:00:00Z","name_a2s":"Uncletopia | Chicago | 7 | Stopwatch Beta","protocol":17,"map":"koth_lakeside_final","folder":"tf","game":"Team Fortress","app_id":440,"player_count":0,"max_players":24,"Bots":0,"server_type":"Dedicated","server_os":"Linux","password":true,"vac":true,"version":"7757534","steam_id":85568392924866364,"keywords":["cp","nocrits","nodmgspread","uncletopia"],"game_id":440,"stv_port":27036,"stv_name":"Uncletopia | Chicago | 7 | Stopwatch Beta | STV","players":null},{"server_id":39,"name":"Uncletopia | Chicago | 8 | Community","name_short":"chi-8","host":"chi-2.us.uncletopia.com","port":27045,"enabled":true,"region":"us-central","cc":"us","latitude":41.881832,"longitude":-87.62318,"reserved":0,"last_update":"0001-01-01T00:00:00Z","name_a2s":"Uncletopia | Chicago | 8 | Community","protocol":17,"map":"koth_lakeside_final","folder":"tf","game":"Team Fortress","app_id":440,"player_count":0,"max_players":24,"Bots":0,"server_type":"Dedicated","server_os":"Linux","password":true,"vac":true,"version":"7757534","steam_id":85568392924866365,"keywords":["cp","nocrits","nodmgspread","uncletopia"],"game_id":440,"stv_port":27046,"stv_name":"Uncletopia | Chicago | 8 | Community | STV","players":null},{"server_id":8,"name":"Uncletopia | Dallas | 1 | All Maps","name_short":"dal-1","host":"dal-1.us.uncletopia.com","port":27015,"enabled":true,"region":"us-central","cc":"us","latitude":32.779167,"longitude":-96.80889,"reserved":0,"last_update":"0001-01-01T00:00:00Z","name_a2s":"Uncletopia | Dallas | 1 | All Maps","protocol":17,"map":"pl_upward","folder":"tf","game":"Team Fortress","app_id":440,"player_count":22,"max_players":24,"Bots":0,"server_type":"Dedicated","server_os":"Linux","password":true,"vac":true,"version":"7757534","steam_id":85568392924469986,"keywords":["nocrits","nodmgspread","payload","uncletopia"],"game_id":440,"stv_port":27016,"stv_name":"Uncletopia | Dallas | 1 | All Maps | STV","players":[{"user_id":232,"name":"i just clicked your back","steam_id":76561199446074078,"connected_time":1090000000000,"state":"active","ping":79},{"user_id":230,"name":"TheMightyClippy","steam_id":76561198036954331,"connected_time":1301000000000,"state":"active","ping":58},{"user_id":243,"name":"[LINUX] Purple Penguin Pybro","steam_id":76561198093538786,"connected_time":547000000000,"state":"active","ping":45},{"user_id":208,"name":"Akkawi","steam_id":76561198203159952,"connected_time":2927000000000,"state":"active","ping":85},{"user_id":226,"name":"Trench","steam_id":76561198251607766,"connected_time":1567000000000,"state":"active","ping":113},{"user_id":157,"name":"TTV/PolperLane","steam_id":76561198079439317,"connected_time":6944000000000,"state":"active","ping":59},{"user_id":227,"name":"dad vibes","steam_id":76561197990714447,"connected_time":1480000000000,"state":"active","ping":45},{"user_id":242,"name":"vanillaiin","steam_id":76561198058617608,"connected_time":593000000000,"state":"active","ping":75},{"user_id":240,"name":"Resh420","steam_id":76561198066619792,"connected_time":677000000000,"state":"active","ping":60},{"user_id":248,"name":"Mischievous44","steam_id":76561198106532712,"connected_time":2000000000,"state":"spawning","ping":55},{"user_id":246,"name":"Jelpo","steam_id":76561198406920072,"connected_time":115000000000,"state":"active","ping":87},{"user_id":247,"name":".Thomas","steam_id":76561198162759004,"connected_time":26000000000,"state":"active","ping":75},{"user_id":215,"name":"TTV/ChadMorningWood","steam_id":76561198139832291,"connected_time":2108000000000,"state":"active","ping":62},{"user_id":151,"name":"pour","steam_id":76561198127525888,"connected_time":7434000000000,"state":"active","ping":49},{"user_id":244,"name":"Jared In Target","steam_id":76561198372449718,"connected_time":432000000000,"state":"active","ping":50},{"user_id":228,"name":"Grumby","steam_id":76561198149175262,"connected_time":1480000000000,"state":"active","ping":54},{"user_id":185,"name":"EmptyB33R","steam_id":76561198993166528,"connected_time":4848000000000,"state":"active","ping":133},{"user_id":229,"name":"[_Dr.Scythe_]","steam_id":76561198845245858,"connected_time":1440000000000,"state":"active","ping":84},{"user_id":175,"name":"Bunny of Epicness","steam_id":76561198003897012,"connected_time":5232000000000,"state":"active","ping":45},{"user_id":178,"name":"mushroom taco","steam_id":76561198097554694,"connected_time":5167000000000,"state":"active","ping":46},{"user_id":234,"name":"Aztea","steam_id":76561198982089893,"connected_time":1076000000000,"state":"active","ping":88},{"user_id":219,"name":"Big G","steam_id":76561198067496197,"connected_time":2063000000000,"state":"active","ping":75}]},{"server_id":108,"name":"Uncletopia | Dallas | 2 | All Maps","name_short":"dal-2","host":"dal-1.us.uncletopia.com","port":27025,"enabled":true,"region":"us-central","cc":"us","latitude":32.779167,"longitude":-96.80889,"reserved":0,"last_update":"0001-01-01T00:00:00Z","name_a2s":"Uncletopia | Dallas | 2 | All Maps","protocol":17,"map":"pl_pier","folder":"tf","game":"Team Fortress","app_id":440,"player_count":24,"max_players":24,"Bots":0,"server_type":"Dedicated","server_os":"Linux","password":true,"vac":true,"version":"7757534","steam_id":85568392924469988,"keywords":["nocrits","nodmgspread","payload","uncletopia"],"game_id":440,"stv_port":27026,"stv_name":"Uncletopia | Dallas | 2 | All Maps | STV","players":[{"user_id":18,"name":"Derply","steam_id":76561198871211642,"connected_time":3394000000000,"state":"active","ping":75},{"user_id":19,"name":"GoldenPear","steam_id":76561199019468811,"connected_time":3390000000000,"state":"active","ping":43},{"user_id":24,"name":"Kenku","steam_id":76561199086762926,"connected_time":2662000000000,"state":"active","ping":54},{"user_id":21,"name":"Agent Bowtie","steam_id":76561198175839279,"connected_time":2951000000000,"state":"active","ping":57},{"user_id":53,"name":"Crows!","steam_id":76561198150086324,"connected_time":1415000000000,"state":"active","ping":60},{"user_id":23,"name":"mmorpgkitty","steam_id":76561198304456893,"connected_time":2843000000000,"state":"active","ping":57},{"user_id":62,"name":"[BBW] Justario","steam_id":76561198016095410,"connected_time":738000000000,"state":"active","ping":75},{"user_id":60,"name":"Serene Salamander","steam_id":76561198001094770,"connected_time":780000000000,"state":"active","ping":91},{"user_id":27,"name":"TV12Lime","steam_id":76561199036195384,"connected_time":2467000000000,"state":"active","ping":67},{"user_id":63,"name":"Lynux","steam_id":76561198343651916,"connected_time":706000000000,"state":"active","ping":134},{"user_id":29,"name":"mkl","steam_id":76561197986401685,"connected_time":2400000000000,"state":"active","ping":58},{"user_id":48,"name":"Gary Budussy","steam_id":76561197969793969,"connected_time":1870000000000,"state":"active","ping":59},{"user_id":59,"name":"Can You Feel It Mr.Krabs","steam_id":76561198128302414,"connected_time":812000000000,"state":"active","ping":68},{"user_id":47,"name":"Aeris","steam_id":76561198287271028,"connected_time":1878000000000,"state":"active","ping":83},{"user_id":40,"name":"Chaotic Rushu","steam_id":76561198170054407,"connected_time":2070000000000,"state":"active","ping":95},{"user_id":41,"name":"candied mosquito","steam_id":76561199060494678,"connected_time":2043000000000,"state":"active","ping":79},{"user_id":35,"name":"Titar Industries","steam_id":76561198143078476,"connected_time":2241000000000,"state":"active","ping":97},{"user_id":55,"name":"MARIOPARTYDSFAN","steam_id":76561198872122117,"connected_time":1120000000000,"state":"active","ping":67},{"user_id":42,"name":"SCATTER","steam_id":76561198405168492,"connected_time":2031000000000,"state":"active","ping":103},{"user_id":57,"name":"Dark","steam_id":76561198043073636,"connected_time":868000000000,"state":"active","ping":108},{"user_id":64,"name":"LG_Fridge_User","steam_id":76561198977815014,"connected_time":697000000000,"state":"active","ping":78},{"user_id":52,"name":"That","steam_id":76561198072293791,"connected_time":1844000000000,"state":"active","ping":108},{"user_id":49,"name":"Al3x","steam_id":76561198056006234,"connected_time":1866000000000,"state":"active","ping":81},{"user_id":51,"name":"931 GB","steam_id":76561198021133284,"connected_time":1851000000000,"state":"active","ping":77}]},{"server_id":5,"name":"Uncletopia | Frankfurt | 1 | All Maps","name_short":"frk-1","host":"frk-1.de.uncletopia.com","port":27015,"enabled":true,"region":"eu","cc":"de","latitude":50.110924,"longitude":8.682127,"reserved":0,"last_update":"0001-01-01T00:00:00Z","name_a2s":"Uncletopia | Frankfurt | 1 | All Maps","protocol":17,"map":"koth_cascade","folder":"tf","game":"Team Fortress","app_id":440,"player_count":0,"max_players":24,"Bots":0,"server_type":"Dedicated","server_os":"Linux","password":true,"vac":true,"version":"7757534","steam_id":85568392924469989,"keywords":["cp","nocrits","nodmgspread","uncletopia"],"game_id":440,"stv_port":27016,"stv_name":"Uncletopia | Frankfurt | 1 | All Maps | STV","players":null},{"server_id":110,"name":"Uncletopia | Frankfurt | 2 | All Maps","name_short":"frk-2","host":"frk-1.de.uncletopia.com","port":27025,"enabled":true,"region":"eu","cc":"de","latitude":50.110924,"longitude":8.682127,"reserved":0,"last_update":"0001-01-01T00:00:00Z","name_a2s":"Uncletopia | Frankfurt | 2 | All Maps","protocol":17,"map":"pl_frontier_final","folder":"tf","game":"Team Fortress","app_id":440,"player_count":0,"max_players":24,"Bots":0,"server_type":"Dedicated","server_os":"Linux","password":true,"vac":true,"version":"7757534","steam_id":85568392924469990,"keywords":["nocrits","nodmgspread","payload","uncletopia"],"game_id":440,"stv_port":27026,"stv_name":"Uncletopia | Frankfurt | 2 | All Maps | STV","players":null},{"server_id":308,"name":"Uncletopia | Frankfurt | 3 | All Maps","name_short":"frk-3","host":"frk-1.de.uncletopia.com","port":27035,"enabled":true,"region":"eu","cc":"de","latitude":50.110924,"longitude":8.682127,"reserved":0,"last_update":"0001-01-01T00:00:00Z","name_a2s":"Uncletopia | Frankfurt | 3 | All Maps","protocol":17,"map":"koth_highpass","folder":"tf","game":"Team Fortress","app_id":440,"player_count":11,"max_players":24,"Bots":0,"server_type":"Dedicated","server_os":"Linux","password":true,"vac":true,"version":"7757534","steam_id":85568392924504274,"keywords":["cp","nocrits","nodmgspread","uncletopia"],"game_id":440,"stv_port":27036,"stv_name":"Uncletopia | Frankfurt | 3 | All Maps | STV","players":[{"user_id":219,"name":"Erebus","steam_id":76561199061956673,"connected_time":3477000000000,"state":"active","ping":166},{"user_id":229,"name":"Zonts","steam_id":76561198850176432,"connected_time":2942000000000,"state":"active","ping":76},{"user_id":253,"name":"MY MANN!","steam_id":76561198035809549,"connected_time":167000000000,"state":"active","ping":64},{"user_id":257,"name":"Allah Gator","steam_id":76561198438049236,"connected_time":106000000000,"state":"active","ping":69},{"user_id":255,"name":"default biden pfp","steam_id":76561198216228920,"connected_time":158000000000,"state":"active","ping":62},{"user_id":251,"name":"Robbie","steam_id":76561198017504503,"connected_time":319000000000,"state":"active","ping":64},{"user_id":235,"name":"Minimi","steam_id":76561198873850443,"connected_time":2134000000000,"state":"active","ping":60},{"user_id":238,"name":"Shibe","steam_id":76561198071312153,"connected_time":2011000000000,"state":"active","ping":58},{"user_id":230,"name":"Pinkchup","steam_id":76561198106802803,"connected_time":2940000000000,"state":"active","ping":75},{"user_id":246,"name":"sHIFTINGvORTEX","steam_id":76561198231648332,"connected_time":920000000000,"state":"active","ping":82},{"user_id":245,"name":"Spenji","steam_id":76561198126634202,"connected_time":983000000000,"state":"active","ping":75}]},{"server_id":309,"name":"Uncletopia | Frankfurt | 4 | All Maps","name_short":"frk-4","host":"frk-1.de.uncletopia.com","port":27045,"enabled":true,"region":"eu","cc":"de","latitude":50.110924,"longitude":8.682127,"reserved":0,"last_update":"0001-01-01T00:00:00Z","name_a2s":"Uncletopia | Frankfurt | 4 | All Maps","protocol":17,"map":"koth_viaduct","folder":"tf","game":"Team Fortress","app_id":440,"player_count":24,"max_players":24,"Bots":0,"server_type":"Dedicated","server_os":"Linux","password":true,"vac":true,"version":"7757534","steam_id":85568392924504275,"keywords":["cp","nocrits","nodmgspread","uncletopia"],"game_id":440,"stv_port":27046,"stv_name":"Uncletopia | Frankfurt | 4 | All Maps | STV","players":[{"user_id":387,"name":"xd","steam_id":76561198066523881,"connected_time":1882000000000,"state":"active","ping":53},{"user_id":378,"name":"Zatusrex","steam_id":76561198104147805,"connected_time":2539000000000,"state":"active","ping":73},{"user_id":428,"name":"Xiqui","steam_id":76561198818386611,"connected_time":403000000000,"state":"active","ping":83},{"user_id":403,"name":"eduardo","steam_id":76561198014491925,"connected_time":1353000000000,"state":"active","ping":75},{"user_id":421,"name":"Superiumentarius","steam_id":76561198081642249,"connected_time":991000000000,"state":"active","ping":56},{"user_id":401,"name":"Cobb Salads","steam_id":76561197971140507,"connected_time":1515000000000,"state":"active","ping":60},{"user_id":398,"name":"Auntie Jane The Demo Main","steam_id":76561199154515506,"connected_time":1554000000000,"state":"active","ping":58},{"user_id":404,"name":"HamsterPi","steam_id":76561198079430842,"connected_time":1344000000000,"state":"active","ping":70},{"user_id":405,"name":"Zoombie","steam_id":76561198041219518,"connected_time":1342000000000,"state":"active","ping":64},{"user_id":406,"name":"Stone Cold Jane Austen","steam_id":76561198072017971,"connected_time":1338000000000,"state":"active","ping":77},{"user_id":407,"name":"when you sleep","steam_id":76561198028164246,"connected_time":1314000000000,"state":"active","ping":74},{"user_id":429,"name":"S. ARMSTRONG","steam_id":76561198038748489,"connected_time":295000000000,"state":"active","ping":60},{"user_id":408,"name":"usia","steam_id":76561198120406679,"connected_time":1299000000000,"state":"active","ping":74},{"user_id":430,"name":"addicted","steam_id":76561199129801006,"connected_time":294000000000,"state":"active","ping":45},{"user_id":431,"name":"Levin","steam_id":76561198106530561,"connected_time":292000000000,"state":"active","ping":64},{"user_id":411,"name":"Long Lost Soul","steam_id":76561198187090805,"connected_time":1284000000000,"state":"active","ping":88},{"user_id":423,"name":"Seb, Comrade","steam_id":76561198040279587,"connected_time":944000000000,"state":"active","ping":97},{"user_id":424,"name":"Eing","steam_id":76561198253125820,"connected_time":936000000000,"state":"active","ping":83},{"user_id":414,"name":"fogings","steam_id":76561198044165284,"connected_time":1270000000000,"state":"active","ping":44},{"user_id":432,"name":"multiflex","steam_id":76561198049639319,"connected_time":228000000000,"state":"active","ping":58},{"user_id":416,"name":"Zenos","steam_id":76561198058829310,"connected_time":1259000000000,"state":"active","ping":55},{"user_id":427,"name":"lvl. 50 honkler","steam_id":76561198061688660,"connected_time":656000000000,"state":"active","ping":109},{"user_id":418,"name":"dairy","steam_id":76561198117033273,"connected_time":1234000000000,"state":"active","ping":67},{"user_id":419,"name":"Hank J Wimbleton","steam_id":76561198408623293,"connected_time":1224000000000,"state":"active","ping":81}]},{"server_id":310,"name":"Uncletopia | Frankfurt | 5 | All Maps","name_short":"frk-5","host":"frk-1.de.uncletopia.com","port":27055,"enabled":true,"region":"eu","cc":"de","latitude":50.110924,"longitude":8.682127,"reserved":0,"last_update":"0001-01-01T00:00:00Z","name_a2s":"Uncletopia | Frankfurt | 5 | All Maps","protocol":17,"map":"pl_barnblitz","folder":"tf","game":"Team Fortress","app_id":440,"player_count":0,"max_players":24,"Bots":0,"server_type":"Dedicated","server_os":"Linux","password":true,"vac":true,"version":"7757534","steam_id":85568392924504277,"keywords":["nocrits","nodmgspread","payload","uncletopia"],"game_id":440,"stv_port":27056,"stv_name":"Uncletopia | Frankfurt | 5 | All Maps | STV","players":null},{"server_id":311,"name":"Uncletopia | Frankfurt | 6 | All Maps","name_short":"frk-6","host":"frk-1.de.uncletopia.com","port":27065,"enabled":true,"region":"eu","cc":"de","latitude":50.110924,"longitude":8.682127,"reserved":0,"last_update":"0001-01-01T00:00:00Z","name_a2s":"Uncletopia | Frankfurt | 6 | All Maps","protocol":17,"map":"pl_snowycoast","folder":"tf","game":"Team Fortress","app_id":440,"player_count":24,"max_players":24,"Bots":0,"server_type":"Dedicated","server_os":"Linux","password":true,"vac":true,"version":"7757534","steam_id":85568392924504278,"keywords":["nocrits","nodmgspread","payload","uncletopia"],"game_id":440,"stv_port":27066,"stv_name":"Uncletopia | Frankfurt | 6 | All Maps | STV","players":[{"user_id":369,"name":"Dr Bob Kelso from Scrubs","steam_id":76561198206209713,"connected_time":84000000000,"state":"active","ping":73},{"user_id":356,"name":"wilnemo35795","steam_id":76561198163245106,"connected_time":408000000000,"state":"active","ping":180},{"user_id":334,"name":"DarthMurloc_OW","steam_id":76561198075577711,"connected_time":2405000000000,"state":"active","ping":74},{"user_id":354,"name":"Cheffy","steam_id":76561198046166592,"connected_time":515000000000,"state":"active","ping":69},{"user_id":370,"name":"Wiscas","steam_id":76561199173766583,"connected_time":31000000000,"state":"spawning","ping":86},{"user_id":357,"name":"turning into namba","steam_id":76561199060781446,"connected_time":374000000000,"state":"active","ping":76},{"user_id":371,"name":"Shashka Sultanate","steam_id":76561198998649490,"connected_time":20000000000,"state":"spawning","ping":69},{"user_id":358,"name":"Gryoss","steam_id":76561197999837111,"connected_time":359000000000,"state":"active","ping":99},{"user_id":364,"name":"Dragul","steam_id":76561198032885938,"connected_time":163000000000,"state":"active","ping":60},{"user_id":329,"name":"Cheshireycat","steam_id":76561198067204908,"connected_time":2486000000000,"state":"active","ping":74},{"user_id":288,"name":"dagadt_ty√∫k.69","steam_id":76561198147173457,"connected_time":5838000000000,"state":"active","ping":64},{"user_id":324,"name":"MS","steam_id":76561198037560108,"connected_time":2598000000000,"state":"active","ping":55},{"user_id":361,"name":"Dag!","steam_id":76561198030147941,"connected_time":307000000000,"state":"active","ping":59},{"user_id":362,"name":"lolimsogreat21","steam_id":76561199052033788,"connected_time":221000000000,"state":"active","ping":77},{"user_id":328,"name":"gruzicki","steam_id":76561198159532886,"connected_time":2564000000000,"state":"active","ping":85},{"user_id":365,"name":"Yoshaaa!","steam_id":76561199172288111,"connected_time":154000000000,"state":"active","ping":152},{"user_id":372,"name":"Commander of the 3rd reich","steam_id":76561198849853296,"connected_time":19000000000,"state":"spawning","ping":70},{"user_id":332,"name":"Phalcon","steam_id":76561197987051394,"connected_time":2438000000000,"state":"active","ping":75},{"user_id":367,"name":"noahbaa","steam_id":76561198798238292,"connected_time":130000000000,"state":"active","ping":166},{"user_id":368,"name":"Marcus Aurelius Gaming","steam_id":76561198082646492,"connected_time":125000000000,"state":"active","ping":82},{"user_id":349,"name":"paranoia","steam_id":76561198274105878,"connected_time":683000000000,"state":"active","ping":75},{"user_id":228,"name":"s a i","steam_id":76561197970379754,"connected_time":10770000000000,"state":"active","ping":55},{"user_id":341,"name":"BuzzBees ‚ù§","steam_id":76561198101502273,"connected_time":2277000000000,"state":"active","ping":62},{"user_id":350,"name":"dd","steam_id":76561198257836694,"connected_time":622000000000,"state":"active","ping":55}]},{"server_id":23,"name":"Uncletopia | Frankfurt | 7 | Stopwatch Beta","name_short":"frk-7","host":"frk-1.de.uncletopia.com","port":27075,"enabled":true,"region":"eu","cc":"de","latitude":50.110924,"longitude":8.682127,"reserved":0,"last_update":"0001-01-01T00:00:00Z","name_a2s":"Uncletopia | Frankfurt | 7 | Stopwatch Beta","protocol":17,"map":"workshop/koth_ashville_final.ugc2130459942","folder":"tf","game":"Team Fortress","app_id":440,"player_count":0,"max_players":24,"Bots":0,"server_type":"Dedicated","server_os":"Linux","password":true,"vac":true,"version":"7757534","steam_id":85568392924742827,"keywords":["cp","nocrits","nodmgspread","uncletopia"],"game_id":440,"stv_port":27076,"stv_name":"Uncletopia | Frankfurt | 7 | Stopwatch Beta | STV","players":null},{"server_id":24,"name":"Uncletopia | Frankfurt | 8 | Community","name_short":"frk-8","host":"frk-1.de.uncletopia.com","port":27085,"enabled":true,"region":"eu","cc":"de","latitude":50.110924,"longitude":8.682127,"reserved":0,"last_update":"0001-01-01T00:00:00Z","name_a2s":"Uncletopia | Frankfurt | 8 | Community","protocol":17,"map":"workshop/cp_caldera_rc2.ugc2834196889","folder":"tf","game":"Team Fortress","app_id":440,"player_count":0,"max_players":24,"Bots":0,"server_type":"Dedicated","server_os":"Linux","password":true,"vac":true,"version":"7757534","steam_id":85568392924742828,"keywords":["cp","nocrits","nodmgspread","uncletopia"],"game_id":440,"stv_port":27086,"stv_name":"Uncletopia | Frankfurt | 8 | Community | STV","players":null},{"server_id":202,"name":"Uncletopia | Hong Kong | 1 | All Maps","name_short":"hgk-1","host":"hgk-1.hk.uncletopia.com","port":27015,"enabled":true,"region":"asia","cc":"hk","latitude":22.302711,"longitude":114.177216,"reserved":0,"last_update":"0001-01-01T00:00:00Z","name_a2s":"Uncletopia | Hong Kong | 1 | All Maps","protocol":17,"map":"cp_sunshine","folder":"tf","game":"Team Fortress","app_id":440,"player_count":0,"max_players":24,"Bots":0,"server_type":"Dedicated","server_os":"Linux","password":true,"vac":true,"version":"7757534","steam_id":85568392924494504,"keywords":["cp","nocrits","nodmgspread","uncletopia"],"game_id":440,"stv_port":27016,"stv_name":"Uncletopia | Hong Kong | 1 | All Maps | STV","players":null},{"server_id":1,"name":"Uncletopia | Los Angeles | 1 | All Maps","name_short":"lax-1","host":"lax-1.us.uncletopia.com","port":27015,"enabled":true,"region":"us-west","cc":"us","latitude":33.94279,"longitude":-118.41004,"reserved":0,"last_update":"0001-01-01T00:00:00Z","name_a2s":"Uncletopia | Los Angeles | 1 | All Maps","protocol":17,"map":"koth_lakeside_final","folder":"tf","game":"Team Fortress","app_id":440,"player_count":0,"max_players":24,"Bots":0,"server_type":"Dedicated","server_os":"Linux","password":true,"vac":true,"version":"7757534","steam_id":85568392924469991,"keywords":["cp","nocrits","nodmgspread","uncletopia"],"game_id":440,"stv_port":27016,"stv_name":"Uncletopia | Los Angeles | 1 | All Maps | STV","players":null},{"server_id":112,"name":"Uncletopia | Los Angeles | 2 | All Maps","name_short":"lax-2","host":"lax-1.us.uncletopia.com","port":27025,"enabled":true,"region":"us-west","cc":"us","latitude":33.94279,"longitude":-118.41004,"reserved":0,"last_update":"0001-01-01T00:00:00Z","name_a2s":"Uncletopia | Los Angeles | 2 | All Maps","protocol":17,"map":"koth_viaduct","folder":"tf","game":"Team Fortress","app_id":440,"player_count":0,"max_players":24,"Bots":0,"server_type":"Dedicated","server_os":"Linux","password":true,"vac":true,"version":"7757534","steam_id":85568392924469992,"keywords":["cp","nocrits","nodmgspread","uncletopia"],"game_id":440,"stv_port":27026,"stv_name":"Uncletopia | Los Angeles | 2 | All Maps | STV","players":null},{"server_id":324,"name":"Uncletopia | Los Angeles | 3 | All Maps","name_short":"lax-3","host":"lax-1.us.uncletopia.com","port":27035,"enabled":true,"region":"us-west","cc":"us","latitude":33.94279,"longitude":-118.41004,"reserved":0,"last_update":"0001-01-01T00:00:00Z","name_a2s":"Uncletopia | Los Angeles | 3 | All Maps","protocol":17,"map":"cp_dustbowl","folder":"tf","game":"Team Fortress","app_id":440,"player_count":0,"max_players":24,"Bots":0,"server_type":"Dedicated","server_os":"Linux","password":true,"vac":true,"version":"7757534","steam_id":85568392924510198,"keywords":["cp","nocrits","nodmgspread","uncletopia"],"game_id":440,"stv_port":27036,"stv_name":"Uncletopia | Los Angeles | 3 | All Maps | STV","players":null},{"server_id":25,"name":"Uncletopia | Los Angeles | 4 | Stopwatch Beta","name_short":"lax-4","host":"lax-1.us.uncletopia.com","port":27045,"enabled":true,"region":"us-west","cc":"us","latitude":33.94279,"longitude":-118.41004,"reserved":0,"last_update":"0001-01-01T00:00:00Z","name_a2s":"Uncletopia | Los Angeles | 4 | Stopwatch Beta","protocol":17,"map":"cp_dustbowl","folder":"tf","game":"Team Fortress","app_id":440,"player_count":0,"max_players":24,"Bots":0,"server_type":"Dedicated","server_os":"Linux","password":true,"vac":true,"version":"7757534","steam_id":85568392924510199,"keywords":["cp","nocrits","nodmgspread","uncletopia"],"game_id":440,"stv_port":27046,"stv_name":"Uncletopia | Los Angeles | 4 | Stopwatch Beta | STV","players":null},{"server_id":11,"name":"Uncletopia | London | 1 | All Maps","name_short":"lon-1","host":"lon-1.uk.uncletopia.com","port":27015,"enabled":true,"region":"eu","cc":"gb","latitude":51.509865,"longitude":-0.118092,"reserved":0,"last_update":"0001-01-01T00:00:00Z","name_a2s":"Uncletopia | London | 1 | All Maps","protocol":17,"map":"cp_process_final","folder":"tf","game":"Team Fortress","app_id":440,"player_count":24,"max_players":24,"Bots":0,"server_type":"Dedicated","server_os":"Linux","password":true,"vac":true,"version":"7757534","steam_id":85568392924367362,"keywords":["cp","nocrits","nodmgspread","uncletopia"],"game_id":440,"stv_port":27016,"stv_name":"Uncletopia | London | 1 | All Maps | STV","players":[{"user_id":605,"name":"gnarly business","steam_id":76561198832688767,"connected_time":3704000000000,"state":"active","ping":47},{"user_id":634,"name":"Dougie","steam_id":76561198072245471,"connected_time":2259000000000,"state":"active","ping":44},{"user_id":656,"name":"Air","steam_id":76561198271025518,"connected_time":614000000000,"state":"active","ping":106},{"user_id":650,"name":"Sacrishee","steam_id":76561198169853697,"connected_time":992000000000,"state":"active","ping":73},{"user_id":661,"name":"biohazard.pt","steam_id":76561198088367808,"connected_time":502000000000,"state":"active","ping":95},{"user_id":666,"name":"kaelan!","steam_id":76561198001425310,"connected_time":345000000000,"state":"active","ping":60},{"user_id":630,"name":"makarov","steam_id":76561198363892870,"connected_time":2338000000000,"state":"active","ping":71},{"user_id":640,"name":"shr1mple","steam_id":76561198173537027,"connected_time":1789000000000,"state":"active","ping":52},{"user_id":588,"name":"mommyüñ§x_x","steam_id":76561199204257697,"connected_time":5570000000000,"state":"active","ping":59},{"user_id":658,"name":"Night Fury","steam_id":76561197995207032,"connected_time":601000000000,"state":"active","ping":112},{"user_id":614,"name":"R","steam_id":76561198148030229,"connected_time":3457000000000,"state":"active","ping":72},{"user_id":659,"name":"snakeHiiii","steam_id":76561198097712283,"connected_time":594000000000,"state":"active","ping":75},{"user_id":598,"name":"=^_^=","steam_id":76561198076494034,"connected_time":4874000000000,"state":"active","ping":49},{"user_id":644,"name":"Purps","steam_id":76561198053886680,"connected_time":1409000000000,"state":"active","ping":44},{"user_id":595,"name":"Kvicha Kvaratskhelia","steam_id":76561198179339326,"connected_time":5263000000000,"state":"active","ping":89},{"user_id":662,"name":"Zelmor","steam_id":76561197997708311,"connected_time":494000000000,"state":"active","ping":45},{"user_id":653,"name":"Dale ‚ù§","steam_id":76561197995189004,"connected_time":931000000000,"state":"active","ping":56},{"user_id":652,"name":"MKUltraKill","steam_id":76561198002218034,"connected_time":982000000000,"state":"active","ping":54},{"user_id":619,"name":"Joe * tf2cases.com","steam_id":76561198061717026,"connected_time":3094000000000,"state":"active","ping":45},{"user_id":655,"name":"Microwaved Burrito","steam_id":76561198055916647,"connected_time":628000000000,"state":"active","ping":51},{"user_id":663,"name":"Frank","steam_id":76561198086672774,"connected_time":420000000000,"state":"active","ping":48},{"user_id":610,"name":"Vershal Smershal","steam_id":76561198116223995,"connected_time":3638000000000,"state":"active","ping":51},{"user_id":667,"name":"Lag","steam_id":76561198159360376,"connected_time":136000000000,"state":"active","ping":52},{"user_id":648,"name":"Bogg","steam_id":76561199362109830,"connected_time":1193000000000,"state":"active","ping":56}]},{"server_id":114,"name":"Uncletopia | London | 2 | All Maps","name_short":"lon-2","host":"lon-1.uk.uncletopia.com","port":27025,"enabled":true,"region":"eu","cc":"gb","latitude":51.509865,"longitude":-0.118092,"reserved":0,"last_update":"0001-01-01T00:00:00Z","name_a2s":"Uncletopia | London | 2 | All Maps","protocol":17,"map":"pl_barnblitz","folder":"tf","game":"Team Fortress","app_id":440,"player_count":0,"max_players":24,"Bots":0,"server_type":"Dedicated","server_os":"Linux","password":true,"vac":true,"version":"7757534","steam_id":85568392924470941,"keywords":["nocrits","nodmgspread","payload","uncletopia"],"game_id":440,"stv_port":27026,"stv_name":"Uncletopia | London | 2 | All Maps | STV","players":null},{"server_id":320,"name":"Uncletopia | London | 3 | All Maps","name_short":"lon-3","host":"lon-1.uk.uncletopia.com","port":27035,"enabled":true,"region":"eu","cc":"gb","latitude":51.509865,"longitude":-0.118092,"reserved":0,"last_update":"0001-01-01T00:00:00Z","name_a2s":"Uncletopia | London | 3 | All Maps","protocol":17,"map":"pl_upward","folder":"tf","game":"Team Fortress","app_id":440,"player_count":24,"max_players":24,"Bots":0,"server_type":"Dedicated","server_os":"Linux","password":true,"vac":true,"version":"7757534","steam_id":85568392924510192,"keywords":["nocrits","nodmgspread","payload","uncletopia"],"game_id":440,"stv_port":27036,"stv_name":"Uncletopia | London | 3 | All Maps | STV","players":[{"user_id":599,"name":"Szymekc","steam_id":76561198009541119,"connected_time":4931000000000,"state":"active","ping":77},{"user_id":600,"name":"nynon","steam_id":76561197998432126,"connected_time":4926000000000,"state":"active","ping":86},{"user_id":603,"name":"sv_opor 13123","steam_id":76561198002229612,"connected_time":4894000000000,"state":"active","ping":82},{"user_id":633,"name":"Creature from the piss drawer","steam_id":76561198055949151,"connected_time":2699000000000,"state":"active","ping":46},{"user_id":595,"name":"Alibi","steam_id":76561198061845595,"connected_time":5063000000000,"state":"active","ping":49},{"user_id":676,"name":"Laurie","steam_id":76561198082951750,"connected_time":9000000000,"state":"active","ping":60},{"user_id":667,"name":"norn iron","steam_id":76561198069723264,"connected_time":609000000000,"state":"active","ping":53},{"user_id":668,"name":"Videogamer","steam_id":76561198106012909,"connected_time":604000000000,"state":"active","ping":80},{"user_id":635,"name":"skai","steam_id":76561198184881255,"connected_time":2689000000000,"state":"active","ping":70},{"user_id":669,"name":"UndercoverFurbyHunter","steam_id":76561198265722644,"connected_time":594000000000,"state":"active","ping":103},{"user_id":648,"name":"gibb (official)","steam_id":76561198074097655,"connected_time":2031000000000,"state":"active","ping":40},{"user_id":625,"name":"Nope","steam_id":76561198069066522,"connected_time":3747000000000,"state":"active","ping":67},{"user_id":614,"name":"666sammy","steam_id":76561198016607625,"connected_time":4461000000000,"state":"active","ping":83},{"user_id":641,"name":"Breadcrab","steam_id":76561198015924039,"connected_time":2580000000000,"state":"active","ping":63},{"user_id":663,"name":"Niki","steam_id":76561198028601798,"connected_time":1555000000000,"state":"active","ping":86},{"user_id":674,"name":"NateAntiqua47","steam_id":76561198062642526,"connected_time":190000000000,"state":"active","ping":61},{"user_id":619,"name":"beheading video from 2009","steam_id":76561198834897089,"connected_time":4145000000000,"state":"active","ping":70},{"user_id":649,"name":"foof","steam_id":76561198308439257,"connected_time":1922000000000,"state":"active","ping":52},{"user_id":622,"name":"Archer","steam_id":76561198132860299,"connected_time":3912000000000,"state":"active","ping":58},{"user_id":673,"name":"foureyesfries","steam_id":76561198271831555,"connected_time":281000000000,"state":"active","ping":84},{"user_id":615,"name":"D_Ink","steam_id":76561198267716662,"connected_time":4453000000000,"state":"active","ping":43},{"user_id":644,"name":"Joy","steam_id":76561198155314925,"connected_time":2493000000000,"state":"active","ping":50},{"user_id":662,"name":"Redkor","steam_id":76561198027812829,"connected_time":1565000000000,"state":"active","ping":79},{"user_id":647,"name":"wingo","steam_id":76561198254576930,"connected_time":2437000000000,"state":"active","ping":65}]},{"server_id":321,"name":"Uncletopia | London | 4 | All Maps","name_short":"lon-4","host":"lon-1.uk.uncletopia.com","port":27045,"enabled":true,"region":"eu","cc":"gb","latitude":51.509865,"longitude":-0.118092,"reserved":0,"last_update":"0001-01-01T00:00:00Z","name_a2s":"Uncletopia | London | 4 | All Maps","protocol":17,"map":"cp_dustbowl","folder":"tf","game":"Team Fortress","app_id":440,"player_count":0,"max_players":24,"Bots":0,"server_type":"Dedicated","server_os":"Linux","password":true,"vac":true,"version":"7757534","steam_id":85568392924510193,"keywords":["cp","nocrits","nodmgspread","uncletopia"],"game_id":440,"stv_port":27046,"stv_name":"Uncletopia | London | 4 | All Maps | STV","players":null},{"server_id":21,"name":"Uncletopia | London | 5 | All Maps","name_short":"lon-5","host":"lon-1.uk.uncletopia.com","port":27055,"enabled":true,"region":"eu","cc":"gb","latitude":51.509865,"longitude":-0.118092,"reserved":0,"last_update":"0001-01-01T00:00:00Z","name_a2s":"Uncletopia | London | 5 | All Maps","protocol":17,"map":"cp_altitude","folder":"tf","game":"Team Fortress","app_id":440,"player_count":0,"max_players":24,"Bots":0,"server_type":"Dedicated","server_os":"Linux","password":true,"vac":true,"version":"7757534","steam_id":85568392924742829,"keywords":["cp","nocrits","nodmgspread","uncletopia"],"game_id":440,"stv_port":27056,"stv_name":"Uncletopia | London | 5 | All Maps | STV","players":null},{"server_id":22,"name":"Uncletopia | London | 6 | All Maps","name_short":"lon-6","host":"lon-1.uk.uncletopia.com","port":27065,"enabled":true,"region":"eu","cc":"gb","latitude":51.509865,"longitude":-0.118092,"reserved":0,"last_update":"0001-01-01T00:00:00Z","name_a2s":"Uncletopia | London | 6 | All Maps","protocol":17,"map":"cp_altitude","folder":"tf","game":"Team Fortress","app_id":440,"player_count":0,"max_players":24,"Bots":0,"server_type":"Dedicated","server_os":"Linux","password":true,"vac":true,"version":"7757534","steam_id":85568392924742830,"keywords":["cp","nocrits","nodmgspread","uncletopia"],"game_id":440,"stv_port":27066,"stv_name":"Uncletopia | London | 6 | All Maps | STV","players":null},{"server_id":40,"name":"Uncletopia | London | 7 | No Payload","name_short":"lon-7","host":"lon-1.uk.uncletopia.com","port":27075,"enabled":true,"region":"eu","cc":"gb","latitude":51.509865,"longitude":-0.118092,"reserved":0,"last_update":"0001-01-01T00:00:00Z","name_a2s":"Uncletopia | London | 7 | No Payload","protocol":17,"map":"koth_highpass","folder":"tf","game":"Team Fortress","app_id":440,"player_count":0,"max_players":24,"Bots":0,"server_type":"Dedicated","server_os":"Linux","password":true,"vac":true,"version":"7757534","steam_id":85568392924964314,"keywords":["cp","nocrits","nodmgspread","uncletopia"],"game_id":440,"stv_port":27076,"stv_name":"Uncletopia | London | 7 | No Payload | STV","players":null},{"server_id":41,"name":"Uncletopia | London | 8 | Community","name_short":"lon-8","host":"lon-1.uk.uncletopia.com","port":27085,"enabled":true,"region":"eu","cc":"gb","latitude":51.509865,"longitude":-0.118092,"reserved":0,"last_update":"0001-01-01T00:00:00Z","name_a2s":"Uncletopia | London | 8 | Community","protocol":17,"map":"workshop/pl_corrode_rc2.ugc546577989","folder":"tf","game":"Team Fortress","app_id":440,"player_count":24,"max_players":24,"Bots":0,"server_type":"Dedicated","server_os":"Linux","password":true,"vac":true,"version":"7757534","steam_id":85568392924964315,"keywords":["nocrits","nodmgspread","payload","uncletopia"],"game_id":440,"stv_port":27086,"stv_name":"Uncletopia | London | 8 | Community | STV","players":[{"user_id":268,"name":"nedilya","steam_id":76561198039692077,"connected_time":1602000000000,"state":"active","ping":68},{"user_id":274,"name":"tomi","steam_id":76561198001769573,"connected_time":1399000000000,"state":"active","ping":65},{"user_id":284,"name":"Danipp","steam_id":76561198027147377,"connected_time":520000000000,"state":"active","ping":76},{"user_id":248,"name":"Pampered Pyro","steam_id":76561199027981643,"connected_time":3587000000000,"state":"active","ping":131},{"user_id":262,"name":"!Trying to have fun!","steam_id":76561198151370212,"connected_time":1740000000000,"state":"active","ping":73},{"user_id":285,"name":"Internetowy Pies","steam_id":76561198005719732,"connected_time":404000000000,"state":"active","ping":83},{"user_id":276,"name":"hud_saytext_time 0","steam_id":76561198010327228,"connected_time":1162000000000,"state":"active","ping":70},{"user_id":279,"name":"Zarden","steam_id":76561198080638451,"connected_time":965000000000,"state":"active","ping":51},{"user_id":261,"name":"AYE","steam_id":76561198181368101,"connected_time":1972000000000,"state":"active","ping":61},{"user_id":289,"name":"Joseph Stalin","steam_id":76561198033199746,"connected_time":322000000000,"state":"active","ping":51},{"user_id":287,"name":"spunkpunk","steam_id":76561198048852186,"connected_time":343000000000,"state":"active","ping":84},{"user_id":207,"name":"vani","steam_id":76561197991778291,"connected_time":5893000000000,"state":"active","ping":89},{"user_id":272,"name":"mai‚ú®","steam_id":76561198008959448,"connected_time":1436000000000,"state":"active","ping":85},{"user_id":270,"name":"Khaki","steam_id":76561197991523078,"connected_time":1540000000000,"state":"active","ping":157},{"user_id":282,"name":"Booty Bandit","steam_id":76561198449470807,"connected_time":692000000000,"state":"active","ping":86},{"user_id":265,"name":"Prox","steam_id":76561198351490981,"connected_time":1715000000000,"state":"active","ping":37},{"user_id":209,"name":"tosti_tower","steam_id":76561198153445364,"connected_time":5871000000000,"state":"active","ping":55},{"user_id":162,"name":"Ushlus","steam_id":76561199225270732,"connected_time":9676000000000,"state":"active","ping":118},{"user_id":266,"name":"goofyemo2009","steam_id":76561198121260981,"connected_time":1706000000000,"state":"active","ping":44},{"user_id":273,"name":"Melon","steam_id":76561198150893860,"connected_time":1434000000000,"state":"active","ping":77},{"user_id":288,"name":"SlaughtHunter","steam_id":76561198107410482,"connected_time":326000000000,"state":"active","ping":82},{"user_id":243,"name":"B1urred","steam_id":76561198263657694,"connected_time":3706000000000,"state":"active","ping":52},{"user_id":249,"name":"Spootnak","steam_id":76561198049052518,"connected_time":3402000000000,"state":"active","ping":59},{"user_id":275,"name":"rattle","steam_id":76561198062747590,"connected_time":1375000000000,"state":"active","ping":59}]},{"server_id":300,"name":"Uncletopia | Montr√©al | 1 | All Maps","name_short":"mtl-1","host":"mtl-1.ca.uncletopia.com","port":27015,"enabled":true,"region":"us-east","cc":"ca","latitude":45.50889,"longitude":-73.56167,"reserved":0,"last_update":"0001-01-01T00:00:00Z","name_a2s":"Uncletopia | Montr√©al | 1 | All Maps","protocol":17,"map":"cp_sunshine","folder":"tf","game":"Team Fortress","app_id":440,"player_count":0,"max_players":24,"Bots":0,"server_type":"Dedicated","server_os":"Linux","password":true,"vac":true,"version":"7757534","steam_id":85568392924500087,"keywords":["cp","nocrits","nodmgspread","uncletopia"],"game_id":440,"stv_port":27016,"stv_name":"Uncletopia | Montr√©al | 1 | All Maps | STV","players":null},{"server_id":301,"name":"Uncletopia | Montr√©al | 2 | All Maps","name_short":"mtl-2","host":"mtl-1.ca.uncletopia.com","port":27025,"enabled":true,"region":"us-east","cc":"ca","latitude":45.50889,"longitude":-73.56167,"reserved":0,"last_update":"0001-01-01T00:00:00Z","name_a2s":"Uncletopia | Montr√©al | 2 | All Maps","protocol":17,"map":"cp_sunshine","folder":"tf","game":"Team Fortress","app_id":440,"player_count":0,"max_players":24,"Bots":0,"server_type":"Dedicated","server_os":"Linux","password":true,"vac":true,"version":"7757534","steam_id":85568392924500088,"keywords":["cp","nocrits","nodmgspread","uncletopia"],"game_id":440,"stv_port":27026,"stv_name":"Uncletopia | Montr√©al | 2 | All Maps | STV","players":null},{"server_id":302,"name":"Uncletopia | Montr√©al | 3 | All Maps","name_short":"mtl-3","host":"mtl-1.ca.uncletopia.com","port":27035,"enabled":true,"region":"us-east","cc":"ca","latitude":45.50889,"longitude":-73.56167,"reserved":0,"last_update":"0001-01-01T00:00:00Z","name_a2s":"Uncletopia | Montr√©al | 3 | All Maps","protocol":17,"map":"cp_dustbowl","folder":"tf","game":"Team Fortress","app_id":440,"player_count":0,"max_players":24,"Bots":0,"server_type":"Dedicated","server_os":"Linux","password":true,"vac":true,"version":"7757534","steam_id":85568392924500089,"keywords":["cp","nocrits","nodmgspread","uncletopia"],"game_id":440,"stv_port":27036,"stv_name":"Uncletopia | Montr√©al | 3 | All Maps | STV","players":null},{"server_id":303,"name":"Uncletopia | Montr√©al | 4 | No Payload","name_short":"mtl-4","host":"mtl-1.ca.uncletopia.com","port":27045,"enabled":true,"region":"us-east","cc":"ca","latitude":45.50889,"longitude":-73.56167,"reserved":0,"last_update":"0001-01-01T00:00:00Z","name_a2s":"Uncletopia | Montr√©al | 4 | No Payload","protocol":17,"map":"pl_pier","folder":"tf","game":"Team Fortress","app_id":440,"player_count":0,"max_players":24,"Bots":0,"server_type":"Dedicated","server_os":"Linux","password":true,"vac":true,"version":"7757534","steam_id":85568392924500090,"keywords":["nocrits","nodmgspread","payload","uncletopia"],"game_id":440,"stv_port":27046,"stv_name":"Uncletopia | Montr√©al | 4 | No Payload | STV","players":null},{"server_id":13,"name":"Uncletopia | New York City | 1 | All Maps","name_short":"nyc-1","host":"nyc-1.us.uncletopia.com","port":27015,"enabled":true,"region":"us-east","cc":"us","latitude":40.73061,"longitude":-73.93524,"reserved":0,"last_update":"0001-01-01T00:00:00Z","name_a2s":"Uncletopia | New York City | 1 | All Maps","protocol":17,"map":"pl_barnblitz","folder":"tf","game":"Team Fortress","app_id":440,"player_count":0,"max_players":24,"Bots":0,"server_type":"Dedicated","server_os":"Linux","password":true,"vac":true,"version":"7757534","steam_id":85568392924469993,"keywords":["nocrits","nodmgspread","payload","uncletopia"],"game_id":440,"stv_port":27016,"stv_name":"Uncletopia | New York City | 1 | All Maps | STV","players":null},{"server_id":14,"name":"Uncletopia | New York City | 2 | All Maps","name_short":"nyc-2","host":"nyc-1.us.uncletopia.com","port":27025,"enabled":true,"region":"us-east","cc":"us","latitude":40.73061,"longitude":-73.93524,"reserved":0,"last_update":"0001-01-01T00:00:00Z","name_a2s":"Uncletopia | New York City | 2 | All Maps","protocol":17,"map":"cp_dustbowl","folder":"tf","game":"Team Fortress","app_id":440,"player_count":24,"max_players":24,"Bots":0,"server_type":"Dedicated","server_os":"Linux","password":true,"vac":true,"version":"7757534","steam_id":85568392924469994,"keywords":["cp","nocrits","nodmgspread","uncletopia"],"game_id":440,"stv_port":27026,"stv_name":"Uncletopia | New York City | 2 | All Maps | STV","players":[{"user_id":407,"name":"Prestoneon003","steam_id":76561198348279581,"connected_time":6000000000,"state":"spawning","ping":46},{"user_id":362,"name":"Uncle Majic the Hip Hop Magicia","steam_id":76561198107924303,"connected_time":1620000000000,"state":"active","ping":30},{"user_id":405,"name":"Magik","steam_id":76561198200169706,"connected_time":43000000000,"state":"spawning","ping":46},{"user_id":391,"name":"Spyoru","steam_id":76561199422949621,"connected_time":625000000000,"state":"active","ping":142},{"user_id":363,"name":"Charlie Sheen","steam_id":76561198136160579,"connected_time":1539000000000,"state":"active","ping":143},{"user_id":392,"name":"The Horse from Horsin' Around","steam_id":76561198332887086,"connected_time":621000000000,"state":"active","ping":44},{"user_id":393,"name":"geeWIZ","steam_id":76561198067909242,"connected_time":592000000000,"state":"active","ping":111},{"user_id":365,"name":"Joy #savetf2","steam_id":76561198073690173,"connected_time":1478000000000,"state":"active","ping":50},{"user_id":374,"name":"/Loss/-Soul-","steam_id":76561198096899089,"connected_time":1237000000000,"state":"active","ping":133},{"user_id":396,"name":"Berries","steam_id":76561198109312962,"connected_time":426000000000,"state":"active","ping":62},{"user_id":383,"name":"MasterTman3","steam_id":76561198333349819,"connected_time":941000000000,"state":"active","ping":61},{"user_id":388,"name":"yeyoi","steam_id":76561198069821885,"connected_time":795000000000,"state":"active","ping":57},{"user_id":384,"name":"Texan Cat","steam_id":76561199194380145,"connected_time":925000000000,"state":"active","ping":151},{"user_id":402,"name":"Equinox","steam_id":76561198274279754,"connected_time":220000000000,"state":"active","ping":76},{"user_id":389,"name":"Kohbold","steam_id":76561198996480140,"connected_time":691000000000,"state":"active","ping":92},{"user_id":385,"name":"Shugar Lumps","steam_id":76561198043854564,"connected_time":910000000000,"state":"active","ping":43},{"user_id":400,"name":"capybara","steam_id":76561198843437081,"connected_time":331000000000,"state":"active","ping":103},{"user_id":369,"name":"wool","steam_id":76561198869689933,"connected_time":1385000000000,"state":"active","ping":50},{"user_id":394,"name":"soup","steam_id":76561198099977572,"connected_time":577000000000,"state":"active","ping":86},{"user_id":299,"name":"self-cannibalizing customer. \ufffd\ufffd","steam_id":76561198294013916,"connected_time":4467000000000,"state":"active","ping":47},{"user_id":404,"name":"din afore","steam_id":76561198079892116,"connected_time":199000000000,"state":"active","ping":60},{"user_id":361,"name":"Xavibite","steam_id":76561198209380493,"connected_time":1673000000000,"state":"active","ping":45},{"user_id":406,"name":"Illegal Gaming","steam_id":76561198030323714,"connected_time":43000000000,"state":"active","ping":65},{"user_id":381,"name":"Daddys Home","steam_id":76561198034702011,"connected_time":1105000000000,"state":"active","ping":59}]},{"server_id":15,"name":"Uncletopia | New York City | 3 | Stopwatch Beta","name_short":"nyc-3","host":"nyc-1.us.uncletopia.com","port":27035,"enabled":true,"region":"us-east","cc":"us","latitude":40.73061,"longitude":-73.93524,"reserved":0,"last_update":"0001-01-01T00:00:00Z","name_a2s":"Uncletopia | New York City | 3 | Stopwatch Beta","protocol":17,"map":"koth_lakeside_final","folder":"tf","game":"Team Fortress","app_id":440,"player_count":0,"max_players":24,"Bots":0,"server_type":"Dedicated","server_os":"Linux","password":true,"vac":true,"version":"7757534","steam_id":85568392924742820,"keywords":["cp","nocrits","nodmgspread","uncletopia"],"game_id":440,"stv_port":27036,"stv_name":"Uncletopia | New York City | 3 | Stopwatch Beta | STV","players":null},{"server_id":16,"name":"Uncletopia | New York City | 4 | Community","name_short":"nyc-4","host":"nyc-1.us.uncletopia.com","port":27045,"enabled":true,"region":"us-east","cc":"us","latitude":40.73061,"longitude":-73.93524,"reserved":0,"last_update":"0001-01-01T00:00:00Z","name_a2s":"Uncletopia | New York City | 4 | Community","protocol":17,"map":"workshop/pl_emerge_rc2.ugc888027758","folder":"tf","game":"Team Fortress","app_id":440,"player_count":0,"max_players":24,"Bots":0,"server_type":"Dedicated","server_os":"Linux","password":true,"vac":true,"version":"7757534","steam_id":85568392924742821,"keywords":["nocrits","nodmgspread","payload","uncletopia"],"game_id":440,"stv_port":27046,"stv_name":"Uncletopia | New York City | 4 | Community | STV","players":null},{"server_id":142,"name":"Uncletopia | S√£o Paulo | 1 | All Maps","name_short":"sao-1","host":"sao-1.br.uncletopia.com","port":27015,"enabled":true,"region":"sa","cc":"br","latitude":-23.533773,"longitude":-46.62529,"reserved":0,"last_update":"0001-01-01T00:00:00Z","name_a2s":"Uncletopia | S√£o Paulo | 1 | All Maps","protocol":17,"map":"koth_cascade","folder":"tf","game":"Team Fortress","app_id":440,"player_count":3,"max_players":24,"Bots":0,"server_type":"Dedicated","server_os":"Linux","password":true,"vac":true,"version":"7757534","steam_id":85568392924469996,"keywords":["cp","nocrits","nodmgspread","uncletopia"],"game_id":440,"stv_port":27016,"stv_name":"Uncletopia | S√£o Paulo | 1 | All Maps | STV","players":[{"user_id":20,"name":"Dpinguim","steam_id":76561198417300945,"connected_time":802000000000,"state":"active","ping":55},{"user_id":21,"name":"leomal1231","steam_id":76561199008312792,"connected_time":643000000000,"state":"active","ping":54},{"user_id":25,"name":"Salsicha Perigosa","steam_id":76561198283642265,"connected_time":30000000000,"state":"spawning","ping":59}]},{"server_id":143,"name":"Uncletopia | S√£o Paulo | 2 | All Maps","name_short":"sao-2","host":"sao-2.br.uncletopia.com","port":27015,"enabled":true,"region":"sa","cc":"br","latitude":-23.533773,"longitude":-46.62529,"reserved":0,"last_update":"0001-01-01T00:00:00Z","name_a2s":"Uncletopia | S√£o Paulo | 2 | All Maps","protocol":17,"map":"cp_mountainlab","folder":"tf","game":"Team Fortress","app_id":440,"player_count":1,"max_players":24,"Bots":0,"server_type":"Dedicated","server_os":"Linux","password":true,"vac":true,"version":"7757534","steam_id":85568392924485349,"keywords":["cp","nocrits","nodmgspread","uncletopia"],"game_id":440,"stv_port":27016,"stv_name":"Uncletopia | S√£o Paulo | 2 | All Maps | STV","players":[{"user_id":65,"name":"eu quero droga","steam_id":76561199090188453,"connected_time":195000000000,"state":"active","ping":45}]},{"server_id":7,"name":"Uncletopia | Seattle | 1 | All Maps","name_short":"sea-1","host":"sea-1.us.uncletopia.com","port":27015,"enabled":true,"region":"us-west","cc":"us","latitude":47.608013,"longitude":-122.33517,"reserved":0,"last_update":"0001-01-01T00:00:00Z","name_a2s":"Uncletopia | Seattle | 1 | All Maps","protocol":17,"map":"cp_granary","folder":"tf","game":"Team Fortress","app_id":440,"player_count":24,"max_players":24,"Bots":0,"server_type":"Dedicated","server_os":"Linux","password":true,"vac":true,"version":"7757534","steam_id":85568392924469997,"keywords":["cp","nocrits","nodmgspread","uncletopia"],"game_id":440,"stv_port":27016,"stv_name":"Uncletopia | Seattle | 1 | All Maps | STV","players":[{"user_id":240,"name":"Korey","steam_id":76561198210734407,"connected_time":2300000000000,"state":"spawning","ping":101},{"user_id":284,"name":"Toast","steam_id":76561198234616616,"connected_time":5000000000,"state":"spawning","ping":89},{"user_id":136,"name":"dust | she/it","steam_id":76561198045218909,"connected_time":10032000000000,"state":"active","ping":75},{"user_id":249,"name":"enolteiii","steam_id":76561198140843225,"connected_time":1989000000000,"state":"spawning","ping":397},{"user_id":231,"name":"soda","steam_id":76561198105924953,"connected_time":2669000000000,"state":"active","ping":87},{"user_id":268,"name":"Lesbian Futa Mommy","steam_id":76561198130479030,"connected_time":1261000000000,"state":"active","ping":131},{"user_id":236,"name":"stabby stabby","steam_id":76561197975080641,"connected_time":2357000000000,"state":"active","ping":73},{"user_id":255,"name":"oil","steam_id":76561198099980149,"connected_time":1830000000000,"state":"spawning","ping":83},{"user_id":277,"name":"Akira","steam_id":76561198294601519,"connected_time":303000000000,"state":"active","ping":69},{"user_id":257,"name":"smelly boy james(he stinkin)","steam_id":76561197997006216,"connected_time":1787000000000,"state":"active","ping":95},{"user_id":276,"name":"TheMagicMrWaffle","steam_id":76561198104357256,"connected_time":754000000000,"state":"active","ping":78},{"user_id":264,"name":"John Johnson","steam_id":76561198347510093,"connected_time":1585000000000,"state":"spawning","ping":124},{"user_id":282,"name":"David Goldbergstien","steam_id":76561199209382359,"connected_time":39000000000,"state":"active","ping":120},{"user_id":280,"name":"silly jester","steam_id":76561198079609974,"connected_time":145000000000,"state":"active","ping":152},{"user_id":279,"name":"Errodingus","steam_id":76561198870104062,"connected_time":238000000000,"state":"spawning","ping":112},{"user_id":273,"name":"[TrC] Nosy","steam_id":76561197978859310,"connected_time":1035000000000,"state":"active","ping":67},{"user_id":267,"name":"Leaderofthe00fkins","steam_id":76561198281999872,"connected_time":1359000000000,"state":"active","ping":73},{"user_id":272,"name":"Mico (ENA Enthusiast)","steam_id":76561198125462953,"connected_time":1092000000000,"state":"active","ping":43},{"user_id":253,"name":"Milotic","steam_id":76561198047995713,"connected_time":1911000000000,"state":"active","ping":185},{"user_id":270,"name":"[TrC] Dackstrus","steam_id":76561197973518509,"connected_time":1125000000000,"state":"active","ping":62},{"user_id":274,"name":"Lost Arachnid","steam_id":76561199012943912,"connected_time":1034000000000,"state":"spawning","ping":126},{"user_id":261,"name":"dave strider","steam_id":76561198065112186,"connected_time":1767000000000,"state":"spawning","ping":66},{"user_id":283,"name":"griddy","steam_id":76561198825658971,"connected_time":18000000000,"state":"active","ping":261},{"user_id":223,"name":"Siegfried Stern","steam_id":76561198012453523,"connected_time":3739000000000,"state":"active","ping":98}]},{"server_id":119,"name":"Uncletopia | Seattle | 2 | All Maps","name_short":"sea-2","host":"sea-1.us.uncletopia.com","port":27025,"enabled":true,"region":"us-west","cc":"us","latitude":47.608013,"longitude":-122.33517,"reserved":0,"last_update":"0001-01-01T00:00:00Z","name_a2s":"Uncletopia | Seattle | 2 | All Maps","protocol":17,"map":"pl_goldrush","folder":"tf","game":"Team Fortress","app_id":440,"player_count":23,"max_players":24,"Bots":0,"server_type":"Dedicated","server_os":"Linux","password":true,"vac":true,"version":"7757534","steam_id":85568392924469998,"keywords":["nocrits","nodmgspread","payload","uncletopia"],"game_id":440,"stv_port":27026,"stv_name":"Uncletopia | Seattle | 2 | All Maps | STV","players":[{"user_id":538,"name":"MisterManne","steam_id":76561198106598600,"connected_time":1419000000000,"state":"active","ping":55},{"user_id":556,"name":"jawnymac","steam_id":76561198179529599,"connected_time":364000000000,"state":"active","ping":78},{"user_id":559,"name":"Tmiracle","steam_id":76561198052375275,"connected_time":303000000000,"state":"active","ping":75},{"user_id":544,"name":"xerro","steam_id":76561198323340524,"connected_time":1274000000000,"state":"active","ping":125},{"user_id":536,"name":"Antonpirulero10","steam_id":76561198253036781,"connected_time":1472000000000,"state":"active","ping":110},{"user_id":565,"name":"Dallas","steam_id":76561198066542919,"connected_time":81000000000,"state":"active","ping":54},{"user_id":530,"name":"THE GOOP","steam_id":76561199058211576,"connected_time":1956000000000,"state":"active","ping":128},{"user_id":516,"name":"Novaside","steam_id":76561198079461961,"connected_time":2887000000000,"state":"active","ping":134},{"user_id":518,"name":"doctor large","steam_id":76561199195836752,"connected_time":2660000000000,"state":"active","ping":112},{"user_id":521,"name":"THE NUT","steam_id":76561198067813626,"connected_time":2497000000000,"state":"active","ping":54},{"user_id":539,"name":"jake","steam_id":76561199406261605,"connected_time":1408000000000,"state":"active","ping":100},{"user_id":498,"name":"poopdog288","steam_id":76561199090287513,"connected_time":4612000000000,"state":"active","ping":67},{"user_id":547,"name":"--)YawgMoss(-- \"The Salt\"","steam_id":76561198072971649,"connected_time":1116000000000,"state":"active","ping":67},{"user_id":549,"name":"Noah","steam_id":76561198059048749,"connected_time":1045000000000,"state":"active","ping":66},{"user_id":561,"name":"TheBrocklobster","steam_id":76561198039682984,"connected_time":298000000000,"state":"active","ping":94},{"user_id":540,"name":"RipHunter77","steam_id":76561198272973014,"connected_time":1399000000000,"state":"active","ping":83},{"user_id":542,"name":"MAGGOT!","steam_id":76561198213290696,"connected_time":1304000000000,"state":"active","ping":36},{"user_id":523,"name":"Keamy","steam_id":76561199471434875,"connected_time":2256000000000,"state":"active","ping":43},{"user_id":543,"name":"A Duck With Socks","steam_id":76561198018844227,"connected_time":1286000000000,"state":"active","ping":57},{"user_id":564,"name":"Triforce141","steam_id":76561198063896776,"connected_time":94000000000,"state":"active","ping":90},{"user_id":562,"name":"choi","steam_id":76561198053669887,"connected_time":275000000000,"state":"active","ping":86},{"user_id":551,"name":"bloosoom","steam_id":76561198042735130,"connected_time":1000000000000,"state":"active","ping":66},{"user_id":563,"name":"foreskin gaming","steam_id":76561198342928319,"connected_time":175000000000,"state":"active","ping":101}]},{"server_id":406,"name":"Uncletopia | Seattle | 3 | Stopwatch Beta","name_short":"sea-3","host":"sea-1.us.uncletopia.com","port":27035,"enabled":true,"region":"us-west","cc":"us","latitude":47.608013,"longitude":-122.33517,"reserved":0,"last_update":"0001-01-01T00:00:00Z","name_a2s":"Uncletopia | Seattle | 3 | Stopwatch Beta","protocol":17,"map":"workshop/koth_ramjam_rc1.ugc459778887","folder":"tf","game":"Team Fortress","app_id":440,"player_count":0,"max_players":24,"Bots":0,"server_type":"Dedicated","server_os":"Linux","password":true,"vac":true,"version":"7757534","steam_id":85568392924515217,"keywords":["cp","nocrits","nodmgspread","uncletopia"],"game_id":440,"stv_port":27036,"stv_name":"Uncletopia | Seattle | 3 | Stopwatch Beta | STV","players":null},{"server_id":17,"name":"Uncletopia | San Francisco | 1 | All Maps","name_short":"sfo-1","host":"sfo-1.us.uncletopia.com","port":27015,"enabled":true,"region":"us-west","cc":"us","latitude":37.77397,"longitude":-122.4313,"reserved":0,"last_update":"0001-01-01T00:00:00Z","name_a2s":"Uncletopia | San Francisco | 1 | All Maps","protocol":17,"map":"pl_upward","folder":"tf","game":"Team Fortress","app_id":440,"player_count":7,"max_players":24,"Bots":0,"server_type":"Dedicated","server_os":"Linux","password":true,"vac":true,"version":"7757534","steam_id":85568392924469999,"keywords":["nocrits","nodmgspread","payload","uncletopia"],"game_id":440,"stv_port":27016,"stv_name":"Uncletopia | San Francisco | 1 | All Maps | STV","players":[{"user_id":9,"name":"PheebsyDeebsy","steam_id":76561198101509436,"connected_time":521000000000,"state":"active","ping":45},{"user_id":10,"name":"CharAssnable69","steam_id":76561198369770773,"connected_time":386000000000,"state":"active","ping":104},{"user_id":11,"name":"mrbeast109385079350229083479082","steam_id":76561198370687830,"connected_time":79000000000,"state":"active","ping":110},{"user_id":12,"name":"JOOOOEEEEE BIIIIIDDDDEEENNNNNNN","steam_id":76561198447014542,"connected_time":76000000000,"state":"active","ping":147},{"user_id":13,"name":"SunnySideDown","steam_id":76561199259111611,"connected_time":70000000000,"state":"active","ping":56},{"user_id":14,"name":"Dick Sucker","steam_id":76561199200969139,"connected_time":56000000000,"state":"spawning","ping":296},{"user_id":15,"name":"SDL","steam_id":76561198859719985,"connected_time":16000000000,"state":"active","ping":108}]},{"server_id":18,"name":"Uncletopia | San Francisco | 2 | All Maps","name_short":"sfo-2","host":"sfo-1.us.uncletopia.com","port":27025,"enabled":true,"region":"us-west","cc":"us","latitude":37.77397,"longitude":-122.4313,"reserved":0,"last_update":"0001-01-01T00:00:00Z","name_a2s":"Uncletopia | San Francisco | 2 | All Maps","protocol":17,"map":"koth_viaduct","folder":"tf","game":"Team Fortress","app_id":440,"player_count":0,"max_players":24,"Bots":0,"server_type":"Dedicated","server_os":"Linux","password":true,"vac":true,"version":"7757534","steam_id":85568392924470000,"keywords":["cp","nocrits","nodmgspread","uncletopia"],"game_id":440,"stv_port":27026,"stv_name":"Uncletopia | San Francisco | 2 | All Maps | STV","players":null},{"server_id":19,"name":"Uncletopia | San Francisco | 3 | Stopwatch Beta","name_short":"sfo-3","host":"sfo-1.us.uncletopia.com","port":27035,"enabled":true,"region":"us-west","cc":"us","latitude":37.77397,"longitude":-122.4313,"reserved":0,"last_update":"0001-01-01T00:00:00Z","name_a2s":"Uncletopia | San Francisco | 3 | Stopwatch Beta","protocol":17,"map":"cp_snakewater_final1","folder":"tf","game":"Team Fortress","app_id":440,"player_count":0,"max_players":24,"Bots":0,"server_type":"Dedicated","server_os":"Linux","password":true,"vac":true,"version":"7757534","steam_id":85568392924742824,"keywords":["cp","nocrits","nodmgspread","uncletopia"],"game_id":440,"stv_port":27036,"stv_name":"Uncletopia | San Francisco | 3 | Stopwatch Beta | STV","players":null},{"server_id":20,"name":"Uncletopia | San Francisco | 4 | Community","name_short":"sfo-4","host":"sfo-1.us.uncletopia.com","port":27045,"enabled":true,"region":"us-west","cc":"us","latitude":37.77397,"longitude":-122.4313,"reserved":0,"last_update":"0001-01-01T00:00:00Z","name_a2s":"Uncletopia | San Francisco | 4 | Community","protocol":17,"map":"workshop/pl_badwater_pro_v12.ugc2142942074","folder":"tf","game":"Team Fortress","app_id":440,"player_count":24,"max_players":24,"Bots":0,"server_type":"Dedicated","server_os":"Linux","password":true,"vac":true,"version":"7757534","steam_id":85568392924742826,"keywords":["nocrits","nodmgspread","payload","uncletopia"],"game_id":440,"stv_port":27046,"stv_name":"Uncletopia | San Francisco | 4 | Community | STV","players":[{"user_id":205,"name":"SilverMango","steam_id":76561198091243252,"connected_time":2072000000000,"state":"active","ping":63},{"user_id":163,"name":"aisu","steam_id":76561198043768507,"connected_time":4977000000000,"state":"active","ping":102},{"user_id":190,"name":"Bandit","steam_id":76561199087543553,"connected_time":3178000000000,"state":"active","ping":68},{"user_id":218,"name":"Tree Hucker","steam_id":76561199059131762,"connected_time":954000000000,"state":"active","ping":97},{"user_id":219,"name":"ButterNutz","steam_id":76561198122404516,"connected_time":875000000000,"state":"active","ping":93},{"user_id":232,"name":"Tom Foolery","steam_id":76561198142772896,"connected_time":255000000000,"state":"active","ping":120},{"user_id":233,"name":"AceOfSpades7036","steam_id":76561198403610714,"connected_time":248000000000,"state":"active","ping":96},{"user_id":164,"name":"Boyaredeen","steam_id":76561198880492636,"connected_time":4973000000000,"state":"active","ping":69},{"user_id":234,"name":"meth","steam_id":76561198118715586,"connected_time":232000000000,"state":"active","ping":106},{"user_id":198,"name":"oddlyobtuselemon1654","steam_id":76561198877069773,"connected_time":2780000000000,"state":"active","ping":114},{"user_id":208,"name":"Green_GarBear","steam_id":76561199468912415,"connected_time":1835000000000,"state":"active","ping":56},{"user_id":212,"name":"FALRayne","steam_id":76561198113348816,"connected_time":1537000000000,"state":"active","ping":84},{"user_id":235,"name":"spaceman","steam_id":76561198313169223,"connected_time":222000000000,"state":"active","ping":113},{"user_id":225,"name":"chiswola","steam_id":76561198046920142,"connected_time":627000000000,"state":"active","ping":132},{"user_id":122,"name":"oo","steam_id":76561198119626492,"connected_time":7744000000000,"state":"active","ping":182},{"user_id":194,"name":"Mr.Indian Jokar","steam_id":76561198381343086,"connected_time":2908000000000,"state":"active","ping":53},{"user_id":226,"name":"Voxany","steam_id":76561198081096335,"connected_time":623000000000,"state":"active","ping":130},{"user_id":201,"name":"Á≤æÊ∂≤Blev BlevÁ≤æÊ∂≤","steam_id":76561198208972565,"connected_time":2725000000000,"state":"active","ping":134},{"user_id":228,"name":"Stock Dog","steam_id":76561198070469034,"connected_time":619000000000,"state":"active","ping":99},{"user_id":236,"name":"tutituti","steam_id":76561199102070698,"connected_time":204000000000,"state":"active","ping":64},{"user_id":203,"name":"K2f","steam_id":76561198049600563,"connected_time":2507000000000,"state":"active","ping":56},{"user_id":202,"name":"unsafequeen","steam_id":76561199088126900,"connected_time":2712000000000,"state":"active","ping":141},{"user_id":211,"name":"The Assistant Regional Manager","steam_id":76561199221484936,"connected_time":1649000000000,"state":"active","ping":70},{"user_id":229,"name":"KingToaster","steam_id":76561198007903802,"connected_time":612000000000,"state":"active","ping":59}]},{"server_id":141,"name":"Uncletopia | Sydney | 1 | All Maps","name_short":"syd-1","host":"syd-1.au.uncletopia.com","port":27015,"enabled":true,"region":"au","cc":"au","latitude":-33.865143,"longitude":151.2099,"reserved":0,"last_update":"0001-01-01T00:00:00Z","name_a2s":"Uncletopia | Sydney | 1 | All Maps","protocol":17,"map":"koth_viaduct","folder":"tf","game":"Team Fortress","app_id":440,"player_count":15,"max_players":24,"Bots":0,"server_type":"Dedicated","server_os":"Linux","password":true,"vac":true,"version":"7757534","steam_id":85568392924470001,"keywords":["cp","nocrits","nodmgspread","uncletopia"],"game_id":440,"stv_port":27016,"stv_name":"Uncletopia | Sydney | 1 | All Maps | STV","players":[{"user_id":33,"name":"Yegg","steam_id":76561198219898025,"connected_time":605000000000,"state":"active","ping":72},{"user_id":45,"name":"SAPOGRAT","steam_id":76561199069463416,"connected_time":11000000000,"state":"spawning","ping":330},{"user_id":37,"name":"bla","steam_id":76561198119397414,"connected_time":336000000000,"state":"active","ping":67},{"user_id":34,"name":"zise lft pyro","steam_id":76561198079210881,"connected_time":572000000000,"state":"active","ping":55},{"user_id":25,"name":"Not A F2P","steam_id":76561198376756608,"connected_time":1311000000000,"state":"active","ping":59},{"user_id":16,"name":"mochi(buying strange warpaints)","steam_id":76561198204590389,"connected_time":2455000000000,"state":"active","ping":58},{"user_id":26,"name":"FrozenPopcorn24","steam_id":76561199431867051,"connected_time":1302000000000,"state":"active","ping":319},{"user_id":22,"name":"ŒúŒëŒõŒÜŒöŒë","steam_id":76561198304105258,"connected_time":1531000000000,"state":"active","ping":61},{"user_id":31,"name":"Ashes","steam_id":76561198105820742,"connected_time":667000000000,"state":"active","ping":72},{"user_id":32,"name":"AzureFox","steam_id":76561198108179408,"connected_time":665000000000,"state":"active","ping":113},{"user_id":35,"name":"Œªlex","steam_id":76561198181194862,"connected_time":564000000000,"state":"active","ping":64},{"user_id":44,"name":"ziah","steam_id":76561198159375596,"connected_time":58000000000,"state":"active","ping":57},{"user_id":43,"name":"DJ Sheeve","steam_id":76561198095910139,"connected_time":127000000000,"state":"active","ping":244},{"user_id":42,"name":"paolobuts","steam_id":76561199047108638,"connected_time":157000000000,"state":"active","ping":293},{"user_id":41,"name":"Klaji","steam_id":76561198252583940,"connected_time":170000000000,"state":"active","ping":64}]},{"server_id":123,"name":"Uncletopia | Sydney | 2 | All Maps","name_short":"syd-2","host":"syd-1.au.uncletopia.com","port":27025,"enabled":true,"region":"au","cc":"au","latitude":-33.865143,"longitude":151.2099,"reserved":0,"last_update":"0001-01-01T00:00:00Z","name_a2s":"Uncletopia | Sydney | 2 | All Maps","protocol":17,"map":"cp_snakewater_final1","folder":"tf","game":"Team Fortress","app_id":440,"player_count":0,"max_players":24,"Bots":0,"server_type":"Dedicated","server_os":"Linux","password":true,"vac":true,"version":"7757534","steam_id":85568392924470002,"keywords":["cp","nocrits","nodmgspread","uncletopia"],"game_id":440,"stv_port":27026,"stv_name":"Uncletopia | Sydney | 2 | All Maps | STV","players":null},{"server_id":395,"name":"Uncletopia | Sydney | 3 | All Maps","name_short":"syd-3","host":"syd-1.au.uncletopia.com","port":27035,"enabled":true,"region":"au","cc":"au","latitude":-33.865143,"longitude":151.2099,"reserved":0,"last_update":"0001-01-01T00:00:00Z","name_a2s":"Uncletopia | Sydney | 3 | All Maps","protocol":17,"map":"cp_altitude","folder":"tf","game":"Team Fortress","app_id":440,"player_count":0,"max_players":24,"Bots":0,"server_type":"Dedicated","server_os":"Linux","password":true,"vac":true,"version":"7757534","steam_id":85568392925194467,"keywords":["cp","nocrits","nodmgspread","uncletopia"],"game_id":440,"stv_port":27036,"stv_name":"Uncletopia | Sydney | 3 | All Maps | STV","players":null},{"server_id":396,"name":"Uncletopia | Sydney | 4 | All Maps","name_short":"syd-4","host":"syd-1.au.uncletopia.com","port":27045,"enabled":true,"region":"au","cc":"au","latitude":-33.865143,"longitude":151.2099,"reserved":0,"last_update":"0001-01-01T00:00:00Z","name_a2s":"Uncletopia | Sydney | 4 | All Maps","protocol":17,"map":"cp_process_final","folder":"tf","game":"Team Fortress","app_id":440,"player_count":0,"max_players":24,"Bots":0,"server_type":"Dedicated","server_os":"Linux","password":true,"vac":true,"version":"7757534","steam_id":85568392925397958,"keywords":["cp","nocrits","nodmgspread","uncletopia"],"game_id":440,"stv_port":27046,"stv_name":"Uncletopia | Sydney | 4 | All Maps | STV","players":null},{"server_id":58,"name":"Uncletopia | Sydney | 5 | Stopwatch Beta","name_short":"syd-5","host":"syd-1.au.uncletopia.com","port":27055,"enabled":true,"region":"au","cc":"au","latitude":-33.865143,"longitude":151.2099,"reserved":0,"last_update":"0001-01-01T00:00:00Z","name_a2s":"Uncletopia | Sydney | 5 | Stopwatch Beta","protocol":17,"map":"koth_cascade","folder":"tf","game":"Team Fortress","app_id":440,"player_count":0,"max_players":24,"Bots":0,"server_type":"Dedicated","server_os":"Linux","password":true,"vac":true,"version":"7757534","steam_id":85568392925397959,"keywords":["cp","nocrits","nodmgspread","uncletopia"],"game_id":440,"stv_port":27056,"stv_name":"Uncletopia | Sydney | 5 | Stopwatch Beta | STV","players":null},{"server_id":59,"name":"Uncletopia | Sydney | 6 | Community","name_short":"syd-6","host":"syd-1.au.uncletopia.com","port":27065,"enabled":true,"region":"au","cc":"au","latitude":-33.865143,"longitude":151.2099,"reserved":0,"last_update":"0001-01-01T00:00:00Z","name_a2s":"Uncletopia | Sydney | 6 | Community","protocol":17,"map":"pl_badwater","folder":"tf","game":"Team Fortress","app_id":440,"player_count":0,"max_players":24,"Bots":0,"server_type":"Dedicated","server_os":"Linux","password":true,"vac":true,"version":"7757534","steam_id":85568392925397960,"keywords":["nocrits","nodmgspread","payload","uncletopia"],"game_id":440,"stv_port":27066,"stv_name":"Uncletopia | Sydney | 6 | Community | STV","players":null},{"server_id":49,"name":"Uncletopia | Warsaw | 1 | All Maps","name_short":"waw-1","host":"waw-1.pl.uncletopia.com","port":27015,"enabled":true,"region":"eu","cc":"pl","latitude":52.2297,"longitude":21.017532,"reserved":0,"last_update":"0001-01-01T00:00:00Z","name_a2s":"","protocol":0,"map":"","folder":"","game":"","app_id":0,"player_count":0,"max_players":0,"Bots":0,"server_type":"","server_os":"","password":false,"vac":false,"version":"","steam_id":0,"keywords":null,"game_id":0,"stv_port":0,"stv_name":"","players":null},{"server_id":50,"name":"Uncletopia | Warsaw | 2 | All Maps","name_short":"waw-2","host":"waw-1.pl.uncletopia.com","port":27025,"enabled":true,"region":"eu","cc":"pl","latitude":52.2297,"longitude":21.017532,"reserved":0,"last_update":"0001-01-01T00:00:00Z","name_a2s":"Uncletopia | Warsaw | 2 | All Maps","protocol":17,"map":"koth_lakeside_final","folder":"tf","game":"Team Fortress","app_id":440,"player_count":0,"max_players":24,"Bots":0,"server_type":"Dedicated","server_os":"Linux","password":true,"vac":true,"version":"7757534","steam_id":85568392925397851,"keywords":["cp","nocrits","nodmgspread","uncletopia"],"game_id":440,"stv_port":27026,"stv_name":"Uncletopia | Warsaw | 2 | All Maps | STV","players":null},{"server_id":51,"name":"Uncletopia | Warsaw | 3 | All Maps","name_short":"waw-3","host":"waw-1.pl.uncletopia.com","port":27035,"enabled":true,"region":"eu","cc":"pl","latitude":52.2297,"longitude":21.017532,"reserved":0,"last_update":"0001-01-01T00:00:00Z","name_a2s":"Uncletopia | Warsaw | 3 | All Maps","protocol":17,"map":"pl_upward","folder":"tf","game":"Team Fortress","app_id":440,"player_count":0,"max_players":24,"Bots":0,"server_type":"Dedicated","server_os":"Linux","password":true,"vac":true,"version":"7757534","steam_id":85568392925397852,"keywords":["nocrits","nodmgspread","payload","uncletopia"],"game_id":440,"stv_port":27036,"stv_name":"Uncletopia | Warsaw | 3 | All Maps | STV","players":null},{"server_id":52,"name":"Uncletopia | Warsaw | 4 | All Maps","name_short":"waw-4","host":"waw-1.pl.uncletopia.com","port":27045,"enabled":true,"region":"eu","cc":"pl","latitude":52.2297,"longitude":21.017532,"reserved":0,"last_update":"0001-01-01T00:00:00Z","name_a2s":"Uncletopia | Warsaw | 4 | All Maps","protocol":17,"map":"pl_frontier_final","folder":"tf","game":"Team Fortress","app_id":440,"player_count":0,"max_players":24,"Bots":0,"server_type":"Dedicated","server_os":"Linux","password":true,"vac":true,"version":"7757534","steam_id":85568392925397853,"keywords":["nocrits","nodmgspread","payload","uncletopia"],"game_id":440,"stv_port":27046,"stv_name":"Uncletopia | Warsaw | 4 | All Maps | STV","players":null},{"server_id":53,"name":"Uncletopia | Warsaw | 5 | Stopwatch Beta","name_short":"waw-5","host":"waw-1.pl.uncletopia.com","port":27055,"enabled":true,"region":"eu","cc":"pl","latitude":52.2297,"longitude":21.017532,"reserved":0,"last_update":"0001-01-01T00:00:00Z","name_a2s":"Uncletopia | Warsaw | 5 | Stopwatch Beta","protocol":17,"map":"workshop/pl_badwater_pro_v12.ugc2142942074","folder":"tf","game":"Team Fortress","app_id":440,"player_count":0,"max_players":24,"Bots":0,"server_type":"Dedicated","server_os":"Linux","password":true,"vac":true,"version":"7757534","steam_id":85568392925397854,"keywords":["nocrits","nodmgspread","payload","uncletopia"],"game_id":440,"stv_port":27056,"stv_name":"Uncletopia | Warsaw | 5 | Stopwatch Beta | STV","players":null},{"server_id":54,"name":"Uncletopia | Warsaw | 6 | Community","name_short":"waw-6","host":"waw-1.pl.uncletopia.com","port":27065,"enabled":true,"region":"eu","cc":"pl","latitude":52.2297,"longitude":21.017532,"reserved":0,"last_update":"0001-01-01T00:00:00Z","name_a2s":"Uncletopia | Warsaw | 6 | Community","protocol":17,"map":"koth_highpass","folder":"tf","game":"Team Fortress","app_id":440,"player_count":0,"max_players":24,"Bots":0,"server_type":"Dedicated","server_os":"Linux","password":true,"vac":true,"version":"7757534","steam_id":85568392925397856,"keywords":["cp","nocrits","nodmgspread","uncletopia"],"game_id":440,"stv_port":27066,"stv_name":"Uncletopia | Warsaw | 6 | Community | STV","players":null}]}