{"status":true,"message":"","result":[{"server_id":9,"name":"Uncletopia | Atlanta | 1 | All Maps","name_short":"atl-1","host":"atl-1.us.uncletopia.com","port":27015,"enabled":true,"region":"us-east","cc":"us","latitude":33.753746,"longitude":-84.38633,"reserved":0,"last_update":"0001-01-01T00:00:00Z","name_a2s":"Uncletopia | Atlanta | 1 | All Maps","protocol":17,"map":"pl_swiftwater_final1","folder":"tf","game":"Team Fortress","app_id":440,"player_count":7,"max_players":24,"Bots":0,"server_type":"Dedicated","server_os":"Linux","password":true,"vac":true,"version":"7757534","steam_id":85568392924469982,"keywords":["nocrits","nodmgspread","payload","uncletopia"],"game_id":440,"stv_port":27016,"stv_name":"Uncletopia | Atlanta | 1 | All Maps | STV","players":[{"user_id":723,"name":"eepy buppy","steam_id":76561199157846537,"connected_time":2308000000000,"state":"active","ping":78},{"user_id":744,"name":"kris736","steam_id":76561198038208255,"connected_time":536000000000,"state":"active","ping":75},{"user_id":747,"name":"David","steam_id":76561198880517863,"connected_time":41000000000,"state":"active","ping":96},{"user_id":730,"name":"‚öôNebula‚öô","steam_id":76561198093148959,"connected_time":1792000000000,"state":"active","ping":36},{"user_id":745,"name":"Arrythmia","steam_id":76561198093748123,"connected_time":516000000000,"state":"active","ping":105},{"user_id":733,"name":"Googol","steam_id":76561198015967429,"connected_time":1717000000000,"state":"active","ping":86},{"user_id":721,"name":"ESS Cinderace:)","steam_id":76561198132899671,"connected_time":2774000000000,"state":"active","ping":73}]},{"server_id":104,"name":"Uncletopia | Atlanta | 2 | All Maps","name_short":"atl-2","host":"atl-1.us.uncletopia.com","port":27025,"enabled":true,"region":"us-east","cc":"us","latitude":33.753746,"longitude":-84.38633,"reserved":0,"last_update":"0001-01-01T00:00:00Z","name_a2s":"Uncletopia | Atlanta | 2 | All Maps","protocol":17,"map":"pl_barnblitz","folder":"tf","game":"Team Fortress","app_id":440,"player_count":0,"max_players":24,"Bots":0,"server_type":"Dedicated","server_os":"Linux","password":true,"vac":true,"version":"7757534","steam_id":85568392924469983,"keywords":["nocrits","nodmgspread","payload","uncletopia"],"game_id":440,"stv_port":27026,"stv_name":"Uncletopia | Atlanta | 2 | All Maps | STV","players":null},{"server_id":400,"name":"Uncletopia | Atlanta | 3 | Community","name_short":"atl-3","host":"atl-1.us.uncletopia.com","port":27035,"enabled":true,"region":"us-east","cc":"us","latitude":33.753746,"longitude":-84.38633,"reserved":0,"last_update":"0001-01-01T00:00:00Z","name_a2s":"Uncletopia | Atlanta | 3 | Community","protocol":17,"map":"workshop/cp_reckoner_rc6.ugc674719999","folder":"tf","game":"Team Fortress","app_id":440,"player_count":0,"max_players":24,"Bots":0,"server_type":"Dedicated","server_os":"Linux","password":true,"vac":true,"version":"7757534","steam_id":85568392924515187,"keywords":["cp","nocrits","nodmgspread","uncletopia"],"game_id":440,"stv_port":27036,"stv_name":"Uncletopia | Atlanta | 3 | Community | STV","players":null},{"server_id":401,"name":"Uncletopia | Atlanta | 4 | No Payload","name_short":"atl-4","host":"atl-1.us.uncletopia.com","port":27045,"enabled":true,"region":"us-east","cc":"us","latitude":33.753746,"longitude":-84.38633,"reserved":0,"last_update":"0001-01-01T00:00:00Z","name_a2s":"","protocol":0,"map":"","folder":"","game":"","app_id":0,"player_count":0,"max_players":0,"Bots":0,"server_type":"","server_os":"","password":false,"vac":false,"version":"","steam_id":0,"keywords":null,"game_id":0,"stv_port":0,"stv_name":"","players":null},{"server_id":2,"name":"Uncletopia | Chicago | 1 | All Maps","name_short":"chi-1","host":"chi-1.us.uncletopia.com","port":27015,"enabled":true,"region":"us-central","cc":"us","latitude":41.881832,"longitude":-87.62318,"reserved":0,"last_update":"0001-01-01T00:00:00Z","name_a2s":"Uncletopia | Chicago | 1 | All Maps","protocol":17,"map":"cp_sunshine","folder":"tf","game":"Team Fortress","app_id":440,"player_count":0,"max_players":24,"Bots":0,"server_type":"Dedicated","server_os":"Linux","password":true,"vac":true,"version":"7757534","steam_id":85568392924469984,"keywords":["cp","nocrits","nodmgspread","uncletopia"],"game_id":440,"stv_port":27016,"stv_name":"Uncletopia | Chicago | 1 | All Maps | STV","players":null},{"server_id":106,"name":"Uncletopia | Chicago | 2 | All Maps","name_short":"chi-2","host":"chi-1.us.uncletopia.com","port":27025,"enabled":true,"region":"us-central","cc":"us","latitude":41.881832,"longitude":-87.62318,"reserved":0,"last_update":"0001-01-01T00:00:00Z","name_a2s":"Uncletopia | Chicago | 2 | All Maps","protocol":17,"map":"pl_barnblitz","folder":"tf","game":"Team Fortress","app_id":440,"player_count":24,"max_players":24,"Bots":0,"server_type":"Dedicated","server_os":"Linux","password":true,"vac":true,"version":"7757534","steam_id":85568392924469985,"keywords":["nocrits","nodmgspread","payload","uncletopia"],"game_id":440,"stv_port":27026,"stv_name":"Uncletopia | Chicago | 2 | All Maps | STV","players":[{"user_id":530,"name":"Venom","steam_id":76561198067770671,"connected_time":3054000000000,"state":"active","ping":83},{"user_id":548,"name":"chesapeake","steam_id":76561198407129137,"connected_time":1533000000000,"state":"active","ping":61},{"user_id":562,"name":"dzcreeper","steam_id":76561198072250723,"connected_time":296000000000,"state":"active","ping":74},{"user_id":556,"name":"Paper","steam_id":76561198031413673,"connected_time":944000000000,"state":"active","ping":97},{"user_id":490,"name":"ansoonii","steam_id":76561198092494136,"connected_time":5493000000000,"state":"active","ping":59},{"user_id":569,"name":"Kek","steam_id":76561198196374619,"connected_time":26000000000,"state":"active","ping":104},{"user_id":563,"name":"Monster","steam_id":76561198189429665,"connected_time":243000000000,"state":"active","ping":60},{"user_id":567,"name":"Bee's","steam_id":76561198041888432,"connected_time":151000000000,"state":"active","ping":100},{"user_id":568,"name":"goon","steam_id":76561198010602479,"connected_time":71000000000,"state":"active","ping":85},{"user_id":555,"name":"jid","steam_id":76561198067111272,"connected_time":1120000000000,"state":"active","ping":61},{"user_id":564,"name":"Training Arc","steam_id":76561198038832034,"connected_time":214000000000,"state":"active","ping":102},{"user_id":520,"name":"LilJonny","steam_id":76561198185250439,"connected_time":3892000000000,"state":"active","ping":117},{"user_id":544,"name":"punaise","steam_id":76561198095105411,"connected_time":1679000000000,"state":"active","ping":71},{"user_id":547,"name":"Sabaman55","steam_id":76561198212267979,"connected_time":1595000000000,"state":"active","ping":64},{"user_id":558,"name":"BigWack","steam_id":76561198334878169,"connected_time":870000000000,"state":"active","ping":82},{"user_id":554,"name":"Anarchy","steam_id":76561198283240854,"connected_time":1244000000000,"state":"active","ping":70},{"user_id":559,"name":"2 a.m. taco bell run","steam_id":76561198073148340,"connected_time":792000000000,"state":"active","ping":45},{"user_id":560,"name":"slurm","steam_id":76561198060694039,"connected_time":615000000000,"state":"active","ping":63},{"user_id":528,"name":"LUNTKICCER","steam_id":76561198019740347,"connected_time":3258000000000,"state":"active","ping":77},{"user_id":541,"name":"thigh enjoyer","steam_id":76561198088003193,"connected_time":1797000000000,"state":"active","ping":172},{"user_id":565,"name":"Luke","steam_id":76561198072441047,"connected_time":196000000000,"state":"active","ping":104},{"user_id":539,"name":"SkrubWrecker","steam_id":76561198044717015,"connected_time":2108000000000,"state":"active","ping":60},{"user_id":536,"name":"Faraday","steam_id":76561198089928357,"connected_time":2465000000000,"state":"active","ping":75},{"user_id":566,"name":"aqua","steam_id":76561199407709552,"connected_time":175000000000,"state":"active","ping":44}]},{"server_id":402,"name":"Uncletopia | Chicago | 3 | All Maps","name_short":"chi-3","host":"chi-1.us.uncletopia.com","port":27035,"enabled":true,"region":"us-central","cc":"us","latitude":41.881832,"longitude":-87.62318,"reserved":0,"last_update":"0001-01-01T00:00:00Z","name_a2s":"Uncletopia | Chicago | 3 | All Maps","protocol":17,"map":"cp_mountainlab","folder":"tf","game":"Team Fortress","app_id":440,"player_count":0,"max_players":24,"Bots":0,"server_type":"Dedicated","server_os":"Linux","password":true,"vac":true,"version":"7757534","steam_id":85568392924515191,"keywords":["cp","nocrits","nodmgspread","uncletopia"],"game_id":440,"stv_port":27036,"stv_name":"Uncletopia | Chicago | 3 | All Maps | STV","players":null},{"server_id":403,"name":"Uncletopia | Chicago | 4 | All Maps","name_short":"chi-4","host":"chi-1.us.uncletopia.com","port":27045,"enabled":true,"region":"us-central","cc":"us","latitude":41.881832,"longitude":-87.62318,"reserved":0,"last_update":"0001-01-01T00:00:00Z","name_a2s":"Uncletopia | Chicago | 4 | All Maps","protocol":17,"map":"koth_highpass","folder":"tf","game":"Team Fortress","app_id":440,"player_count":0,"max_players":24,"Bots":0,"server_type":"Dedicated","server_os":"Linux","password":true,"vac":true,"version":"7757534","steam_id":85568392924515193,"keywords":["cp","nocrits","nodmgspread","uncletopia"],"game_id":440,"stv_port":27046,"stv_name":"Uncletopia | Chicago | 4 | All Maps | STV","players":null},{"server_id":36,"name":"Uncletopia | Chicago | 5 | All Maps","name_short":"chi-5","host":"chi-2.us.uncletopia.com","port":27015,"enabled":true,"region":"us-central","cc":"us","latitude":41.881832,"longitude":-87.62318,"reserved":0,"last_update":"0001-01-01T00:00:00Z","name_a2s":"Uncletopia | Chicago | 5 | All Maps","protocol":17,"map":"pl_frontier_final","folder":"tf","game":"Team Fortress","app_id":440,"player_count":0,"max_players":24,"Bots":0,"server_type":"Dedicated","server_os":"Linux","password":true,"vac":true,"version":"7757534","steam_id":85568392924866362,"keywords":["nocrits","nodmgspread","payload","uncletopia"],"game_id":440,"stv_port":27016,"stv_name":"Uncletopia | Chicago | 5 | All Maps | STV","players":null},{"server_id":37,"name":"Uncletopia | Chicago | 6 | All Maps","name_short":"chi-6","host":"chi-2.us.uncletopia.com","port":27025,"enabled":true,"region":"us-central","cc":"us","latitude":41.881832,"longitude":-87.62318,"reserved":0,"last_update":"0001-01-01T00:00:00Z","name_a2s":"Uncletopia | Chicago | 6 | All Maps","protocol":17,"map":"koth_viaduct","folder":"tf","game":"Team Fortress","app_id":440,"player_count":0,"max_players":24,"Bots":0,"server_type":"Dedicated","server_os":"Linux","password":true,"vac":true,"version":"7757534","steam_id":85568392924866363,"keywords":["cp","nocrits","nodmgspread","uncletopia"],"game_id":440,"stv_port":27026,"stv_name":"Uncletopia | Chicago | 6 | All Maps | STV","players":null},{"server_id":38,"name":"Uncletopia | Chicago | 7 | Stopwatch Beta","name_short":"chi-7","host":"chi-2.us.uncletopia.com","port":27035,"enabled":true,"region":"us-central","cc":"us","latitude":41.881832,"longitude":-87.62318,"reserved":0,"last_update":"0001-01-01T00:00:00Z","name_a2s":"Uncletopia | Chicago | 7 | Stopwatch Beta","protocol":17,"map":"pl_borneo","folder":"tf","game":"Team Fortress","app_id":440,"player_count":0,"max_players":24,"Bots":0,"server_type":"Dedicated","server_os":"Linux","password":true,"vac":true,"version":"7757534","steam_id":85568392924866364,"keywords":["nocrits","nodmgspread","payload","uncletopia"],"game_id":440,"stv_port":27036,"stv_name":"Uncletopia | Chicago | 7 | Stopwatch Beta | STV","players":null},{"server_id":39,"name":"Uncletopia | Chicago | 8 | Community","name_short":"chi-8","host":"chi-2.us.uncletopia.com","port":27045,"enabled":true,"region":"us-central","cc":"us","latitude":41.881832,"longitude":-87.62318,"reserved":0,"last_update":"0001-01-01T00:00:00Z","name_a2s":"Uncletopia | Chicago | 8 | Community","protocol":17,"map":"workshop/pl_divulgence_b4b.ugc2884808746","folder":"tf","game":"Team Fortress","app_id":440,"player_count":0,"max_players":24,"Bots":0,"server_type":"Dedicated","server_os":"Linux","password":true,"vac":true,"version":"7757534","steam_id":85568392924866365,"keywords":["nocrits","nodmgspread","payload","uncletopia"],"game_id":440,"stv_port":27046,"stv_name":"Uncletopia | Chicago | 8 | Community | STV","players":null},{"server_id":8,"name":"Uncletopia | Dallas | 1 | All Maps","name_short":"dal-1","host":"dal-1.us.uncletopia.com","port":27015,"enabled":true,"region":"us-central","cc":"us","latitude":32.779167,"longitude":-96.80889,"reserved":0,"last_update":"0001-01-01T00:00:00Z","name_a2s":"Uncletopia | Dallas | 1 | All Maps","protocol":17,"map":"cp_dustbowl","folder":"tf","game":"Team Fortress","app_id":440,"player_count":19,"max_players":24,"Bots":0,"server_type":"Dedicated","server_os":"Linux","password":true,"vac":true,"version":"7757534","steam_id":85568392924469986,"keywords":["cp","nocrits","nodmgspread","uncletopia"],"game_id":440,"stv_port":27016,"stv_name":"Uncletopia | Dallas | 1 | All Maps | STV","players":[{"user_id":581,"name":"Frodo T Baggins","steam_id":76561198048090297,"connected_time":714000000000,"state":"active","ping":84},{"user_id":597,"name":"Michiru","steam_id":76561198878701671,"connected_time":56000000000,"state":"active","ping":105},{"user_id":591,"name":"Intestinal Straw","steam_id":76561198082095303,"connected_time":139000000000,"state":"active","ping":83},{"user_id":592,"name":"Orthworm Jim","steam_id":76561198034475253,"connected_time":128000000000,"state":"active","ping":83},{"user_id":583,"name":"Tough Puffin","steam_id":76561198024011010,"connected_time":563000000000,"state":"active","ping":91},{"user_id":492,"name":"Grink \"V.F\" da Boy","steam_id":76561197985230768,"connected_time":8624000000000,"state":"active","ping":92},{"user_id":584,"name":"Young, Hot, and Full of Grease","steam_id":76561198101092551,"connected_time":521000000000,"state":"active","ping":77},{"user_id":577,"name":"Wacks","steam_id":76561198079476100,"connected_time":1620000000000,"state":"active","ping":89},{"user_id":585,"name":"Kaui","steam_id":76561198052249003,"connected_time":465000000000,"state":"active","ping":85},{"user_id":498,"name":"cyal","steam_id":76561198080957000,"connected_time":8030000000000,"state":"active","ping":84},{"user_id":598,"name":"WilsonWeave","steam_id":76561198287998551,"connected_time":13000000000,"state":"spawning","ping":156},{"user_id":441,"name":"Devon","steam_id":76561198151801996,"connected_time":11835000000000,"state":"active","ping":76},{"user_id":570,"name":"Merci?","steam_id":76561198096823118,"connected_time":1955000000000,"state":"active","ping":51},{"user_id":586,"name":"This game sucks","steam_id":76561198042007578,"connected_time":398000000000,"state":"active","ping":63},{"user_id":595,"name":"Descent Degent_","steam_id":76561198088191503,"connected_time":97000000000,"state":"active","ping":69},{"user_id":567,"name":"2006Microsoft Intellisense Mous","steam_id":76561198085401931,"connected_time":2243000000000,"state":"active","ping":54},{"user_id":572,"name":"Goobigan","steam_id":76561198072790366,"connected_time":1941000000000,"state":"active","ping":109},{"user_id":530,"name":"PaleMemories","steam_id":76561197990074942,"connected_time":5162000000000,"state":"active","ping":84},{"user_id":490,"name":"Type Three Dabeetus","steam_id":76561198062710038,"connected_time":8809000000000,"state":"active","ping":87}]},{"server_id":108,"name":"Uncletopia | Dallas | 2 | All Maps","name_short":"dal-2","host":"dal-1.us.uncletopia.com","port":27025,"enabled":true,"region":"us-central","cc":"us","latitude":32.779167,"longitude":-96.80889,"reserved":0,"last_update":"0001-01-01T00:00:00Z","name_a2s":"Uncletopia | Dallas | 2 | All Maps","protocol":17,"map":"pl_barnblitz","folder":"tf","game":"Team Fortress","app_id":440,"player_count":0,"max_players":24,"Bots":0,"server_type":"Dedicated","server_os":"Linux","password":true,"vac":true,"version":"7757534","steam_id":85568392924469988,"keywords":["nocrits","nodmgspread","payload","uncletopia"],"game_id":440,"stv_port":27026,"stv_name":"Uncletopia | Dallas | 2 | All Maps | STV","players":null},{"server_id":5,"name":"Uncletopia | Frankfurt | 1 | All Maps","name_short":"frk-1","host":"frk-1.de.uncletopia.com","port":27015,"enabled":true,"region":"eu","cc":"de","latitude":50.110924,"longitude":8.682127,"reserved":0,"last_update":"0001-01-01T00:00:00Z","name_a2s":"Uncletopia | Frankfurt | 1 | All Maps","protocol":17,"map":"pl_upward","folder":"tf","game":"Team Fortress","app_id":440,"player_count":24,"max_players":24,"Bots":0,"server_type":"Dedicated","server_os":"Linux","password":true,"vac":true,"version":"7757534","steam_id":85568392924469989,"keywords":["nocrits","nodmgspread","payload","uncletopia"],"game_id":440,"stv_port":27016,"stv_name":"Uncletopia | Frankfurt | 1 | All Maps | STV","players":[{"user_id":86,"name":"Amandus","steam_id":76561198036281079,"connected_time":249000000000,"state":"active","ping":60},{"user_id":78,"name":"Silent Person","steam_id":76561198107763537,"connected_time":1277000000000,"state":"active","ping":61},{"user_id":30,"name":"Cocane Concho","steam_id":76561198139690063,"connected_time":4655000000000,"state":"active","ping":51},{"user_id":49,"name":"Piquesque","steam_id":76561198286763046,"connected_time":3406000000000,"state":"active","ping":109},{"user_id":83,"name":"huggos","steam_id":76561198138248809,"connected_time":443000000000,"state":"active","ping":77},{"user_id":72,"name":"AsuX","steam_id":76561197990333289,"connected_time":1472000000000,"state":"active","ping":60},{"user_id":73,"name":"Vodka","steam_id":76561198062027586,"connected_time":1470000000000,"state":"active","ping":85},{"user_id":58,"name":"Economic crisis","steam_id":76561198063562843,"connected_time":3063000000000,"state":"active","ping":48},{"user_id":68,"name":"thekoolest88","steam_id":76561199022415672,"connected_time":1603000000000,"state":"active","ping":149},{"user_id":74,"name":"Raivo","steam_id":76561198388750592,"connected_time":1464000000000,"state":"active","ping":58},{"user_id":77,"name":"Ardello","steam_id":76561198864484125,"connected_time":1335000000000,"state":"active","ping":74},{"user_id":32,"name":"Tilty üë•","steam_id":76561198141834089,"connected_time":4646000000000,"state":"active","ping":59},{"user_id":65,"name":"homeinvasion$","steam_id":76561199111905021,"connected_time":2081000000000,"state":"active","ping":112},{"user_id":75,"name":"Eleazar Fig Dies","steam_id":76561198838277022,"connected_time":1429000000000,"state":"active","ping":65},{"user_id":79,"name":"Mielgin","steam_id":76561198184549609,"connected_time":1215000000000,"state":"active","ping":152},{"user_id":59,"name":"artdss","steam_id":76561198853485124,"connected_time":3006000000000,"state":"active","ping":73},{"user_id":81,"name":"/ff¬™ rilookp","steam_id":76561198143529110,"connected_time":1154000000000,"state":"active","ping":53},{"user_id":76,"name":"Marcos","steam_id":76561198798925721,"connected_time":1376000000000,"state":"active","ping":69},{"user_id":84,"name":"Radegast the Brown","steam_id":76561198075489505,"connected_time":441000000000,"state":"active","ping":83},{"user_id":87,"name":"Amon Ynous","steam_id":76561198034312260,"connected_time":239000000000,"state":"active","ping":59},{"user_id":52,"name":"Kedy","steam_id":76561198308990457,"connected_time":3349000000000,"state":"active","ping":95},{"user_id":44,"name":"on1on (julienned)","steam_id":76561197995304137,"connected_time":3852000000000,"state":"active","ping":67},{"user_id":46,"name":"piss‚Ñ¢","steam_id":76561198108098760,"connected_time":3753000000000,"state":"active","ping":60},{"user_id":67,"name":"Cobb Salads","steam_id":76561197971140507,"connected_time":2030000000000,"state":"active","ping":64}]},{"server_id":110,"name":"Uncletopia | Frankfurt | 2 | All Maps","name_short":"frk-2","host":"frk-1.de.uncletopia.com","port":27025,"enabled":true,"region":"eu","cc":"de","latitude":50.110924,"longitude":8.682127,"reserved":0,"last_update":"0001-01-01T00:00:00Z","name_a2s":"Uncletopia | Frankfurt | 2 | All Maps","protocol":17,"map":"cp_dustbowl","folder":"tf","game":"Team Fortress","app_id":440,"player_count":0,"max_players":24,"Bots":0,"server_type":"Dedicated","server_os":"Linux","password":true,"vac":true,"version":"7757534","steam_id":85568392924469990,"keywords":["cp","nocrits","nodmgspread","uncletopia"],"game_id":440,"stv_port":27026,"stv_name":"Uncletopia | Frankfurt | 2 | All Maps | STV","players":null},{"server_id":308,"name":"Uncletopia | Frankfurt | 3 | All Maps","name_short":"frk-3","host":"frk-1.de.uncletopia.com","port":27035,"enabled":true,"region":"eu","cc":"de","latitude":50.110924,"longitude":8.682127,"reserved":0,"last_update":"0001-01-01T00:00:00Z","name_a2s":"Uncletopia | Frankfurt | 3 | All Maps","protocol":17,"map":"pl_frontier_final","folder":"tf","game":"Team Fortress","app_id":440,"player_count":0,"max_players":24,"Bots":0,"server_type":"Dedicated","server_os":"Linux","password":true,"vac":true,"version":"7757534","steam_id":85568392924504274,"keywords":["nocrits","nodmgspread","payload","uncletopia"],"game_id":440,"stv_port":27036,"stv_name":"Uncletopia | Frankfurt | 3 | All Maps | STV","players":null},{"server_id":309,"name":"Uncletopia | Frankfurt | 4 | All Maps","name_short":"frk-4","host":"frk-1.de.uncletopia.com","port":27045,"enabled":true,"region":"eu","cc":"de","latitude":50.110924,"longitude":8.682127,"reserved":0,"last_update":"0001-01-01T00:00:00Z","name_a2s":"Uncletopia | Frankfurt | 4 | All Maps","protocol":17,"map":"koth_viaduct","folder":"tf","game":"Team Fortress","app_id":440,"player_count":0,"max_players":24,"Bots":0,"server_type":"Dedicated","server_os":"Linux","password":true,"vac":true,"version":"7757534","steam_id":85568392924504275,"keywords":["cp","nocrits","nodmgspread","uncletopia"],"game_id":440,"stv_port":27046,"stv_name":"Uncletopia | Frankfurt | 4 | All Maps | STV","players":null},{"server_id":310,"name":"Uncletopia | Frankfurt | 5 | All Maps","name_short":"frk-5","host":"frk-1.de.uncletopia.com","port":27055,"enabled":true,"region":"eu","cc":"de","latitude":50.110924,"longitude":8.682127,"reserved":0,"last_update":"0001-01-01T00:00:00Z","name_a2s":"Uncletopia | Frankfurt | 5 | All Maps","protocol":17,"map":"koth_lakeside_final","folder":"tf","game":"Team Fortress","app_id":440,"player_count":0,"max_players":24,"Bots":0,"server_type":"Dedicated","server_os":"Linux","password":true,"vac":true,"version":"7757534","steam_id":85568392924504277,"keywords":["cp","nocrits","nodmgspread","uncletopia"],"game_id":440,"stv_port":27056,"stv_name":"Uncletopia | Frankfurt | 5 | All Maps | STV","players":null},{"server_id":311,"name":"Uncletopia | Frankfurt | 6 | All Maps","name_short":"frk-6","host":"frk-1.de.uncletopia.com","port":27065,"enabled":true,"region":"eu","cc":"de","latitude":50.110924,"longitude":8.682127,"reserved":0,"last_update":"0001-01-01T00:00:00Z","name_a2s":"Uncletopia | Frankfurt | 6 | All Maps","protocol":17,"map":"pl_frontier_final","folder":"tf","game":"Team Fortress","app_id":440,"player_count":0,"max_players":24,"Bots":0,"server_type":"Dedicated","server_os":"Linux","password":true,"vac":true,"version":"7757534","steam_id":85568392924504278,"keywords":["nocrits","nodmgspread","payload","uncletopia"],"game_id":440,"stv_port":27066,"stv_name":"Uncletopia | Frankfurt | 6 | All Maps | STV","players":null},{"server_id":23,"name":"Uncletopia | Frankfurt | 7 | Stopwatch Beta","name_short":"frk-7","host":"frk-1.de.uncletopia.com","port":27075,"enabled":true,"region":"eu","cc":"de","latitude":50.110924,"longitude":8.682127,"reserved":0,"last_update":"0001-01-01T00:00:00Z","name_a2s":"Uncletopia | Frankfurt | 7 | Stopwatch Beta","protocol":17,"map":"cp_sunshine","folder":"tf","game":"Team Fortress","app_id":440,"player_count":0,"max_players":24,"Bots":0,"server_type":"Dedicated","server_os":"Linux","password":true,"vac":true,"version":"7757534","steam_id":85568392924742827,"keywords":["cp","nocrits","nodmgspread","uncletopia"],"game_id":440,"stv_port":27076,"stv_name":"Uncletopia | Frankfurt | 7 | Stopwatch Beta | STV","players":null},{"server_id":24,"name":"Uncletopia | Frankfurt | 8 | Community","name_short":"frk-8","host":"frk-1.de.uncletopia.com","port":27085,"enabled":true,"region":"eu","cc":"de","latitude":50.110924,"longitude":8.682127,"reserved":0,"last_update":"0001-01-01T00:00:00Z","name_a2s":"Uncletopia | Frankfurt | 8 | Community","protocol":17,"map":"koth_lakeside_final","folder":"tf","game":"Team Fortress","app_id":440,"player_count":0,"max_players":24,"Bots":0,"server_type":"Dedicated","server_os":"Linux","password":true,"vac":true,"version":"7757534","steam_id":85568392924742828,"keywords":["cp","nocrits","nodmgspread","uncletopia"],"game_id":440,"stv_port":27086,"stv_name":"Uncletopia | Frankfurt | 8 | Community | STV","players":null},{"server_id":202,"name":"Uncletopia | Hong Kong | 1 | All Maps","name_short":"hgk-1","host":"hgk-1.hk.uncletopia.com","port":27015,"enabled":true,"region":"asia","cc":"hk","latitude":22.302711,"longitude":114.177216,"reserved":0,"last_update":"0001-01-01T00:00:00Z","name_a2s":"Uncletopia | Hong Kong | 1 | All Maps","protocol":17,"map":"koth_highpass","folder":"tf","game":"Team Fortress","app_id":440,"player_count":0,"max_players":24,"Bots":0,"server_type":"Dedicated","server_os":"Linux","password":true,"vac":true,"version":"7757534","steam_id":85568392924494504,"keywords":["cp","nocrits","nodmgspread","uncletopia"],"game_id":440,"stv_port":27016,"stv_name":"Uncletopia | Hong Kong | 1 | All Maps | STV","players":null},{"server_id":1,"name":"Uncletopia | Los Angeles | 1 | All Maps","name_short":"lax-1","host":"lax-1.us.uncletopia.com","port":27015,"enabled":true,"region":"us-west","cc":"us","latitude":33.94279,"longitude":-118.41004,"reserved":0,"last_update":"0001-01-01T00:00:00Z","name_a2s":"Uncletopia | Los Angeles | 1 | All Maps","protocol":17,"map":"cp_altitude","folder":"tf","game":"Team Fortress","app_id":440,"player_count":0,"max_players":24,"Bots":0,"server_type":"Dedicated","server_os":"Linux","password":true,"vac":true,"version":"7757534","steam_id":85568392924469991,"keywords":["cp","nocrits","nodmgspread","uncletopia"],"game_id":440,"stv_port":27016,"stv_name":"Uncletopia | Los Angeles | 1 | All Maps | STV","players":null},{"server_id":112,"name":"Uncletopia | Los Angeles | 2 | All Maps","name_short":"lax-2","host":"lax-1.us.uncletopia.com","port":27025,"enabled":true,"region":"us-west","cc":"us","latitude":33.94279,"longitude":-118.41004,"reserved":0,"last_update":"0001-01-01T00:00:00Z","name_a2s":"Uncletopia | Los Angeles | 2 | All Maps","protocol":17,"map":"koth_viaduct","folder":"tf","game":"Team Fortress","app_id":440,"player_count":24,"max_players":24,"Bots":0,"server_type":"Dedicated","server_os":"Linux","password":true,"vac":true,"version":"7757534","steam_id":85568392924469992,"keywords":["cp","nocrits","nodmgspread","uncletopia"],"game_id":440,"stv_port":27026,"stv_name":"Uncletopia | Los Angeles | 2 | All Maps | STV","players":[{"user_id":617,"name":"Alexr118","steam_id":76561198012102930,"connected_time":1683000000000,"state":"active","ping":45},{"user_id":560,"name":"Rei Ayanami","steam_id":76561198853092631,"connected_time":5965000000000,"state":"active","ping":95},{"user_id":604,"name":"silvestrelops","steam_id":76561198275189720,"connected_time":2403000000000,"state":"active","ping":104},{"user_id":581,"name":"oil","steam_id":76561198099980149,"connected_time":5274000000000,"state":"active","ping":47},{"user_id":611,"name":"Rick","steam_id":76561198082608196,"connected_time":1809000000000,"state":"active","ping":89},{"user_id":612,"name":"peebpoob","steam_id":76561198877442432,"connected_time":1787000000000,"state":"active","ping":85},{"user_id":554,"name":"blozet","steam_id":76561199120161035,"connected_time":6446000000000,"state":"active","ping":148},{"user_id":613,"name":"yungevilbruh","steam_id":76561198127631900,"connected_time":1783000000000,"state":"active","ping":48},{"user_id":616,"name":"dinocoder","steam_id":76561198311038263,"connected_time":1713000000000,"state":"active","ping":54},{"user_id":588,"name":"DaBeatGoOff?","steam_id":76561198106507400,"connected_time":4354000000000,"state":"active","ping":49},{"user_id":595,"name":"the rizzard of oz","steam_id":76561198108196753,"connected_time":3488000000000,"state":"active","ping":43},{"user_id":633,"name":"Tweeted Defcon Now We Past 3","steam_id":76561198276310307,"connected_time":532000000000,"state":"active","ping":108},{"user_id":632,"name":"iNGNORX","steam_id":76561198807649258,"connected_time":630000000000,"state":"active","ping":88},{"user_id":619,"name":"evan","steam_id":76561198169023104,"connected_time":1425000000000,"state":"active","ping":46},{"user_id":598,"name":"Remaru","steam_id":76561198324711734,"connected_time":3288000000000,"state":"active","ping":91},{"user_id":607,"name":"God's not dead, I am.","steam_id":76561198840484105,"connected_time":2267000000000,"state":"active","ping":109},{"user_id":628,"name":"nous","steam_id":76561198046278452,"connected_time":882000000000,"state":"active","ping":84},{"user_id":634,"name":"nella","steam_id":76561198079349621,"connected_time":76000000000,"state":"active","ping":56},{"user_id":629,"name":"snowshoe","steam_id":76561199476816590,"connected_time":749000000000,"state":"active","ping":86},{"user_id":600,"name":"Octo","steam_id":76561198024056355,"connected_time":3144000000000,"state":"active","ping":56},{"user_id":601,"name":"x1x","steam_id":76561198068672882,"connected_time":3054000000000,"state":"active","ping":57},{"user_id":587,"name":"Pro Box","steam_id":76561198035990809,"connected_time":5046000000000,"state":"active","ping":132},{"user_id":615,"name":"me","steam_id":76561199468285784,"connected_time":1746000000000,"state":"active","ping":48},{"user_id":627,"name":"gamer_devourer","steam_id":76561198973306314,"connected_time":947000000000,"state":"active","ping":53}]},{"server_id":324,"name":"Uncletopia | Los Angeles | 3 | All Maps","name_short":"lax-3","host":"lax-1.us.uncletopia.com","port":27035,"enabled":true,"region":"us-west","cc":"us","latitude":33.94279,"longitude":-118.41004,"reserved":0,"last_update":"0001-01-01T00:00:00Z","name_a2s":"Uncletopia | Los Angeles | 3 | All Maps","protocol":17,"map":"koth_lakeside_final","folder":"tf","game":"Team Fortress","app_id":440,"player_count":0,"max_players":24,"Bots":0,"server_type":"Dedicated","server_os":"Linux","password":true,"vac":true,"version":"7757534","steam_id":85568392924510198,"keywords":["cp","nocrits","nodmgspread","uncletopia"],"game_id":440,"stv_port":27036,"stv_name":"Uncletopia | Los Angeles | 3 | All Maps | STV","players":null},{"server_id":25,"name":"Uncletopia | Los Angeles | 4 | Stopwatch Beta","name_short":"lax-4","host":"lax-1.us.uncletopia.com","port":27045,"enabled":true,"region":"us-west","cc":"us","latitude":33.94279,"longitude":-118.41004,"reserved":0,"last_update":"0001-01-01T00:00:00Z","name_a2s":"Uncletopia | Los Angeles | 4 | Stopwatch Beta","protocol":17,"map":"pl_swiftwater_final1","folder":"tf","game":"Team Fortress","app_id":440,"player_count":0,"max_players":24,"Bots":0,"server_type":"Dedicated","server_os":"Linux","password":true,"vac":true,"version":"7757534","steam_id":85568392924510199,"keywords":["nocrits","nodmgspread","payload","uncletopia"],"game_id":440,"stv_port":27046,"stv_name":"Uncletopia | Los Angeles | 4 | Stopwatch Beta | STV","players":null},{"server_id":11,"name":"Uncletopia | London | 1 | All Maps","name_short":"lon-1","host":"lon-1.uk.uncletopia.com","port":27015,"enabled":true,"region":"eu","cc":"gb","latitude":51.509865,"longitude":-0.118092,"reserved":0,"last_update":"0001-01-01T00:00:00Z","name_a2s":"Uncletopia | London | 1 | All Maps","protocol":17,"map":"koth_highpass","folder":"tf","game":"Team Fortress","app_id":440,"player_count":0,"max_players":24,"Bots":0,"server_type":"Dedicated","server_os":"Linux","password":true,"vac":true,"version":"7757534","steam_id":85568392924367362,"keywords":["cp","nocrits","nodmgspread","uncletopia"],"game_id":440,"stv_port":27016,"stv_name":"Uncletopia | London | 1 | All Maps | STV","players":null},{"server_id":114,"name":"Uncletopia | London | 2 | All Maps","name_short":"lon-2","host":"lon-1.uk.uncletopia.com","port":27025,"enabled":true,"region":"eu","cc":"gb","latitude":51.509865,"longitude":-0.118092,"reserved":0,"last_update":"0001-01-01T00:00:00Z","name_a2s":"Uncletopia | London | 2 | All Maps","protocol":17,"map":"pl_frontier_final","folder":"tf","game":"Team Fortress","app_id":440,"player_count":24,"max_players":24,"Bots":0,"server_type":"Dedicated","server_os":"Linux","password":true,"vac":true,"version":"7757534","steam_id":85568392924470941,"keywords":["nocrits","nodmgspread","payload","uncletopia"],"game_id":440,"stv_port":27026,"stv_name":"Uncletopia | London | 2 | All Maps | STV","players":[{"user_id":60,"name":"Princess Fuzz","steam_id":76561198025783000,"connected_time":166000000000,"state":"active","ping":39},{"user_id":10,"name":"mayonnaise of the escalator","steam_id":76561199093477280,"connected_time":3652000000000,"state":"active","ping":76},{"user_id":11,"name":"poshtoo @_@","steam_id":76561198106182078,"connected_time":3486000000000,"state":"active","ping":105},{"user_id":25,"name":"Largo","steam_id":76561198844368927,"connected_time":1734000000000,"state":"active","ping":74},{"user_id":27,"name":"proko","steam_id":76561198032035497,"connected_time":1697000000000,"state":"active","ping":104},{"user_id":14,"name":"gneeda","steam_id":76561198147249160,"connected_time":3129000000000,"state":"active","ping":106},{"user_id":16,"name":"Anniquilator","steam_id":76561198344952248,"connected_time":2933000000000,"state":"active","ping":66},{"user_id":53,"name":"a sticky situation","steam_id":76561198011692496,"connected_time":563000000000,"state":"active","ping":69},{"user_id":30,"name":"erobrine2","steam_id":76561198173218318,"connected_time":1597000000000,"state":"active","ping":41},{"user_id":21,"name":"Enigmus","steam_id":76561197994063627,"connected_time":2044000000000,"state":"active","ping":87},{"user_id":61,"name":"\u003e:3","steam_id":76561198068586634,"connected_time":165000000000,"state":"active","ping":142},{"user_id":50,"name":"JC Denton(fake)","steam_id":76561198989449047,"connected_time":670000000000,"state":"active","ping":128},{"user_id":29,"name":"risk","steam_id":76561199161079834,"connected_time":1607000000000,"state":"active","ping":98},{"user_id":41,"name":"simon","steam_id":76561198880361394,"connected_time":926000000000,"state":"active","ping":61},{"user_id":54,"name":"Polech","steam_id":76561199187916824,"connected_time":547000000000,"state":"active","ping":93},{"user_id":62,"name":"Cypher","steam_id":76561197996967254,"connected_time":160000000000,"state":"active","ping":62},{"user_id":47,"name":"markkulul","steam_id":76561198120166752,"connected_time":753000000000,"state":"active","ping":88},{"user_id":63,"name":"MikeHawk","steam_id":76561198037050528,"connected_time":119000000000,"state":"active","ping":119},{"user_id":43,"name":"Rooce","steam_id":76561199061011421,"connected_time":876000000000,"state":"active","ping":84},{"user_id":44,"name":"SugarPlumb","steam_id":76561198258269600,"connected_time":868000000000,"state":"active","ping":48},{"user_id":51,"name":"Kiwami","steam_id":76561198307503265,"connected_time":652000000000,"state":"active","ping":99},{"user_id":56,"name":"Aimrow","steam_id":76561198023275245,"connected_time":448000000000,"state":"active","ping":88},{"user_id":58,"name":"The Shartiest Man","steam_id":76561199055566944,"connected_time":256000000000,"state":"active","ping":82},{"user_id":59,"name":"The Man Of Sex","steam_id":76561198385989487,"connected_time":248000000000,"state":"active","ping":94}]},{"server_id":320,"name":"Uncletopia | London | 3 | All Maps","name_short":"lon-3","host":"lon-1.uk.uncletopia.com","port":27035,"enabled":true,"region":"eu","cc":"gb","latitude":51.509865,"longitude":-0.118092,"reserved":0,"last_update":"0001-01-01T00:00:00Z","name_a2s":"Uncletopia | London | 3 | All Maps","protocol":17,"map":"cp_dustbowl","folder":"tf","game":"Team Fortress","app_id":440,"player_count":0,"max_players":24,"Bots":0,"server_type":"Dedicated","server_os":"Linux","password":true,"vac":true,"version":"7757534","steam_id":85568392924510192,"keywords":["cp","nocrits","nodmgspread","uncletopia"],"game_id":440,"stv_port":27036,"stv_name":"Uncletopia | London | 3 | All Maps | STV","players":null},{"server_id":321,"name":"Uncletopia | London | 4 | All Maps","name_short":"lon-4","host":"lon-1.uk.uncletopia.com","port":27045,"enabled":true,"region":"eu","cc":"gb","latitude":51.509865,"longitude":-0.118092,"reserved":0,"last_update":"0001-01-01T00:00:00Z","name_a2s":"Uncletopia | London | 4 | All Maps","protocol":17,"map":"pl_swiftwater_final1","folder":"tf","game":"Team Fortress","app_id":440,"player_count":0,"max_players":24,"Bots":0,"server_type":"Dedicated","server_os":"Linux","password":true,"vac":true,"version":"7757534","steam_id":85568392924510193,"keywords":["nocrits","nodmgspread","payload","uncletopia"],"game_id":440,"stv_port":27046,"stv_name":"Uncletopia | London | 4 | All Maps | STV","players":null},{"server_id":21,"name":"Uncletopia | London | 5 | All Maps","name_short":"lon-5","host":"lon-1.uk.uncletopia.com","port":27055,"enabled":true,"region":"eu","cc":"gb","latitude":51.509865,"longitude":-0.118092,"reserved":0,"last_update":"0001-01-01T00:00:00Z","name_a2s":"Uncletopia | London | 5 | All Maps","protocol":17,"map":"cp_altitude","folder":"tf","game":"Team Fortress","app_id":440,"player_count":0,"max_players":24,"Bots":0,"server_type":"Dedicated","server_os":"Linux","password":true,"vac":true,"version":"7757534","steam_id":85568392924742829,"keywords":["cp","nocrits","nodmgspread","uncletopia"],"game_id":440,"stv_port":27056,"stv_name":"Uncletopia | London | 5 | All Maps | STV","players":null},{"server_id":22,"name":"Uncletopia | London | 6 | All Maps","name_short":"lon-6","host":"lon-1.uk.uncletopia.com","port":27065,"enabled":true,"region":"eu","cc":"gb","latitude":51.509865,"longitude":-0.118092,"reserved":0,"last_update":"0001-01-01T00:00:00Z","name_a2s":"Uncletopia | London | 6 | All Maps","protocol":17,"map":"cp_mountainlab","folder":"tf","game":"Team Fortress","app_id":440,"player_count":0,"max_players":24,"Bots":0,"server_type":"Dedicated","server_os":"Linux","password":true,"vac":true,"version":"7757534","steam_id":85568392924742830,"keywords":["cp","nocrits","nodmgspread","uncletopia"],"game_id":440,"stv_port":27066,"stv_name":"Uncletopia | London | 6 | All Maps | STV","players":null},{"server_id":40,"name":"Uncletopia | London | 7 | No Payload","name_short":"lon-7","host":"lon-1.uk.uncletopia.com","port":27075,"enabled":true,"region":"eu","cc":"gb","latitude":51.509865,"longitude":-0.118092,"reserved":0,"last_update":"0001-01-01T00:00:00Z","name_a2s":"Uncletopia | London | 7 | No Payload","protocol":17,"map":"koth_lakeside_final","folder":"tf","game":"Team Fortress","app_id":440,"player_count":0,"max_players":24,"Bots":0,"server_type":"Dedicated","server_os":"Linux","password":true,"vac":true,"version":"7757534","steam_id":85568392924964314,"keywords":["cp","nocrits","nodmgspread","uncletopia"],"game_id":440,"stv_port":27076,"stv_name":"Uncletopia | London | 7 | No Payload | STV","players":null},{"server_id":41,"name":"Uncletopia | London | 8 | Community","name_short":"lon-8","host":"lon-1.uk.uncletopia.com","port":27085,"enabled":true,"region":"eu","cc":"gb","latitude":51.509865,"longitude":-0.118092,"reserved":0,"last_update":"0001-01-01T00:00:00Z","name_a2s":"Uncletopia | London | 8 | Community","protocol":17,"map":"workshop/cp_glassworks_rc6a.ugc454118349","folder":"tf","game":"Team Fortress","app_id":440,"player_count":0,"max_players":24,"Bots":0,"server_type":"Dedicated","server_os":"Linux","password":true,"vac":true,"version":"7757534","steam_id":85568392924964315,"keywords":["cp","nocrits","nodmgspread","uncletopia"],"game_id":440,"stv_port":27086,"stv_name":"Uncletopia | London | 8 | Community | STV","players":null},{"server_id":300,"name":"Uncletopia | Montr√©al | 1 | All Maps","name_short":"mtl-1","host":"mtl-1.ca.uncletopia.com","port":27015,"enabled":true,"region":"us-east","cc":"ca","latitude":45.50889,"longitude":-73.56167,"reserved":0,"last_update":"0001-01-01T00:00:00Z","name_a2s":"Uncletopia | Montr√©al | 1 | All Maps","protocol":17,"map":"pl_badwater","folder":"tf","game":"Team Fortress","app_id":440,"player_count":0,"max_players":24,"Bots":0,"server_type":"Dedicated","server_os":"Linux","password":true,"vac":true,"version":"7757534","steam_id":85568392924500087,"keywords":["nocrits","nodmgspread","payload","uncletopia"],"game_id":440,"stv_port":27016,"stv_name":"Uncletopia | Montr√©al | 1 | All Maps | STV","players":null},{"server_id":301,"name":"Uncletopia | Montr√©al | 2 | All Maps","name_short":"mtl-2","host":"mtl-1.ca.uncletopia.com","port":27025,"enabled":true,"region":"us-east","cc":"ca","latitude":45.50889,"longitude":-73.56167,"reserved":0,"last_update":"0001-01-01T00:00:00Z","name_a2s":"Uncletopia | Montr√©al | 2 | All Maps","protocol":17,"map":"cp_altitude","folder":"tf","game":"Team Fortress","app_id":440,"player_count":0,"max_players":24,"Bots":0,"server_type":"Dedicated","server_os":"Linux","password":true,"vac":true,"version":"7757534","steam_id":85568392924500088,"keywords":["cp","nocrits","nodmgspread","uncletopia"],"game_id":440,"stv_port":27026,"stv_name":"Uncletopia | Montr√©al | 2 | All Maps | STV","players":null},{"server_id":302,"name":"Uncletopia | Montr√©al | 3 | All Maps","name_short":"mtl-3","host":"mtl-1.ca.uncletopia.com","port":27035,"enabled":true,"region":"us-east","cc":"ca","latitude":45.50889,"longitude":-73.56167,"reserved":0,"last_update":"0001-01-01T00:00:00Z","name_a2s":"Uncletopia | Montr√©al | 3 | All Maps","protocol":17,"map":"cp_mountainlab","folder":"tf","game":"Team Fortress","app_id":440,"player_count":0,"max_players":24,"Bots":0,"server_type":"Dedicated","server_os":"Linux","password":true,"vac":true,"version":"7757534","steam_id":85568392924500089,"keywords":["cp","nocrits","nodmgspread","uncletopia"],"game_id":440,"stv_port":27036,"stv_name":"Uncletopia | Montr√©al | 3 | All Maps | STV","players":null},{"server_id":303,"name":"Uncletopia | Montr√©al | 4 | No Payload","name_short":"mtl-4","host":"mtl-1.ca.uncletopia.com","port":27045,"enabled":true,"region":"us-east","cc":"ca","latitude":45.50889,"longitude":-73.56167,"reserved":0,"last_update":"0001-01-01T00:00:00Z","name_a2s":"Uncletopia | Montr√©al | 4 | No Payload","protocol":17,"map":"cp_gravelpit","folder":"tf","game":"Team Fortress","app_id":440,"player_count":0,"max_players":24,"Bots":0,"server_type":"Dedicated","server_os":"Linux","password":true,"vac":true,"version":"7757534","steam_id":85568392924500090,"keywords":["cp","nocrits","nodmgspread","uncletopia"],"game_id":440,"stv_port":27046,"stv_name":"Uncletopia | Montr√©al | 4 | No Payload | STV","players":null},{"server_id":13,"name":"Uncletopia | New York City | 1 | All Maps","name_short":"nyc-1","host":"nyc-1.us.uncletopia.com","port":27015,"enabled":true,"region":"us-east","cc":"us","latitude":40.73061,"longitude":-73.93524,"reserved":0,"last_update":"0001-01-01T00:00:00Z","name_a2s":"Uncletopia | New York City | 1 | All Maps","protocol":17,"map":"koth_viaduct","folder":"tf","game":"Team Fortress","app_id":440,"player_count":0,"max_players":24,"Bots":0,"server_type":"Dedicated","server_os":"Linux","password":true,"vac":true,"version":"7757534","steam_id":85568392924469993,"keywords":["cp","nocrits","nodmgspread","uncletopia"],"game_id":440,"stv_port":27016,"stv_name":"Uncletopia | New York City | 1 | All Maps | STV","players":null},{"server_id":14,"name":"Uncletopia | New York City | 2 | All Maps","name_short":"nyc-2","host":"nyc-1.us.uncletopia.com","port":27025,"enabled":true,"region":"us-east","cc":"us","latitude":40.73061,"longitude":-73.93524,"reserved":0,"last_update":"0001-01-01T00:00:00Z","name_a2s":"Uncletopia | New York City | 2 | All Maps","protocol":17,"map":"pl_snowycoast","folder":"tf","game":"Team Fortress","app_id":440,"player_count":0,"max_players":24,"Bots":0,"server_type":"Dedicated","server_os":"Linux","password":true,"vac":true,"version":"7757534","steam_id":85568392924469994,"keywords":["nocrits","nodmgspread","payload","uncletopia"],"game_id":440,"stv_port":27026,"stv_name":"Uncletopia | New York City | 2 | All Maps | STV","players":null},{"server_id":15,"name":"Uncletopia | New York City | 3 | Stopwatch Beta","name_short":"nyc-3","host":"nyc-1.us.uncletopia.com","port":27035,"enabled":true,"region":"us-east","cc":"us","latitude":40.73061,"longitude":-73.93524,"reserved":0,"last_update":"0001-01-01T00:00:00Z","name_a2s":"Uncletopia | New York City | 3 | Stopwatch Beta","protocol":17,"map":"workshop/koth_clearcut_b15.ugc2107050255","folder":"tf","game":"Team Fortress","app_id":440,"player_count":0,"max_players":24,"Bots":0,"server_type":"Dedicated","server_os":"Linux","password":true,"vac":true,"version":"7757534","steam_id":85568392924742820,"keywords":["cp","nocrits","nodmgspread","uncletopia"],"game_id":440,"stv_port":27036,"stv_name":"Uncletopia | New York City | 3 | Stopwatch Beta | STV","players":null},{"server_id":16,"name":"Uncletopia | New York City | 4 | Community","name_short":"nyc-4","host":"nyc-1.us.uncletopia.com","port":27045,"enabled":true,"region":"us-east","cc":"us","latitude":40.73061,"longitude":-73.93524,"reserved":0,"last_update":"0001-01-01T00:00:00Z","name_a2s":"Uncletopia | New York City | 4 | Community","protocol":17,"map":"workshop/cp_reckoner_rc6.ugc674719999","folder":"tf","game":"Team Fortress","app_id":440,"player_count":0,"max_players":24,"Bots":0,"server_type":"Dedicated","server_os":"Linux","password":true,"vac":true,"version":"7757534","steam_id":85568392924742821,"keywords":["cp","nocrits","nodmgspread","uncletopia"],"game_id":440,"stv_port":27046,"stv_name":"Uncletopia | New York City | 4 | Community | STV","players":null},{"server_id":142,"name":"Uncletopia | S√£o Paulo | 1 | All Maps","name_short":"sao-1","host":"sao-1.br.uncletopia.com","port":27015,"enabled":true,"region":"sa","cc":"br","latitude":-23.533773,"longitude":-46.62529,"reserved":0,"last_update":"0001-01-01T00:00:00Z","name_a2s":"Uncletopia | S√£o Paulo | 1 | All Maps","protocol":17,"map":"koth_lakeside_final","folder":"tf","game":"Team Fortress","app_id":440,"player_count":0,"max_players":24,"Bots":0,"server_type":"Dedicated","server_os":"Linux","password":true,"vac":true,"version":"7757534","steam_id":85568392924469996,"keywords":["cp","nocrits","nodmgspread","uncletopia"],"game_id":440,"stv_port":27016,"stv_name":"Uncletopia | S√£o Paulo | 1 | All Maps | STV","players":null},{"server_id":143,"name":"Uncletopia | S√£o Paulo | 2 | All Maps","name_short":"sao-2","host":"sao-2.br.uncletopia.com","port":27015,"enabled":true,"region":"sa","cc":"br","latitude":-23.533773,"longitude":-46.62529,"reserved":0,"last_update":"0001-01-01T00:00:00Z","name_a2s":"Uncletopia | S√£o Paulo | 2 | All Maps","protocol":17,"map":"pl_borneo","folder":"tf","game":"Team Fortress","app_id":440,"player_count":0,"max_players":24,"Bots":0,"server_type":"Dedicated","server_os":"Linux","password":true,"vac":true,"version":"7757534","steam_id":85568392924485349,"keywords":["nocrits","nodmgspread","payload","uncletopia"],"game_id":440,"stv_port":27016,"stv_name":"Uncletopia | S√£o Paulo | 2 | All Maps | STV","players":null},{"server_id":7,"name":"Uncletopia | Seattle | 1 | All Maps","name_short":"sea-1","host":"sea-1.us.uncletopia.com","port":27015,"enabled":true,"region":"us-west","cc":"us","latitude":47.608013,"longitude":-122.33517,"reserved":0,"last_update":"0001-01-01T00:00:00Z","name_a2s":"Uncletopia | Seattle | 1 | All Maps","protocol":17,"map":"pl_borneo","folder":"tf","game":"Team Fortress","app_id":440,"player_count":24,"max_players":24,"Bots":0,"server_type":"Dedicated","server_os":"Linux","password":true,"vac":true,"version":"7757534","steam_id":85568392924469997,"keywords":["nocrits","nodmgspread","payload","uncletopia"],"game_id":440,"stv_port":27016,"stv_name":"Uncletopia | Seattle | 1 | All Maps | STV","players":[{"user_id":859,"name":"John Wilkes Booth","steam_id":76561197983398671,"connected_time":804000000000,"state":"active","ping":58},{"user_id":803,"name":"SadFapping","steam_id":76561198076651049,"connected_time":7707000000000,"state":"active","ping":57},{"user_id":860,"name":"mumbles","steam_id":76561197994528974,"connected_time":757000000000,"state":"active","ping":82},{"user_id":852,"name":" Ä. ö…û.","steam_id":76561198029580420,"connected_time":2153000000000,"state":"active","ping":165},{"user_id":857,"name":"Disc0","steam_id":76561198067337267,"connected_time":1682000000000,"state":"active","ping":45},{"user_id":818,"name":"Chickey Cantor","steam_id":76561198028049904,"connected_time":5840000000000,"state":"active","ping":61},{"user_id":840,"name":"imtoofadedicantevendapuup","steam_id":76561198180372310,"connected_time":2965000000000,"state":"active","ping":59},{"user_id":810,"name":"twitch.tv/abaddon_amog","steam_id":76561198268581959,"connected_time":6395000000000,"state":"active","ping":61},{"user_id":864,"name":"Letter \"1\"","steam_id":76561198295280927,"connected_time":186000000000,"state":"active","ping":80},{"user_id":856,"name":"ice cream (ÂÜ∞Ê∑áÊ∑ã)","steam_id":76561198976530881,"connected_time":1695000000000,"state":"active","ping":73},{"user_id":833,"name":"Puskinti","steam_id":76561198032120688,"connected_time":3799000000000,"state":"active","ping":58},{"user_id":832,"name":"kibben","steam_id":76561198222386220,"connected_time":4430000000000,"state":"active","ping":55},{"user_id":841,"name":"iivy","steam_id":76561198068464819,"connected_time":2526000000000,"state":"active","ping":54},{"user_id":842,"name":"The unusually unusual demo","steam_id":76561198203262371,"connected_time":2471000000000,"state":"active","ping":86},{"user_id":844,"name":"RURU","steam_id":76561198039758987,"connected_time":2310000000000,"state":"active","ping":55},{"user_id":846,"name":"Jack Horner in a F-16","steam_id":76561198062438923,"connected_time":2255000000000,"state":"active","ping":115},{"user_id":853,"name":"lavender","steam_id":76561199069518286,"connected_time":2088000000000,"state":"active","ping":73},{"user_id":863,"name":"Pesky Bee","steam_id":76561198042679485,"connected_time":726000000000,"state":"active","ping":65},{"user_id":854,"name":"hermit wizard","steam_id":76561198015156743,"connected_time":1928000000000,"state":"active","ping":85},{"user_id":855,"name":"cracky","steam_id":76561197971365444,"connected_time":1833000000000,"state":"active","ping":50},{"user_id":850,"name":"whammy","steam_id":76561198978665598,"connected_time":2214000000000,"state":"active","ping":49},{"user_id":816,"name":"SideO'theHill","steam_id":76561198048613807,"connected_time":6283000000000,"state":"active","ping":56},{"user_id":861,"name":"ScoutBox","steam_id":76561198111539895,"connected_time":751000000000,"state":"active","ping":75},{"user_id":862,"name":"Queso","steam_id":76561198081221384,"connected_time":750000000000,"state":"active","ping":77}]},{"server_id":119,"name":"Uncletopia | Seattle | 2 | All Maps","name_short":"sea-2","host":"sea-1.us.uncletopia.com","port":27025,"enabled":true,"region":"us-west","cc":"us","latitude":47.608013,"longitude":-122.33517,"reserved":0,"last_update":"0001-01-01T00:00:00Z","name_a2s":"Uncletopia | Seattle | 2 | All Maps","protocol":17,"map":"pl_borneo","folder":"tf","game":"Team Fortress","app_id":440,"player_count":0,"max_players":24,"Bots":0,"server_type":"Dedicated","server_os":"Linux","password":true,"vac":true,"version":"7757534","steam_id":85568392924469998,"keywords":["nocrits","nodmgspread","payload","uncletopia"],"game_id":440,"stv_port":27026,"stv_name":"Uncletopia | Seattle | 2 | All Maps | STV","players":null},{"server_id":406,"name":"Uncletopia | Seattle | 3 | Stopwatch Beta","name_short":"sea-3","host":"sea-1.us.uncletopia.com","port":27035,"enabled":true,"region":"us-west","cc":"us","latitude":47.608013,"longitude":-122.33517,"reserved":0,"last_update":"0001-01-01T00:00:00Z","name_a2s":"Uncletopia | Seattle | 3 | Stopwatch Beta","protocol":17,"map":"pl_swiftwater_final1","folder":"tf","game":"Team Fortress","app_id":440,"player_count":0,"max_players":24,"Bots":0,"server_type":"Dedicated","server_os":"Linux","password":true,"vac":true,"version":"7757534","steam_id":85568392924515217,"keywords":["nocrits","nodmgspread","payload","uncletopia"],"game_id":440,"stv_port":27036,"stv_name":"Uncletopia | Seattle | 3 | Stopwatch Beta | STV","players":null},{"server_id":17,"name":"Uncletopia | San Francisco | 1 | All Maps","name_short":"sfo-1","host":"sfo-1.us.uncletopia.com","port":27015,"enabled":true,"region":"us-west","cc":"us","latitude":37.77397,"longitude":-122.4313,"reserved":0,"last_update":"0001-01-01T00:00:00Z","name_a2s":"Uncletopia | San Francisco | 1 | All Maps","protocol":17,"map":"cp_altitude","folder":"tf","game":"Team Fortress","app_id":440,"player_count":0,"max_players":24,"Bots":0,"server_type":"Dedicated","server_os":"Linux","password":true,"vac":true,"version":"7757534","steam_id":85568392924469999,"keywords":["cp","nocrits","nodmgspread","uncletopia"],"game_id":440,"stv_port":27016,"stv_name":"Uncletopia | San Francisco | 1 | All Maps | STV","players":null},{"server_id":18,"name":"Uncletopia | San Francisco | 2 | All Maps","name_short":"sfo-2","host":"sfo-1.us.uncletopia.com","port":27025,"enabled":true,"region":"us-west","cc":"us","latitude":37.77397,"longitude":-122.4313,"reserved":0,"last_update":"0001-01-01T00:00:00Z","name_a2s":"Uncletopia | San Francisco | 2 | All Maps","protocol":17,"map":"koth_highpass","folder":"tf","game":"Team Fortress","app_id":440,"player_count":0,"max_players":24,"Bots":0,"server_type":"Dedicated","server_os":"Linux","password":true,"vac":true,"version":"7757534","steam_id":85568392924470000,"keywords":["cp","nocrits","nodmgspread","uncletopia"],"game_id":440,"stv_port":27026,"stv_name":"Uncletopia | San Francisco | 2 | All Maps | STV","players":null},{"server_id":19,"name":"Uncletopia | San Francisco | 3 | Stopwatch Beta","name_short":"sfo-3","host":"sfo-1.us.uncletopia.com","port":27035,"enabled":true,"region":"us-west","cc":"us","latitude":37.77397,"longitude":-122.4313,"reserved":0,"last_update":"0001-01-01T00:00:00Z","name_a2s":"Uncletopia | San Francisco | 3 | Stopwatch Beta","protocol":17,"map":"koth_lakeside_final","folder":"tf","game":"Team Fortress","app_id":440,"player_count":0,"max_players":24,"Bots":0,"server_type":"Dedicated","server_os":"Linux","password":true,"vac":true,"version":"7757534","steam_id":85568392924742824,"keywords":["cp","nocrits","nodmgspread","uncletopia"],"game_id":440,"stv_port":27036,"stv_name":"Uncletopia | San Francisco | 3 | Stopwatch Beta | STV","players":null},{"server_id":20,"name":"Uncletopia | San Francisco | 4 | Community","name_short":"sfo-4","host":"sfo-1.us.uncletopia.com","port":27045,"enabled":true,"region":"us-west","cc":"us","latitude":37.77397,"longitude":-122.4313,"reserved":0,"last_update":"0001-01-01T00:00:00Z","name_a2s":"Uncletopia | San Francisco | 4 | Community","protocol":17,"map":"workshop/koth_slaughter_rc1.ugc1712845210","folder":"tf","game":"Team Fortress","app_id":440,"player_count":0,"max_players":24,"Bots":0,"server_type":"Dedicated","server_os":"Linux","password":true,"vac":true,"version":"7757534","steam_id":85568392924742826,"keywords":["cp","nocrits","nodmgspread","uncletopia"],"game_id":440,"stv_port":27046,"stv_name":"Uncletopia | San Francisco | 4 | Community | STV","players":null},{"server_id":141,"name":"Uncletopia | Sydney | 1 | All Maps","name_short":"syd-1","host":"syd-1.au.uncletopia.com","port":27015,"enabled":true,"region":"au","cc":"au","latitude":-33.865143,"longitude":151.2099,"reserved":0,"last_update":"0001-01-01T00:00:00Z","name_a2s":"Uncletopia | Sydney | 1 | All Maps","protocol":17,"map":"pl_frontier_final","folder":"tf","game":"Team Fortress","app_id":440,"player_count":24,"max_players":24,"Bots":0,"server_type":"Dedicated","server_os":"Linux","password":true,"vac":true,"version":"7757534","steam_id":85568392924470001,"keywords":["nocrits","nodmgspread","payload","uncletopia"],"game_id":440,"stv_port":27016,"stv_name":"Uncletopia | Sydney | 1 | All Maps | STV","players":[{"user_id":159,"name":"KILLER WHALES","steam_id":76561198012422705,"connected_time":861000000000,"state":"active","ping":62},{"user_id":140,"name":"R\u0026R","steam_id":76561198318485462,"connected_time":2889000000000,"state":"active","ping":58},{"user_id":121,"name":"Fleetfoot","steam_id":76561198072845816,"connected_time":5169000000000,"state":"active","ping":52},{"user_id":153,"name":"Pat","steam_id":76561198244663182,"connected_time":1531000000000,"state":"active","ping":55},{"user_id":150,"name":"modus","steam_id":76561198025099660,"connected_time":2420000000000,"state":"active","ping":42},{"user_id":82,"name":"Charm","steam_id":76561198028891054,"connected_time":7449000000000,"state":"active","ping":60},{"user_id":141,"name":"Greg","steam_id":76561198133966374,"connected_time":2786000000000,"state":"active","ping":52},{"user_id":122,"name":"alqwnq","steam_id":76561198133867907,"connected_time":5156000000000,"state":"active","ping":64},{"user_id":162,"name":"beth.cubitt","steam_id":76561198454733447,"connected_time":522000000000,"state":"active","ping":90},{"user_id":103,"name":"Jdn","steam_id":76561198293079232,"connected_time":6109000000000,"state":"active","ping":65},{"user_id":112,"name":"Snowy","steam_id":76561198255720598,"connected_time":5832000000000,"state":"active","ping":46},{"user_id":63,"name":"Fixer","steam_id":76561199349854515,"connected_time":8288000000000,"state":"active","ping":55},{"user_id":161,"name":"Piklz","steam_id":76561198043384139,"connected_time":660000000000,"state":"active","ping":56},{"user_id":146,"name":"Benito Mussolini","steam_id":76561198280925326,"connected_time":2641000000000,"state":"active","ping":48},{"user_id":138,"name":"SoyBoy","steam_id":76561197992447102,"connected_time":3088000000000,"state":"active","ping":50},{"user_id":151,"name":"skye","steam_id":76561198037129845,"connected_time":2167000000000,"state":"active","ping":48},{"user_id":152,"name":"soupy","steam_id":76561198073734936,"connected_time":1556000000000,"state":"active","ping":89},{"user_id":157,"name":"Joy in A Box","steam_id":76561198156820753,"connected_time":1286000000000,"state":"active","ping":162},{"user_id":142,"name":"cakey","steam_id":76561198173746761,"connected_time":2775000000000,"state":"active","ping":46},{"user_id":126,"name":"Pompadouraus","steam_id":76561198327530525,"connected_time":4656000000000,"state":"active","ping":75},{"user_id":163,"name":"Zilvera","steam_id":76561198065801850,"connected_time":221000000000,"state":"active","ping":56},{"user_id":160,"name":"Sneevil Gladiator (Level 2)","steam_id":76561198301282416,"connected_time":840000000000,"state":"active","ping":63},{"user_id":108,"name":"NollReed","steam_id":76561198098501571,"connected_time":6009000000000,"state":"active","ping":70},{"user_id":164,"name":"Jett","steam_id":76561198969434128,"connected_time":181000000000,"state":"active","ping":79}]},{"server_id":123,"name":"Uncletopia | Sydney | 2 | All Maps","name_short":"syd-2","host":"syd-1.au.uncletopia.com","port":27025,"enabled":true,"region":"au","cc":"au","latitude":-33.865143,"longitude":151.2099,"reserved":0,"last_update":"0001-01-01T00:00:00Z","name_a2s":"Uncletopia | Sydney | 2 | All Maps","protocol":17,"map":"plr_bananabay","folder":"tf","game":"Team Fortress","app_id":440,"player_count":24,"max_players":24,"Bots":0,"server_type":"Dedicated","server_os":"Linux","password":true,"vac":true,"version":"7757534","steam_id":85568392924470002,"keywords":["nocrits","nodmgspread","payload","uncletopia"],"game_id":440,"stv_port":27026,"stv_name":"Uncletopia | Sydney | 2 | All Maps | STV","players":[{"user_id":315,"name":"ChairMonster26","steam_id":76561198959787682,"connected_time":680000000000,"state":"active","ping":73},{"user_id":326,"name":"Fuzz","steam_id":76561198063077180,"connected_time":173000000000,"state":"active","ping":58},{"user_id":324,"name":"‰ªôÂ•≥Â§¥Â≠ê‰∫éË∞¶","steam_id":76561199031075505,"connected_time":245000000000,"state":"active","ping":179},{"user_id":307,"name":"Cv76","steam_id":76561198817942619,"connected_time":1192000000000,"state":"active","ping":38},{"user_id":325,"name":"Alanance","steam_id":76561198257710199,"connected_time":207000000000,"state":"active","ping":86},{"user_id":269,"name":"voxii","steam_id":76561198099698281,"connected_time":4205000000000,"state":"active","ping":64},{"user_id":316,"name":"Tiger_Tan","steam_id":76561198221733844,"connected_time":661000000000,"state":"active","ping":70},{"user_id":318,"name":"mixyad3","steam_id":76561198046461767,"connected_time":330000000000,"state":"active","ping":53},{"user_id":233,"name":"the normoaner","steam_id":76561198082423230,"connected_time":6582000000000,"state":"active","ping":78},{"user_id":294,"name":"O'rangutan","steam_id":76561198095916681,"connected_time":2749000000000,"state":"active","ping":45},{"user_id":234,"name":"seiran","steam_id":76561198880907232,"connected_time":6578000000000,"state":"active","ping":98},{"user_id":319,"name":"üíöMetalüåªWeedüå≥Veganüíö","steam_id":76561198107433483,"connected_time":321000000000,"state":"active","ping":68},{"user_id":320,"name":"17","steam_id":76561198241530712,"connected_time":311000000000,"state":"active","ping":184},{"user_id":327,"name":"DIY Miracle","steam_id":76561198046228152,"connected_time":159000000000,"state":"active","ping":63},{"user_id":321,"name":"Robert_Cheeto","steam_id":76561198151087184,"connected_time":289000000000,"state":"active","ping":45},{"user_id":235,"name":"Harry \"TƒÅne-mahuta\" Richards","steam_id":76561198120997207,"connected_time":6574000000000,"state":"active","ping":71},{"user_id":322,"name":"Bob Ross","steam_id":76561198081686896,"connected_time":265000000000,"state":"active","ping":63},{"user_id":236,"name":"ùñòùñëùñÜùñôùñô","steam_id":76561198437037170,"connected_time":6557000000000,"state":"active","ping":93},{"user_id":303,"name":"Glockenspe (She/Her)","steam_id":76561199184115241,"connected_time":1848000000000,"state":"active","ping":51},{"user_id":323,"name":"piratespy22","steam_id":76561198042198744,"connected_time":258000000000,"state":"active","ping":58},{"user_id":328,"name":"CastleConnplex","steam_id":76561198150793925,"connected_time":123000000000,"state":"active","ping":92},{"user_id":329,"name":"Rumoshiji","steam_id":76561199174449723,"connected_time":92000000000,"state":"active","ping":168},{"user_id":310,"name":"Ashes","steam_id":76561198105820742,"connected_time":1181000000000,"state":"active","ping":74},{"user_id":304,"name":"do ya thing","steam_id":76561199099744527,"connected_time":1647000000000,"state":"active","ping":48}]},{"server_id":395,"name":"Uncletopia | Sydney | 3 | All Maps","name_short":"syd-3","host":"syd-1.au.uncletopia.com","port":27035,"enabled":true,"region":"au","cc":"au","latitude":-33.865143,"longitude":151.2099,"reserved":0,"last_update":"0001-01-01T00:00:00Z","name_a2s":"Uncletopia | Sydney | 3 | All Maps","protocol":17,"map":"cp_altitude","folder":"tf","game":"Team Fortress","app_id":440,"player_count":19,"max_players":24,"Bots":0,"server_type":"Dedicated","server_os":"Linux","password":true,"vac":true,"version":"7757534","steam_id":85568392925194467,"keywords":["cp","nocrits","nodmgspread","uncletopia"],"game_id":440,"stv_port":27036,"stv_name":"Uncletopia | Sydney | 3 | All Maps | STV","players":[{"user_id":14,"name":"Lord Oink","steam_id":76561198125237921,"connected_time":3975000000000,"state":"active","ping":48},{"user_id":28,"name":"Tienanmen square gaming","steam_id":76561199021067111,"connected_time":2077000000000,"state":"active","ping":80},{"user_id":61,"name":"Bryos","steam_id":76561199091643381,"connected_time":122000000000,"state":"active","ping":109},{"user_id":31,"name":"Powersurge The Protogen","steam_id":76561198013117218,"connected_time":1695000000000,"state":"active","ping":57},{"user_id":21,"name":"Shiki Eiki","steam_id":76561198095744048,"connected_time":3426000000000,"state":"active","ping":109},{"user_id":63,"name":"Chops","steam_id":76561198071178936,"connected_time":75000000000,"state":"active","ping":90},{"user_id":32,"name":"bangerlop","steam_id":76561199349993627,"connected_time":1642000000000,"state":"active","ping":151},{"user_id":51,"name":"‚ô• Sharpy \u003e v \u003c","steam_id":76561198091613743,"connected_time":731000000000,"state":"active","ping":83},{"user_id":35,"name":"CatDogSoup","steam_id":76561199334353992,"connected_time":1368000000000,"state":"active","ping":34},{"user_id":58,"name":".ki","steam_id":76561198241303512,"connected_time":498000000000,"state":"active","ping":60},{"user_id":53,"name":"bigbossqushari","steam_id":76561199376041150,"connected_time":682000000000,"state":"active","ping":179},{"user_id":42,"name":"RustyMeat","steam_id":76561198119162442,"connected_time":951000000000,"state":"active","ping":63},{"user_id":41,"name":"Hyak","steam_id":76561198175700625,"connected_time":969000000000,"state":"active","ping":91},{"user_id":43,"name":"Crimson Aurora","steam_id":76561198157492747,"connected_time":947000000000,"state":"active","ping":106},{"user_id":44,"name":"scuba cat... my beloved","steam_id":76561198203917953,"connected_time":877000000000,"state":"active","ping":67},{"user_id":55,"name":"R","steam_id":76561197996963023,"connected_time":618000000000,"state":"active","ping":80},{"user_id":46,"name":"Sancho","steam_id":76561197995288524,"connected_time":846000000000,"state":"active","ping":65},{"user_id":47,"name":"Luden","steam_id":76561198069165922,"connected_time":845000000000,"state":"active","ping":68},{"user_id":48,"name":"Ethos","steam_id":76561197970514852,"connected_time":821000000000,"state":"active","ping":59}]},{"server_id":396,"name":"Uncletopia | Sydney | 4 | All Maps","name_short":"syd-4","host":"syd-1.au.uncletopia.com","port":27045,"enabled":true,"region":"au","cc":"au","latitude":-33.865143,"longitude":151.2099,"reserved":0,"last_update":"0001-01-01T00:00:00Z","name_a2s":"Uncletopia | Sydney | 4 | All Maps","protocol":17,"map":"koth_highpass","folder":"tf","game":"Team Fortress","app_id":440,"player_count":1,"max_players":24,"Bots":0,"server_type":"Dedicated","server_os":"Linux","password":true,"vac":true,"version":"7757534","steam_id":85568392925397958,"keywords":["cp","nocrits","nodmgspread","uncletopia"],"game_id":440,"stv_port":27046,"stv_name":"Uncletopia | Sydney | 4 | All Maps | STV","players":[{"user_id":9,"name":"frostproto","steam_id":76561198911697195,"connected_time":744000000000,"state":"active","ping":99}]},{"server_id":58,"name":"Uncletopia | Sydney | 5 | Stopwatch Beta","name_short":"syd-5","host":"syd-1.au.uncletopia.com","port":27055,"enabled":true,"region":"au","cc":"au","latitude":-33.865143,"longitude":151.2099,"reserved":0,"last_update":"0001-01-01T00:00:00Z","name_a2s":"Uncletopia | Sydney | 5 | Stopwatch Beta","protocol":17,"map":"koth_cascade","folder":"tf","game":"Team Fortress","app_id":440,"player_count":0,"max_players":24,"Bots":0,"server_type":"Dedicated","server_os":"Linux","password":true,"vac":true,"version":"7757534","steam_id":85568392925397959,"keywords":["cp","nocrits","nodmgspread","uncletopia"],"game_id":440,"stv_port":27056,"stv_name":"Uncletopia | Sydney | 5 | Stopwatch Beta | STV","players":null},{"server_id":59,"name":"Uncletopia | Sydney | 6 | Community","name_short":"syd-6","host":"syd-1.au.uncletopia.com","port":27065,"enabled":true,"region":"au","cc":"au","latitude":-33.865143,"longitude":151.2099,"reserved":0,"last_update":"0001-01-01T00:00:00Z","name_a2s":"Uncletopia | Sydney | 6 | Community","protocol":17,"map":"workshop/pl_eruption_b9a.ugc2807898013","folder":"tf","game":"Team Fortress","app_id":440,"player_count":0,"max_players":24,"Bots":0,"server_type":"Dedicated","server_os":"Linux","password":true,"vac":true,"version":"7757534","steam_id":85568392925397960,"keywords":["nocrits","nodmgspread","payload","uncletopia"],"game_id":440,"stv_port":27066,"stv_name":"Uncletopia | Sydney | 6 | Community | STV","players":null},{"server_id":49,"name":"Uncletopia | Warsaw | 1 | All Maps","name_short":"waw-1","host":"waw-1.pl.uncletopia.com","port":27015,"enabled":true,"region":"eu","cc":"pl","latitude":52.2297,"longitude":21.017532,"reserved":0,"last_update":"0001-01-01T00:00:00Z","name_a2s":"","protocol":0,"map":"","folder":"","game":"","app_id":0,"player_count":0,"max_players":0,"Bots":0,"server_type":"","server_os":"","password":false,"vac":false,"version":"","steam_id":0,"keywords":null,"game_id":0,"stv_port":0,"stv_name":"","players":null},{"server_id":50,"name":"Uncletopia | Warsaw | 2 | All Maps","name_short":"waw-2","host":"waw-1.pl.uncletopia.com","port":27025,"enabled":true,"region":"eu","cc":"pl","latitude":52.2297,"longitude":21.017532,"reserved":0,"last_update":"0001-01-01T00:00:00Z","name_a2s":"Uncletopia | Warsaw | 2 | All Maps","protocol":17,"map":"koth_viaduct","folder":"tf","game":"Team Fortress","app_id":440,"player_count":0,"max_players":24,"Bots":0,"server_type":"Dedicated","server_os":"Linux","password":true,"vac":true,"version":"7757534","steam_id":85568392925397851,"keywords":["cp","nocrits","nodmgspread","uncletopia"],"game_id":440,"stv_port":27026,"stv_name":"Uncletopia | Warsaw | 2 | All Maps | STV","players":null},{"server_id":51,"name":"Uncletopia | Warsaw | 3 | All Maps","name_short":"waw-3","host":"waw-1.pl.uncletopia.com","port":27035,"enabled":true,"region":"eu","cc":"pl","latitude":52.2297,"longitude":21.017532,"reserved":0,"last_update":"0001-01-01T00:00:00Z","name_a2s":"Uncletopia | Warsaw | 3 | All Maps","protocol":17,"map":"pl_badwater","folder":"tf","game":"Team Fortress","app_id":440,"player_count":0,"max_players":24,"Bots":0,"server_type":"Dedicated","server_os":"Linux","password":true,"vac":true,"version":"7757534","steam_id":85568392925397852,"keywords":["nocrits","nodmgspread","payload","uncletopia"],"game_id":440,"stv_port":27036,"stv_name":"Uncletopia | Warsaw | 3 | All Maps | STV","players":null},{"server_id":52,"name":"Uncletopia | Warsaw | 4 | All Maps","name_short":"waw-4","host":"waw-1.pl.uncletopia.com","port":27045,"enabled":true,"region":"eu","cc":"pl","latitude":52.2297,"longitude":21.017532,"reserved":0,"last_update":"0001-01-01T00:00:00Z","name_a2s":"Uncletopia | Warsaw | 4 | All Maps","protocol":17,"map":"koth_lakeside_final","folder":"tf","game":"Team Fortress","app_id":440,"player_count":0,"max_players":24,"Bots":0,"server_type":"Dedicated","server_os":"Linux","password":true,"vac":true,"version":"7757534","steam_id":85568392925397853,"keywords":["cp","nocrits","nodmgspread","uncletopia"],"game_id":440,"stv_port":27046,"stv_name":"Uncletopia | Warsaw | 4 | All Maps | STV","players":null},{"server_id":53,"name":"Uncletopia | Warsaw | 5 | Stopwatch Beta","name_short":"waw-5","host":"waw-1.pl.uncletopia.com","port":27055,"enabled":true,"region":"eu","cc":"pl","latitude":52.2297,"longitude":21.017532,"reserved":0,"last_update":"0001-01-01T00:00:00Z","name_a2s":"Uncletopia | Warsaw | 5 | Stopwatch Beta","protocol":17,"map":"pl_borneo","folder":"tf","game":"Team Fortress","app_id":440,"player_count":0,"max_players":24,"Bots":0,"server_type":"Dedicated","server_os":"Linux","password":true,"vac":true,"version":"7757534","steam_id":85568392925397854,"keywords":["nocrits","nodmgspread","payload","uncletopia"],"game_id":440,"stv_port":27056,"stv_name":"Uncletopia | Warsaw | 5 | Stopwatch Beta | STV","players":null},{"server_id":54,"name":"Uncletopia | Warsaw | 6 | Community","name_short":"waw-6","host":"waw-1.pl.uncletopia.com","port":27065,"enabled":true,"region":"eu","cc":"pl","latitude":52.2297,"longitude":21.017532,"reserved":0,"last_update":"0001-01-01T00:00:00Z","name_a2s":"Uncletopia | Warsaw | 6 | Community","protocol":17,"map":"workshop/koth_kemptown_rc1.ugc767410655","folder":"tf","game":"Team Fortress","app_id":440,"player_count":0,"max_players":24,"Bots":0,"server_type":"Dedicated","server_os":"Linux","password":true,"vac":true,"version":"7757534","steam_id":85568392925397856,"keywords":["cp","nocrits","nodmgspread","uncletopia"],"game_id":440,"stv_port":27066,"stv_name":"Uncletopia | Warsaw | 6 | Community | STV","players":null}]}