{"status":true,"message":"","result":[{"server_id":9,"name":"Uncletopia | Atlanta | 1 | All Maps","name_short":"atl-1","host":"atl-1.us.uncletopia.com","port":27015,"enabled":true,"region":"us-east","cc":"us","latitude":33.753746,"longitude":-84.38633,"reserved":0,"last_update":"0001-01-01T00:00:00Z","name_a2s":"Uncletopia | Atlanta | 1 | All Maps","protocol":17,"map":"pl_upward","folder":"tf","game":"Team Fortress","app_id":440,"player_count":20,"max_players":24,"Bots":0,"server_type":"Dedicated","server_os":"Linux","password":true,"vac":true,"version":"7695204","steam_id":85568392924469982,"keywords":["nocrits","nodmgspread","payload","uncletopia"],"game_id":440,"stv_port":27016,"stv_name":"Uncletopia | Atlanta | 1 | All Maps | STV","players":[{"user_id":603,"name":"Zont","steam_id":76561197985526581,"connected_time":767000000000,"state":"active","ping":79},{"user_id":609,"name":"Nitrogen","steam_id":76561198109882761,"connected_time":534000000000,"state":"active","ping":154},{"user_id":568,"name":"Mythius","steam_id":76561198401392472,"connected_time":3608000000000,"state":"active","ping":70},{"user_id":602,"name":"Xylemon","steam_id":76561197965297420,"connected_time":805000000000,"state":"active","ping":128},{"user_id":567,"name":"Orchids Never Die","steam_id":76561198918156397,"connected_time":3737000000000,"state":"active","ping":61},{"user_id":520,"name":"Aegis","steam_id":76561198272052750,"connected_time":7649000000000,"state":"active","ping":61},{"user_id":604,"name":"John E. F. Cruelty","steam_id":76561198062747841,"connected_time":730000000000,"state":"active","ping":67},{"user_id":573,"name":"ry","steam_id":76561198100844473,"connected_time":2904000000000,"state":"active","ping":72},{"user_id":612,"name":"crazybt","steam_id":76561198025605810,"connected_time":347000000000,"state":"active","ping":75},{"user_id":610,"name":"Dark","steam_id":76561198329194526,"connected_time":509000000000,"state":"active","ping":181},{"user_id":588,"name":"GreyHounds","steam_id":76561198081984695,"connected_time":1970000000000,"state":"active","ping":63},{"user_id":592,"name":"rose","steam_id":76561198048882285,"connected_time":1850000000000,"state":"active","ping":61},{"user_id":578,"name":"Vem","steam_id":76561198117273112,"connected_time":2574000000000,"state":"active","ping":90},{"user_id":607,"name":"INFINITE","steam_id":76561197971285557,"connected_time":591000000000,"state":"active","ping":70},{"user_id":589,"name":"Phont","steam_id":76561198014224511,"connected_time":1943000000000,"state":"active","ping":79},{"user_id":608,"name":"rat eater","steam_id":76561198955453886,"connected_time":586000000000,"state":"active","ping":125},{"user_id":597,"name":"flatts","steam_id":76561198094127177,"connected_time":1176000000000,"state":"active","ping":45},{"user_id":611,"name":"justsomepleb","steam_id":76561199182857033,"connected_time":432000000000,"state":"active","ping":131},{"user_id":613,"name":"Large Package","steam_id":76561198045403508,"connected_time":314000000000,"state":"active","ping":111},{"user_id":595,"name":"Jimmy","steam_id":76561197970838363,"connected_time":1676000000000,"state":"active","ping":80}]},{"server_id":400,"name":"Uncletopia | Atlanta | 3 | All Maps","name_short":"atl-3","host":"atl-1.us.uncletopia.com","port":27035,"enabled":true,"region":"us-east","cc":"us","latitude":33.753746,"longitude":-84.38633,"reserved":0,"last_update":"0001-01-01T00:00:00Z","name_a2s":"Uncletopia | Atlanta | 3 | All Maps","protocol":17,"map":"pl_pier","folder":"tf","game":"Team Fortress","app_id":440,"player_count":0,"max_players":24,"Bots":0,"server_type":"Dedicated","server_os":"Linux","password":true,"vac":true,"version":"7695204","steam_id":85568392924515187,"keywords":["nocrits","nodmgspread","payload","uncletopia"],"game_id":440,"stv_port":27036,"stv_name":"Uncletopia | Atlanta | 3 | All Maps | STV","players":null},{"server_id":401,"name":"Uncletopia | Atlanta | 4 | No Payload","name_short":"atl-4","host":"atl-1.us.uncletopia.com","port":27045,"enabled":true,"region":"us-east","cc":"us","latitude":33.753746,"longitude":-84.38633,"reserved":0,"last_update":"0001-01-01T00:00:00Z","name_a2s":"Uncletopia | Atlanta | 4 | No Payload","protocol":17,"map":"koth_sawmill","folder":"tf","game":"Team Fortress","app_id":440,"player_count":0,"max_players":24,"Bots":0,"server_type":"Dedicated","server_os":"Linux","password":true,"vac":true,"version":"7695204","steam_id":85568392924515188,"keywords":["cp","nocrits","nodmgspread","uncletopia"],"game_id":440,"stv_port":27046,"stv_name":"Uncletopia | Atlanta | 4 | No Payload | STV","players":null},{"server_id":2,"name":"Uncletopia | Chicago | 1 | All Maps","name_short":"chi-1","host":"chi-1.us.uncletopia.com","port":27015,"enabled":true,"region":"us-central","cc":"us","latitude":41.881832,"longitude":-87.62318,"reserved":0,"last_update":"0001-01-01T00:00:00Z","name_a2s":"Uncletopia | Chicago | 1 | All Maps","protocol":17,"map":"koth_cascade","folder":"tf","game":"Team Fortress","app_id":440,"player_count":0,"max_players":24,"Bots":0,"server_type":"Dedicated","server_os":"Linux","password":true,"vac":true,"version":"7695204","steam_id":85568392924469984,"keywords":["cp","nocrits","nodmgspread","uncletopia"],"game_id":440,"stv_port":27016,"stv_name":"Uncletopia | Chicago | 1 | All Maps | STV","players":null},{"server_id":106,"name":"Uncletopia | Chicago | 2 | All Maps","name_short":"chi-2","host":"chi-1.us.uncletopia.com","port":27025,"enabled":true,"region":"us-central","cc":"us","latitude":41.881832,"longitude":-87.62318,"reserved":0,"last_update":"0001-01-01T00:00:00Z","name_a2s":"Uncletopia | Chicago | 2 | All Maps","protocol":17,"map":"pl_swiftwater_final1","folder":"tf","game":"Team Fortress","app_id":440,"player_count":0,"max_players":24,"Bots":0,"server_type":"Dedicated","server_os":"Linux","password":true,"vac":true,"version":"7695204","steam_id":85568392924469985,"keywords":["nocrits","nodmgspread","payload","uncletopia"],"game_id":440,"stv_port":27026,"stv_name":"Uncletopia | Chicago | 2 | All Maps | STV","players":null},{"server_id":402,"name":"Uncletopia | Chicago | 3 | All Maps","name_short":"chi-3","host":"chi-1.us.uncletopia.com","port":27035,"enabled":true,"region":"us-central","cc":"us","latitude":41.881832,"longitude":-87.62318,"reserved":0,"last_update":"0001-01-01T00:00:00Z","name_a2s":"Uncletopia | Chicago | 3 | All Maps","protocol":17,"map":"koth_highpass","folder":"tf","game":"Team Fortress","app_id":440,"player_count":0,"max_players":24,"Bots":0,"server_type":"Dedicated","server_os":"Linux","password":true,"vac":true,"version":"7695204","steam_id":85568392924515191,"keywords":["cp","nocrits","nodmgspread","uncletopia"],"game_id":440,"stv_port":27036,"stv_name":"Uncletopia | Chicago | 3 | All Maps | STV","players":null},{"server_id":403,"name":"Uncletopia | Chicago | 4 | All Maps","name_short":"chi-4","host":"chi-1.us.uncletopia.com","port":27045,"enabled":true,"region":"us-central","cc":"us","latitude":41.881832,"longitude":-87.62318,"reserved":0,"last_update":"0001-01-01T00:00:00Z","name_a2s":"Uncletopia | Chicago | 4 | All Maps","protocol":17,"map":"pl_swiftwater_final1","folder":"tf","game":"Team Fortress","app_id":440,"player_count":0,"max_players":24,"Bots":0,"server_type":"Dedicated","server_os":"Linux","password":true,"vac":true,"version":"7695204","steam_id":85568392924515193,"keywords":["nocrits","nodmgspread","payload","uncletopia"],"game_id":440,"stv_port":27046,"stv_name":"Uncletopia | Chicago | 4 | All Maps | STV","players":null},{"server_id":36,"name":"Uncletopia | Chicago | 5 | All Maps","name_short":"chi-5","host":"chi-2.us.uncletopia.com","port":27015,"enabled":true,"region":"us-central","cc":"us","latitude":41.881832,"longitude":-87.62318,"reserved":0,"last_update":"0001-01-01T00:00:00Z","name_a2s":"Uncletopia | Chicago | 5 | All Maps","protocol":17,"map":"cp_mountainlab","folder":"tf","game":"Team Fortress","app_id":440,"player_count":0,"max_players":24,"Bots":0,"server_type":"Dedicated","server_os":"Linux","password":true,"vac":true,"version":"7695204","steam_id":85568392924866362,"keywords":["cp","nocrits","nodmgspread","uncletopia"],"game_id":440,"stv_port":27016,"stv_name":"Uncletopia | Chicago | 5 | All Maps | STV","players":null},{"server_id":37,"name":"Uncletopia | Chicago | 6 | All Maps","name_short":"chi-6","host":"chi-2.us.uncletopia.com","port":27025,"enabled":true,"region":"us-central","cc":"us","latitude":41.881832,"longitude":-87.62318,"reserved":0,"last_update":"0001-01-01T00:00:00Z","name_a2s":"Uncletopia | Chicago | 6 | All Maps","protocol":17,"map":"pl_frontier_final","folder":"tf","game":"Team Fortress","app_id":440,"player_count":0,"max_players":24,"Bots":0,"server_type":"Dedicated","server_os":"Linux","password":true,"vac":true,"version":"7695204","steam_id":85568392924866363,"keywords":["nocrits","nodmgspread","payload","uncletopia"],"game_id":440,"stv_port":27026,"stv_name":"Uncletopia | Chicago | 6 | All Maps | STV","players":null},{"server_id":38,"name":"Uncletopia | Chicago | 7 | No Payload","name_short":"chi-7","host":"chi-2.us.uncletopia.com","port":27035,"enabled":true,"region":"us-central","cc":"us","latitude":41.881832,"longitude":-87.62318,"reserved":0,"last_update":"0001-01-01T00:00:00Z","name_a2s":"Uncletopia | Chicago | 7 | No Payload","protocol":17,"map":"koth_lakeside_final","folder":"tf","game":"Team Fortress","app_id":440,"player_count":0,"max_players":24,"Bots":0,"server_type":"Dedicated","server_os":"Linux","password":true,"vac":true,"version":"7695204","steam_id":85568392924866364,"keywords":["cp","nocrits","nodmgspread","uncletopia"],"game_id":440,"stv_port":27036,"stv_name":"Uncletopia | Chicago | 7 | No Payload | STV","players":null},{"server_id":39,"name":"Uncletopia | Chicago | 8 | Community","name_short":"chi-8","host":"chi-2.us.uncletopia.com","port":27045,"enabled":true,"region":"us-central","cc":"us","latitude":41.881832,"longitude":-87.62318,"reserved":0,"last_update":"0001-01-01T00:00:00Z","name_a2s":"Uncletopia | Chicago | 8 | Community","protocol":17,"map":"workshop/cp_reckoner_rc6.ugc674719999","folder":"tf","game":"Team Fortress","app_id":440,"player_count":0,"max_players":24,"Bots":0,"server_type":"Dedicated","server_os":"Linux","password":true,"vac":true,"version":"7695204","steam_id":85568392924866365,"keywords":["cp","nocrits","nodmgspread","uncletopia"],"game_id":440,"stv_port":27046,"stv_name":"Uncletopia | Chicago | 8 | Community | STV","players":null},{"server_id":8,"name":"Uncletopia | Dallas | 1 | All Maps","name_short":"dal-1","host":"dal-1.us.uncletopia.com","port":27015,"enabled":true,"region":"us-central","cc":"us","latitude":32.779167,"longitude":-96.80889,"reserved":0,"last_update":"0001-01-01T00:00:00Z","name_a2s":"Uncletopia | Dallas | 1 | All Maps","protocol":17,"map":"pl_badwater","folder":"tf","game":"Team Fortress","app_id":440,"player_count":20,"max_players":24,"Bots":0,"server_type":"Dedicated","server_os":"Linux","password":true,"vac":true,"version":"7695204","steam_id":85568392924469986,"keywords":["nocrits","nodmgspread","payload","uncletopia"],"game_id":440,"stv_port":27016,"stv_name":"Uncletopia | Dallas | 1 | All Maps | STV","players":[{"user_id":624,"name":"math","steam_id":76561198092542997,"connected_time":1068000000000,"state":"active","ping":80},{"user_id":625,"name":"umbrellajack","steam_id":76561199216952776,"connected_time":999000000000,"state":"active","ping":138},{"user_id":636,"name":"Bumpa","steam_id":76561198954731278,"connected_time":60000000000,"state":"active","ping":89},{"user_id":542,"name":"herp derp ☕","steam_id":76561198047646956,"connected_time":8465000000000,"state":"active","ping":100},{"user_id":637,"name":"RURU","steam_id":76561198039758987,"connected_time":10000000000,"state":"spawning","ping":145},{"user_id":629,"name":"John Calibur","steam_id":76561197999986606,"connected_time":597000000000,"state":"active","ping":73},{"user_id":630,"name":"Doctor Boofenshmirtz","steam_id":76561198164579239,"connected_time":521000000000,"state":"active","ping":85},{"user_id":572,"name":"ansoonii","steam_id":76561198092494136,"connected_time":5824000000000,"state":"active","ping":55},{"user_id":633,"name":"Father Darkfire","steam_id":76561198045066266,"connected_time":303000000000,"state":"active","ping":89},{"user_id":631,"name":"DSM-IVCE","steam_id":76561199438515797,"connected_time":508000000000,"state":"active","ping":122},{"user_id":634,"name":"veemo moment","steam_id":76561198003467221,"connected_time":235000000000,"state":"active","ping":75},{"user_id":635,"name":"//NC SEGNO","steam_id":76561198102780113,"connected_time":224000000000,"state":"active","ping":66},{"user_id":618,"name":"Weaponized Labrador Puppies","steam_id":76561198066261195,"connected_time":1437000000000,"state":"active","ping":87},{"user_id":584,"name":"bed0tter","steam_id":76561197992298455,"connected_time":4973000000000,"state":"active","ping":60},{"user_id":602,"name":"Randy \"the Man\" Johnson","steam_id":76561198039124445,"connected_time":3040000000000,"state":"active","ping":96},{"user_id":613,"name":"dumbass","steam_id":76561198410957728,"connected_time":1585000000000,"state":"active","ping":64},{"user_id":614,"name":"god's sleepiest puppygirl","steam_id":76561198128164970,"connected_time":1566000000000,"state":"active","ping":77},{"user_id":615,"name":"Plasmoklo","steam_id":76561199071571167,"connected_time":1500000000000,"state":"active","ping":74},{"user_id":619,"name":"Scarlet","steam_id":76561198075966579,"connected_time":1425000000000,"state":"active","ping":151},{"user_id":627,"name":"Jack from Jack in The Box","steam_id":76561199083594971,"connected_time":930000000000,"state":"active","ping":69}]},{"server_id":108,"name":"Uncletopia | Dallas | 2 | All Maps","name_short":"dal-2","host":"dal-1.us.uncletopia.com","port":27025,"enabled":true,"region":"us-central","cc":"us","latitude":32.779167,"longitude":-96.80889,"reserved":0,"last_update":"0001-01-01T00:00:00Z","name_a2s":"Uncletopia | Dallas | 2 | All Maps","protocol":17,"map":"pl_barnblitz","folder":"tf","game":"Team Fortress","app_id":440,"player_count":24,"max_players":24,"Bots":0,"server_type":"Dedicated","server_os":"Linux","password":true,"vac":true,"version":"7695204","steam_id":85568392924469988,"keywords":["nocrits","nodmgspread","payload","uncletopia"],"game_id":440,"stv_port":27026,"stv_name":"Uncletopia | Dallas | 2 | All Maps | STV","players":[{"user_id":616,"name":"giorgio","steam_id":76561198043886329,"connected_time":1653000000000,"state":"active","ping":90},{"user_id":612,"name":"vanillain","steam_id":76561198058617608,"connected_time":1672000000000,"state":"active","ping":86},{"user_id":625,"name":"GiveMeSoda","steam_id":76561199102995294,"connected_time":255000000000,"state":"active","ping":71},{"user_id":566,"name":"RawLawson","steam_id":76561198398752800,"connected_time":6470000000000,"state":"active","ping":48},{"user_id":611,"name":"tacofever","steam_id":76561198010966507,"connected_time":1743000000000,"state":"active","ping":78},{"user_id":529,"name":"Sad Sapling","steam_id":76561198075612150,"connected_time":8983000000000,"state":"active","ping":80},{"user_id":613,"name":"cyborgor","steam_id":76561198040782513,"connected_time":1670000000000,"state":"active","ping":80},{"user_id":596,"name":"Dad Rock Deluxe","steam_id":76561198051224819,"connected_time":2856000000000,"state":"active","ping":39},{"user_id":555,"name":"ligeruppercut","steam_id":76561198025786621,"connected_time":6995000000000,"state":"active","ping":105},{"user_id":614,"name":"Pie","steam_id":76561198002480476,"connected_time":1667000000000,"state":"active","ping":99},{"user_id":597,"name":"Bagaboned","steam_id":76561198043761335,"connected_time":2836000000000,"state":"active","ping":86},{"user_id":559,"name":"Zozbieta","steam_id":76561198010336265,"connected_time":6957000000000,"state":"active","ping":59},{"user_id":598,"name":"M.R.pug","steam_id":76561198312913827,"connected_time":2786000000000,"state":"active","ping":69},{"user_id":594,"name":"The Cloaker","steam_id":76561198155815824,"connected_time":3037000000000,"state":"active","ping":73},{"user_id":573,"name":"Rat Smacker","steam_id":76561199090197628,"connected_time":5211000000000,"state":"active","ping":60},{"user_id":615,"name":"typon","steam_id":76561198076067588,"connected_time":1660000000000,"state":"active","ping":131},{"user_id":624,"name":"plutonium isotope","steam_id":76561198319442494,"connected_time":563000000000,"state":"active","ping":84},{"user_id":617,"name":"1970's were made in hong kong","steam_id":76561198025368981,"connected_time":1648000000000,"state":"active","ping":75},{"user_id":605,"name":"unwanted","steam_id":76561198277979851,"connected_time":2029000000000,"state":"active","ping":82},{"user_id":621,"name":"packson","steam_id":76561198222580424,"connected_time":1426000000000,"state":"active","ping":60},{"user_id":619,"name":"-asura","steam_id":76561198048992536,"connected_time":1633000000000,"state":"active","ping":57},{"user_id":622,"name":"war criminal","steam_id":76561198106441652,"connected_time":1201000000000,"state":"active","ping":60},{"user_id":620,"name":"Kelpy G","steam_id":76561198105330587,"connected_time":1504000000000,"state":"active","ping":56},{"user_id":568,"name":"The Caretaker","steam_id":76561198125241411,"connected_time":6239000000000,"state":"active","ping":98}]},{"server_id":5,"name":"Uncletopia | Frankfurt | 1 | All Maps","name_short":"frk-1","host":"frk-1.de.uncletopia.com","port":27015,"enabled":true,"region":"eu","cc":"de","latitude":50.110924,"longitude":8.682127,"reserved":0,"last_update":"0001-01-01T00:00:00Z","name_a2s":"Uncletopia | Frankfurt | 1 | All Maps","protocol":17,"map":"koth_lakeside_final","folder":"tf","game":"Team Fortress","app_id":440,"player_count":9,"max_players":24,"Bots":0,"server_type":"Dedicated","server_os":"Linux","password":true,"vac":true,"version":"7695204","steam_id":85568392924469989,"keywords":["cp","nocrits","nodmgspread","uncletopia"],"game_id":440,"stv_port":27016,"stv_name":"Uncletopia | Frankfurt | 1 | All Maps | STV","players":[{"user_id":11,"name":"tealoverr.190","steam_id":76561199028497703,"connected_time":2260000000000,"state":"active","ping":95},{"user_id":12,"name":"RedShell9","steam_id":76561199188196834,"connected_time":1469000000000,"state":"active","ping":66},{"user_id":14,"name":"_inton_","steam_id":76561199067425855,"connected_time":660000000000,"state":"active","ping":50},{"user_id":15,"name":"RocketBoy08","steam_id":76561198833978944,"connected_time":619000000000,"state":"active","ping":78},{"user_id":17,"name":"possiblename","steam_id":76561199064350902,"connected_time":503000000000,"state":"active","ping":90},{"user_id":18,"name":"Graf von Scyth","steam_id":76561198198497733,"connected_time":457000000000,"state":"active","ping":76},{"user_id":19,"name":"Boyka_32","steam_id":76561199247580780,"connected_time":307000000000,"state":"active","ping":76},{"user_id":20,"name":"xXdoge gaming 42069Xx","steam_id":76561198372971096,"connected_time":126000000000,"state":"active","ping":62},{"user_id":21,"name":"thekoolest88","steam_id":76561199022415672,"connected_time":98000000000,"state":"active","ping":135}]},{"server_id":110,"name":"Uncletopia | Frankfurt | 2 | All Maps","name_short":"frk-2","host":"frk-1.de.uncletopia.com","port":27025,"enabled":true,"region":"eu","cc":"de","latitude":50.110924,"longitude":8.682127,"reserved":0,"last_update":"0001-01-01T00:00:00Z","name_a2s":"Uncletopia | Frankfurt | 2 | All Maps","protocol":17,"map":"cp_altitude","folder":"tf","game":"Team Fortress","app_id":440,"player_count":0,"max_players":24,"Bots":0,"server_type":"Dedicated","server_os":"Linux","password":true,"vac":true,"version":"7695204","steam_id":85568392924469990,"keywords":["cp","nocrits","nodmgspread","uncletopia"],"game_id":440,"stv_port":0,"stv_name":"","players":null},{"server_id":308,"name":"Uncletopia | Frankfurt | 3 | All Maps","name_short":"frk-3","host":"frk-1.de.uncletopia.com","port":27035,"enabled":true,"region":"eu","cc":"de","latitude":50.110924,"longitude":8.682127,"reserved":0,"last_update":"0001-01-01T00:00:00Z","name_a2s":"Uncletopia | Frankfurt | 3 | All Maps","protocol":17,"map":"koth_cascade","folder":"tf","game":"Team Fortress","app_id":440,"player_count":0,"max_players":24,"Bots":0,"server_type":"Dedicated","server_os":"Linux","password":true,"vac":true,"version":"7695204","steam_id":85568392924504274,"keywords":["cp","nocrits","nodmgspread","uncletopia"],"game_id":440,"stv_port":27036,"stv_name":"Uncletopia | Frankfurt | 3 | All Maps | STV","players":null},{"server_id":309,"name":"Uncletopia | Frankfurt | 4 | All Maps","name_short":"frk-4","host":"frk-1.de.uncletopia.com","port":27045,"enabled":true,"region":"eu","cc":"de","latitude":50.110924,"longitude":8.682127,"reserved":0,"last_update":"0001-01-01T00:00:00Z","name_a2s":"Uncletopia | Frankfurt | 4 | All Maps","protocol":17,"map":"koth_highpass","folder":"tf","game":"Team Fortress","app_id":440,"player_count":0,"max_players":24,"Bots":0,"server_type":"Dedicated","server_os":"Linux","password":true,"vac":true,"version":"7695204","steam_id":85568392924504275,"keywords":["cp","nocrits","nodmgspread","uncletopia"],"game_id":440,"stv_port":0,"stv_name":"","players":null},{"server_id":310,"name":"Uncletopia | Frankfurt | 5 | All Maps","name_short":"frk-5","host":"frk-1.de.uncletopia.com","port":27055,"enabled":true,"region":"eu","cc":"de","latitude":50.110924,"longitude":8.682127,"reserved":0,"last_update":"0001-01-01T00:00:00Z","name_a2s":"Uncletopia | Frankfurt | 5 | All Maps","protocol":17,"map":"koth_highpass","folder":"tf","game":"Team Fortress","app_id":440,"player_count":0,"max_players":24,"Bots":0,"server_type":"Dedicated","server_os":"Linux","password":true,"vac":true,"version":"7695204","steam_id":85568392924504277,"keywords":["cp","nocrits","nodmgspread","uncletopia"],"game_id":440,"stv_port":27056,"stv_name":"Uncletopia | Frankfurt | 5 | All Maps | STV","players":null},{"server_id":311,"name":"Uncletopia | Frankfurt | 6 | All Maps","name_short":"frk-6","host":"frk-1.de.uncletopia.com","port":27065,"enabled":true,"region":"eu","cc":"de","latitude":50.110924,"longitude":8.682127,"reserved":0,"last_update":"0001-01-01T00:00:00Z","name_a2s":"Uncletopia | Frankfurt | 6 | All Maps","protocol":17,"map":"pl_upward","folder":"tf","game":"Team Fortress","app_id":440,"player_count":0,"max_players":24,"Bots":0,"server_type":"Dedicated","server_os":"Linux","password":true,"vac":true,"version":"7695204","steam_id":85568392924504278,"keywords":["nocrits","nodmgspread","payload","uncletopia"],"game_id":440,"stv_port":27066,"stv_name":"Uncletopia | Frankfurt | 6 | All Maps | STV","players":null},{"server_id":23,"name":"Uncletopia | Frankfurt | 7 | No Payload","name_short":"frk-7","host":"frk-1.de.uncletopia.com","port":27075,"enabled":true,"region":"eu","cc":"de","latitude":50.110924,"longitude":8.682127,"reserved":0,"last_update":"0001-01-01T00:00:00Z","name_a2s":"Uncletopia | Frankfurt | 7 | No Payload","protocol":17,"map":"ctf_2fort","folder":"tf","game":"Team Fortress","app_id":440,"player_count":19,"max_players":24,"Bots":0,"server_type":"Dedicated","server_os":"Linux","password":true,"vac":true,"version":"7695204","steam_id":85568392924742827,"keywords":["ctf","nocrits","nodmgspread","uncletopia"],"game_id":440,"stv_port":27076,"stv_name":"Uncletopia | Frankfurt | 7 | No Payload | STV","players":[{"user_id":37,"name":"Lecommunard","steam_id":76561199440477571,"connected_time":569000000000,"state":"active","ping":54},{"user_id":41,"name":"Alfiine","steam_id":76561198206082887,"connected_time":304000000000,"state":"active","ping":57},{"user_id":6,"name":"Le Perv","steam_id":76561198057153676,"connected_time":2299000000000,"state":"active","ping":95},{"user_id":43,"name":"MrXtr","steam_id":76561198966247397,"connected_time":220000000000,"state":"active","ping":56},{"user_id":10,"name":"Scr4mbl3d_3ggs","steam_id":76561198162855584,"connected_time":1532000000000,"state":"active","ping":53},{"user_id":11,"name":"Car Gear","steam_id":76561199183213205,"connected_time":1501000000000,"state":"active","ping":67},{"user_id":42,"name":"11/25/2022","steam_id":76561199108364596,"connected_time":287000000000,"state":"active","ping":100},{"user_id":15,"name":"farzz","steam_id":76561198976727244,"connected_time":1149000000000,"state":"active","ping":83},{"user_id":18,"name":"Hooggers","steam_id":76561198120447741,"connected_time":1075000000000,"state":"active","ping":63},{"user_id":22,"name":"If 'L + Ratio' was a real perso","steam_id":76561199024168373,"connected_time":856000000000,"state":"active","ping":72},{"user_id":30,"name":"Lexikón","steam_id":76561198353562079,"connected_time":656000000000,"state":"active","ping":49},{"user_id":48,"name":"Kali","steam_id":76561198796327257,"connected_time":37000000000,"state":"active","ping":52},{"user_id":26,"name":"Poor Fucking Infantry","steam_id":76561198055978522,"connected_time":746000000000,"state":"active","ping":59},{"user_id":27,"name":"Alice in the Badlands","steam_id":76561198052410860,"connected_time":740000000000,"state":"active","ping":136},{"user_id":47,"name":"Panda","steam_id":76561198176342325,"connected_time":101000000000,"state":"active","ping":97},{"user_id":33,"name":"joe big mcdickinton","steam_id":76561199212894277,"connected_time":626000000000,"state":"active","ping":100},{"user_id":34,"name":"Ixsus\u003c3","steam_id":76561198094756869,"connected_time":620000000000,"state":"active","ping":58},{"user_id":35,"name":"some.big.git","steam_id":76561199094356478,"connected_time":615000000000,"state":"active","ping":67},{"user_id":36,"name":"r4ngerr","steam_id":76561198111721072,"connected_time":613000000000,"state":"active","ping":89}]},{"server_id":24,"name":"Uncletopia | Frankfurt | 8 | Community","name_short":"frk-8","host":"frk-1.de.uncletopia.com","port":27085,"enabled":true,"region":"eu","cc":"de","latitude":50.110924,"longitude":8.682127,"reserved":0,"last_update":"0001-01-01T00:00:00Z","name_a2s":"Uncletopia | Frankfurt | 8 | Community","protocol":17,"map":"koth_lakeside_final","folder":"tf","game":"Team Fortress","app_id":440,"player_count":0,"max_players":24,"Bots":0,"server_type":"Dedicated","server_os":"Linux","password":true,"vac":true,"version":"7695204","steam_id":85568392924742828,"keywords":["cp","nocrits","nodmgspread","uncletopia"],"game_id":440,"stv_port":0,"stv_name":"","players":null},{"server_id":202,"name":"Uncletopia | Hong Kong | 1 | All Maps","name_short":"hgk-1","host":"hgk-1.hk.uncletopia.com","port":27015,"enabled":true,"region":"asia","cc":"hk","latitude":22.302711,"longitude":114.177216,"reserved":0,"last_update":"0001-01-01T00:00:00Z","name_a2s":"Uncletopia | Hong Kong | 1 | All Maps","protocol":17,"map":"pl_pier","folder":"tf","game":"Team Fortress","app_id":440,"player_count":24,"max_players":24,"Bots":0,"server_type":"Dedicated","server_os":"Linux","password":true,"vac":true,"version":"7695204","steam_id":85568392924494504,"keywords":["nocrits","nodmgspread","payload","uncletopia"],"game_id":440,"stv_port":27016,"stv_name":"Uncletopia | Hong Kong | 1 | All Maps | STV","players":[{"user_id":364,"name":"Denji","steam_id":76561198203073201,"connected_time":2562000000000,"state":"active","ping":55},{"user_id":365,"name":"TonXD","steam_id":76561199024372559,"connected_time":2561000000000,"state":"active","ping":103},{"user_id":372,"name":"Puddin","steam_id":76561198140052918,"connected_time":1788000000000,"state":"active","ping":94},{"user_id":288,"name":"aly poe","steam_id":76561198230213828,"connected_time":10870000000000,"state":"active","ping":74},{"user_id":357,"name":"TechMaster12(F2P) #savetf2","steam_id":76561199244754236,"connected_time":3424000000000,"state":"active","ping":105},{"user_id":249,"name":"iced","steam_id":76561198999114004,"connected_time":14092000000000,"state":"active","ping":92},{"user_id":366,"name":"2232","steam_id":76561198074339034,"connected_time":2560000000000,"state":"active","ping":74},{"user_id":378,"name":"just_chickaen","steam_id":76561198821110960,"connected_time":1226000000000,"state":"active","ping":40},{"user_id":387,"name":"PawmKin","steam_id":76561198344175018,"connected_time":361000000000,"state":"active","ping":117},{"user_id":319,"name":"peppermint","steam_id":76561198820630422,"connected_time":6489000000000,"state":"active","ping":87},{"user_id":367,"name":"xPhid","steam_id":76561199080808930,"connected_time":2559000000000,"state":"active","ping":74},{"user_id":392,"name":"Pug_Lord","steam_id":76561199090153442,"connected_time":133000000000,"state":"active","ping":113},{"user_id":382,"name":"Virgin Knight","steam_id":76561198039478798,"connected_time":609000000000,"state":"active","ping":89},{"user_id":383,"name":"Vladimir Spencer Pootis","steam_id":76561198144686119,"connected_time":470000000000,"state":"active","ping":68},{"user_id":369,"name":"\u003e:FrozenDragon:\u003c","steam_id":76561198227960928,"connected_time":2439000000000,"state":"active","ping":135},{"user_id":375,"name":"e","steam_id":76561199068229379,"connected_time":1534000000000,"state":"active","ping":63},{"user_id":287,"name":"Lúd","steam_id":76561198828840546,"connected_time":10885000000000,"state":"active","ping":61},{"user_id":358,"name":"screaming sniper","steam_id":76561199085568674,"connected_time":3392000000000,"state":"active","ping":77},{"user_id":301,"name":"帕","steam_id":76561198439343999,"connected_time":9273000000000,"state":"active","ping":79},{"user_id":342,"name":"Rephex","steam_id":76561198308185574,"connected_time":4560000000000,"state":"active","ping":62},{"user_id":385,"name":"Banana","steam_id":76561199059943640,"connected_time":437000000000,"state":"active","ping":40},{"user_id":391,"name":"MASLACK","steam_id":76561198039787857,"connected_time":258000000000,"state":"active","ping":124},{"user_id":379,"name":"the sex","steam_id":76561198129661272,"connected_time":642000000000,"state":"active","ping":85},{"user_id":381,"name":"MiddleWeast","steam_id":76561198200826154,"connected_time":641000000000,"state":"active","ping":46}]},{"server_id":1,"name":"Uncletopia | Los Angeles | 1 | All Maps","name_short":"lax-1","host":"lax-1.us.uncletopia.com","port":27015,"enabled":true,"region":"us-west","cc":"us","latitude":33.94279,"longitude":-118.41004,"reserved":0,"last_update":"0001-01-01T00:00:00Z","name_a2s":"Uncletopia | Los Angeles | 1 | All Maps","protocol":17,"map":"koth_nucleus","folder":"tf","game":"Team Fortress","app_id":440,"player_count":0,"max_players":24,"Bots":0,"server_type":"Dedicated","server_os":"Linux","password":true,"vac":true,"version":"7695204","steam_id":85568392924469991,"keywords":["cp","nocrits","nodmgspread","uncletopia"],"game_id":440,"stv_port":27016,"stv_name":"Uncletopia | Los Angeles | 1 | All Maps | STV","players":null},{"server_id":112,"name":"Uncletopia | Los Angeles | 2 | All Maps","name_short":"lax-2","host":"lax-1.us.uncletopia.com","port":27025,"enabled":true,"region":"us-west","cc":"us","latitude":33.94279,"longitude":-118.41004,"reserved":0,"last_update":"0001-01-01T00:00:00Z","name_a2s":"Uncletopia | Los Angeles | 2 | All Maps","protocol":17,"map":"koth_viaduct","folder":"tf","game":"Team Fortress","app_id":440,"player_count":0,"max_players":24,"Bots":0,"server_type":"Dedicated","server_os":"Linux","password":true,"vac":true,"version":"7695204","steam_id":85568392924469992,"keywords":["cp","nocrits","nodmgspread","uncletopia"],"game_id":440,"stv_port":27026,"stv_name":"Uncletopia | Los Angeles | 2 | All Maps | STV","players":null},{"server_id":324,"name":"Uncletopia | Los Angeles | 3 | All Maps","name_short":"lax-3","host":"lax-1.us.uncletopia.com","port":27035,"enabled":true,"region":"us-west","cc":"us","latitude":33.94279,"longitude":-118.41004,"reserved":0,"last_update":"0001-01-01T00:00:00Z","name_a2s":"Uncletopia | Los Angeles | 3 | All Maps","protocol":17,"map":"koth_cascade","folder":"tf","game":"Team Fortress","app_id":440,"player_count":0,"max_players":24,"Bots":0,"server_type":"Dedicated","server_os":"Linux","password":true,"vac":true,"version":"7695204","steam_id":85568392924510198,"keywords":["cp","nocrits","nodmgspread","uncletopia"],"game_id":440,"stv_port":27036,"stv_name":"Uncletopia | Los Angeles | 3 | All Maps | STV","players":null},{"server_id":25,"name":"Uncletopia | Los Angeles | 4 | No Payload","name_short":"lax-4","host":"lax-1.us.uncletopia.com","port":27045,"enabled":true,"region":"us-west","cc":"us","latitude":33.94279,"longitude":-118.41004,"reserved":0,"last_update":"0001-01-01T00:00:00Z","name_a2s":"Uncletopia | Los Angeles | 4 | No Payload","protocol":17,"map":"koth_harvest_final","folder":"tf","game":"Team Fortress","app_id":440,"player_count":0,"max_players":24,"Bots":0,"server_type":"Dedicated","server_os":"Linux","password":true,"vac":true,"version":"7695204","steam_id":85568392924510199,"keywords":["cp","nocrits","nodmgspread","uncletopia"],"game_id":440,"stv_port":27046,"stv_name":"Uncletopia | Los Angeles | 4 | No Payload | STV","players":null},{"server_id":11,"name":"Uncletopia | London | 1 | All Maps","name_short":"lon-1","host":"lon-1.uk.uncletopia.com","port":27015,"enabled":true,"region":"eu","cc":"gb","latitude":51.509865,"longitude":-0.118092,"reserved":0,"last_update":"0001-01-01T00:00:00Z","name_a2s":"Uncletopia | London | 1 | All Maps","protocol":17,"map":"pl_barnblitz","folder":"tf","game":"Team Fortress","app_id":440,"player_count":0,"max_players":24,"Bots":0,"server_type":"Dedicated","server_os":"Linux","password":true,"vac":true,"version":"7695204","steam_id":85568392924367362,"keywords":["nocrits","nodmgspread","payload","uncletopia"],"game_id":440,"stv_port":27016,"stv_name":"Uncletopia | London | 1 | All Maps | STV","players":null},{"server_id":114,"name":"Uncletopia | London | 2 | All Maps","name_short":"lon-2","host":"lon-1.uk.uncletopia.com","port":27025,"enabled":true,"region":"eu","cc":"gb","latitude":51.509865,"longitude":-0.118092,"reserved":0,"last_update":"0001-01-01T00:00:00Z","name_a2s":"Uncletopia | London | 2 | All Maps","protocol":17,"map":"cp_sunshine","folder":"tf","game":"Team Fortress","app_id":440,"player_count":0,"max_players":24,"Bots":0,"server_type":"Dedicated","server_os":"Linux","password":true,"vac":true,"version":"7695204","steam_id":85568392924470941,"keywords":["cp","nocrits","nodmgspread","uncletopia"],"game_id":440,"stv_port":0,"stv_name":"","players":null},{"server_id":320,"name":"Uncletopia | London | 3 | All Maps","name_short":"lon-3","host":"lon-1.uk.uncletopia.com","port":27035,"enabled":true,"region":"eu","cc":"gb","latitude":51.509865,"longitude":-0.118092,"reserved":0,"last_update":"0001-01-01T00:00:00Z","name_a2s":"Uncletopia | London | 3 | All Maps","protocol":17,"map":"pl_pier","folder":"tf","game":"Team Fortress","app_id":440,"player_count":0,"max_players":24,"Bots":0,"server_type":"Dedicated","server_os":"Linux","password":true,"vac":true,"version":"7695204","steam_id":85568392924510192,"keywords":["nocrits","nodmgspread","payload","uncletopia"],"game_id":440,"stv_port":27036,"stv_name":"Uncletopia | London | 3 | All Maps | STV","players":null},{"server_id":321,"name":"Uncletopia | London | 4 | All Maps","name_short":"lon-4","host":"lon-1.uk.uncletopia.com","port":27045,"enabled":true,"region":"eu","cc":"gb","latitude":51.509865,"longitude":-0.118092,"reserved":0,"last_update":"0001-01-01T00:00:00Z","name_a2s":"Uncletopia | London | 4 | All Maps","protocol":17,"map":"koth_viaduct","folder":"tf","game":"Team Fortress","app_id":440,"player_count":0,"max_players":24,"Bots":0,"server_type":"Dedicated","server_os":"Linux","password":true,"vac":true,"version":"7695204","steam_id":85568392924510193,"keywords":["cp","nocrits","nodmgspread","uncletopia"],"game_id":440,"stv_port":0,"stv_name":"","players":null},{"server_id":21,"name":"Uncletopia | London | 5 | All Maps","name_short":"lon-5","host":"lon-1.uk.uncletopia.com","port":27055,"enabled":true,"region":"eu","cc":"gb","latitude":51.509865,"longitude":-0.118092,"reserved":0,"last_update":"0001-01-01T00:00:00Z","name_a2s":"Uncletopia | London | 5 | All Maps","protocol":17,"map":"koth_cascade","folder":"tf","game":"Team Fortress","app_id":440,"player_count":0,"max_players":24,"Bots":0,"server_type":"Dedicated","server_os":"Linux","password":true,"vac":true,"version":"7695204","steam_id":85568392924742829,"keywords":["cp","nocrits","nodmgspread","uncletopia"],"game_id":440,"stv_port":0,"stv_name":"","players":null},{"server_id":22,"name":"Uncletopia | London | 6 | All Maps","name_short":"lon-6","host":"lon-1.uk.uncletopia.com","port":27065,"enabled":true,"region":"eu","cc":"gb","latitude":51.509865,"longitude":-0.118092,"reserved":0,"last_update":"0001-01-01T00:00:00Z","name_a2s":"Uncletopia | London | 6 | All Maps","protocol":17,"map":"pl_pier","folder":"tf","game":"Team Fortress","app_id":440,"player_count":0,"max_players":24,"Bots":0,"server_type":"Dedicated","server_os":"Linux","password":true,"vac":true,"version":"7695204","steam_id":85568392924742830,"keywords":["nocrits","nodmgspread","payload","uncletopia"],"game_id":440,"stv_port":0,"stv_name":"","players":null},{"server_id":40,"name":"Uncletopia | London | 7 | No Payload","name_short":"lon-7","host":"lon-1.uk.uncletopia.com","port":27075,"enabled":true,"region":"eu","cc":"gb","latitude":51.509865,"longitude":-0.118092,"reserved":0,"last_update":"0001-01-01T00:00:00Z","name_a2s":"Uncletopia | London | 7 | No Payload","protocol":17,"map":"cp_steel","folder":"tf","game":"Team Fortress","app_id":440,"player_count":0,"max_players":24,"Bots":0,"server_type":"Dedicated","server_os":"Linux","password":true,"vac":true,"version":"7695204","steam_id":85568392924964314,"keywords":["cp","nocrits","nodmgspread","uncletopia"],"game_id":440,"stv_port":27076,"stv_name":"Uncletopia | London | 7 | No Payload | STV","players":null},{"server_id":41,"name":"Uncletopia | London | 8 | Community","name_short":"lon-8","host":"lon-1.uk.uncletopia.com","port":27085,"enabled":true,"region":"eu","cc":"gb","latitude":51.509865,"longitude":-0.118092,"reserved":0,"last_update":"0001-01-01T00:00:00Z","name_a2s":"Uncletopia | London | 8 | Community","protocol":17,"map":"cp_dustbowl","folder":"tf","game":"Team Fortress","app_id":440,"player_count":0,"max_players":24,"Bots":0,"server_type":"Dedicated","server_os":"Linux","password":true,"vac":true,"version":"7695204","steam_id":85568392924964315,"keywords":["cp","nocrits","nodmgspread","uncletopia"],"game_id":440,"stv_port":0,"stv_name":"","players":null},{"server_id":300,"name":"Uncletopia | Montréal | 1 | All Maps","name_short":"mtl-1","host":"mtl-1.ca.uncletopia.com","port":27015,"enabled":true,"region":"us-east","cc":"ca","latitude":45.50889,"longitude":-73.56167,"reserved":0,"last_update":"0001-01-01T00:00:00Z","name_a2s":"Uncletopia | Montréal | 1 | All Maps","protocol":17,"map":"koth_highpass","folder":"tf","game":"Team Fortress","app_id":440,"player_count":0,"max_players":24,"Bots":0,"server_type":"Dedicated","server_os":"Linux","password":true,"vac":true,"version":"7695204","steam_id":85568392924500087,"keywords":["cp","nocrits","nodmgspread","uncletopia"],"game_id":440,"stv_port":27016,"stv_name":"Uncletopia | Montréal | 1 | All Maps | STV","players":null},{"server_id":301,"name":"Uncletopia | Montréal | 2 | All Maps","name_short":"mtl-2","host":"mtl-1.ca.uncletopia.com","port":27025,"enabled":true,"region":"us-east","cc":"ca","latitude":45.50889,"longitude":-73.56167,"reserved":0,"last_update":"0001-01-01T00:00:00Z","name_a2s":"Uncletopia | Montréal | 2 | All Maps","protocol":17,"map":"koth_lakeside_final","folder":"tf","game":"Team Fortress","app_id":440,"player_count":0,"max_players":24,"Bots":0,"server_type":"Dedicated","server_os":"Linux","password":true,"vac":true,"version":"7695204","steam_id":85568392924500088,"keywords":["cp","nocrits","nodmgspread","uncletopia"],"game_id":440,"stv_port":27026,"stv_name":"Uncletopia | Montréal | 2 | All Maps | STV","players":null},{"server_id":302,"name":"Uncletopia | Montréal | 3 | All Maps","name_short":"mtl-3","host":"mtl-1.ca.uncletopia.com","port":27035,"enabled":true,"region":"us-east","cc":"ca","latitude":45.50889,"longitude":-73.56167,"reserved":0,"last_update":"0001-01-01T00:00:00Z","name_a2s":"Uncletopia | Montréal | 3 | All Maps","protocol":17,"map":"koth_viaduct","folder":"tf","game":"Team Fortress","app_id":440,"player_count":0,"max_players":24,"Bots":0,"server_type":"Dedicated","server_os":"Linux","password":true,"vac":true,"version":"7695204","steam_id":85568392924500089,"keywords":["cp","nocrits","nodmgspread","uncletopia"],"game_id":440,"stv_port":0,"stv_name":"","players":null},{"server_id":303,"name":"Uncletopia | Montréal | 4 | No Payload","name_short":"mtl-4","host":"mtl-1.ca.uncletopia.com","port":27045,"enabled":true,"region":"us-east","cc":"ca","latitude":45.50889,"longitude":-73.56167,"reserved":0,"last_update":"0001-01-01T00:00:00Z","name_a2s":"Uncletopia | Montréal | 4 | No Payload","protocol":17,"map":"cp_standin_final","folder":"tf","game":"Team Fortress","app_id":440,"player_count":0,"max_players":24,"Bots":0,"server_type":"Dedicated","server_os":"Linux","password":true,"vac":true,"version":"7695204","steam_id":85568392924500090,"keywords":["cp","nocrits","nodmgspread","uncletopia"],"game_id":440,"stv_port":27046,"stv_name":"Uncletopia | Montréal | 4 | No Payload | STV","players":null},{"server_id":13,"name":"Uncletopia | New York City | 1 | All Maps","name_short":"nyc-1","host":"nyc-1.us.uncletopia.com","port":27015,"enabled":true,"region":"us-east","cc":"us","latitude":40.73061,"longitude":-73.93524,"reserved":0,"last_update":"0001-01-01T00:00:00Z","name_a2s":"Uncletopia | New York City | 1 | All Maps","protocol":17,"map":"koth_cascade","folder":"tf","game":"Team Fortress","app_id":440,"player_count":0,"max_players":24,"Bots":0,"server_type":"Dedicated","server_os":"Linux","password":true,"vac":true,"version":"7695204","steam_id":85568392924469993,"keywords":["cp","nocrits","nodmgspread","uncletopia"],"game_id":440,"stv_port":27016,"stv_name":"Uncletopia | New York City | 1 | All Maps | STV","players":null},{"server_id":14,"name":"Uncletopia | New York City | 2 | All Maps","name_short":"nyc-2","host":"nyc-1.us.uncletopia.com","port":27025,"enabled":true,"region":"us-east","cc":"us","latitude":40.73061,"longitude":-73.93524,"reserved":0,"last_update":"0001-01-01T00:00:00Z","name_a2s":"Uncletopia | New York City | 2 | All Maps","protocol":17,"map":"pl_borneo","folder":"tf","game":"Team Fortress","app_id":440,"player_count":0,"max_players":24,"Bots":0,"server_type":"Dedicated","server_os":"Linux","password":true,"vac":true,"version":"7695204","steam_id":85568392924469994,"keywords":["nocrits","nodmgspread","payload","uncletopia"],"game_id":440,"stv_port":27026,"stv_name":"Uncletopia | New York City | 2 | All Maps | STV","players":null},{"server_id":15,"name":"Uncletopia | New York City | 3 | All Maps","name_short":"nyc-3","host":"nyc-1.us.uncletopia.com","port":27035,"enabled":true,"region":"us-east","cc":"us","latitude":40.73061,"longitude":-73.93524,"reserved":0,"last_update":"0001-01-01T00:00:00Z","name_a2s":"Uncletopia | New York City | 3 | All Maps","protocol":17,"map":"cp_mountainlab","folder":"tf","game":"Team Fortress","app_id":440,"player_count":0,"max_players":24,"Bots":0,"server_type":"Dedicated","server_os":"Linux","password":true,"vac":true,"version":"7695204","steam_id":85568392924742820,"keywords":["cp","nocrits","nodmgspread","uncletopia"],"game_id":440,"stv_port":27036,"stv_name":"Uncletopia | New York City | 3 | All Maps | STV","players":null},{"server_id":16,"name":"Uncletopia | New York City | 4 | Community","name_short":"nyc-4","host":"nyc-1.us.uncletopia.com","port":27045,"enabled":true,"region":"us-east","cc":"us","latitude":40.73061,"longitude":-73.93524,"reserved":0,"last_update":"0001-01-01T00:00:00Z","name_a2s":"Uncletopia | New York City | 4 | Community","protocol":17,"map":"workshop/koth_product_final.ugc454272353","folder":"tf","game":"Team Fortress","app_id":440,"player_count":0,"max_players":24,"Bots":0,"server_type":"Dedicated","server_os":"Linux","password":true,"vac":true,"version":"7695204","steam_id":85568392924742821,"keywords":["cp","nocrits","nodmgspread","uncletopia"],"game_id":440,"stv_port":27046,"stv_name":"Uncletopia | New York City | 4 | Community | STV","players":null},{"server_id":142,"name":"Uncletopia | São Paulo | 1 | All Maps","name_short":"sao-1","host":"sao-1.br.uncletopia.com","port":27015,"enabled":true,"region":"sa","cc":"br","latitude":-23.533773,"longitude":-46.62529,"reserved":0,"last_update":"0001-01-01T00:00:00Z","name_a2s":"Uncletopia | São Paulo | 1 | All Maps","protocol":17,"map":"koth_cascade","folder":"tf","game":"Team Fortress","app_id":440,"player_count":0,"max_players":24,"Bots":0,"server_type":"Dedicated","server_os":"Linux","password":true,"vac":true,"version":"7695204","steam_id":85568392924469996,"keywords":["cp","nocrits","nodmgspread","uncletopia"],"game_id":440,"stv_port":0,"stv_name":"","players":null},{"server_id":143,"name":"Uncletopia | São Paulo | 2 | All Maps","name_short":"sao-2","host":"sao-2.br.uncletopia.com","port":27015,"enabled":true,"region":"sa","cc":"br","latitude":-23.533773,"longitude":-46.62529,"reserved":0,"last_update":"0001-01-01T00:00:00Z","name_a2s":"Uncletopia | São Paulo | 2 | All Maps","protocol":17,"map":"cp_snakewater_final1","folder":"tf","game":"Team Fortress","app_id":440,"player_count":0,"max_players":24,"Bots":0,"server_type":"Dedicated","server_os":"Linux","password":true,"vac":true,"version":"7695204","steam_id":85568392924485349,"keywords":["cp","nocrits","nodmgspread","uncletopia"],"game_id":440,"stv_port":0,"stv_name":"","players":null},{"server_id":7,"name":"Uncletopia | Seattle | 1 | All Maps","name_short":"sea-1","host":"sea-1.us.uncletopia.com","port":27015,"enabled":true,"region":"us-west","cc":"us","latitude":47.608013,"longitude":-122.33517,"reserved":0,"last_update":"0001-01-01T00:00:00Z","name_a2s":"Uncletopia | Seattle | 1 | All Maps","protocol":17,"map":"koth_cascade","folder":"tf","game":"Team Fortress","app_id":440,"player_count":0,"max_players":24,"Bots":0,"server_type":"Dedicated","server_os":"Linux","password":true,"vac":true,"version":"7695204","steam_id":85568392924469997,"keywords":["cp","nocrits","nodmgspread","uncletopia"],"game_id":440,"stv_port":27016,"stv_name":"Uncletopia | Seattle | 1 | All Maps | STV","players":null},{"server_id":119,"name":"Uncletopia | Seattle | 2 | All Maps","name_short":"sea-2","host":"sea-1.us.uncletopia.com","port":27025,"enabled":true,"region":"us-west","cc":"us","latitude":47.608013,"longitude":-122.33517,"reserved":0,"last_update":"0001-01-01T00:00:00Z","name_a2s":"Uncletopia | Seattle | 2 | All Maps","protocol":17,"map":"pl_chilly","folder":"tf","game":"Team Fortress","app_id":440,"player_count":23,"max_players":24,"Bots":0,"server_type":"Dedicated","server_os":"Linux","password":true,"vac":true,"version":"7695204","steam_id":85568392924469998,"keywords":["nocrits","nodmgspread","payload","uncletopia"],"game_id":440,"stv_port":27026,"stv_name":"Uncletopia | Seattle | 2 | All Maps | STV","players":[{"user_id":713,"name":"Klone","steam_id":76561198854485605,"connected_time":495000000000,"state":"active","ping":80},{"user_id":671,"name":"weed lesbian","steam_id":76561197989933601,"connected_time":3034000000000,"state":"active","ping":59},{"user_id":672,"name":"Puma Pants","steam_id":76561197993138592,"connected_time":3019000000000,"state":"active","ping":44},{"user_id":688,"name":"Grill Skills","steam_id":76561198053575147,"connected_time":1867000000000,"state":"active","ping":58},{"user_id":704,"name":"Sgt Autmn","steam_id":76561198072047939,"connected_time":1498000000000,"state":"active","ping":45},{"user_id":636,"name":"PopcornNinja101","steam_id":76561198330680181,"connected_time":6712000000000,"state":"active","ping":45},{"user_id":677,"name":"AvapXia","steam_id":76561198147476096,"connected_time":2769000000000,"state":"active","ping":50},{"user_id":705,"name":"soro","steam_id":76561198879039687,"connected_time":1417000000000,"state":"active","ping":128},{"user_id":707,"name":"Tuba","steam_id":76561198209166329,"connected_time":1163000000000,"state":"active","ping":76},{"user_id":674,"name":"perc 10","steam_id":76561198116471653,"connected_time":2870000000000,"state":"active","ping":70},{"user_id":680,"name":"Dunkle","steam_id":76561198041903573,"connected_time":2631000000000,"state":"active","ping":45},{"user_id":714,"name":"PROFILE NAME","steam_id":76561199438851854,"connected_time":400000000000,"state":"active","ping":51},{"user_id":682,"name":"Pubk","steam_id":76561198095939571,"connected_time":2270000000000,"state":"active","ping":44},{"user_id":715,"name":"chompmastr","steam_id":76561199121805899,"connected_time":398000000000,"state":"active","ping":65},{"user_id":694,"name":"hotdog every meal","steam_id":76561198392514273,"connected_time":1703000000000,"state":"active","ping":54},{"user_id":708,"name":"crazy (angry!!!!!!!!!)","steam_id":76561198179198446,"connected_time":1128000000000,"state":"active","ping":31},{"user_id":695,"name":"PootisLife","steam_id":76561198074400568,"connected_time":1628000000000,"state":"active","ping":42},{"user_id":716,"name":"works cited","steam_id":76561198853297459,"connected_time":303000000000,"state":"active","ping":44},{"user_id":712,"name":"BOB","steam_id":76561198000787196,"connected_time":960000000000,"state":"active","ping":124},{"user_id":717,"name":"Fløyd","steam_id":76561198153042518,"connected_time":226000000000,"state":"active","ping":71},{"user_id":718,"name":"U of SC Office of Financial Aid","steam_id":76561198182294378,"connected_time":167000000000,"state":"active","ping":86},{"user_id":702,"name":"Casual Costanza","steam_id":76561198024409325,"connected_time":1545000000000,"state":"active","ping":114},{"user_id":719,"name":"defcon","steam_id":76561198100656328,"connected_time":159000000000,"state":"active","ping":123}]},{"server_id":17,"name":"Uncletopia | San Francisco | 1 | All Maps","name_short":"sfo-1","host":"sfo-1.us.uncletopia.com","port":27015,"enabled":true,"region":"us-west","cc":"us","latitude":37.77397,"longitude":-122.4313,"reserved":0,"last_update":"0001-01-01T00:00:00Z","name_a2s":"Uncletopia | San Francisco | 1 | All Maps","protocol":17,"map":"koth_lakeside_final","folder":"tf","game":"Team Fortress","app_id":440,"player_count":0,"max_players":24,"Bots":0,"server_type":"Dedicated","server_os":"Linux","password":true,"vac":true,"version":"7695204","steam_id":85568392924469999,"keywords":["cp","nocrits","nodmgspread","uncletopia"],"game_id":440,"stv_port":27016,"stv_name":"Uncletopia | San Francisco | 1 | All Maps | STV","players":null},{"server_id":18,"name":"Uncletopia | San Francisco | 2 | All Maps","name_short":"sfo-2","host":"sfo-1.us.uncletopia.com","port":27025,"enabled":true,"region":"us-west","cc":"us","latitude":37.77397,"longitude":-122.4313,"reserved":0,"last_update":"0001-01-01T00:00:00Z","name_a2s":"Uncletopia | San Francisco | 2 | All Maps","protocol":17,"map":"cp_snakewater_final1","folder":"tf","game":"Team Fortress","app_id":440,"player_count":24,"max_players":24,"Bots":0,"server_type":"Dedicated","server_os":"Linux","password":true,"vac":true,"version":"7695204","steam_id":85568392924470000,"keywords":["cp","nocrits","nodmgspread","uncletopia"],"game_id":440,"stv_port":27026,"stv_name":"Uncletopia | San Francisco | 2 | All Maps | STV","players":[{"user_id":707,"name":"EatSomeBEES","steam_id":76561198047334307,"connected_time":1629000000000,"state":"active","ping":59},{"user_id":719,"name":"santas.secret.sauce","steam_id":76561198042464635,"connected_time":837000000000,"state":"active","ping":97},{"user_id":647,"name":"snugthebug","steam_id":76561198030964222,"connected_time":6126000000000,"state":"active","ping":102},{"user_id":687,"name":"Bringle","steam_id":76561199092188539,"connected_time":2730000000000,"state":"active","ping":54},{"user_id":721,"name":"Mr. Pink","steam_id":76561198065858172,"connected_time":531000000000,"state":"active","ping":108},{"user_id":694,"name":"The Gremlin","steam_id":76561198419066993,"connected_time":2006000000000,"state":"active","ping":99},{"user_id":708,"name":"Kanye East","steam_id":76561198025476774,"connected_time":1627000000000,"state":"active","ping":54},{"user_id":692,"name":"No_one_at_all","steam_id":76561199405285251,"connected_time":2147000000000,"state":"active","ping":56},{"user_id":699,"name":"OJ Simpson","steam_id":76561198056329143,"connected_time":1897000000000,"state":"active","ping":61},{"user_id":710,"name":"Man of Rats","steam_id":76561198877579102,"connected_time":1534000000000,"state":"active","ping":99},{"user_id":706,"name":"Jessica (16 yo girl) xoxo","steam_id":76561198073699764,"connected_time":1729000000000,"state":"active","ping":56},{"user_id":698,"name":"White-light","steam_id":76561198077094973,"connected_time":1926000000000,"state":"active","ping":110},{"user_id":661,"name":"June","steam_id":76561198141803658,"connected_time":4588000000000,"state":"active","ping":51},{"user_id":714,"name":"wega","steam_id":76561198301598124,"connected_time":1337000000000,"state":"active","ping":78},{"user_id":633,"name":"Kanye South","steam_id":76561197968179862,"connected_time":7173000000000,"state":"active","ping":68},{"user_id":722,"name":"HisDudeness","steam_id":76561198088035155,"connected_time":510000000000,"state":"active","ping":62},{"user_id":701,"name":"biggum","steam_id":76561198294281809,"connected_time":1847000000000,"state":"active","ping":62},{"user_id":711,"name":"thug richard","steam_id":76561198822222646,"connected_time":1422000000000,"state":"active","ping":66},{"user_id":713,"name":"sexbom","steam_id":76561198917309036,"connected_time":1387000000000,"state":"active","ping":98},{"user_id":281,"name":"tweet","steam_id":76561198166515735,"connected_time":36294000000000,"state":"active","ping":48},{"user_id":717,"name":"Anti-Gravity","steam_id":76561198044025974,"connected_time":1139000000000,"state":"active","ping":53},{"user_id":681,"name":"SolarusD","steam_id":76561198029279861,"connected_time":3355000000000,"state":"active","ping":46},{"user_id":682,"name":"Lambchop","steam_id":76561198043900363,"connected_time":3350000000000,"state":"active","ping":60},{"user_id":720,"name":"Kazuhira Leandoer98","steam_id":76561198054697958,"connected_time":779000000000,"state":"active","ping":62}]},{"server_id":19,"name":"Uncletopia | San Francisco | 3 | No Payload","name_short":"sfo-3","host":"sfo-1.us.uncletopia.com","port":27035,"enabled":true,"region":"us-west","cc":"us","latitude":37.77397,"longitude":-122.4313,"reserved":0,"last_update":"0001-01-01T00:00:00Z","name_a2s":"Uncletopia | San Francisco | 3 | No Payload","protocol":17,"map":"plr_hightower","folder":"tf","game":"Team Fortress","app_id":440,"player_count":0,"max_players":24,"Bots":0,"server_type":"Dedicated","server_os":"Linux","password":true,"vac":true,"version":"7695204","steam_id":85568392924742824,"keywords":["nocrits","nodmgspread","payload","uncletopia"],"game_id":440,"stv_port":27036,"stv_name":"Uncletopia | San Francisco | 3 | No Payload | STV","players":null},{"server_id":20,"name":"Uncletopia | San Francisco | 4 | Community","name_short":"sfo-4","host":"sfo-1.us.uncletopia.com","port":27045,"enabled":true,"region":"us-west","cc":"us","latitude":37.77397,"longitude":-122.4313,"reserved":0,"last_update":"0001-01-01T00:00:00Z","name_a2s":"Uncletopia | San Francisco | 4 | Community","protocol":17,"map":"workshop/cp_sulfur_rc2.ugc619869471","folder":"tf","game":"Team Fortress","app_id":440,"player_count":0,"max_players":24,"Bots":0,"server_type":"Dedicated","server_os":"Linux","password":true,"vac":true,"version":"7695204","steam_id":85568392924742826,"keywords":["cp","nocrits","nodmgspread","uncletopia"],"game_id":440,"stv_port":27046,"stv_name":"Uncletopia | San Francisco | 4 | Community | STV","players":null},{"server_id":141,"name":"Uncletopia | Sydney | 1 | All Maps","name_short":"syd-1","host":"syd-1.au.uncletopia.com","port":27015,"enabled":true,"region":"au","cc":"au","latitude":-33.865143,"longitude":151.2099,"reserved":0,"last_update":"0001-01-01T00:00:00Z","name_a2s":"Uncletopia | Sydney | 1 | All Maps","protocol":17,"map":"plr_pipeline","folder":"tf","game":"Team Fortress","app_id":440,"player_count":0,"max_players":24,"Bots":0,"server_type":"Dedicated","server_os":"Linux","password":true,"vac":true,"version":"7695204","steam_id":85568392924470001,"keywords":["nocrits","nodmgspread","payload","uncletopia"],"game_id":440,"stv_port":27016,"stv_name":"Uncletopia | Sydney | 1 | All Maps | STV","players":null},{"server_id":123,"name":"Uncletopia | Sydney | 2 | All Maps","name_short":"syd-2","host":"syd-1.au.uncletopia.com","port":27025,"enabled":true,"region":"au","cc":"au","latitude":-33.865143,"longitude":151.2099,"reserved":0,"last_update":"0001-01-01T00:00:00Z","name_a2s":"Uncletopia | Sydney | 2 | All Maps","protocol":17,"map":"cp_dustbowl","folder":"tf","game":"Team Fortress","app_id":440,"player_count":24,"max_players":24,"Bots":0,"server_type":"Dedicated","server_os":"Linux","password":true,"vac":true,"version":"7695204","steam_id":85568392924470002,"keywords":["cp","nocrits","nodmgspread","uncletopia"],"game_id":440,"stv_port":27026,"stv_name":"Uncletopia | Sydney | 2 | All Maps | STV","players":[{"user_id":535,"name":"Sinister80s","steam_id":76561198343540472,"connected_time":1622000000000,"state":"active","ping":71},{"user_id":511,"name":"DelHasMangoes/yt","steam_id":76561198047183797,"connected_time":2889000000000,"state":"active","ping":80},{"user_id":375,"name":"Salty Dog","steam_id":76561198038713921,"connected_time":11986000000000,"state":"active","ping":51},{"user_id":529,"name":"Captain Canadia","steam_id":76561198167967735,"connected_time":2335000000000,"state":"active","ping":53},{"user_id":541,"name":"BOOM","steam_id":76561198043387293,"connected_time":205000000000,"state":"active","ping":62},{"user_id":513,"name":"sniper","steam_id":76561198213287124,"connected_time":2841000000000,"state":"active","ping":71},{"user_id":468,"name":"viirv","steam_id":76561198190097862,"connected_time":4908000000000,"state":"active","ping":70},{"user_id":470,"name":"jules99","steam_id":76561199005815714,"connected_time":4898000000000,"state":"active","ping":59},{"user_id":534,"name":"leg","steam_id":76561198052190088,"connected_time":1689000000000,"state":"active","ping":116},{"user_id":440,"name":"East","steam_id":76561197998179587,"connected_time":6897000000000,"state":"active","ping":97},{"user_id":537,"name":"korn","steam_id":76561198022563294,"connected_time":1372000000000,"state":"active","ping":105},{"user_id":527,"name":"blicky","steam_id":76561198029829077,"connected_time":2524000000000,"state":"active","ping":102},{"user_id":520,"name":"Akunébíokwudigbo","steam_id":76561198197777382,"connected_time":2749000000000,"state":"active","ping":53},{"user_id":532,"name":"Diavolo Diablo","steam_id":76561198166295333,"connected_time":2266000000000,"state":"active","ping":163},{"user_id":540,"name":"-Ech0-","steam_id":76561199121536801,"connected_time":862000000000,"state":"active","ping":46},{"user_id":522,"name":"Magic Duck","steam_id":76561198143110287,"connected_time":2744000000000,"state":"active","ping":59},{"user_id":543,"name":"fast and BULBOUS","steam_id":76561198065122193,"connected_time":64000000000,"state":"active","ping":45},{"user_id":509,"name":"fleep","steam_id":76561198417133583,"connected_time":3101000000000,"state":"active","ping":45},{"user_id":538,"name":"Omor","steam_id":76561198977762882,"connected_time":1224000000000,"state":"active","ping":60},{"user_id":427,"name":"White Wine Vinegar","steam_id":76561198260148888,"connected_time":8038000000000,"state":"active","ping":65},{"user_id":526,"name":"Grantymunk","steam_id":76561198051439179,"connected_time":2546000000000,"state":"active","ping":75},{"user_id":463,"name":"A threat unbeknownst","steam_id":76561198293776102,"connected_time":5711000000000,"state":"active","ping":36},{"user_id":476,"name":"Warren","steam_id":76561198120350917,"connected_time":4413000000000,"state":"active","ping":38},{"user_id":528,"name":"On My Way to Smooch You, I Am","steam_id":76561198041713339,"connected_time":2440000000000,"state":"active","ping":78}]},{"server_id":395,"name":"Uncletopia | Sydney | 3 | All Maps","name_short":"syd-3","host":"syd-1.au.uncletopia.com","port":27035,"enabled":true,"region":"au","cc":"au","latitude":-33.865143,"longitude":151.2099,"reserved":0,"last_update":"0001-01-01T00:00:00Z","name_a2s":"Uncletopia | Sydney | 3 | All Maps","protocol":17,"map":"pl_swiftwater_final1","folder":"tf","game":"Team Fortress","app_id":440,"player_count":24,"max_players":24,"Bots":0,"server_type":"Dedicated","server_os":"Linux","password":true,"vac":true,"version":"7695204","steam_id":85568392925194467,"keywords":["nocrits","nodmgspread","payload","uncletopia"],"game_id":440,"stv_port":27036,"stv_name":"Uncletopia | Sydney | 3 | All Maps | STV","players":[{"user_id":305,"name":"ToadFungus","steam_id":76561199219667039,"connected_time":1281000000000,"state":"active","ping":92},{"user_id":269,"name":"michael","steam_id":76561198052848358,"connected_time":4282000000000,"state":"active","ping":64},{"user_id":257,"name":"stroob","steam_id":76561198045320644,"connected_time":5229000000000,"state":"active","ping":49},{"user_id":319,"name":"AlEx MaSOn","steam_id":76561198809736508,"connected_time":283000000000,"state":"active","ping":126},{"user_id":313,"name":"ุbifcheg","steam_id":76561198319806610,"connected_time":830000000000,"state":"active","ping":63},{"user_id":300,"name":"A Simple Wok","steam_id":76561198134842324,"connected_time":1963000000000,"state":"active","ping":49},{"user_id":317,"name":"Sun","steam_id":76561198044315520,"connected_time":485000000000,"state":"active","ping":44},{"user_id":285,"name":"KILLER WHALES","steam_id":76561198012422705,"connected_time":3537000000000,"state":"active","ping":53},{"user_id":275,"name":"Wigs on fire","steam_id":76561198153811341,"connected_time":4126000000000,"state":"active","ping":83},{"user_id":314,"name":"Burger Man Chips","steam_id":76561198019107403,"connected_time":715000000000,"state":"active","ping":60},{"user_id":291,"name":"Chert","steam_id":76561198142285582,"connected_time":3090000000000,"state":"active","ping":73},{"user_id":288,"name":"Gasoline","steam_id":76561198879023728,"connected_time":3195000000000,"state":"active","ping":65},{"user_id":292,"name":"RBY","steam_id":76561198279663555,"connected_time":2989000000000,"state":"active","ping":57},{"user_id":289,"name":"Hobby_Sr","steam_id":76561198048016664,"connected_time":3180000000000,"state":"active","ping":65},{"user_id":318,"name":"AfroNinja","steam_id":76561198120372011,"connected_time":464000000000,"state":"active","ping":62},{"user_id":303,"name":"pigeonpumper1991","steam_id":76561197985197292,"connected_time":1841000000000,"state":"active","ping":54},{"user_id":297,"name":"kaiju no. 10","steam_id":76561198198628974,"connected_time":2785000000000,"state":"active","ping":65},{"user_id":282,"name":"KeeweMiner","steam_id":76561198373679200,"connected_time":3732000000000,"state":"active","ping":117},{"user_id":315,"name":"nightmare2503","steam_id":76561199100642588,"connected_time":697000000000,"state":"active","ping":61},{"user_id":307,"name":"krandlez` (Any/All)","steam_id":76561198044839726,"connected_time":1092000000000,"state":"active","ping":40},{"user_id":308,"name":"UglyBarnicle","steam_id":76561198075921599,"connected_time":1068000000000,"state":"active","ping":98},{"user_id":274,"name":"4-Star Yelp Review","steam_id":76561197995258180,"connected_time":4186000000000,"state":"active","ping":53},{"user_id":283,"name":"Glockenspe (She/Her)","steam_id":76561199184115241,"connected_time":3652000000000,"state":"active","ping":45},{"user_id":299,"name":"Selling Anti-Matter for $543","steam_id":76561198070708382,"connected_time":2524000000000,"state":"active","ping":50}]},{"server_id":396,"name":"Uncletopia | Sydney | 4 | All Maps","name_short":"syd-4","host":"syd-1.au.uncletopia.com","port":27045,"enabled":true,"region":"au","cc":"au","latitude":-33.865143,"longitude":151.2099,"reserved":0,"last_update":"0001-01-01T00:00:00Z","name_a2s":"Uncletopia | Sydney | 4 | All Maps","protocol":17,"map":"koth_cascade","folder":"tf","game":"Team Fortress","app_id":440,"player_count":4,"max_players":24,"Bots":0,"server_type":"Dedicated","server_os":"Linux","password":true,"vac":true,"version":"7695204","steam_id":85568392925397958,"keywords":["cp","nocrits","nodmgspread","uncletopia"],"game_id":440,"stv_port":27046,"stv_name":"Uncletopia | Sydney | 4 | All Maps | STV","players":[{"user_id":16,"name":"kcajnosbod","steam_id":76561198400431574,"connected_time":659000000000,"state":"active","ping":63},{"user_id":17,"name":"floop flub","steam_id":76561198418968979,"connected_time":503000000000,"state":"active","ping":101},{"user_id":18,"name":"simpcyan","steam_id":76561199121837374,"connected_time":48000000000,"state":"active","ping":95},{"user_id":19,"name":"Muffin","steam_id":76561198034358827,"connected_time":18000000000,"state":"active","ping":104}]},{"server_id":58,"name":"Uncletopia | Sydney | 5 | No Payload","name_short":"syd-5","host":"syd-1.au.uncletopia.com","port":27055,"enabled":true,"region":"au","cc":"au","latitude":-33.865143,"longitude":151.2099,"reserved":0,"last_update":"0001-01-01T00:00:00Z","name_a2s":"Uncletopia | Sydney | 5 | No Payload","protocol":17,"map":"plr_hightower","folder":"tf","game":"Team Fortress","app_id":440,"player_count":0,"max_players":24,"Bots":0,"server_type":"Dedicated","server_os":"Linux","password":true,"vac":true,"version":"7695204","steam_id":85568392925397959,"keywords":["nocrits","nodmgspread","payload","uncletopia"],"game_id":440,"stv_port":27056,"stv_name":"Uncletopia | Sydney | 5 | No Payload | STV","players":null},{"server_id":59,"name":"Uncletopia | Sydney | 6 | Community","name_short":"syd-6","host":"syd-1.au.uncletopia.com","port":27065,"enabled":true,"region":"au","cc":"au","latitude":-33.865143,"longitude":151.2099,"reserved":0,"last_update":"0001-01-01T00:00:00Z","name_a2s":"Uncletopia | Sydney | 6 | Community","protocol":17,"map":"workshop/koth_product_final.ugc454272353","folder":"tf","game":"Team Fortress","app_id":440,"player_count":0,"max_players":24,"Bots":0,"server_type":"Dedicated","server_os":"Linux","password":true,"vac":true,"version":"7695204","steam_id":85568392925397960,"keywords":["cp","nocrits","nodmgspread","uncletopia"],"game_id":440,"stv_port":27066,"stv_name":"Uncletopia | Sydney | 6 | Community | STV","players":null},{"server_id":49,"name":"Uncletopia | Warsaw | 1 | All Maps","name_short":"waw-1","host":"waw-1.pl.uncletopia.com","port":27015,"enabled":true,"region":"eu","cc":"pl","latitude":52.2297,"longitude":21.017532,"reserved":0,"last_update":"0001-01-01T00:00:00Z","name_a2s":"Uncletopia | Warsaw | 1 | All Maps","protocol":17,"map":"pl_frontier_final","folder":"tf","game":"Team Fortress","app_id":440,"player_count":0,"max_players":24,"Bots":0,"server_type":"Dedicated","server_os":"Linux","password":true,"vac":true,"version":"7695204","steam_id":85568392925397850,"keywords":["nocrits","nodmgspread","payload","uncletopia"],"game_id":440,"stv_port":0,"stv_name":"","players":null},{"server_id":50,"name":"Uncletopia | Warsaw | 2 | All Maps","name_short":"waw-2","host":"waw-1.pl.uncletopia.com","port":27025,"enabled":true,"region":"eu","cc":"pl","latitude":52.2297,"longitude":21.017532,"reserved":0,"last_update":"0001-01-01T00:00:00Z","name_a2s":"Uncletopia | Warsaw | 2 | All Maps","protocol":17,"map":"pl_swiftwater_final1","folder":"tf","game":"Team Fortress","app_id":440,"player_count":24,"max_players":24,"Bots":0,"server_type":"Dedicated","server_os":"Linux","password":true,"vac":true,"version":"7695204","steam_id":85568392925397851,"keywords":["nocrits","nodmgspread","payload","uncletopia"],"game_id":440,"stv_port":27026,"stv_name":"Uncletopia | Warsaw | 2 | All Maps | STV","players":[{"user_id":112,"name":"♥Ambervie♥","steam_id":76561198051952031,"connected_time":418000000000,"state":"active","ping":81},{"user_id":85,"name":"Capvin","steam_id":76561198989449047,"connected_time":2183000000000,"state":"active","ping":98},{"user_id":98,"name":"Sim","steam_id":76561198086641180,"connected_time":1247000000000,"state":"active","ping":107},{"user_id":64,"name":"MAKENTAKEN","steam_id":76561199127359587,"connected_time":3512000000000,"state":"active","ping":69},{"user_id":33,"name":"player","steam_id":76561198054474684,"connected_time":5084000000000,"state":"active","ping":71},{"user_id":105,"name":"so much painz","steam_id":76561198240320806,"connected_time":650000000000,"state":"active","ping":79},{"user_id":99,"name":"massa","steam_id":76561198439516039,"connected_time":1246000000000,"state":"active","ping":79},{"user_id":80,"name":"Alin","steam_id":76561198059679991,"connected_time":2435000000000,"state":"active","ping":104},{"user_id":113,"name":"Sinj","steam_id":76561198173218318,"connected_time":344000000000,"state":"active","ping":67},{"user_id":104,"name":"◯ | IceWaltz","steam_id":76561198146498522,"connected_time":931000000000,"state":"active","ping":76},{"user_id":109,"name":"xxpromemesxx","steam_id":76561198799159963,"connected_time":537000000000,"state":"active","ping":80},{"user_id":110,"name":"PhantomStriker","steam_id":76561199116689935,"connected_time":524000000000,"state":"active","ping":74},{"user_id":96,"name":"drippin jimmy","steam_id":76561198219243969,"connected_time":1601000000000,"state":"active","ping":65},{"user_id":103,"name":"DARKNESS P(OLAND)LAYER DOOM","steam_id":76561198036251160,"connected_time":1008000000000,"state":"active","ping":82},{"user_id":90,"name":"ow","steam_id":76561198070319813,"connected_time":1919000000000,"state":"active","ping":80},{"user_id":83,"name":"panakid","steam_id":76561198364121077,"connected_time":2238000000000,"state":"active","ping":111},{"user_id":91,"name":"Secretive Steve","steam_id":76561198016770338,"connected_time":1877000000000,"state":"active","ping":75},{"user_id":111,"name":"Trawiz","steam_id":76561198104794896,"connected_time":483000000000,"state":"active","ping":89},{"user_id":114,"name":"MomoInTheBox","steam_id":76561197994150695,"connected_time":250000000000,"state":"active","ping":60},{"user_id":69,"name":"LOBZIK","steam_id":76561198114830120,"connected_time":3168000000000,"state":"active","ping":55},{"user_id":94,"name":"404 lean","steam_id":76561198860332998,"connected_time":1778000000000,"state":"active","ping":65},{"user_id":53,"name":"weed fairy","steam_id":76561197998843096,"connected_time":4073000000000,"state":"active","ping":59},{"user_id":100,"name":"Naginacz","steam_id":76561199099232534,"connected_time":1184000000000,"state":"active","ping":47},{"user_id":117,"name":"Monke","steam_id":76561198066994468,"connected_time":65000000000,"state":"active","ping":52}]},{"server_id":51,"name":"Uncletopia | Warsaw | 3 | All Maps","name_short":"waw-3","host":"waw-1.pl.uncletopia.com","port":27035,"enabled":true,"region":"eu","cc":"pl","latitude":52.2297,"longitude":21.017532,"reserved":0,"last_update":"0001-01-01T00:00:00Z","name_a2s":"Uncletopia | Warsaw | 3 | All Maps","protocol":17,"map":"pl_barnblitz","folder":"tf","game":"Team Fortress","app_id":440,"player_count":0,"max_players":24,"Bots":0,"server_type":"Dedicated","server_os":"Linux","password":true,"vac":true,"version":"7695204","steam_id":85568392925397852,"keywords":["nocrits","nodmgspread","payload","uncletopia"],"game_id":440,"stv_port":0,"stv_name":"","players":null},{"server_id":52,"name":"Uncletopia | Warsaw | 4 | All Maps","name_short":"waw-4","host":"waw-1.pl.uncletopia.com","port":27045,"enabled":true,"region":"eu","cc":"pl","latitude":52.2297,"longitude":21.017532,"reserved":0,"last_update":"0001-01-01T00:00:00Z","name_a2s":"Uncletopia | Warsaw | 4 | All Maps","protocol":17,"map":"cp_altitude","folder":"tf","game":"Team Fortress","app_id":440,"player_count":0,"max_players":24,"Bots":0,"server_type":"Dedicated","server_os":"Linux","password":true,"vac":true,"version":"7695204","steam_id":85568392925397853,"keywords":["cp","nocrits","nodmgspread","uncletopia"],"game_id":440,"stv_port":0,"stv_name":"","players":null},{"server_id":53,"name":"Uncletopia | Warsaw | 5 | No Payload","name_short":"waw-5","host":"waw-1.pl.uncletopia.com","port":27055,"enabled":true,"region":"eu","cc":"pl","latitude":52.2297,"longitude":21.017532,"reserved":0,"last_update":"0001-01-01T00:00:00Z","name_a2s":"Uncletopia | Warsaw | 5 | No Payload","protocol":17,"map":"pl_badwater","folder":"tf","game":"Team Fortress","app_id":440,"player_count":0,"max_players":24,"Bots":0,"server_type":"Dedicated","server_os":"Linux","password":true,"vac":true,"version":"7695204","steam_id":85568392925397854,"keywords":["nocrits","nodmgspread","payload","uncletopia"],"game_id":440,"stv_port":0,"stv_name":"","players":null},{"server_id":54,"name":"Uncletopia | Warsaw | 6 | Community","name_short":"waw-6","host":"waw-1.pl.uncletopia.com","port":27065,"enabled":true,"region":"eu","cc":"pl","latitude":52.2297,"longitude":21.017532,"reserved":0,"last_update":"0001-01-01T00:00:00Z","name_a2s":"Uncletopia | Warsaw | 6 | Community","protocol":17,"map":"pl_barnblitz","folder":"tf","game":"Team Fortress","app_id":440,"player_count":0,"max_players":24,"Bots":0,"server_type":"Dedicated","server_os":"Linux","password":true,"vac":true,"version":"7695204","steam_id":85568392925397856,"keywords":["nocrits","nodmgspread","payload","uncletopia"],"game_id":440,"stv_port":0,"stv_name":"","players":null}]}