{"status":true,"message":"","result":[{"server_id":9,"name":"Uncletopia | Atlanta | 1 | All Maps","name_short":"atl-1","host":"atl-1.us.uncletopia.com","port":27015,"enabled":true,"region":"us-east","cc":"us","latitude":33.753746,"longitude":-84.38633,"reserved":0,"last_update":"0001-01-01T00:00:00Z","name_a2s":"Uncletopia | Atlanta | 1 | All Maps","protocol":17,"map":"pl_pier","folder":"tf","game":"Team Fortress","app_id":440,"player_count":24,"max_players":24,"Bots":0,"server_type":"Dedicated","server_os":"Linux","password":true,"vac":true,"version":"7757534","steam_id":85568392924469982,"keywords":["nocrits","nodmgspread","payload","uncletopia"],"game_id":440,"stv_port":27016,"stv_name":"Uncletopia | Atlanta | 1 | All Maps | STV","players":[{"user_id":644,"name":"atl1icyy","steam_id":76561198968001329,"connected_time":2541000000000,"state":"active","ping":48},{"user_id":505,"name":"cheeks","steam_id":76561197993371179,"connected_time":8746000000000,"state":"active","ping":45},{"user_id":669,"name":"Daisy the Pitbull","steam_id":76561198150327877,"connected_time":515000000000,"state":"active","ping":44},{"user_id":640,"name":"BIG HOG","steam_id":76561198079923652,"connected_time":3050000000000,"state":"active","ping":74},{"user_id":672,"name":"ATLS1 | Lavie","steam_id":76561198825997674,"connected_time":318000000000,"state":"active","ping":55},{"user_id":667,"name":"ATL1 | on my hunting trip","steam_id":76561198315341646,"connected_time":561000000000,"state":"active","ping":74},{"user_id":537,"name":"ATL1 | Kramer","steam_id":76561198083595936,"connected_time":5700000000000,"state":"active","ping":73},{"user_id":658,"name":"Chicken Joe","steam_id":76561198278185182,"connected_time":597000000000,"state":"active","ping":71},{"user_id":524,"name":"lil hog","steam_id":76561199230929836,"connected_time":7117000000000,"state":"active","ping":81},{"user_id":668,"name":"ÁÅ´Êòü | Marsy","steam_id":76561198014979892,"connected_time":560000000000,"state":"active","ping":68},{"user_id":458,"name":"melancholy","steam_id":76561198024301465,"connected_time":14078000000000,"state":"active","ping":46},{"user_id":651,"name":"ash","steam_id":76561198127890645,"connected_time":1722000000000,"state":"active","ping":65},{"user_id":521,"name":"ATL1 | Pango","steam_id":76561198069811545,"connected_time":7249000000000,"state":"active","ping":56},{"user_id":638,"name":"com lag","steam_id":76561198019019392,"connected_time":4389000000000,"state":"active","ping":63},{"user_id":652,"name":"Im High","steam_id":76561198049954886,"connected_time":1717000000000,"state":"active","ping":76},{"user_id":641,"name":"fortnite.jimmy.2014","steam_id":76561199177672325,"connected_time":3004000000000,"state":"active","ping":46},{"user_id":636,"name":"LadyAnon","steam_id":76561198014709418,"connected_time":4405000000000,"state":"active","ping":59},{"user_id":659,"name":"MyamE","steam_id":76561198133278462,"connected_time":597000000000,"state":"active","ping":74},{"user_id":660,"name":"squaggles!","steam_id":76561197994995011,"connected_time":597000000000,"state":"active","ping":38},{"user_id":673,"name":"FUSION","steam_id":76561197972659738,"connected_time":252000000000,"state":"active","ping":60},{"user_id":674,"name":"chexo4","steam_id":76561198150532531,"connected_time":244000000000,"state":"active","ping":55},{"user_id":654,"name":"Onyx","steam_id":76561198275349640,"connected_time":1534000000000,"state":"active","ping":105},{"user_id":665,"name":"Ground Control to Majortom","steam_id":76561198065589126,"connected_time":571000000000,"state":"active","ping":77},{"user_id":666,"name":"ATL1 | Tominate","steam_id":76561198068164364,"connected_time":570000000000,"state":"active","ping":55}]},{"server_id":400,"name":"Uncletopia | Atlanta | 3 | Community","name_short":"atl-3","host":"atl-1.us.uncletopia.com","port":27035,"enabled":true,"region":"us-east","cc":"us","latitude":33.753746,"longitude":-84.38633,"reserved":0,"last_update":"0001-01-01T00:00:00Z","name_a2s":"Uncletopia | Atlanta | 3 | Community","protocol":17,"map":"workshop/koth_kemptown_rc1.ugc767410655","folder":"tf","game":"Team Fortress","app_id":440,"player_count":11,"max_players":24,"Bots":0,"server_type":"Dedicated","server_os":"Linux","password":true,"vac":true,"version":"7757534","steam_id":85568392924515187,"keywords":["cp","nocrits","nodmgspread","uncletopia"],"game_id":440,"stv_port":27036,"stv_name":"Uncletopia | Atlanta | 3 | Community | STV","players":[{"user_id":25,"name":"üî•üêá","steam_id":76561198357456014,"connected_time":4469000000000,"state":"active","ping":90},{"user_id":26,"name":"Coach McFish","steam_id":76561198210456405,"connected_time":4214000000000,"state":"active","ping":100},{"user_id":34,"name":"thats me in the corner","steam_id":76561199416694935,"connected_time":1962000000000,"state":"active","ping":71},{"user_id":49,"name":"Cogsby","steam_id":76561199109102841,"connected_time":178000000000,"state":"spawning","ping":180},{"user_id":38,"name":"CanofCancer","steam_id":76561199119723489,"connected_time":1124000000000,"state":"active","ping":85},{"user_id":33,"name":"Its Just A Burning Memory","steam_id":76561199367535530,"connected_time":2130000000000,"state":"active","ping":116},{"user_id":40,"name":"OtherJake","steam_id":76561199097944589,"connected_time":963000000000,"state":"active","ping":112},{"user_id":42,"name":"engie","steam_id":76561199229629045,"connected_time":778000000000,"state":"active","ping":116},{"user_id":43,"name":"Rin \"Hindwing\" Redtail","steam_id":76561199074865638,"connected_time":745000000000,"state":"active","ping":58},{"user_id":50,"name":"pablo","steam_id":76561199190247198,"connected_time":4000000000,"state":"spawning","ping":127},{"user_id":47,"name":"EMP","steam_id":76561198874125258,"connected_time":400000000000,"state":"active","ping":85}]},{"server_id":401,"name":"Uncletopia | Atlanta | 4 | No Payload","name_short":"atl-4","host":"atl-1.us.uncletopia.com","port":27045,"enabled":true,"region":"us-east","cc":"us","latitude":33.753746,"longitude":-84.38633,"reserved":0,"last_update":"0001-01-01T00:00:00Z","name_a2s":"","protocol":0,"map":"","folder":"","game":"","app_id":0,"player_count":0,"max_players":0,"Bots":0,"server_type":"","server_os":"","password":false,"vac":false,"version":"","steam_id":0,"keywords":null,"game_id":0,"stv_port":0,"stv_name":"","players":null},{"server_id":2,"name":"Uncletopia | Chicago | 1 | All Maps","name_short":"chi-1","host":"chi-1.us.uncletopia.com","port":27015,"enabled":true,"region":"us-central","cc":"us","latitude":41.881832,"longitude":-87.62318,"reserved":0,"last_update":"0001-01-01T00:00:00Z","name_a2s":"Uncletopia | Chicago | 1 | All Maps","protocol":17,"map":"cp_dustbowl","folder":"tf","game":"Team Fortress","app_id":440,"player_count":24,"max_players":24,"Bots":0,"server_type":"Dedicated","server_os":"Linux","password":true,"vac":true,"version":"7757534","steam_id":85568392924469984,"keywords":["cp","nocrits","nodmgspread","uncletopia"],"game_id":440,"stv_port":27016,"stv_name":"Uncletopia | Chicago | 1 | All Maps | STV","players":[{"user_id":422,"name":"Astoriae!","steam_id":76561199090168858,"connected_time":1737000000000,"state":"active","ping":70},{"user_id":410,"name":"ly","steam_id":76561198062922146,"connected_time":2810000000000,"state":"active","ping":74},{"user_id":427,"name":"Unit-3650","steam_id":76561199251014473,"connected_time":903000000000,"state":"active","ping":57},{"user_id":358,"name":"cooltool21","steam_id":76561197996817585,"connected_time":6187000000000,"state":"active","ping":75},{"user_id":400,"name":"quatelhelix","steam_id":76561198066708113,"connected_time":3360000000000,"state":"active","ping":69},{"user_id":388,"name":"RedSock","steam_id":76561198161243404,"connected_time":4345000000000,"state":"active","ping":45},{"user_id":264,"name":"Edited Atom","steam_id":76561198210844957,"connected_time":14353000000000,"state":"active","ping":76},{"user_id":428,"name":"phiend","steam_id":76561198838516248,"connected_time":895000000000,"state":"active","ping":77},{"user_id":412,"name":"Peri","steam_id":76561198255311543,"connected_time":2791000000000,"state":"active","ping":66},{"user_id":418,"name":"[UHS] K24A4 2.4","steam_id":76561199072970627,"connected_time":1863000000000,"state":"active","ping":45},{"user_id":431,"name":"boob","steam_id":76561198117256239,"connected_time":860000000000,"state":"active","ping":53},{"user_id":378,"name":"Dunsparce","steam_id":76561198189176634,"connected_time":4541000000000,"state":"active","ping":86},{"user_id":405,"name":"A Very Fast And Sideways Subaru","steam_id":76561198091653708,"connected_time":2831000000000,"state":"active","ping":56},{"user_id":426,"name":"Mechilly","steam_id":76561198310272586,"connected_time":909000000000,"state":"active","ping":63},{"user_id":423,"name":"Pixelloader","steam_id":76561198218618819,"connected_time":1306000000000,"state":"active","ping":67},{"user_id":429,"name":"Mitchu The Bidness Man","steam_id":76561198102494381,"connected_time":894000000000,"state":"active","ping":70},{"user_id":430,"name":"Acehay14","steam_id":76561198052373291,"connected_time":891000000000,"state":"active","ping":61},{"user_id":414,"name":"Bullwinkle J. Moose","steam_id":76561198075977196,"connected_time":2772000000000,"state":"active","ping":70},{"user_id":387,"name":"‚ù§ BongBong ‚ù§","steam_id":76561198190288063,"connected_time":4374000000000,"state":"active","ping":84},{"user_id":425,"name":"Funkadilla","steam_id":76561198420639264,"connected_time":1258000000000,"state":"active","ping":82},{"user_id":417,"name":"mario,","steam_id":76561198068947832,"connected_time":2550000000000,"state":"active","ping":75},{"user_id":416,"name":"Man Time","steam_id":76561198151147218,"connected_time":2762000000000,"state":"active","ping":87},{"user_id":420,"name":"vv","steam_id":76561198134813102,"connected_time":1802000000000,"state":"active","ping":60},{"user_id":384,"name":"LunarStorm","steam_id":76561198321826743,"connected_time":4519000000000,"state":"active","ping":70}]},{"server_id":106,"name":"Uncletopia | Chicago | 2 | All Maps","name_short":"chi-2","host":"chi-1.us.uncletopia.com","port":27025,"enabled":true,"region":"us-central","cc":"us","latitude":41.881832,"longitude":-87.62318,"reserved":0,"last_update":"0001-01-01T00:00:00Z","name_a2s":"Uncletopia | Chicago | 2 | All Maps","protocol":17,"map":"koth_cascade","folder":"tf","game":"Team Fortress","app_id":440,"player_count":17,"max_players":24,"Bots":0,"server_type":"Dedicated","server_os":"Linux","password":true,"vac":true,"version":"7757534","steam_id":85568392924469985,"keywords":["cp","nocrits","nodmgspread","uncletopia"],"game_id":440,"stv_port":27026,"stv_name":"Uncletopia | Chicago | 2 | All Maps | STV","players":[{"user_id":124,"name":"Pootis","steam_id":76561198231561020,"connected_time":248000000000,"state":"active","ping":75},{"user_id":108,"name":"ButterScotch","steam_id":76561199389314894,"connected_time":1307000000000,"state":"active","ping":70},{"user_id":127,"name":"Tundra","steam_id":76561199061374394,"connected_time":203000000000,"state":"active","ping":83},{"user_id":114,"name":"Jon Snuh","steam_id":76561198075298635,"connected_time":370000000000,"state":"active","ping":46},{"user_id":130,"name":"AGagagaga","steam_id":76561199008585183,"connected_time":77000000000,"state":"active","ping":71},{"user_id":40,"name":"Hard Soap","steam_id":76561198267905614,"connected_time":4357000000000,"state":"active","ping":89},{"user_id":44,"name":"extinct111","steam_id":76561199013696367,"connected_time":4249000000000,"state":"active","ping":63},{"user_id":116,"name":"Enron Hubbard","steam_id":76561198012951411,"connected_time":347000000000,"state":"active","ping":52},{"user_id":84,"name":"Aster","steam_id":76561198037920420,"connected_time":2589000000000,"state":"active","ping":84},{"user_id":88,"name":"TheHarmacist","steam_id":76561198068249096,"connected_time":2381000000000,"state":"active","ping":46},{"user_id":118,"name":"All Tomorrow's Parties","steam_id":76561197995936212,"connected_time":341000000000,"state":"active","ping":44},{"user_id":119,"name":"Zahara","steam_id":76561199246754425,"connected_time":321000000000,"state":"active","ping":156},{"user_id":120,"name":"Unwavering Flavor","steam_id":76561198053306065,"connected_time":317000000000,"state":"active","ping":71},{"user_id":104,"name":"dark red","steam_id":76561198868600487,"connected_time":1733000000000,"state":"active","ping":113},{"user_id":126,"name":"MotherDucker","steam_id":76561198257619240,"connected_time":215000000000,"state":"active","ping":63},{"user_id":128,"name":"lost in spaaaaace","steam_id":76561199085974120,"connected_time":196000000000,"state":"active","ping":63},{"user_id":129,"name":"The local hobo","steam_id":76561198289650060,"connected_time":172000000000,"state":"active","ping":84}]},{"server_id":402,"name":"Uncletopia | Chicago | 3 | All Maps","name_short":"chi-3","host":"chi-1.us.uncletopia.com","port":27035,"enabled":true,"region":"us-central","cc":"us","latitude":41.881832,"longitude":-87.62318,"reserved":0,"last_update":"0001-01-01T00:00:00Z","name_a2s":"Uncletopia | Chicago | 3 | All Maps","protocol":17,"map":"pl_frontier_final","folder":"tf","game":"Team Fortress","app_id":440,"player_count":18,"max_players":24,"Bots":0,"server_type":"Dedicated","server_os":"Linux","password":true,"vac":true,"version":"7757534","steam_id":85568392924515191,"keywords":["nocrits","nodmgspread","payload","uncletopia"],"game_id":440,"stv_port":27036,"stv_name":"Uncletopia | Chicago | 3 | All Maps | STV","players":[{"user_id":428,"name":"ALIVE","steam_id":76561198127149121,"connected_time":261000000000,"state":"active","ping":76},{"user_id":395,"name":"Nefy","steam_id":76561198030017316,"connected_time":3951000000000,"state":"active","ping":85},{"user_id":429,"name":"Glar","steam_id":76561198341907150,"connected_time":261000000000,"state":"active","ping":85},{"user_id":431,"name":"Jimmy_2003","steam_id":76561199097791017,"connected_time":72000000000,"state":"active","ping":126},{"user_id":425,"name":"Jeugh","steam_id":76561198073498865,"connected_time":631000000000,"state":"active","ping":85},{"user_id":426,"name":"squishy","steam_id":76561198015034116,"connected_time":534000000000,"state":"active","ping":45},{"user_id":432,"name":"What The Hell Fried Chicken","steam_id":76561198117434605,"connected_time":19000000000,"state":"active","ping":210},{"user_id":423,"name":"JetZ","steam_id":76561199122488957,"connected_time":913000000000,"state":"active","ping":60},{"user_id":397,"name":"Ejaculation Zach","steam_id":76561198203765200,"connected_time":3488000000000,"state":"active","ping":57},{"user_id":421,"name":"Voodo133","steam_id":76561198042670351,"connected_time":966000000000,"state":"active","ping":85},{"user_id":409,"name":"ethan","steam_id":76561198132637556,"connected_time":3023000000000,"state":"active","ping":49},{"user_id":284,"name":"the lesbianist pyroshark","steam_id":76561198374227766,"connected_time":11808000000000,"state":"active","ping":69},{"user_id":408,"name":"bobby peanstalk","steam_id":76561198040495463,"connected_time":3027000000000,"state":"active","ping":61},{"user_id":404,"name":"Deal yo","steam_id":76561198282395338,"connected_time":3277000000000,"state":"active","ping":67},{"user_id":405,"name":"Ka Xin Yu","steam_id":76561198057116531,"connected_time":3270000000000,"state":"active","ping":59},{"user_id":422,"name":"yuki","steam_id":76561198028645098,"connected_time":955000000000,"state":"active","ping":84},{"user_id":406,"name":"creepycrawler","steam_id":76561198352016831,"connected_time":3256000000000,"state":"active","ping":61},{"user_id":415,"name":"pug","steam_id":76561198186400630,"connected_time":2160000000000,"state":"active","ping":48}]},{"server_id":403,"name":"Uncletopia | Chicago | 4 | All Maps","name_short":"chi-4","host":"chi-1.us.uncletopia.com","port":27045,"enabled":true,"region":"us-central","cc":"us","latitude":41.881832,"longitude":-87.62318,"reserved":0,"last_update":"0001-01-01T00:00:00Z","name_a2s":"Uncletopia | Chicago | 4 | All Maps","protocol":17,"map":"pl_borneo","folder":"tf","game":"Team Fortress","app_id":440,"player_count":22,"max_players":24,"Bots":0,"server_type":"Dedicated","server_os":"Linux","password":true,"vac":true,"version":"7757534","steam_id":85568392924515193,"keywords":["nocrits","nodmgspread","payload","uncletopia"],"game_id":440,"stv_port":27046,"stv_name":"Uncletopia | Chicago | 4 | All Maps | STV","players":[{"user_id":845,"name":"theancientnut","steam_id":76561199396708880,"connected_time":4507000000000,"state":"active","ping":58},{"user_id":850,"name":"GooniOoni","steam_id":76561198102154561,"connected_time":3849000000000,"state":"active","ping":43},{"user_id":851,"name":"TheConchinator","steam_id":76561199388149092,"connected_time":3843000000000,"state":"active","ping":55},{"user_id":885,"name":"kivee","steam_id":76561198838223023,"connected_time":793000000000,"state":"active","ping":56},{"user_id":882,"name":"GrumpyGrampaKoala","steam_id":76561198020441036,"connected_time":1574000000000,"state":"active","ping":87},{"user_id":886,"name":"momb","steam_id":76561198142234038,"connected_time":704000000000,"state":"active","ping":85},{"user_id":861,"name":"reknud","steam_id":76561198066114874,"connected_time":3408000000000,"state":"active","ping":105},{"user_id":676,"name":"Temujin","steam_id":76561198030936583,"connected_time":14495000000000,"state":"active","ping":45},{"user_id":818,"name":"Lost (15)","steam_id":76561198093713427,"connected_time":6013000000000,"state":"active","ping":60},{"user_id":880,"name":"self sufficient kitten","steam_id":76561197960592612,"connected_time":1807000000000,"state":"active","ping":93},{"user_id":893,"name":"Black Grouse","steam_id":76561198278680032,"connected_time":49000000000,"state":"spawning","ping":100},{"user_id":890,"name":"GreekGoat_Coffee","steam_id":76561198129331088,"connected_time":159000000000,"state":"active","ping":44},{"user_id":892,"name":"swan","steam_id":76561198012569200,"connected_time":69000000000,"state":"active","ping":74},{"user_id":883,"name":"goober","steam_id":76561199195104977,"connected_time":1562000000000,"state":"active","ping":72},{"user_id":884,"name":"fried chicken","steam_id":76561198167411287,"connected_time":1253000000000,"state":"active","ping":57},{"user_id":852,"name":"‚ù§ Ashley ‚ù§","steam_id":76561198056428303,"connected_time":3773000000000,"state":"active","ping":100},{"user_id":878,"name":"Dr_Spek","steam_id":76561198128667701,"connected_time":1993000000000,"state":"active","ping":58},{"user_id":888,"name":"leumas","steam_id":76561198240408540,"connected_time":411000000000,"state":"active","ping":58},{"user_id":866,"name":"benedro05","steam_id":76561198269369429,"connected_time":2480000000000,"state":"active","ping":55},{"user_id":889,"name":"emily","steam_id":76561198051872256,"connected_time":401000000000,"state":"active","ping":61},{"user_id":867,"name":"fa√ßade","steam_id":76561199157009256,"connected_time":2480000000000,"state":"active","ping":90},{"user_id":857,"name":"s","steam_id":76561198149443710,"connected_time":3691000000000,"state":"active","ping":105}]},{"server_id":36,"name":"Uncletopia | Chicago | 5 | All Maps","name_short":"chi-5","host":"chi-2.us.uncletopia.com","port":27015,"enabled":true,"region":"us-central","cc":"us","latitude":41.881832,"longitude":-87.62318,"reserved":0,"last_update":"0001-01-01T00:00:00Z","name_a2s":"Uncletopia | Chicago | 5 | All Maps","protocol":17,"map":"pl_upward","folder":"tf","game":"Team Fortress","app_id":440,"player_count":23,"max_players":24,"Bots":0,"server_type":"Dedicated","server_os":"Linux","password":true,"vac":true,"version":"7757534","steam_id":85568392924866362,"keywords":["nocrits","nodmgspread","payload","uncletopia"],"game_id":440,"stv_port":27016,"stv_name":"Uncletopia | Chicago | 5 | All Maps | STV","players":[{"user_id":197,"name":"Mysteryred12","steam_id":76561199206772814,"connected_time":719000000000,"state":"active","ping":94},{"user_id":171,"name":"ray (the based god)","steam_id":76561198311984941,"connected_time":2055000000000,"state":"active","ping":62},{"user_id":172,"name":"Genius Meme","steam_id":76561198162911254,"connected_time":2029000000000,"state":"active","ping":112},{"user_id":202,"name":"pathulhu","steam_id":76561198323941614,"connected_time":170000000000,"state":"active","ping":60},{"user_id":188,"name":"PAC-MATH","steam_id":76561198327729748,"connected_time":1481000000000,"state":"active","ping":60},{"user_id":173,"name":"Doc Romie","steam_id":76561198953778878,"connected_time":1980000000000,"state":"active","ping":61},{"user_id":187,"name":"Unlock The Shock (She/They)","steam_id":76561198823616667,"connected_time":1544000000000,"state":"active","ping":84},{"user_id":201,"name":"Haveltherock27","steam_id":76561199219844391,"connected_time":228000000000,"state":"active","ping":76},{"user_id":203,"name":"HAT-WEARING‚Ñ¢ Maggot Gamer Cat","steam_id":76561197973992705,"connected_time":126000000000,"state":"active","ping":108},{"user_id":199,"name":"‚ùãPfc. BFS","steam_id":76561198326359972,"connected_time":589000000000,"state":"active","ping":80},{"user_id":204,"name":"[PINGU‚Ñ¢] Tiny Tuna","steam_id":76561198193611579,"connected_time":115000000000,"state":"active","ping":86},{"user_id":205,"name":"Keyhaha","steam_id":76561198075001658,"connected_time":77000000000,"state":"active","ping":75},{"user_id":200,"name":"CrystalClear","steam_id":76561198344276579,"connected_time":587000000000,"state":"active","ping":102},{"user_id":209,"name":"Pixeled","steam_id":76561198088917077,"connected_time":46000000000,"state":"active","ping":85},{"user_id":180,"name":"NGsterson","steam_id":76561198162108154,"connected_time":1744000000000,"state":"active","ping":92},{"user_id":181,"name":"AverageWaifuEnjoyer","steam_id":76561198237127898,"connected_time":1709000000000,"state":"active","ping":98},{"user_id":206,"name":"Apple Zoo","steam_id":76561198013732450,"connected_time":74000000000,"state":"active","ping":52},{"user_id":207,"name":"jolo","steam_id":76561198042831480,"connected_time":74000000000,"state":"active","ping":64},{"user_id":185,"name":"LumpSucker","steam_id":76561198072498167,"connected_time":1644000000000,"state":"active","ping":104},{"user_id":198,"name":"‚ä∞Aero‚ä±","steam_id":76561198084648457,"connected_time":691000000000,"state":"active","ping":62},{"user_id":168,"name":"canakblasteran","steam_id":76561199472518822,"connected_time":2126000000000,"state":"active","ping":101},{"user_id":196,"name":"m yfrogs","steam_id":76561198371149432,"connected_time":1193000000000,"state":"active","ping":51},{"user_id":208,"name":"prdxninja","steam_id":76561198170081774,"connected_time":54000000000,"state":"active","ping":45}]},{"server_id":37,"name":"Uncletopia | Chicago | 6 | All Maps","name_short":"chi-6","host":"chi-2.us.uncletopia.com","port":27025,"enabled":true,"region":"us-central","cc":"us","latitude":41.881832,"longitude":-87.62318,"reserved":0,"last_update":"0001-01-01T00:00:00Z","name_a2s":"Uncletopia | Chicago | 6 | All Maps","protocol":17,"map":"cp_gorge","folder":"tf","game":"Team Fortress","app_id":440,"player_count":24,"max_players":24,"Bots":0,"server_type":"Dedicated","server_os":"Linux","password":true,"vac":true,"version":"7757534","steam_id":85568392924866363,"keywords":["cp","nocrits","nodmgspread","uncletopia"],"game_id":440,"stv_port":27026,"stv_name":"Uncletopia | Chicago | 6 | All Maps | STV","players":[{"user_id":233,"name":"boppetson","steam_id":76561198073529045,"connected_time":6998000000000,"state":"active","ping":65},{"user_id":329,"name":"gameing","steam_id":76561198115552623,"connected_time":1082000000000,"state":"active","ping":58},{"user_id":325,"name":"Dr. Dick","steam_id":76561198138011922,"connected_time":1598000000000,"state":"active","ping":72},{"user_id":338,"name":"dansal","steam_id":76561197997042510,"connected_time":69000000000,"state":"active","ping":88},{"user_id":326,"name":"threethree","steam_id":76561198177354155,"connected_time":1587000000000,"state":"active","ping":45},{"user_id":218,"name":"Zero","steam_id":76561199383267408,"connected_time":8143000000000,"state":"active","ping":79},{"user_id":330,"name":"the doo doo man","steam_id":76561198057076267,"connected_time":1070000000000,"state":"active","ping":75},{"user_id":300,"name":"DeckofDragons","steam_id":76561198057398213,"connected_time":3140000000000,"state":"active","ping":77},{"user_id":118,"name":"Billybob7712","steam_id":76561199000291076,"connected_time":15350000000000,"state":"active","ping":106},{"user_id":312,"name":"hehehe ha","steam_id":76561198159823948,"connected_time":2575000000000,"state":"active","ping":53},{"user_id":331,"name":"GamerMan","steam_id":76561199058616824,"connected_time":1065000000000,"state":"active","ping":71},{"user_id":332,"name":"vieodgaems","steam_id":76561198025295263,"connected_time":1050000000000,"state":"active","ping":81},{"user_id":337,"name":"mbappe","steam_id":76561198987579589,"connected_time":104000000000,"state":"active","ping":53},{"user_id":327,"name":"CopperBox","steam_id":76561198068217248,"connected_time":1585000000000,"state":"active","ping":96},{"user_id":253,"name":"papi Chulo","steam_id":76561198126274984,"connected_time":5717000000000,"state":"active","ping":137},{"user_id":265,"name":"Ringo x Seiran","steam_id":76561198357437908,"connected_time":5237000000000,"state":"active","ping":64},{"user_id":334,"name":"AkimboAoki","steam_id":76561198158323058,"connected_time":1037000000000,"state":"active","ping":91},{"user_id":267,"name":"gaming elliptical","steam_id":76561198013456569,"connected_time":5225000000000,"state":"active","ping":48},{"user_id":335,"name":"pyro main kinda","steam_id":76561199278636642,"connected_time":1020000000000,"state":"active","ping":84},{"user_id":324,"name":"Dill","steam_id":76561197995325198,"connected_time":1703000000000,"state":"active","ping":64},{"user_id":336,"name":"demoknight tf2","steam_id":76561198070393998,"connected_time":1017000000000,"state":"active","ping":63},{"user_id":328,"name":"Adalwolfa","steam_id":76561198194671218,"connected_time":1469000000000,"state":"active","ping":56},{"user_id":281,"name":"thecal","steam_id":76561198307893384,"connected_time":4204000000000,"state":"active","ping":52},{"user_id":320,"name":"i like minecraft","steam_id":76561198313896589,"connected_time":2062000000000,"state":"active","ping":168}]},{"server_id":38,"name":"Uncletopia | Chicago | 7 | Stopwatch Beta","name_short":"chi-7","host":"chi-2.us.uncletopia.com","port":27035,"enabled":true,"region":"us-central","cc":"us","latitude":41.881832,"longitude":-87.62318,"reserved":0,"last_update":"0001-01-01T00:00:00Z","name_a2s":"Uncletopia | Chicago | 7 | Stopwatch Beta","protocol":17,"map":"koth_viaduct","folder":"tf","game":"Team Fortress","app_id":440,"player_count":0,"max_players":24,"Bots":0,"server_type":"Dedicated","server_os":"Linux","password":true,"vac":true,"version":"7757534","steam_id":85568392924866364,"keywords":["cp","nocrits","nodmgspread","uncletopia"],"game_id":440,"stv_port":27036,"stv_name":"Uncletopia | Chicago | 7 | Stopwatch Beta | STV","players":null},{"server_id":39,"name":"Uncletopia | Chicago | 8 | Community","name_short":"chi-8","host":"chi-2.us.uncletopia.com","port":27045,"enabled":true,"region":"us-central","cc":"us","latitude":41.881832,"longitude":-87.62318,"reserved":0,"last_update":"0001-01-01T00:00:00Z","name_a2s":"Uncletopia | Chicago | 8 | Community","protocol":17,"map":"workshop/pl_cashworks_final1.ugc2904065412","folder":"tf","game":"Team Fortress","app_id":440,"player_count":0,"max_players":24,"Bots":0,"server_type":"Dedicated","server_os":"Linux","password":true,"vac":true,"version":"7757534","steam_id":85568392924866365,"keywords":["nocrits","nodmgspread","payload","uncletopia"],"game_id":440,"stv_port":27046,"stv_name":"Uncletopia | Chicago | 8 | Community | STV","players":null},{"server_id":8,"name":"Uncletopia | Dallas | 1 | All Maps","name_short":"dal-1","host":"dal-1.us.uncletopia.com","port":27015,"enabled":true,"region":"us-central","cc":"us","latitude":32.779167,"longitude":-96.80889,"reserved":0,"last_update":"0001-01-01T00:00:00Z","name_a2s":"Uncletopia | Dallas | 1 | All Maps","protocol":17,"map":"pl_barnblitz","folder":"tf","game":"Team Fortress","app_id":440,"player_count":24,"max_players":24,"Bots":0,"server_type":"Dedicated","server_os":"Linux","password":true,"vac":true,"version":"7757534","steam_id":85568392924469986,"keywords":["nocrits","nodmgspread","payload","uncletopia"],"game_id":440,"stv_port":27016,"stv_name":"Uncletopia | Dallas | 1 | All Maps | STV","players":[{"user_id":565,"name":"Emperor Dankatine","steam_id":76561198044741086,"connected_time":1475000000000,"state":"active","ping":79},{"user_id":566,"name":"VampWolfDoll (She/Her)","steam_id":76561198102301491,"connected_time":1400000000000,"state":"active","ping":99},{"user_id":579,"name":"Stoopnagle","steam_id":76561198011942560,"connected_time":178000000000,"state":"active","ping":94},{"user_id":513,"name":"Flubdy_","steam_id":76561198073338521,"connected_time":6153000000000,"state":"active","ping":56},{"user_id":564,"name":"Ryo31337","steam_id":76561198063083553,"connected_time":1745000000000,"state":"active","ping":54},{"user_id":561,"name":"AttackCommander","steam_id":76561198111522679,"connected_time":1947000000000,"state":"active","ping":60},{"user_id":572,"name":"enter","steam_id":76561198127525888,"connected_time":957000000000,"state":"active","ping":56},{"user_id":577,"name":"Twixtwolf | HM |","steam_id":76561198873746991,"connected_time":193000000000,"state":"active","ping":80},{"user_id":489,"name":"Burny Sanders","steam_id":76561197961879048,"connected_time":7514000000000,"state":"active","ping":39},{"user_id":573,"name":"Red","steam_id":76561198031865869,"connected_time":844000000000,"state":"active","ping":66},{"user_id":576,"name":"large baja blast","steam_id":76561198101971132,"connected_time":597000000000,"state":"active","ping":55},{"user_id":583,"name":"Comic","steam_id":76561197979834355,"connected_time":86000000000,"state":"active","ping":94},{"user_id":574,"name":"The Cop Fentanyl Debuff","steam_id":76561197991817974,"connected_time":833000000000,"state":"active","ping":93},{"user_id":578,"name":".-.","steam_id":76561198820617005,"connected_time":185000000000,"state":"active","ping":115},{"user_id":545,"name":"ButterNutz","steam_id":76561198122404516,"connected_time":3465000000000,"state":"active","ping":89},{"user_id":568,"name":"Jared In Target","steam_id":76561198372449718,"connected_time":1331000000000,"state":"active","ping":56},{"user_id":581,"name":"Legit_Jaxer","steam_id":76561198172234053,"connected_time":143000000000,"state":"active","ping":107},{"user_id":461,"name":"[√òWQJ√ò]chubacaalatake","steam_id":76561198136201697,"connected_time":9829000000000,"state":"active","ping":121},{"user_id":512,"name":"beep boop","steam_id":76561198414336279,"connected_time":6187000000000,"state":"active","ping":61},{"user_id":551,"name":"BurR","steam_id":76561198055431367,"connected_time":2621000000000,"state":"active","ping":89},{"user_id":559,"name":"Hvit","steam_id":76561198091594259,"connected_time":2193000000000,"state":"active","ping":69},{"user_id":582,"name":"Yuurg","steam_id":76561198057035968,"connected_time":137000000000,"state":"active","ping":96},{"user_id":585,"name":"Lynx181","steam_id":76561198090949585,"connected_time":27000000000,"state":"spawning","ping":1857},{"user_id":531,"name":"Skinny Pete","steam_id":76561198801608576,"connected_time":5557000000000,"state":"active","ping":56}]},{"server_id":108,"name":"Uncletopia | Dallas | 2 | All Maps","name_short":"dal-2","host":"dal-1.us.uncletopia.com","port":27025,"enabled":true,"region":"us-central","cc":"us","latitude":32.779167,"longitude":-96.80889,"reserved":0,"last_update":"0001-01-01T00:00:00Z","name_a2s":"Uncletopia | Dallas | 2 | All Maps","protocol":17,"map":"pl_frontier_final","folder":"tf","game":"Team Fortress","app_id":440,"player_count":24,"max_players":24,"Bots":0,"server_type":"Dedicated","server_os":"Linux","password":true,"vac":true,"version":"7757534","steam_id":85568392924469988,"keywords":["nocrits","nodmgspread","payload","uncletopia"],"game_id":440,"stv_port":27026,"stv_name":"Uncletopia | Dallas | 2 | All Maps | STV","players":[{"user_id":376,"name":"SlooperSoaker","steam_id":76561198121050895,"connected_time":288000000000,"state":"active","ping":68},{"user_id":377,"name":"Pumpkin","steam_id":76561198122135517,"connected_time":255000000000,"state":"active","ping":101},{"user_id":334,"name":"Psych03","steam_id":76561198061753667,"connected_time":2941000000000,"state":"active","ping":68},{"user_id":330,"name":"Capt. Grins","steam_id":76561198032663494,"connected_time":2969000000000,"state":"active","ping":50},{"user_id":358,"name":"Pintinkio","steam_id":76561198061714136,"connected_time":1283000000000,"state":"active","ping":84},{"user_id":359,"name":"Chapter Master","steam_id":76561198799698323,"connected_time":1259000000000,"state":"active","ping":86},{"user_id":344,"name":"plink","steam_id":76561198057829889,"connected_time":2804000000000,"state":"active","ping":106},{"user_id":373,"name":"[DATS‚û°] Sugar Meowth","steam_id":76561197995251793,"connected_time":945000000000,"state":"active","ping":90},{"user_id":348,"name":"Dicksuck Mcgee","steam_id":76561198028577159,"connected_time":2060000000000,"state":"active","ping":91},{"user_id":354,"name":"AlphonsetheFish","steam_id":76561198038020208,"connected_time":1528000000000,"state":"active","ping":98},{"user_id":346,"name":"lup","steam_id":76561198038991189,"connected_time":2333000000000,"state":"active","ping":65},{"user_id":379,"name":"Rudy","steam_id":76561198013456828,"connected_time":68000000000,"state":"active","ping":86},{"user_id":362,"name":"Paige","steam_id":76561198809490655,"connected_time":1243000000000,"state":"active","ping":159},{"user_id":365,"name":"A Fruit","steam_id":76561198951830050,"connected_time":1237000000000,"state":"active","ping":45},{"user_id":338,"name":"hideyochest","steam_id":76561198090366059,"connected_time":2918000000000,"state":"active","ping":43},{"user_id":369,"name":"The Super Mario Bros. Movie","steam_id":76561198871692156,"connected_time":1085000000000,"state":"active","ping":102},{"user_id":355,"name":"2EggsScrambled","steam_id":76561198052364159,"connected_time":1398000000000,"state":"active","ping":132},{"user_id":356,"name":"MLEEEH","steam_id":76561198340539972,"connected_time":1382000000000,"state":"active","ping":102},{"user_id":364,"name":"LightBulbGlue #SaveTF2","steam_id":76561198329573529,"connected_time":1239000000000,"state":"active","ping":89},{"user_id":311,"name":"triangleman","steam_id":76561198972733542,"connected_time":4651000000000,"state":"active","ping":82},{"user_id":366,"name":"Gungus Dingaling","steam_id":76561198018270898,"connected_time":1232000000000,"state":"active","ping":57},{"user_id":368,"name":"Huge eevee fan","steam_id":76561198128057732,"connected_time":1130000000000,"state":"active","ping":89},{"user_id":375,"name":"Tiko #SaveTF2","steam_id":76561199066864469,"connected_time":503000000000,"state":"active","ping":62},{"user_id":378,"name":"Dragons\u003eEverything","steam_id":76561199140784635,"connected_time":191000000000,"state":"active","ping":61}]},{"server_id":5,"name":"Uncletopia | Frankfurt | 1 | All Maps","name_short":"frk-1","host":"frk-1.de.uncletopia.com","port":27015,"enabled":true,"region":"eu","cc":"de","latitude":50.110924,"longitude":8.682127,"reserved":0,"last_update":"0001-01-01T00:00:00Z","name_a2s":"Uncletopia | Frankfurt | 1 | All Maps","protocol":17,"map":"koth_viaduct","folder":"tf","game":"Team Fortress","app_id":440,"player_count":0,"max_players":24,"Bots":0,"server_type":"Dedicated","server_os":"Linux","password":true,"vac":true,"version":"7757534","steam_id":85568392924469989,"keywords":["cp","nocrits","nodmgspread","uncletopia"],"game_id":440,"stv_port":27016,"stv_name":"Uncletopia | Frankfurt | 1 | All Maps | STV","players":null},{"server_id":110,"name":"Uncletopia | Frankfurt | 2 | All Maps","name_short":"frk-2","host":"frk-1.de.uncletopia.com","port":27025,"enabled":true,"region":"eu","cc":"de","latitude":50.110924,"longitude":8.682127,"reserved":0,"last_update":"0001-01-01T00:00:00Z","name_a2s":"Uncletopia | Frankfurt | 2 | All Maps","protocol":17,"map":"cp_altitude","folder":"tf","game":"Team Fortress","app_id":440,"player_count":0,"max_players":24,"Bots":0,"server_type":"Dedicated","server_os":"Linux","password":true,"vac":true,"version":"7757534","steam_id":85568392924469990,"keywords":["cp","nocrits","nodmgspread","uncletopia"],"game_id":440,"stv_port":27026,"stv_name":"Uncletopia | Frankfurt | 2 | All Maps | STV","players":null},{"server_id":308,"name":"Uncletopia | Frankfurt | 3 | All Maps","name_short":"frk-3","host":"frk-1.de.uncletopia.com","port":27035,"enabled":true,"region":"eu","cc":"de","latitude":50.110924,"longitude":8.682127,"reserved":0,"last_update":"0001-01-01T00:00:00Z","name_a2s":"Uncletopia | Frankfurt | 3 | All Maps","protocol":17,"map":"koth_lakeside_final","folder":"tf","game":"Team Fortress","app_id":440,"player_count":2,"max_players":24,"Bots":0,"server_type":"Dedicated","server_os":"Linux","password":true,"vac":true,"version":"7757534","steam_id":85568392924504274,"keywords":["cp","nocrits","nodmgspread","uncletopia"],"game_id":440,"stv_port":27036,"stv_name":"Uncletopia | Frankfurt | 3 | All Maps | STV","players":[{"user_id":675,"name":"Truegr","steam_id":76561198811912339,"connected_time":7165000000000,"state":"active","ping":61},{"user_id":665,"name":"A_GingerIdiot","steam_id":76561198313306026,"connected_time":7876000000000,"state":"active","ping":93}]},{"server_id":309,"name":"Uncletopia | Frankfurt | 4 | All Maps","name_short":"frk-4","host":"frk-1.de.uncletopia.com","port":27045,"enabled":true,"region":"eu","cc":"de","latitude":50.110924,"longitude":8.682127,"reserved":0,"last_update":"0001-01-01T00:00:00Z","name_a2s":"Uncletopia | Frankfurt | 4 | All Maps","protocol":17,"map":"koth_viaduct","folder":"tf","game":"Team Fortress","app_id":440,"player_count":0,"max_players":24,"Bots":0,"server_type":"Dedicated","server_os":"Linux","password":true,"vac":true,"version":"7757534","steam_id":85568392924504275,"keywords":["cp","nocrits","nodmgspread","uncletopia"],"game_id":440,"stv_port":27046,"stv_name":"Uncletopia | Frankfurt | 4 | All Maps | STV","players":null},{"server_id":310,"name":"Uncletopia | Frankfurt | 5 | All Maps","name_short":"frk-5","host":"frk-1.de.uncletopia.com","port":27055,"enabled":true,"region":"eu","cc":"de","latitude":50.110924,"longitude":8.682127,"reserved":0,"last_update":"0001-01-01T00:00:00Z","name_a2s":"Uncletopia | Frankfurt | 5 | All Maps","protocol":17,"map":"koth_viaduct","folder":"tf","game":"Team Fortress","app_id":440,"player_count":0,"max_players":24,"Bots":0,"server_type":"Dedicated","server_os":"Linux","password":true,"vac":true,"version":"7757534","steam_id":85568392924504277,"keywords":["cp","nocrits","nodmgspread","uncletopia"],"game_id":440,"stv_port":27056,"stv_name":"Uncletopia | Frankfurt | 5 | All Maps | STV","players":null},{"server_id":311,"name":"Uncletopia | Frankfurt | 6 | All Maps","name_short":"frk-6","host":"frk-1.de.uncletopia.com","port":27065,"enabled":true,"region":"eu","cc":"de","latitude":50.110924,"longitude":8.682127,"reserved":0,"last_update":"0001-01-01T00:00:00Z","name_a2s":"Uncletopia | Frankfurt | 6 | All Maps","protocol":17,"map":"koth_cascade","folder":"tf","game":"Team Fortress","app_id":440,"player_count":0,"max_players":24,"Bots":0,"server_type":"Dedicated","server_os":"Linux","password":true,"vac":true,"version":"7757534","steam_id":85568392924504278,"keywords":["cp","nocrits","nodmgspread","uncletopia"],"game_id":440,"stv_port":27066,"stv_name":"Uncletopia | Frankfurt | 6 | All Maps | STV","players":null},{"server_id":23,"name":"Uncletopia | Frankfurt | 7 | Stopwatch Beta","name_short":"frk-7","host":"frk-1.de.uncletopia.com","port":27075,"enabled":true,"region":"eu","cc":"de","latitude":50.110924,"longitude":8.682127,"reserved":0,"last_update":"0001-01-01T00:00:00Z","name_a2s":"Uncletopia | Frankfurt | 7 | Stopwatch Beta","protocol":17,"map":"pl_borneo","folder":"tf","game":"Team Fortress","app_id":440,"player_count":0,"max_players":24,"Bots":0,"server_type":"Dedicated","server_os":"Linux","password":true,"vac":true,"version":"7757534","steam_id":85568392924742827,"keywords":["nocrits","nodmgspread","payload","uncletopia"],"game_id":440,"stv_port":27076,"stv_name":"Uncletopia | Frankfurt | 7 | Stopwatch Beta | STV","players":null},{"server_id":24,"name":"Uncletopia | Frankfurt | 8 | Community","name_short":"frk-8","host":"frk-1.de.uncletopia.com","port":27085,"enabled":true,"region":"eu","cc":"de","latitude":50.110924,"longitude":8.682127,"reserved":0,"last_update":"0001-01-01T00:00:00Z","name_a2s":"Uncletopia | Frankfurt | 8 | Community","protocol":17,"map":"workshop/koth_ashville_final.ugc2130459942","folder":"tf","game":"Team Fortress","app_id":440,"player_count":0,"max_players":24,"Bots":0,"server_type":"Dedicated","server_os":"Linux","password":true,"vac":true,"version":"7757534","steam_id":85568392924742828,"keywords":["cp","nocrits","nodmgspread","uncletopia"],"game_id":440,"stv_port":27086,"stv_name":"Uncletopia | Frankfurt | 8 | Community | STV","players":null},{"server_id":202,"name":"Uncletopia | Hong Kong | 1 | All Maps","name_short":"hgk-1","host":"hgk-1.hk.uncletopia.com","port":27015,"enabled":true,"region":"asia","cc":"hk","latitude":22.302711,"longitude":114.177216,"reserved":0,"last_update":"0001-01-01T00:00:00Z","name_a2s":"Uncletopia | Hong Kong | 1 | All Maps","protocol":17,"map":"pl_frontier_final","folder":"tf","game":"Team Fortress","app_id":440,"player_count":1,"max_players":24,"Bots":0,"server_type":"Dedicated","server_os":"Linux","password":true,"vac":true,"version":"7757534","steam_id":85568392924494504,"keywords":["nocrits","nodmgspread","payload","uncletopia"],"game_id":440,"stv_port":27016,"stv_name":"Uncletopia | Hong Kong | 1 | All Maps | STV","players":[{"user_id":5,"name":"skull emoji (real)","steam_id":76561199233605678,"connected_time":65000000000,"state":"active","ping":113}]},{"server_id":1,"name":"Uncletopia | Los Angeles | 1 | All Maps","name_short":"lax-1","host":"lax-1.us.uncletopia.com","port":27015,"enabled":true,"region":"us-west","cc":"us","latitude":33.94279,"longitude":-118.41004,"reserved":0,"last_update":"0001-01-01T00:00:00Z","name_a2s":"Uncletopia | Los Angeles | 1 | All Maps","protocol":17,"map":"pl_borneo","folder":"tf","game":"Team Fortress","app_id":440,"player_count":21,"max_players":24,"Bots":0,"server_type":"Dedicated","server_os":"Linux","password":true,"vac":true,"version":"7757534","steam_id":85568392924469991,"keywords":["nocrits","nodmgspread","payload","uncletopia"],"game_id":440,"stv_port":27016,"stv_name":"Uncletopia | Los Angeles | 1 | All Maps | STV","players":[{"user_id":125,"name":"Mickmissi√≥n","steam_id":76561199133527421,"connected_time":32000000000,"state":"spawning","ping":39},{"user_id":109,"name":"DarthBanana","steam_id":76561198212244680,"connected_time":586000000000,"state":"active","ping":124},{"user_id":107,"name":"scamper","steam_id":76561199093768105,"connected_time":928000000000,"state":"active","ping":72},{"user_id":108,"name":"tie dye die guy","steam_id":76561198049845337,"connected_time":925000000000,"state":"active","ping":61},{"user_id":110,"name":"Stark_sao920","steam_id":76561198356749956,"connected_time":506000000000,"state":"active","ping":69},{"user_id":111,"name":"üÖúüÖîüÖîüÖöüÖ¢üÖ£üÖî\ufffd\ufffd\ufffd","steam_id":76561197999748343,"connected_time":435000000000,"state":"active","ping":54},{"user_id":112,"name":"kymeira","steam_id":76561198340743816,"connected_time":343000000000,"state":"active","ping":48},{"user_id":115,"name":"all of brasil","steam_id":76561197979056451,"connected_time":321000000000,"state":"active","ping":74},{"user_id":85,"name":"rmbl","steam_id":76561198150137369,"connected_time":3516000000000,"state":"active","ping":47},{"user_id":114,"name":"Insanity_Book","steam_id":76561198282715309,"connected_time":325000000000,"state":"active","ping":90},{"user_id":104,"name":"berserker_tf2 yt","steam_id":76561198303464488,"connected_time":1404000000000,"state":"active","ping":65},{"user_id":116,"name":"Schnitz","steam_id":76561198265484253,"connected_time":283000000000,"state":"active","ping":59},{"user_id":117,"name":"loothound","steam_id":76561198991704094,"connected_time":270000000000,"state":"active","ping":63},{"user_id":118,"name":"Numuhukumakiaki'aialunamor","steam_id":76561198045824948,"connected_time":242000000000,"state":"active","ping":59},{"user_id":119,"name":"CakeCadaver","steam_id":76561198080388883,"connected_time":180000000000,"state":"active","ping":75},{"user_id":120,"name":"SoupDelivery","steam_id":76561198064906818,"connected_time":179000000000,"state":"active","ping":62},{"user_id":121,"name":"Blitzy","steam_id":76561198149472890,"connected_time":157000000000,"state":"active","ping":79},{"user_id":122,"name":"Sh3ba Spaniel","steam_id":76561198047412394,"connected_time":147000000000,"state":"active","ping":113},{"user_id":91,"name":"Tmiracle","steam_id":76561198052375275,"connected_time":3363000000000,"state":"active","ping":54},{"user_id":97,"name":"triple$ix","steam_id":76561198327156787,"connected_time":2998000000000,"state":"active","ping":101},{"user_id":95,"name":"MrrPickle","steam_id":76561198122046514,"connected_time":3141000000000,"state":"active","ping":113}]},{"server_id":112,"name":"Uncletopia | Los Angeles | 2 | All Maps","name_short":"lax-2","host":"lax-1.us.uncletopia.com","port":27025,"enabled":true,"region":"us-west","cc":"us","latitude":33.94279,"longitude":-118.41004,"reserved":0,"last_update":"0001-01-01T00:00:00Z","name_a2s":"Uncletopia | Los Angeles | 2 | All Maps","protocol":17,"map":"pl_pier","folder":"tf","game":"Team Fortress","app_id":440,"player_count":24,"max_players":24,"Bots":0,"server_type":"Dedicated","server_os":"Linux","password":true,"vac":true,"version":"7757534","steam_id":85568392924469992,"keywords":["nocrits","nodmgspread","payload","uncletopia"],"game_id":440,"stv_port":27026,"stv_name":"Uncletopia | Los Angeles | 2 | All Maps | STV","players":[{"user_id":57,"name":"Leonardo Doujinshi","steam_id":76561198073531273,"connected_time":1985000000000,"state":"active","ping":54},{"user_id":77,"name":"Training Arc","steam_id":76561198038832034,"connected_time":468000000000,"state":"active","ping":77},{"user_id":27,"name":"obese farts","steam_id":76561198206922028,"connected_time":3919000000000,"state":"active","ping":46},{"user_id":28,"name":"The Admiralty","steam_id":76561198839398708,"connected_time":3634000000000,"state":"active","ping":71},{"user_id":64,"name":"IBS Gaming","steam_id":76561198033705006,"connected_time":1450000000000,"state":"active","ping":75},{"user_id":68,"name":"Riske","steam_id":76561198115840568,"connected_time":843000000000,"state":"active","ping":121},{"user_id":63,"name":"Akkawi","steam_id":76561198203159952,"connected_time":1546000000000,"state":"active","ping":57},{"user_id":82,"name":"PoorPython40047","steam_id":76561198271486265,"connected_time":216000000000,"state":"active","ping":73},{"user_id":76,"name":"hakken","steam_id":76561199102391736,"connected_time":585000000000,"state":"active","ping":46},{"user_id":38,"name":"Nudes For Dudes‚Ñ¢","steam_id":76561198139844661,"connected_time":2284000000000,"state":"active","ping":70},{"user_id":70,"name":"Kdigits","steam_id":76561198383022625,"connected_time":835000000000,"state":"active","ping":140},{"user_id":74,"name":"magotago","steam_id":76561198013650292,"connected_time":748000000000,"state":"active","ping":120},{"user_id":41,"name":"indyjacob","steam_id":76561198065158713,"connected_time":2232000000000,"state":"active","ping":73},{"user_id":54,"name":"EL NI√ëO.","steam_id":76561198098149561,"connected_time":2046000000000,"state":"active","ping":113},{"user_id":80,"name":"Heavy","steam_id":76561198437794740,"connected_time":296000000000,"state":"active","ping":62},{"user_id":61,"name":"4 life","steam_id":76561198175961598,"connected_time":1742000000000,"state":"active","ping":63},{"user_id":78,"name":"Syrup","steam_id":76561198335677073,"connected_time":444000000000,"state":"active","ping":65},{"user_id":47,"name":"LX-24","steam_id":76561198016168993,"connected_time":2135000000000,"state":"active","ping":81},{"user_id":59,"name":"rumes","steam_id":76561198349219467,"connected_time":1840000000000,"state":"active","ping":96},{"user_id":49,"name":"anal fiend","steam_id":76561198026844952,"connected_time":2132000000000,"state":"active","ping":75},{"user_id":81,"name":"BurnN8or101","steam_id":76561198132668224,"connected_time":293000000000,"state":"active","ping":114},{"user_id":79,"name":"Goob","steam_id":76561198256918638,"connected_time":439000000000,"state":"active","ping":59},{"user_id":52,"name":"Symphonic2005","steam_id":76561198315149716,"connected_time":2087000000000,"state":"active","ping":88},{"user_id":73,"name":"The_Skull_boy","steam_id":76561198227692664,"connected_time":819000000000,"state":"active","ping":66}]},{"server_id":324,"name":"Uncletopia | Los Angeles | 3 | All Maps","name_short":"lax-3","host":"lax-1.us.uncletopia.com","port":27035,"enabled":true,"region":"us-west","cc":"us","latitude":33.94279,"longitude":-118.41004,"reserved":0,"last_update":"0001-01-01T00:00:00Z","name_a2s":"Uncletopia | Los Angeles | 3 | All Maps","protocol":17,"map":"cp_snakewater_final1","folder":"tf","game":"Team Fortress","app_id":440,"player_count":0,"max_players":24,"Bots":0,"server_type":"Dedicated","server_os":"Linux","password":true,"vac":true,"version":"7757534","steam_id":85568392924510198,"keywords":["cp","nocrits","nodmgspread","uncletopia"],"game_id":440,"stv_port":27036,"stv_name":"Uncletopia | Los Angeles | 3 | All Maps | STV","players":null},{"server_id":25,"name":"Uncletopia | Los Angeles | 4 | Stopwatch Beta","name_short":"lax-4","host":"lax-1.us.uncletopia.com","port":27045,"enabled":true,"region":"us-west","cc":"us","latitude":33.94279,"longitude":-118.41004,"reserved":0,"last_update":"0001-01-01T00:00:00Z","name_a2s":"Uncletopia | Los Angeles | 4 | Stopwatch Beta","protocol":17,"map":"workshop/koth_product_final.ugc454272353","folder":"tf","game":"Team Fortress","app_id":440,"player_count":0,"max_players":24,"Bots":0,"server_type":"Dedicated","server_os":"Linux","password":true,"vac":true,"version":"7757534","steam_id":85568392924510199,"keywords":["cp","nocrits","nodmgspread","uncletopia"],"game_id":440,"stv_port":27046,"stv_name":"Uncletopia | Los Angeles | 4 | Stopwatch Beta | STV","players":null},{"server_id":11,"name":"Uncletopia | London | 1 | All Maps","name_short":"lon-1","host":"lon-1.uk.uncletopia.com","port":27015,"enabled":true,"region":"eu","cc":"gb","latitude":51.509865,"longitude":-0.118092,"reserved":0,"last_update":"0001-01-01T00:00:00Z","name_a2s":"Uncletopia | London | 1 | All Maps","protocol":17,"map":"pl_frontier_final","folder":"tf","game":"Team Fortress","app_id":440,"player_count":16,"max_players":24,"Bots":0,"server_type":"Dedicated","server_os":"Linux","password":true,"vac":true,"version":"7757534","steam_id":85568392924367362,"keywords":["nocrits","nodmgspread","payload","uncletopia"],"game_id":440,"stv_port":27016,"stv_name":"Uncletopia | London | 1 | All Maps | STV","players":[{"user_id":729,"name":"stun","steam_id":76561198276681691,"connected_time":4201000000000,"state":"active","ping":35},{"user_id":773,"name":"LickKing","steam_id":76561198128569949,"connected_time":230000000000,"state":"active","ping":63},{"user_id":735,"name":"Silent","steam_id":76561198344588858,"connected_time":3945000000000,"state":"active","ping":45},{"user_id":772,"name":"Your Unwashed Dishes","steam_id":76561198846784757,"connected_time":474000000000,"state":"active","ping":55},{"user_id":692,"name":"F2P gameing","steam_id":76561198834713682,"connected_time":6233000000000,"state":"active","ping":79},{"user_id":732,"name":"zabloing","steam_id":76561198339480413,"connected_time":4087000000000,"state":"active","ping":59},{"user_id":761,"name":"etc","steam_id":76561197998394797,"connected_time":1575000000000,"state":"active","ping":46},{"user_id":719,"name":"GunGuy","steam_id":76561198124510978,"connected_time":4461000000000,"state":"active","ping":42},{"user_id":762,"name":"U1F","steam_id":76561198053700703,"connected_time":1491000000000,"state":"active","ping":66},{"user_id":721,"name":"Bucket Head Zombie","steam_id":76561198984733325,"connected_time":4449000000000,"state":"active","ping":44},{"user_id":746,"name":"mio bomba","steam_id":76561198217364720,"connected_time":2730000000000,"state":"active","ping":59},{"user_id":747,"name":"Qxillum","steam_id":76561198037201297,"connected_time":2726000000000,"state":"active","ping":55},{"user_id":673,"name":"Penis Contortionist","steam_id":76561198073663784,"connected_time":7925000000000,"state":"active","ping":34},{"user_id":757,"name":"eatmysteel","steam_id":76561198976437527,"connected_time":2175000000000,"state":"active","ping":179},{"user_id":710,"name":"brainrot","steam_id":76561199414716848,"connected_time":4872000000000,"state":"active","ping":75},{"user_id":753,"name":"absurdism","steam_id":76561198822993026,"connected_time":2523000000000,"state":"active","ping":44}]},{"server_id":114,"name":"Uncletopia | London | 2 | All Maps","name_short":"lon-2","host":"lon-1.uk.uncletopia.com","port":27025,"enabled":true,"region":"eu","cc":"gb","latitude":51.509865,"longitude":-0.118092,"reserved":0,"last_update":"0001-01-01T00:00:00Z","name_a2s":"Uncletopia | London | 2 | All Maps","protocol":17,"map":"cp_mountainlab","folder":"tf","game":"Team Fortress","app_id":440,"player_count":0,"max_players":24,"Bots":0,"server_type":"Dedicated","server_os":"Linux","password":true,"vac":true,"version":"7757534","steam_id":85568392924470941,"keywords":["cp","nocrits","nodmgspread","uncletopia"],"game_id":440,"stv_port":27026,"stv_name":"Uncletopia | London | 2 | All Maps | STV","players":null},{"server_id":320,"name":"Uncletopia | London | 3 | All Maps","name_short":"lon-3","host":"lon-1.uk.uncletopia.com","port":27035,"enabled":true,"region":"eu","cc":"gb","latitude":51.509865,"longitude":-0.118092,"reserved":0,"last_update":"0001-01-01T00:00:00Z","name_a2s":"Uncletopia | London | 3 | All Maps","protocol":17,"map":"koth_cascade","folder":"tf","game":"Team Fortress","app_id":440,"player_count":0,"max_players":24,"Bots":0,"server_type":"Dedicated","server_os":"Linux","password":true,"vac":true,"version":"7757534","steam_id":85568392924510192,"keywords":["cp","nocrits","nodmgspread","uncletopia"],"game_id":440,"stv_port":27036,"stv_name":"Uncletopia | London | 3 | All Maps | STV","players":null},{"server_id":321,"name":"Uncletopia | London | 4 | All Maps","name_short":"lon-4","host":"lon-1.uk.uncletopia.com","port":27045,"enabled":true,"region":"eu","cc":"gb","latitude":51.509865,"longitude":-0.118092,"reserved":0,"last_update":"0001-01-01T00:00:00Z","name_a2s":"Uncletopia | London | 4 | All Maps","protocol":17,"map":"pl_frontier_final","folder":"tf","game":"Team Fortress","app_id":440,"player_count":0,"max_players":24,"Bots":0,"server_type":"Dedicated","server_os":"Linux","password":true,"vac":true,"version":"7757534","steam_id":85568392924510193,"keywords":["nocrits","nodmgspread","payload","uncletopia"],"game_id":440,"stv_port":27046,"stv_name":"Uncletopia | London | 4 | All Maps | STV","players":null},{"server_id":21,"name":"Uncletopia | London | 5 | All Maps","name_short":"lon-5","host":"lon-1.uk.uncletopia.com","port":27055,"enabled":true,"region":"eu","cc":"gb","latitude":51.509865,"longitude":-0.118092,"reserved":0,"last_update":"0001-01-01T00:00:00Z","name_a2s":"Uncletopia | London | 5 | All Maps","protocol":17,"map":"pl_badwater","folder":"tf","game":"Team Fortress","app_id":440,"player_count":20,"max_players":24,"Bots":0,"server_type":"Dedicated","server_os":"Linux","password":true,"vac":true,"version":"7757534","steam_id":85568392924742829,"keywords":["nocrits","nodmgspread","payload","uncletopia"],"game_id":440,"stv_port":27056,"stv_name":"Uncletopia | London | 5 | All Maps | STV","players":[{"user_id":395,"name":"gwa≈Çt wƒÖtroby 0,7 i 5 piw","steam_id":76561199038973360,"connected_time":1208000000000,"state":"active","ping":101},{"user_id":391,"name":"pijacka","steam_id":76561198103899658,"connected_time":1318000000000,"state":"active","ping":62},{"user_id":348,"name":"PootisCoin Investor","steam_id":76561197970114051,"connected_time":4582000000000,"state":"active","ping":40},{"user_id":351,"name":"‚ù§ Kafei Katswell ‚ù§","steam_id":76561198105673619,"connected_time":4330000000000,"state":"active","ping":159},{"user_id":377,"name":"Bodhi","steam_id":76561198000606642,"connected_time":2385000000000,"state":"active","ping":58},{"user_id":409,"name":"spooks","steam_id":76561198048205059,"connected_time":421000000000,"state":"active","ping":98},{"user_id":415,"name":"Eggman","steam_id":76561198029034957,"connected_time":177000000000,"state":"active","ping":46},{"user_id":346,"name":"The Rat King","steam_id":76561198164308630,"connected_time":4635000000000,"state":"active","ping":125},{"user_id":410,"name":"I LOVE KETCHUP","steam_id":76561199147389435,"connected_time":417000000000,"state":"active","ping":119},{"user_id":390,"name":"Nightmenia","steam_id":76561198010430569,"connected_time":1513000000000,"state":"active","ping":49},{"user_id":372,"name":"OTHER BIRDS WOULD HAVE","steam_id":76561198049405872,"connected_time":2848000000000,"state":"active","ping":48},{"user_id":402,"name":"The Pisszard¬∞","steam_id":76561198103343210,"connected_time":864000000000,"state":"active","ping":90},{"user_id":398,"name":"less than tryhard more than bot","steam_id":76561198051852765,"connected_time":1062000000000,"state":"active","ping":76},{"user_id":407,"name":"Vinnidict","steam_id":76561198037087000,"connected_time":686000000000,"state":"active","ping":70},{"user_id":418,"name":"|||| || |||| | ||||","steam_id":76561198144604444,"connected_time":9000000000,"state":"spawning","ping":47},{"user_id":416,"name":"tickleturner","steam_id":76561198217619689,"connected_time":166000000000,"state":"active","ping":50},{"user_id":417,"name":"VoolfMan[BLR]","steam_id":76561198875458053,"connected_time":40000000000,"state":"active","ping":89},{"user_id":385,"name":"Thalgorock","steam_id":76561198195315022,"connected_time":1835000000000,"state":"active","ping":71},{"user_id":386,"name":"Christmas Ham","steam_id":76561198119601623,"connected_time":1797000000000,"state":"active","ping":53},{"user_id":394,"name":"dismissy","steam_id":76561198073904781,"connected_time":1252000000000,"state":"active","ping":75}]},{"server_id":22,"name":"Uncletopia | London | 6 | All Maps","name_short":"lon-6","host":"lon-1.uk.uncletopia.com","port":27065,"enabled":true,"region":"eu","cc":"gb","latitude":51.509865,"longitude":-0.118092,"reserved":0,"last_update":"0001-01-01T00:00:00Z","name_a2s":"Uncletopia | London | 6 | All Maps","protocol":17,"map":"koth_highpass","folder":"tf","game":"Team Fortress","app_id":440,"player_count":0,"max_players":24,"Bots":0,"server_type":"Dedicated","server_os":"Linux","password":true,"vac":true,"version":"7757534","steam_id":85568392924742830,"keywords":["cp","nocrits","nodmgspread","uncletopia"],"game_id":440,"stv_port":27066,"stv_name":"Uncletopia | London | 6 | All Maps | STV","players":null},{"server_id":40,"name":"Uncletopia | London | 7 | No Payload","name_short":"lon-7","host":"lon-1.uk.uncletopia.com","port":27075,"enabled":true,"region":"eu","cc":"gb","latitude":51.509865,"longitude":-0.118092,"reserved":0,"last_update":"0001-01-01T00:00:00Z","name_a2s":"Uncletopia | London | 7 | No Payload","protocol":17,"map":"cp_vanguard","folder":"tf","game":"Team Fortress","app_id":440,"player_count":0,"max_players":24,"Bots":0,"server_type":"Dedicated","server_os":"Linux","password":true,"vac":true,"version":"7757534","steam_id":85568392924964314,"keywords":["cp","nocrits","nodmgspread","uncletopia"],"game_id":440,"stv_port":27076,"stv_name":"Uncletopia | London | 7 | No Payload | STV","players":null},{"server_id":41,"name":"Uncletopia | London | 8 | Community","name_short":"lon-8","host":"lon-1.uk.uncletopia.com","port":27085,"enabled":true,"region":"eu","cc":"gb","latitude":51.509865,"longitude":-0.118092,"reserved":0,"last_update":"0001-01-01T00:00:00Z","name_a2s":"Uncletopia | London | 8 | Community","protocol":17,"map":"workshop/koth_product_final.ugc454272353","folder":"tf","game":"Team Fortress","app_id":440,"player_count":0,"max_players":24,"Bots":0,"server_type":"Dedicated","server_os":"Linux","password":true,"vac":true,"version":"7757534","steam_id":85568392924964315,"keywords":["cp","nocrits","nodmgspread","uncletopia"],"game_id":440,"stv_port":27086,"stv_name":"Uncletopia | London | 8 | Community | STV","players":null},{"server_id":300,"name":"Uncletopia | Montr√©al | 1 | All Maps","name_short":"mtl-1","host":"mtl-1.ca.uncletopia.com","port":27015,"enabled":true,"region":"us-east","cc":"ca","latitude":45.50889,"longitude":-73.56167,"reserved":0,"last_update":"0001-01-01T00:00:00Z","name_a2s":"Uncletopia | Montr√©al | 1 | All Maps","protocol":17,"map":"cp_altitude","folder":"tf","game":"Team Fortress","app_id":440,"player_count":0,"max_players":24,"Bots":0,"server_type":"Dedicated","server_os":"Linux","password":true,"vac":true,"version":"7757534","steam_id":85568392924500087,"keywords":["cp","nocrits","nodmgspread","uncletopia"],"game_id":440,"stv_port":27016,"stv_name":"Uncletopia | Montr√©al | 1 | All Maps | STV","players":null},{"server_id":301,"name":"Uncletopia | Montr√©al | 2 | All Maps","name_short":"mtl-2","host":"mtl-1.ca.uncletopia.com","port":27025,"enabled":true,"region":"us-east","cc":"ca","latitude":45.50889,"longitude":-73.56167,"reserved":0,"last_update":"0001-01-01T00:00:00Z","name_a2s":"Uncletopia | Montr√©al | 2 | All Maps","protocol":17,"map":"cp_dustbowl","folder":"tf","game":"Team Fortress","app_id":440,"player_count":0,"max_players":24,"Bots":0,"server_type":"Dedicated","server_os":"Linux","password":true,"vac":true,"version":"7757534","steam_id":85568392924500088,"keywords":["cp","nocrits","nodmgspread","uncletopia"],"game_id":440,"stv_port":27026,"stv_name":"Uncletopia | Montr√©al | 2 | All Maps | STV","players":null},{"server_id":302,"name":"Uncletopia | Montr√©al | 3 | All Maps","name_short":"mtl-3","host":"mtl-1.ca.uncletopia.com","port":27035,"enabled":true,"region":"us-east","cc":"ca","latitude":45.50889,"longitude":-73.56167,"reserved":0,"last_update":"0001-01-01T00:00:00Z","name_a2s":"Uncletopia | Montr√©al | 3 | All Maps","protocol":17,"map":"pl_upward","folder":"tf","game":"Team Fortress","app_id":440,"player_count":17,"max_players":24,"Bots":0,"server_type":"Dedicated","server_os":"Linux","password":true,"vac":true,"version":"7757534","steam_id":85568392924500089,"keywords":["nocrits","nodmgspread","payload","uncletopia"],"game_id":440,"stv_port":27036,"stv_name":"Uncletopia | Montr√©al | 3 | All Maps | STV","players":[{"user_id":314,"name":"Sprucelass","steam_id":76561197998391724,"connected_time":51000000000,"state":"active","ping":45},{"user_id":315,"name":"Wumps","steam_id":76561198207226825,"connected_time":8000000000,"state":"active","ping":59},{"user_id":310,"name":"BottlesTheMole","steam_id":76561199069889544,"connected_time":436000000000,"state":"active","ping":55},{"user_id":312,"name":"Mike Tyson","steam_id":76561198069668107,"connected_time":298000000000,"state":"active","ping":131},{"user_id":258,"name":"Two-Teste Tommy","steam_id":76561198064308936,"connected_time":4332000000000,"state":"active","ping":63},{"user_id":296,"name":"JAke","steam_id":76561198141382684,"connected_time":2103000000000,"state":"active","ping":91},{"user_id":216,"name":"_hooded_","steam_id":76561198023595873,"connected_time":6958000000000,"state":"active","ping":73},{"user_id":300,"name":"I Am Alpharius","steam_id":76561198033100226,"connected_time":1885000000000,"state":"active","ping":85},{"user_id":309,"name":"redindy","steam_id":76561198070154445,"connected_time":458000000000,"state":"active","ping":93},{"user_id":306,"name":"Fjord","steam_id":76561198040238679,"connected_time":1150000000000,"state":"active","ping":146},{"user_id":186,"name":"PeopleLikeStuff","steam_id":76561198053416567,"connected_time":9242000000000,"state":"active","ping":129},{"user_id":303,"name":"deadpixel","steam_id":76561198150249843,"connected_time":1650000000000,"state":"active","ping":62},{"user_id":272,"name":"drdoofus123","steam_id":76561198016826181,"connected_time":3385000000000,"state":"active","ping":76},{"user_id":225,"name":"Carnold","steam_id":76561198163819918,"connected_time":6292000000000,"state":"active","ping":77},{"user_id":304,"name":"Phil Collins","steam_id":76561198068868644,"connected_time":1635000000000,"state":"active","ping":120},{"user_id":307,"name":"Bee","steam_id":76561198074681324,"connected_time":972000000000,"state":"active","ping":55},{"user_id":313,"name":"Murrdogg","steam_id":76561198210491188,"connected_time":245000000000,"state":"active","ping":74}]},{"server_id":303,"name":"Uncletopia | Montr√©al | 4 | No Payload","name_short":"mtl-4","host":"mtl-1.ca.uncletopia.com","port":27045,"enabled":true,"region":"us-east","cc":"ca","latitude":45.50889,"longitude":-73.56167,"reserved":0,"last_update":"0001-01-01T00:00:00Z","name_a2s":"Uncletopia | Montr√©al | 4 | No Payload","protocol":17,"map":"pl_pier","folder":"tf","game":"Team Fortress","app_id":440,"player_count":0,"max_players":24,"Bots":0,"server_type":"Dedicated","server_os":"Linux","password":true,"vac":true,"version":"7757534","steam_id":85568392924500090,"keywords":["nocrits","nodmgspread","payload","uncletopia"],"game_id":440,"stv_port":27046,"stv_name":"Uncletopia | Montr√©al | 4 | No Payload | STV","players":null},{"server_id":13,"name":"Uncletopia | New York City | 1 | All Maps","name_short":"nyc-1","host":"nyc-1.us.uncletopia.com","port":27015,"enabled":true,"region":"us-east","cc":"us","latitude":40.73061,"longitude":-73.93524,"reserved":0,"last_update":"0001-01-01T00:00:00Z","name_a2s":"Uncletopia | New York City | 1 | All Maps","protocol":17,"map":"cp_sunshine","folder":"tf","game":"Team Fortress","app_id":440,"player_count":18,"max_players":24,"Bots":0,"server_type":"Dedicated","server_os":"Linux","password":true,"vac":true,"version":"7757534","steam_id":85568392924469993,"keywords":["cp","nocrits","nodmgspread","uncletopia"],"game_id":440,"stv_port":27016,"stv_name":"Uncletopia | New York City | 1 | All Maps | STV","players":[{"user_id":349,"name":"ethanol","steam_id":76561198252600202,"connected_time":12000000000,"state":"spawning","ping":96},{"user_id":322,"name":"Error 4 Oh Four","steam_id":76561198121637567,"connected_time":1351000000000,"state":"active","ping":75},{"user_id":321,"name":"Vivid Hut 64","steam_id":76561198170050059,"connected_time":1362000000000,"state":"active","ping":58},{"user_id":319,"name":"Krysys","steam_id":76561198059740403,"connected_time":1787000000000,"state":"active","ping":34},{"user_id":337,"name":"AmongusGaming","steam_id":76561198365133371,"connected_time":928000000000,"state":"active","ping":103},{"user_id":294,"name":"roman","steam_id":76561198170066797,"connected_time":3183000000000,"state":"active","ping":60},{"user_id":323,"name":"pixon ‚∏∏","steam_id":76561198146697462,"connected_time":1335000000000,"state":"active","ping":107},{"user_id":346,"name":"Ubadiah :3","steam_id":76561198329996885,"connected_time":281000000000,"state":"active","ping":49},{"user_id":284,"name":"The Drunk Clown","steam_id":76561197986850426,"connected_time":3979000000000,"state":"active","ping":73},{"user_id":345,"name":"xen","steam_id":76561198048568188,"connected_time":330000000000,"state":"active","ping":45},{"user_id":300,"name":"ThePacBruno","steam_id":76561198046084545,"connected_time":2877000000000,"state":"active","ping":171},{"user_id":342,"name":"Arrythmia","steam_id":76561198093748123,"connected_time":637000000000,"state":"active","ping":105},{"user_id":343,"name":"X_Sniper7","steam_id":76561198081097640,"connected_time":596000000000,"state":"active","ping":70},{"user_id":348,"name":"Icaruss","steam_id":76561199087157705,"connected_time":108000000000,"state":"active","ping":73},{"user_id":326,"name":"tyg","steam_id":76561198056246867,"connected_time":1279000000000,"state":"active","ping":59},{"user_id":338,"name":"candied mosquito","steam_id":76561199060494678,"connected_time":815000000000,"state":"active","ping":47},{"user_id":344,"name":"Dieu-Sama","steam_id":76561198002075862,"connected_time":576000000000,"state":"active","ping":72},{"user_id":292,"name":"self-cannibalizing customer. \ufffd\ufffd","steam_id":76561198294013916,"connected_time":3446000000000,"state":"active","ping":44}]},{"server_id":14,"name":"Uncletopia | New York City | 2 | All Maps","name_short":"nyc-2","host":"nyc-1.us.uncletopia.com","port":27025,"enabled":true,"region":"us-east","cc":"us","latitude":40.73061,"longitude":-73.93524,"reserved":0,"last_update":"0001-01-01T00:00:00Z","name_a2s":"Uncletopia | New York City | 2 | All Maps","protocol":17,"map":"cp_gravelpit","folder":"tf","game":"Team Fortress","app_id":440,"player_count":22,"max_players":24,"Bots":0,"server_type":"Dedicated","server_os":"Linux","password":true,"vac":true,"version":"7757534","steam_id":85568392924469994,"keywords":["cp","nocrits","nodmgspread","uncletopia"],"game_id":440,"stv_port":27026,"stv_name":"Uncletopia | New York City | 2 | All Maps | STV","players":[{"user_id":89,"name":"SuperFresh","steam_id":76561198200723198,"connected_time":7641000000000,"state":"active","ping":49},{"user_id":68,"name":"Analogy != Definition","steam_id":76561197999657118,"connected_time":8533000000000,"state":"active","ping":60},{"user_id":47,"name":"Effie","steam_id":76561198261842068,"connected_time":10353000000000,"state":"active","ping":75},{"user_id":181,"name":"giveit5","steam_id":76561198030815437,"connected_time":799000000000,"state":"active","ping":125},{"user_id":173,"name":"Ocri","steam_id":76561198028955635,"connected_time":1504000000000,"state":"active","ping":72},{"user_id":185,"name":"frank","steam_id":76561198045436159,"connected_time":33000000000,"state":"active","ping":60},{"user_id":180,"name":"Filthy Acts at Reasonable Price","steam_id":76561198354615890,"connected_time":952000000000,"state":"active","ping":74},{"user_id":161,"name":"coin","steam_id":76561198128374956,"connected_time":3240000000000,"state":"active","ping":112},{"user_id":84,"name":"tabasco","steam_id":76561198355094896,"connected_time":7796000000000,"state":"active","ping":61},{"user_id":174,"name":"Kaluka","steam_id":76561198036861445,"connected_time":1442000000000,"state":"active","ping":54},{"user_id":159,"name":"Will Walters","steam_id":76561198249138216,"connected_time":3545000000000,"state":"active","ping":100},{"user_id":183,"name":"Ivy","steam_id":76561198047758442,"connected_time":587000000000,"state":"active","ping":121},{"user_id":176,"name":"JakeWub","steam_id":76561198065571708,"connected_time":1422000000000,"state":"active","ping":61},{"user_id":142,"name":"Fiendish Frog","steam_id":76561198029478821,"connected_time":4944000000000,"state":"active","ping":47},{"user_id":182,"name":"IPlayGamez","steam_id":76561198041387508,"connected_time":782000000000,"state":"active","ping":52},{"user_id":156,"name":"Chin","steam_id":76561198247426906,"connected_time":3986000000000,"state":"active","ping":62},{"user_id":122,"name":"Dokkibai","steam_id":76561198355935693,"connected_time":5418000000000,"state":"active","ping":73},{"user_id":162,"name":"Gian","steam_id":76561198041434512,"connected_time":2786000000000,"state":"active","ping":100},{"user_id":170,"name":"wack","steam_id":76561198095697330,"connected_time":2213000000000,"state":"active","ping":60},{"user_id":184,"name":"PrinceGrotle","steam_id":76561198206131603,"connected_time":396000000000,"state":"active","ping":60},{"user_id":166,"name":"Snoogs","steam_id":76561198444880931,"connected_time":2676000000000,"state":"active","ping":64},{"user_id":172,"name":"SpinetinglingToast","steam_id":76561198099470670,"connected_time":1593000000000,"state":"active","ping":54}]},{"server_id":15,"name":"Uncletopia | New York City | 3 | Stopwatch Beta","name_short":"nyc-3","host":"nyc-1.us.uncletopia.com","port":27035,"enabled":true,"region":"us-east","cc":"us","latitude":40.73061,"longitude":-73.93524,"reserved":0,"last_update":"0001-01-01T00:00:00Z","name_a2s":"Uncletopia | New York City | 3 | Stopwatch Beta","protocol":17,"map":"workshop/pl_barnblitz_pro7.ugc582280235","folder":"tf","game":"Team Fortress","app_id":440,"player_count":0,"max_players":24,"Bots":0,"server_type":"Dedicated","server_os":"Linux","password":true,"vac":true,"version":"7757534","steam_id":85568392924742820,"keywords":["nocrits","nodmgspread","payload","uncletopia"],"game_id":440,"stv_port":27036,"stv_name":"Uncletopia | New York City | 3 | Stopwatch Beta | STV","players":null},{"server_id":16,"name":"Uncletopia | New York City | 4 | Community","name_short":"nyc-4","host":"nyc-1.us.uncletopia.com","port":27045,"enabled":true,"region":"us-east","cc":"us","latitude":40.73061,"longitude":-73.93524,"reserved":0,"last_update":"0001-01-01T00:00:00Z","name_a2s":"Uncletopia | New York City | 4 | Community","protocol":17,"map":"workshop/pl_cactuscanyon_redux_final1.ugc2579644293","folder":"tf","game":"Team Fortress","app_id":440,"player_count":23,"max_players":24,"Bots":0,"server_type":"Dedicated","server_os":"Linux","password":true,"vac":true,"version":"7757534","steam_id":85568392924742821,"keywords":["nocrits","nodmgspread","payload","uncletopia"],"game_id":440,"stv_port":27046,"stv_name":"Uncletopia | New York City | 4 | Community | STV","players":[{"user_id":49,"name":"T9 Raincool","steam_id":76561198042953645,"connected_time":1337000000000,"state":"active","ping":46},{"user_id":56,"name":"CreeperCatBengal","steam_id":76561198213193221,"connected_time":940000000000,"state":"active","ping":66},{"user_id":31,"name":"Mrpeagod","steam_id":76561198138985101,"connected_time":2315000000000,"state":"active","ping":79},{"user_id":70,"name":"Scopedawg","steam_id":76561198034705209,"connected_time":284000000000,"state":"active","ping":57},{"user_id":69,"name":"neet","steam_id":76561197968115168,"connected_time":324000000000,"state":"active","ping":46},{"user_id":71,"name":"Ninjasupahman","steam_id":76561198083284498,"connected_time":185000000000,"state":"active","ping":45},{"user_id":65,"name":"viper","steam_id":76561198839942937,"connected_time":728000000000,"state":"active","ping":71},{"user_id":41,"name":"Olive","steam_id":76561198003474783,"connected_time":1706000000000,"state":"active","ping":76},{"user_id":72,"name":"ThatFrog","steam_id":76561198437198904,"connected_time":82000000000,"state":"active","ping":117},{"user_id":28,"name":"The Duck Dealer","steam_id":76561198063887250,"connected_time":2461000000000,"state":"active","ping":83},{"user_id":38,"name":"StuartBell511","steam_id":76561198060931721,"connected_time":1839000000000,"state":"active","ping":75},{"user_id":53,"name":"Phillip Jeffries","steam_id":76561198064052174,"connected_time":1112000000000,"state":"active","ping":58},{"user_id":55,"name":"Loleo","steam_id":76561198348132374,"connected_time":956000000000,"state":"active","ping":77},{"user_id":42,"name":"[BBW] Justario","steam_id":76561198016095410,"connected_time":1685000000000,"state":"active","ping":45},{"user_id":73,"name":"Bear_Naked99","steam_id":76561199384938957,"connected_time":28000000000,"state":"active","ping":79},{"user_id":58,"name":"PurpleStar","steam_id":76561198760470731,"connected_time":929000000000,"state":"active","ping":110},{"user_id":74,"name":"Poison Duck","steam_id":76561198103155890,"connected_time":21000000000,"state":"active","ping":90},{"user_id":60,"name":"SIEGPIKL92","steam_id":76561198023514735,"connected_time":823000000000,"state":"active","ping":80},{"user_id":61,"name":"CreeperPiggy","steam_id":76561198203184918,"connected_time":815000000000,"state":"active","ping":89},{"user_id":62,"name":"shkip","steam_id":76561198110801124,"connected_time":800000000000,"state":"active","ping":120},{"user_id":63,"name":"swooce","steam_id":76561198156232484,"connected_time":790000000000,"state":"active","ping":55},{"user_id":64,"name":"Milo2126","steam_id":76561198175814775,"connected_time":782000000000,"state":"active","ping":65},{"user_id":68,"name":"∆ê’å—¥∆≥","steam_id":76561198099470277,"connected_time":365000000000,"state":"active","ping":85}]},{"server_id":142,"name":"Uncletopia | S√£o Paulo | 1 | All Maps","name_short":"sao-1","host":"sao-1.br.uncletopia.com","port":27015,"enabled":true,"region":"sa","cc":"br","latitude":-23.533773,"longitude":-46.62529,"reserved":0,"last_update":"0001-01-01T00:00:00Z","name_a2s":"Uncletopia | S√£o Paulo | 1 | All Maps","protocol":17,"map":"koth_lakeside_final","folder":"tf","game":"Team Fortress","app_id":440,"player_count":0,"max_players":24,"Bots":0,"server_type":"Dedicated","server_os":"Linux","password":true,"vac":true,"version":"7757534","steam_id":85568392924469996,"keywords":["cp","nocrits","nodmgspread","uncletopia"],"game_id":440,"stv_port":27016,"stv_name":"Uncletopia | S√£o Paulo | 1 | All Maps | STV","players":null},{"server_id":143,"name":"Uncletopia | S√£o Paulo | 2 | All Maps","name_short":"sao-2","host":"sao-2.br.uncletopia.com","port":27015,"enabled":true,"region":"sa","cc":"br","latitude":-23.533773,"longitude":-46.62529,"reserved":0,"last_update":"0001-01-01T00:00:00Z","name_a2s":"Uncletopia | S√£o Paulo | 2 | All Maps","protocol":17,"map":"koth_highpass","folder":"tf","game":"Team Fortress","app_id":440,"player_count":0,"max_players":24,"Bots":0,"server_type":"Dedicated","server_os":"Linux","password":true,"vac":true,"version":"7757534","steam_id":85568392924485349,"keywords":["cp","nocrits","nodmgspread","uncletopia"],"game_id":440,"stv_port":27016,"stv_name":"Uncletopia | S√£o Paulo | 2 | All Maps | STV","players":null},{"server_id":7,"name":"Uncletopia | Seattle | 1 | All Maps","name_short":"sea-1","host":"sea-1.us.uncletopia.com","port":27015,"enabled":true,"region":"us-west","cc":"us","latitude":47.608013,"longitude":-122.33517,"reserved":0,"last_update":"0001-01-01T00:00:00Z","name_a2s":"Uncletopia | Seattle | 1 | All Maps","protocol":17,"map":"cp_dustbowl","folder":"tf","game":"Team Fortress","app_id":440,"player_count":24,"max_players":24,"Bots":0,"server_type":"Dedicated","server_os":"Linux","password":true,"vac":true,"version":"7757534","steam_id":85568392924469997,"keywords":["cp","nocrits","nodmgspread","uncletopia"],"game_id":440,"stv_port":27016,"stv_name":"Uncletopia | Seattle | 1 | All Maps | STV","players":[{"user_id":660,"name":"Winter the Witchie","steam_id":76561198151971178,"connected_time":132000000000,"state":"active","ping":110},{"user_id":635,"name":"Forest_Dragon93","steam_id":76561199064900666,"connected_time":2372000000000,"state":"active","ping":145},{"user_id":584,"name":"Fire_box41238","steam_id":76561199185673650,"connected_time":6037000000000,"state":"active","ping":50},{"user_id":655,"name":"bomb","steam_id":76561198312179067,"connected_time":194000000000,"state":"active","ping":91},{"user_id":593,"name":"tconnors1976","steam_id":76561198840033336,"connected_time":5115000000000,"state":"active","ping":60},{"user_id":653,"name":"mub","steam_id":76561197961943948,"connected_time":943000000000,"state":"active","ping":45},{"user_id":624,"name":"teh mummy","steam_id":76561198044123636,"connected_time":3055000000000,"state":"active","ping":63},{"user_id":571,"name":"wolf_71","steam_id":76561198963570945,"connected_time":6730000000000,"state":"active","ping":94},{"user_id":641,"name":"snowycoast247","steam_id":76561198801612899,"connected_time":1620000000000,"state":"active","ping":54},{"user_id":628,"name":"Cancerous Pineapple","steam_id":76561198097307656,"connected_time":2769000000000,"state":"active","ping":73},{"user_id":658,"name":"fwoov","steam_id":76561198129166260,"connected_time":158000000000,"state":"active","ping":79},{"user_id":661,"name":"THIRDPIERCE","steam_id":76561198405366314,"connected_time":105000000000,"state":"active","ping":131},{"user_id":645,"name":"Fh","steam_id":76561198000903511,"connected_time":1222000000000,"state":"active","ping":60},{"user_id":662,"name":"Local Shower Shitter","steam_id":76561199199480952,"connected_time":51000000000,"state":"active","ping":97},{"user_id":642,"name":"ProfessorBadger","steam_id":76561198276916055,"connected_time":1333000000000,"state":"active","ping":127},{"user_id":636,"name":"Fumpo","steam_id":76561198206873365,"connected_time":2369000000000,"state":"active","ping":113},{"user_id":659,"name":"Glizzy Mcguire","steam_id":76561198101618568,"connected_time":147000000000,"state":"active","ping":57},{"user_id":626,"name":"Tibetan Pop Star","steam_id":76561198844903984,"connected_time":3008000000000,"state":"active","ping":94},{"user_id":611,"name":"Noodle","steam_id":76561199156137868,"connected_time":3543000000000,"state":"active","ping":140},{"user_id":640,"name":"Pencil King","steam_id":76561198049454097,"connected_time":2025000000000,"state":"active","ping":109},{"user_id":613,"name":"Vespen","steam_id":76561198259984019,"connected_time":3497000000000,"state":"active","ping":81},{"user_id":656,"name":"glowhan","steam_id":76561198412353895,"connected_time":193000000000,"state":"active","ping":35},{"user_id":646,"name":"MonteJT","steam_id":76561198055409360,"connected_time":1219000000000,"state":"active","ping":46},{"user_id":663,"name":"kiriko","steam_id":76561198041286321,"connected_time":32000000000,"state":"active","ping":52}]},{"server_id":119,"name":"Uncletopia | Seattle | 2 | All Maps","name_short":"sea-2","host":"sea-1.us.uncletopia.com","port":27025,"enabled":true,"region":"us-west","cc":"us","latitude":47.608013,"longitude":-122.33517,"reserved":0,"last_update":"0001-01-01T00:00:00Z","name_a2s":"Uncletopia | Seattle | 2 | All Maps","protocol":17,"map":"pl_barnblitz","folder":"tf","game":"Team Fortress","app_id":440,"player_count":24,"max_players":24,"Bots":0,"server_type":"Dedicated","server_os":"Linux","password":true,"vac":true,"version":"7757534","steam_id":85568392924469998,"keywords":["nocrits","nodmgspread","payload","uncletopia"],"game_id":440,"stv_port":27026,"stv_name":"Uncletopia | Seattle | 2 | All Maps | STV","players":[{"user_id":508,"name":"Gaiduk","steam_id":76561198112323877,"connected_time":2369000000000,"state":"active","ping":139},{"user_id":503,"name":"squash","steam_id":76561198150281353,"connected_time":2636000000000,"state":"active","ping":47},{"user_id":522,"name":"AmiableNebula","steam_id":76561198094306627,"connected_time":988000000000,"state":"active","ping":75},{"user_id":526,"name":"InterplanetaryGentlemann","steam_id":76561198146559390,"connected_time":378000000000,"state":"active","ping":46},{"user_id":504,"name":"Agent86","steam_id":76561198046794593,"connected_time":2632000000000,"state":"active","ping":100},{"user_id":528,"name":"Adobe Premiere","steam_id":76561198411025724,"connected_time":51000000000,"state":"spawning","ping":269},{"user_id":486,"name":"A Nyquil Chicken","steam_id":76561198344471115,"connected_time":3780000000000,"state":"active","ping":75},{"user_id":497,"name":"A Duck With Socks","steam_id":76561198018844227,"connected_time":3074000000000,"state":"active","ping":59},{"user_id":527,"name":"Skabbety","steam_id":76561198168044257,"connected_time":144000000000,"state":"active","ping":41},{"user_id":529,"name":"Morbea","steam_id":76561199071098451,"connected_time":20000000000,"state":"active","ping":145},{"user_id":475,"name":"ishaboi","steam_id":76561198019246430,"connected_time":4001000000000,"state":"active","ping":154},{"user_id":518,"name":"Court Wizard, Sir Dr. Clydesdal","steam_id":76561198149267697,"connected_time":1103000000000,"state":"active","ping":60},{"user_id":524,"name":"DoxPlaysGames","steam_id":76561198240339332,"connected_time":885000000000,"state":"active","ping":102},{"user_id":458,"name":"PyroManiac","steam_id":76561198005988491,"connected_time":4532000000000,"state":"active","ping":97},{"user_id":477,"name":"Clientofwar","steam_id":76561197996108064,"connected_time":3994000000000,"state":"active","ping":62},{"user_id":516,"name":"duck tale","steam_id":76561198042662104,"connected_time":1122000000000,"state":"active","ping":74},{"user_id":509,"name":"B/S/SuperBoofOG","steam_id":76561197992030936,"connected_time":2315000000000,"state":"active","ping":114},{"user_id":511,"name":"Strikerbolt","steam_id":76561199095622897,"connected_time":2132000000000,"state":"active","ping":91},{"user_id":494,"name":"Scrumfel Nutz","steam_id":76561198123286409,"connected_time":3501000000000,"state":"active","ping":63},{"user_id":519,"name":"=Silver=","steam_id":76561198292307127,"connected_time":1103000000000,"state":"active","ping":67},{"user_id":523,"name":"Daminknight","steam_id":76561198194870615,"connected_time":951000000000,"state":"active","ping":155},{"user_id":437,"name":"worker","steam_id":76561198039608940,"connected_time":5911000000000,"state":"active","ping":60},{"user_id":521,"name":"SvicidalBug","steam_id":76561198221390504,"connected_time":1072000000000,"state":"active","ping":68},{"user_id":501,"name":"mumbles","steam_id":76561197994528974,"connected_time":2862000000000,"state":"active","ping":84}]},{"server_id":406,"name":"Uncletopia | Seattle | 3 | Stopwatch Beta","name_short":"sea-3","host":"sea-1.us.uncletopia.com","port":27035,"enabled":true,"region":"us-west","cc":"us","latitude":47.608013,"longitude":-122.33517,"reserved":0,"last_update":"0001-01-01T00:00:00Z","name_a2s":"Uncletopia | Seattle | 3 | Stopwatch Beta","protocol":17,"map":"workshop/koth_ashville_final.ugc2130459942","folder":"tf","game":"Team Fortress","app_id":440,"player_count":0,"max_players":24,"Bots":0,"server_type":"Dedicated","server_os":"Linux","password":true,"vac":true,"version":"7757534","steam_id":85568392924515217,"keywords":["cp","nocrits","nodmgspread","uncletopia"],"game_id":440,"stv_port":27036,"stv_name":"Uncletopia | Seattle | 3 | Stopwatch Beta | STV","players":null},{"server_id":17,"name":"Uncletopia | San Francisco | 1 | All Maps","name_short":"sfo-1","host":"sfo-1.us.uncletopia.com","port":27015,"enabled":true,"region":"us-west","cc":"us","latitude":37.77397,"longitude":-122.4313,"reserved":0,"last_update":"0001-01-01T00:00:00Z","name_a2s":"Uncletopia | San Francisco | 1 | All Maps","protocol":17,"map":"pl_swiftwater_final1","folder":"tf","game":"Team Fortress","app_id":440,"player_count":24,"max_players":24,"Bots":0,"server_type":"Dedicated","server_os":"Linux","password":true,"vac":true,"version":"7757534","steam_id":85568392924469999,"keywords":["nocrits","nodmgspread","payload","uncletopia"],"game_id":440,"stv_port":27016,"stv_name":"Uncletopia | San Francisco | 1 | All Maps | STV","players":[{"user_id":413,"name":"[S]Mr. X [No Monitor]","steam_id":76561197963746035,"connected_time":831000000000,"state":"active","ping":86},{"user_id":396,"name":"rose","steam_id":76561197995200743,"connected_time":2009000000000,"state":"active","ping":45},{"user_id":411,"name":"r u guys going trick or treatin","steam_id":76561199074585110,"connected_time":1093000000000,"state":"active","ping":59},{"user_id":388,"name":"griddy","steam_id":76561198825658971,"connected_time":2226000000000,"state":"active","ping":58},{"user_id":412,"name":"Tecno2kk","steam_id":76561198295809145,"connected_time":1090000000000,"state":"active","ping":107},{"user_id":414,"name":"13chag janitor","steam_id":76561198058617608,"connected_time":766000000000,"state":"active","ping":60},{"user_id":380,"name":"Jones","steam_id":76561198046037216,"connected_time":2518000000000,"state":"active","ping":100},{"user_id":421,"name":"dzcreeper","steam_id":76561198072250723,"connected_time":563000000000,"state":"active","ping":75},{"user_id":424,"name":"Bodach J","steam_id":76561197970562873,"connected_time":363000000000,"state":"active","ping":58},{"user_id":409,"name":"Candy-Man","steam_id":76561198051702098,"connected_time":1312000000000,"state":"active","ping":65},{"user_id":416,"name":"Spoofle","steam_id":76561199003655066,"connected_time":716000000000,"state":"active","ping":58},{"user_id":387,"name":"YahYeeterson","steam_id":76561198120480906,"connected_time":2314000000000,"state":"active","ping":85},{"user_id":401,"name":"Ryld","steam_id":76561198010174380,"connected_time":1862000000000,"state":"active","ping":72},{"user_id":398,"name":"ZeFizzyPop‚Ñ¢","steam_id":76561198258104981,"connected_time":1899000000000,"state":"active","ping":90},{"user_id":426,"name":"shawarma.lord007","steam_id":76561198115458307,"connected_time":0,"state":"spawning","ping":26},{"user_id":375,"name":"Resh420","steam_id":76561198066619792,"connected_time":2595000000000,"state":"active","ping":75},{"user_id":422,"name":"Six Popsicle Jake","steam_id":76561198024757122,"connected_time":555000000000,"state":"active","ping":114},{"user_id":425,"name":"AAGooseman","steam_id":76561198378941369,"connected_time":163000000000,"state":"active","ping":64},{"user_id":419,"name":"ZxDsE","steam_id":76561198999547192,"connected_time":616000000000,"state":"active","ping":42},{"user_id":386,"name":"BBL Sponsor","steam_id":76561199093733603,"connected_time":2449000000000,"state":"active","ping":142},{"user_id":382,"name":"OddBread","steam_id":76561198339301792,"connected_time":2482000000000,"state":"active","ping":127},{"user_id":402,"name":"SkoranShogun","steam_id":76561198091811218,"connected_time":1824000000000,"state":"active","ping":107},{"user_id":423,"name":"./nlopreste2.sh","steam_id":76561198042562744,"connected_time":393000000000,"state":"active","ping":88},{"user_id":420,"name":"Frogzilla","steam_id":76561198077657538,"connected_time":609000000000,"state":"active","ping":89}]},{"server_id":18,"name":"Uncletopia | San Francisco | 2 | All Maps","name_short":"sfo-2","host":"sfo-1.us.uncletopia.com","port":27025,"enabled":true,"region":"us-west","cc":"us","latitude":37.77397,"longitude":-122.4313,"reserved":0,"last_update":"0001-01-01T00:00:00Z","name_a2s":"Uncletopia | San Francisco | 2 | All Maps","protocol":17,"map":"koth_viaduct","folder":"tf","game":"Team Fortress","app_id":440,"player_count":0,"max_players":24,"Bots":0,"server_type":"Dedicated","server_os":"Linux","password":true,"vac":true,"version":"7757534","steam_id":85568392924470000,"keywords":["cp","nocrits","nodmgspread","uncletopia"],"game_id":440,"stv_port":27026,"stv_name":"Uncletopia | San Francisco | 2 | All Maps | STV","players":null},{"server_id":19,"name":"Uncletopia | San Francisco | 3 | Stopwatch Beta","name_short":"sfo-3","host":"sfo-1.us.uncletopia.com","port":27035,"enabled":true,"region":"us-west","cc":"us","latitude":37.77397,"longitude":-122.4313,"reserved":0,"last_update":"0001-01-01T00:00:00Z","name_a2s":"Uncletopia | San Francisco | 3 | Stopwatch Beta","protocol":17,"map":"koth_lakeside_final","folder":"tf","game":"Team Fortress","app_id":440,"player_count":0,"max_players":24,"Bots":0,"server_type":"Dedicated","server_os":"Linux","password":true,"vac":true,"version":"7757534","steam_id":85568392924742824,"keywords":["cp","nocrits","nodmgspread","uncletopia"],"game_id":440,"stv_port":27036,"stv_name":"Uncletopia | San Francisco | 3 | Stopwatch Beta | STV","players":null},{"server_id":20,"name":"Uncletopia | San Francisco | 4 | Community","name_short":"sfo-4","host":"sfo-1.us.uncletopia.com","port":27045,"enabled":true,"region":"us-west","cc":"us","latitude":37.77397,"longitude":-122.4313,"reserved":0,"last_update":"0001-01-01T00:00:00Z","name_a2s":"Uncletopia | San Francisco | 4 | Community","protocol":17,"map":"workshop/koth_ramjam_rc1.ugc459778887","folder":"tf","game":"Team Fortress","app_id":440,"player_count":14,"max_players":24,"Bots":0,"server_type":"Dedicated","server_os":"Linux","password":true,"vac":true,"version":"7757534","steam_id":85568392924742826,"keywords":["cp","nocrits","nodmgspread","uncletopia"],"game_id":440,"stv_port":27046,"stv_name":"Uncletopia | San Francisco | 4 | Community | STV","players":[{"user_id":33,"name":"PrincevonTwix (F2P)","steam_id":76561199205712086,"connected_time":1005000000000,"state":"active","ping":35},{"user_id":22,"name":"Screw and Wrench Rob","steam_id":76561198407166710,"connected_time":1577000000000,"state":"active","ping":116},{"user_id":23,"name":"RustyMuffin","steam_id":76561198095902627,"connected_time":1549000000000,"state":"active","ping":79},{"user_id":38,"name":"Bip","steam_id":76561199022962204,"connected_time":344000000000,"state":"active","ping":99},{"user_id":26,"name":"Circular.Cube","steam_id":76561198861595622,"connected_time":1371000000000,"state":"active","ping":153},{"user_id":31,"name":"SILENT","steam_id":76561198134895823,"connected_time":1032000000000,"state":"active","ping":88},{"user_id":29,"name":"Jayne","steam_id":76561198119580622,"connected_time":1230000000000,"state":"active","ping":167},{"user_id":32,"name":"JustSad","steam_id":76561198122977767,"connected_time":1013000000000,"state":"active","ping":90},{"user_id":42,"name":"‚ô°ComiCherro‚ô°","steam_id":76561199097342864,"connected_time":233000000000,"state":"active","ping":86},{"user_id":36,"name":"KodaDaBear","steam_id":76561199022882665,"connected_time":662000000000,"state":"active","ping":100},{"user_id":43,"name":"Max","steam_id":76561199112037223,"connected_time":133000000000,"state":"active","ping":106},{"user_id":41,"name":"smacks","steam_id":76561199015953136,"connected_time":270000000000,"state":"active","ping":46},{"user_id":45,"name":"HeHedron","steam_id":76561199199667164,"connected_time":85000000000,"state":"active","ping":82},{"user_id":46,"name":"MayKaye","steam_id":76561199016092265,"connected_time":67000000000,"state":"active","ping":70}]},{"server_id":141,"name":"Uncletopia | Sydney | 1 | All Maps","name_short":"syd-1","host":"syd-1.au.uncletopia.com","port":27015,"enabled":true,"region":"au","cc":"au","latitude":-33.865143,"longitude":151.2099,"reserved":0,"last_update":"0001-01-01T00:00:00Z","name_a2s":"Uncletopia | Sydney | 1 | All Maps","protocol":17,"map":"plr_hightower","folder":"tf","game":"Team Fortress","app_id":440,"player_count":0,"max_players":24,"Bots":0,"server_type":"Dedicated","server_os":"Linux","password":true,"vac":true,"version":"7757534","steam_id":85568392924470001,"keywords":["nocrits","nodmgspread","payload","uncletopia"],"game_id":440,"stv_port":27016,"stv_name":"Uncletopia | Sydney | 1 | All Maps | STV","players":null},{"server_id":123,"name":"Uncletopia | Sydney | 2 | All Maps","name_short":"syd-2","host":"syd-1.au.uncletopia.com","port":27025,"enabled":true,"region":"au","cc":"au","latitude":-33.865143,"longitude":151.2099,"reserved":0,"last_update":"0001-01-01T00:00:00Z","name_a2s":"Uncletopia | Sydney | 2 | All Maps","protocol":17,"map":"pl_swiftwater_final1","folder":"tf","game":"Team Fortress","app_id":440,"player_count":0,"max_players":24,"Bots":0,"server_type":"Dedicated","server_os":"Linux","password":true,"vac":true,"version":"7757534","steam_id":85568392924470002,"keywords":["nocrits","nodmgspread","payload","uncletopia"],"game_id":440,"stv_port":27026,"stv_name":"Uncletopia | Sydney | 2 | All Maps | STV","players":null},{"server_id":395,"name":"Uncletopia | Sydney | 3 | All Maps","name_short":"syd-3","host":"syd-1.au.uncletopia.com","port":27035,"enabled":true,"region":"au","cc":"au","latitude":-33.865143,"longitude":151.2099,"reserved":0,"last_update":"0001-01-01T00:00:00Z","name_a2s":"Uncletopia | Sydney | 3 | All Maps","protocol":17,"map":"cp_snakewater_final1","folder":"tf","game":"Team Fortress","app_id":440,"player_count":6,"max_players":24,"Bots":0,"server_type":"Dedicated","server_os":"Linux","password":true,"vac":true,"version":"7757534","steam_id":85568392925194467,"keywords":["cp","nocrits","nodmgspread","uncletopia"],"game_id":440,"stv_port":27036,"stv_name":"Uncletopia | Sydney | 3 | All Maps | STV","players":[{"user_id":32,"name":"Cyborgcupine","steam_id":76561198257389366,"connected_time":2137000000000,"state":"active","ping":80},{"user_id":38,"name":"Schpeal","steam_id":76561198404169675,"connected_time":399000000000,"state":"active","ping":210},{"user_id":34,"name":"Lord Oink","steam_id":76561198125237921,"connected_time":1005000000000,"state":"active","ping":44},{"user_id":35,"name":".ki","steam_id":76561198241303512,"connected_time":784000000000,"state":"active","ping":56},{"user_id":37,"name":"lolwhat","steam_id":76561199387628765,"connected_time":714000000000,"state":"active","ping":175},{"user_id":41,"name":"Gwarp","steam_id":76561198061960926,"connected_time":155000000000,"state":"active","ping":94}]},{"server_id":396,"name":"Uncletopia | Sydney | 4 | All Maps","name_short":"syd-4","host":"syd-1.au.uncletopia.com","port":27045,"enabled":true,"region":"au","cc":"au","latitude":-33.865143,"longitude":151.2099,"reserved":0,"last_update":"0001-01-01T00:00:00Z","name_a2s":"Uncletopia | Sydney | 4 | All Maps","protocol":17,"map":"cp_snakewater_final1","folder":"tf","game":"Team Fortress","app_id":440,"player_count":0,"max_players":24,"Bots":0,"server_type":"Dedicated","server_os":"Linux","password":true,"vac":true,"version":"7757534","steam_id":85568392925397958,"keywords":["cp","nocrits","nodmgspread","uncletopia"],"game_id":440,"stv_port":27046,"stv_name":"Uncletopia | Sydney | 4 | All Maps | STV","players":null},{"server_id":58,"name":"Uncletopia | Sydney | 5 | Stopwatch Beta","name_short":"syd-5","host":"syd-1.au.uncletopia.com","port":27055,"enabled":true,"region":"au","cc":"au","latitude":-33.865143,"longitude":151.2099,"reserved":0,"last_update":"0001-01-01T00:00:00Z","name_a2s":"Uncletopia | Sydney | 5 | Stopwatch Beta","protocol":17,"map":"cp_gullywash_final1","folder":"tf","game":"Team Fortress","app_id":440,"player_count":0,"max_players":24,"Bots":0,"server_type":"Dedicated","server_os":"Linux","password":true,"vac":true,"version":"7757534","steam_id":85568392925397959,"keywords":["cp","nocrits","nodmgspread","uncletopia"],"game_id":440,"stv_port":27056,"stv_name":"Uncletopia | Sydney | 5 | Stopwatch Beta | STV","players":null},{"server_id":59,"name":"Uncletopia | Sydney | 6 | Community","name_short":"syd-6","host":"syd-1.au.uncletopia.com","port":27065,"enabled":true,"region":"au","cc":"au","latitude":-33.865143,"longitude":151.2099,"reserved":0,"last_update":"0001-01-01T00:00:00Z","name_a2s":"Uncletopia | Sydney | 6 | Community","protocol":17,"map":"pl_badwater","folder":"tf","game":"Team Fortress","app_id":440,"player_count":0,"max_players":24,"Bots":0,"server_type":"Dedicated","server_os":"Linux","password":true,"vac":true,"version":"7757534","steam_id":85568392925397960,"keywords":["nocrits","nodmgspread","payload","uncletopia"],"game_id":440,"stv_port":27066,"stv_name":"Uncletopia | Sydney | 6 | Community | STV","players":null},{"server_id":49,"name":"Uncletopia | Warsaw | 1 | All Maps","name_short":"waw-1","host":"waw-1.pl.uncletopia.com","port":27015,"enabled":true,"region":"eu","cc":"pl","latitude":52.2297,"longitude":21.017532,"reserved":0,"last_update":"0001-01-01T00:00:00Z","name_a2s":"","protocol":0,"map":"","folder":"","game":"","app_id":0,"player_count":0,"max_players":0,"Bots":0,"server_type":"","server_os":"","password":false,"vac":false,"version":"","steam_id":0,"keywords":null,"game_id":0,"stv_port":0,"stv_name":"","players":null},{"server_id":50,"name":"Uncletopia | Warsaw | 2 | All Maps","name_short":"waw-2","host":"waw-1.pl.uncletopia.com","port":27025,"enabled":true,"region":"eu","cc":"pl","latitude":52.2297,"longitude":21.017532,"reserved":0,"last_update":"0001-01-01T00:00:00Z","name_a2s":"Uncletopia | Warsaw | 2 | All Maps","protocol":17,"map":"pl_borneo","folder":"tf","game":"Team Fortress","app_id":440,"player_count":0,"max_players":24,"Bots":0,"server_type":"Dedicated","server_os":"Linux","password":true,"vac":true,"version":"7757534","steam_id":85568392925397851,"keywords":["nocrits","nodmgspread","payload","uncletopia"],"game_id":440,"stv_port":27026,"stv_name":"Uncletopia | Warsaw | 2 | All Maps | STV","players":null},{"server_id":51,"name":"Uncletopia | Warsaw | 3 | All Maps","name_short":"waw-3","host":"waw-1.pl.uncletopia.com","port":27035,"enabled":true,"region":"eu","cc":"pl","latitude":52.2297,"longitude":21.017532,"reserved":0,"last_update":"0001-01-01T00:00:00Z","name_a2s":"Uncletopia | Warsaw | 3 | All Maps","protocol":17,"map":"pl_barnblitz","folder":"tf","game":"Team Fortress","app_id":440,"player_count":0,"max_players":24,"Bots":0,"server_type":"Dedicated","server_os":"Linux","password":true,"vac":true,"version":"7757534","steam_id":85568392925397852,"keywords":["nocrits","nodmgspread","payload","uncletopia"],"game_id":440,"stv_port":27036,"stv_name":"Uncletopia | Warsaw | 3 | All Maps | STV","players":null},{"server_id":52,"name":"Uncletopia | Warsaw | 4 | All Maps","name_short":"waw-4","host":"waw-1.pl.uncletopia.com","port":27045,"enabled":true,"region":"eu","cc":"pl","latitude":52.2297,"longitude":21.017532,"reserved":0,"last_update":"0001-01-01T00:00:00Z","name_a2s":"Uncletopia | Warsaw | 4 | All Maps","protocol":17,"map":"pl_swiftwater_final1","folder":"tf","game":"Team Fortress","app_id":440,"player_count":0,"max_players":24,"Bots":0,"server_type":"Dedicated","server_os":"Linux","password":true,"vac":true,"version":"7757534","steam_id":85568392925397853,"keywords":["nocrits","nodmgspread","payload","uncletopia"],"game_id":440,"stv_port":27046,"stv_name":"Uncletopia | Warsaw | 4 | All Maps | STV","players":null},{"server_id":53,"name":"Uncletopia | Warsaw | 5 | Stopwatch Beta","name_short":"waw-5","host":"waw-1.pl.uncletopia.com","port":27055,"enabled":true,"region":"eu","cc":"pl","latitude":52.2297,"longitude":21.017532,"reserved":0,"last_update":"0001-01-01T00:00:00Z","name_a2s":"Uncletopia | Warsaw | 5 | Stopwatch Beta","protocol":17,"map":"pl_pier","folder":"tf","game":"Team Fortress","app_id":440,"player_count":0,"max_players":24,"Bots":0,"server_type":"Dedicated","server_os":"Linux","password":true,"vac":true,"version":"7757534","steam_id":85568392925397854,"keywords":["nocrits","nodmgspread","payload","uncletopia"],"game_id":440,"stv_port":27056,"stv_name":"Uncletopia | Warsaw | 5 | Stopwatch Beta | STV","players":null},{"server_id":54,"name":"Uncletopia | Warsaw | 6 | Community","name_short":"waw-6","host":"waw-1.pl.uncletopia.com","port":27065,"enabled":true,"region":"eu","cc":"pl","latitude":52.2297,"longitude":21.017532,"reserved":0,"last_update":"0001-01-01T00:00:00Z","name_a2s":"Uncletopia | Warsaw | 6 | Community","protocol":17,"map":"koth_highpass","folder":"tf","game":"Team Fortress","app_id":440,"player_count":0,"max_players":24,"Bots":0,"server_type":"Dedicated","server_os":"Linux","password":true,"vac":true,"version":"7757534","steam_id":85568392925397856,"keywords":["cp","nocrits","nodmgspread","uncletopia"],"game_id":440,"stv_port":27066,"stv_name":"Uncletopia | Warsaw | 6 | Community | STV","players":null}]}