{"status":true,"message":"","result":[{"server_id":9,"name":"Uncletopia | Atlanta | 1 | All Maps","name_short":"atl-1","host":"atl-1.us.uncletopia.com","port":27015,"enabled":true,"region":"us-east","cc":"us","latitude":33.753746,"longitude":-84.38633,"reserved":0,"last_update":"0001-01-01T00:00:00Z","name_a2s":"Uncletopia | Atlanta | 1 | All Maps","protocol":17,"map":"cp_foundry","folder":"tf","game":"Team Fortress","app_id":440,"player_count":24,"max_players":24,"Bots":0,"server_type":"Dedicated","server_os":"Linux","password":true,"vac":true,"version":"7882260","steam_id":85568392924469982,"keywords":["cp","nocrits","nodmgspread","uncletopia"],"game_id":440,"stv_port":27016,"stv_name":"Uncletopia | Atlanta | 1 | All Maps | STV","players":[{"user_id":173,"name":"Soju","steam_id":76561198044130442,"connected_time":5021000000000,"state":"active","ping":89},{"user_id":150,"name":"lukiepills","steam_id":76561199020587077,"connected_time":7637000000000,"state":"active","ping":60},{"user_id":158,"name":"lynt","steam_id":76561198988333976,"connected_time":6623000000000,"state":"active","ping":44},{"user_id":198,"name":"Onyx","steam_id":76561198275349640,"connected_time":2443000000000,"state":"active","ping":75},{"user_id":199,"name":"LarryjusttLarry","steam_id":76561198982810452,"connected_time":2440000000000,"state":"active","ping":89},{"user_id":207,"name":"Motreir","steam_id":76561198151717946,"connected_time":1617000000000,"state":"active","ping":75},{"user_id":202,"name":"--_Cook_--","steam_id":76561198080855748,"connected_time":2204000000000,"state":"active","ping":47},{"user_id":167,"name":"FHC | Nyle","steam_id":76561198045652639,"connected_time":5699000000000,"state":"active","ping":115},{"user_id":208,"name":"Sha-Woompa","steam_id":76561199068063459,"connected_time":1586000000000,"state":"active","ping":81},{"user_id":197,"name":"boylover54","steam_id":76561199030726701,"connected_time":2455000000000,"state":"active","ping":99},{"user_id":206,"name":"blunderly","steam_id":76561198131915334,"connected_time":1693000000000,"state":"active","ping":80},{"user_id":214,"name":"Fluff","steam_id":76561198255399052,"connected_time":721000000000,"state":"active","ping":60},{"user_id":201,"name":"V!CT!M","steam_id":76561198962721502,"connected_time":2414000000000,"state":"active","ping":86},{"user_id":203,"name":"the game","steam_id":76561199178567308,"connected_time":2128000000000,"state":"active","ping":95},{"user_id":211,"name":"Shrimply The Best","steam_id":76561199234166550,"connected_time":1286000000000,"state":"active","ping":71},{"user_id":77,"name":"BIG HOG","steam_id":76561198079923652,"connected_time":14554000000000,"state":"active","ping":63},{"user_id":204,"name":"Towns","steam_id":76561198984662863,"connected_time":2074000000000,"state":"active","ping":55},{"user_id":215,"name":"Chapter Master","steam_id":76561198799698323,"connected_time":417000000000,"state":"active","ping":117},{"user_id":200,"name":"Karma","steam_id":76561198030565234,"connected_time":2440000000000,"state":"active","ping":71},{"user_id":210,"name":"Reno","steam_id":76561198098435350,"connected_time":1502000000000,"state":"active","ping":84},{"user_id":81,"name":"lil hog","steam_id":76561199230929836,"connected_time":14476000000000,"state":"active","ping":77},{"user_id":205,"name":"PerpetuaForever","steam_id":76561198347444353,"connected_time":1727000000000,"state":"active","ping":80},{"user_id":218,"name":"Inkmix(boopberrylover)","steam_id":76561198854070384,"connected_time":237000000000,"state":"active","ping":107},{"user_id":190,"name":"chexo4","steam_id":76561198150532531,"connected_time":3528000000000,"state":"active","ping":51}]},{"server_id":104,"name":"Uncletopia | Atlanta | 2 | All Maps","name_short":"atl-2","host":"atl-1.us.uncletopia.com","port":27025,"enabled":true,"region":"us-east","cc":"us","latitude":33.753746,"longitude":-84.38633,"reserved":0,"last_update":"0001-01-01T00:00:00Z","name_a2s":"Uncletopia | Atlanta | 2 | All Maps","protocol":17,"map":"cp_dustbowl","folder":"tf","game":"Team Fortress","app_id":440,"player_count":23,"max_players":24,"Bots":0,"server_type":"Dedicated","server_os":"Linux","password":true,"vac":true,"version":"7882260","steam_id":85568392924469983,"keywords":["cp","nocrits","nodmgspread","uncletopia"],"game_id":440,"stv_port":27026,"stv_name":"Uncletopia | Atlanta | 2 | All Maps | STV","players":[{"user_id":114,"name":"Yolo","steam_id":76561198156406777,"connected_time":10047000000000,"state":"active","ping":144},{"user_id":204,"name":"morbius (real)","steam_id":76561198396414319,"connected_time":2712000000000,"state":"active","ping":105},{"user_id":197,"name":"bogus binted","steam_id":76561198203329842,"connected_time":3473000000000,"state":"active","ping":71},{"user_id":215,"name":"Dietrich","steam_id":76561198028163840,"connected_time":1172000000000,"state":"active","ping":80},{"user_id":177,"name":"WeebMeisterJoel","steam_id":76561198124159574,"connected_time":5007000000000,"state":"active","ping":90},{"user_id":224,"name":"The Third Degree Enjoyer","steam_id":76561198929936926,"connected_time":109000000000,"state":"active","ping":67},{"user_id":225,"name":"good soup guy","steam_id":76561199210237835,"connected_time":77000000000,"state":"active","ping":93},{"user_id":179,"name":"drood","steam_id":76561198000300475,"connected_time":4755000000000,"state":"active","ping":73},{"user_id":178,"name":"brg","steam_id":76561197998415548,"connected_time":4806000000000,"state":"active","ping":72},{"user_id":221,"name":"RyInc","steam_id":76561198874261643,"connected_time":739000000000,"state":"active","ping":66},{"user_id":216,"name":"carbuzz","steam_id":76561198129361580,"connected_time":1148000000000,"state":"active","ping":143},{"user_id":219,"name":"Sheriff Thumbs!","steam_id":76561198090284752,"connected_time":815000000000,"state":"active","ping":57},{"user_id":211,"name":"Justin","steam_id":76561198271757080,"connected_time":1475000000000,"state":"active","ping":64},{"user_id":226,"name":"D317A","steam_id":76561199086804988,"connected_time":73000000000,"state":"active","ping":66},{"user_id":223,"name":"Broadsword","steam_id":76561198011160411,"connected_time":556000000000,"state":"active","ping":63},{"user_id":227,"name":"Warlock","steam_id":76561198801747883,"connected_time":15000000000,"state":"active","ping":84},{"user_id":213,"name":"Jeeper","steam_id":76561198155583692,"connected_time":1452000000000,"state":"active","ping":67},{"user_id":220,"name":"@man","steam_id":76561198068324749,"connected_time":806000000000,"state":"active","ping":71},{"user_id":198,"name":"a hedgehog","steam_id":76561198019010682,"connected_time":3316000000000,"state":"active","ping":60},{"user_id":201,"name":"Acro Banwagon","steam_id":76561198092451804,"connected_time":2933000000000,"state":"active","ping":74},{"user_id":217,"name":"the comedian","steam_id":76561198984762462,"connected_time":1143000000000,"state":"active","ping":101},{"user_id":222,"name":"thorium","steam_id":76561197994750753,"connected_time":668000000000,"state":"active","ping":66},{"user_id":174,"name":"Gnome Tank","steam_id":76561198984179092,"connected_time":5457000000000,"state":"active","ping":73}]},{"server_id":400,"name":"Uncletopia | Atlanta | 3 | Community","name_short":"atl-3","host":"atl-1.us.uncletopia.com","port":27035,"enabled":true,"region":"us-east","cc":"us","latitude":33.753746,"longitude":-84.38633,"reserved":0,"last_update":"0001-01-01T00:00:00Z","name_a2s":"Uncletopia | Atlanta | 3 | Community","protocol":17,"map":"workshop/pl_fifthcurve_rc1.ugc648227046","folder":"tf","game":"Team Fortress","app_id":440,"player_count":21,"max_players":24,"Bots":0,"server_type":"Dedicated","server_os":"Linux","password":true,"vac":true,"version":"7882260","steam_id":85568392924515187,"keywords":["nocrits","nodmgspread","payload","uncletopia"],"game_id":440,"stv_port":27036,"stv_name":"Uncletopia | Atlanta | 3 | Community | STV","players":[{"user_id":21,"name":"Rin \"Hindwing\" Redtail","steam_id":76561199074865638,"connected_time":609000000000,"state":"active","ping":57},{"user_id":12,"name":"OnlyError","steam_id":76561199122000011,"connected_time":1405000000000,"state":"active","ping":126},{"user_id":13,"name":"Aeonspassed","steam_id":76561198014016451,"connected_time":1391000000000,"state":"active","ping":81},{"user_id":30,"name":"WASTEDTALENT247","steam_id":76561199444251416,"connected_time":197000000000,"state":"active","ping":68},{"user_id":15,"name":"nfseskimo","steam_id":76561198078745666,"connected_time":1243000000000,"state":"active","ping":110},{"user_id":16,"name":"Elflocky","steam_id":76561199096852639,"connected_time":1154000000000,"state":"active","ping":69},{"user_id":31,"name":"JimGrimm","steam_id":76561198044573050,"connected_time":170000000000,"state":"active","ping":74},{"user_id":18,"name":"PieMatt","steam_id":76561198356272670,"connected_time":778000000000,"state":"active","ping":89},{"user_id":19,"name":"Kirboidal","steam_id":76561199158833991,"connected_time":746000000000,"state":"active","ping":92},{"user_id":20,"name":"Cafe_Doonut","steam_id":76561199130150499,"connected_time":651000000000,"state":"active","ping":86},{"user_id":22,"name":"Jazz Piano Man","steam_id":76561199226367438,"connected_time":572000000000,"state":"active","ping":156},{"user_id":23,"name":"Iron Argus","steam_id":76561198181088245,"connected_time":561000000000,"state":"active","ping":86},{"user_id":24,"name":"Sapperman126","steam_id":76561198939102936,"connected_time":498000000000,"state":"active","ping":61},{"user_id":25,"name":"mycoolcucumber","steam_id":76561198177586211,"connected_time":485000000000,"state":"active","ping":84},{"user_id":36,"name":"greeno","steam_id":76561198109901138,"connected_time":3000000000,"state":"spawning","ping":78},{"user_id":27,"name":"Doctor Glocktorpus [NGC]","steam_id":76561198049194645,"connected_time":421000000000,"state":"active","ping":67},{"user_id":29,"name":"spiffy_craft","steam_id":76561198318830806,"connected_time":368000000000,"state":"active","ping":69},{"user_id":32,"name":"Lost CS player","steam_id":76561198892387723,"connected_time":157000000000,"state":"active","ping":70},{"user_id":33,"name":"Giant Dad","steam_id":76561198042088837,"connected_time":94000000000,"state":"active","ping":66},{"user_id":34,"name":"cass","steam_id":76561198074502046,"connected_time":86000000000,"state":"active","ping":60},{"user_id":35,"name":"uzr","steam_id":76561198799343084,"connected_time":49000000000,"state":"active","ping":107}]},{"server_id":401,"name":"Uncletopia | Atlanta | 4 | No Payload","name_short":"atl-4","host":"atl-1.us.uncletopia.com","port":27045,"enabled":true,"region":"us-east","cc":"us","latitude":33.753746,"longitude":-84.38633,"reserved":0,"last_update":"0001-01-01T00:00:00Z","name_a2s":"","protocol":0,"map":"","folder":"","game":"","app_id":0,"player_count":0,"max_players":0,"Bots":0,"server_type":"","server_os":"","password":false,"vac":false,"version":"","steam_id":0,"keywords":null,"game_id":0,"stv_port":0,"stv_name":"","players":null},{"server_id":2,"name":"Uncletopia | Chicago | 1 | All Maps","name_short":"chi-1","host":"chi-1.us.uncletopia.com","port":27015,"enabled":true,"region":"us-central","cc":"us","latitude":41.881832,"longitude":-87.62318,"reserved":0,"last_update":"0001-01-01T00:00:00Z","name_a2s":"Uncletopia | Chicago | 1 | All Maps","protocol":17,"map":"koth_viaduct","folder":"tf","game":"Team Fortress","app_id":440,"player_count":24,"max_players":24,"Bots":0,"server_type":"Dedicated","server_os":"Linux","password":true,"vac":true,"version":"7882260","steam_id":85568392924469984,"keywords":["cp","nocrits","nodmgspread","uncletopia"],"game_id":440,"stv_port":27016,"stv_name":"Uncletopia | Chicago | 1 | All Maps | STV","players":[{"user_id":340,"name":"BradB","steam_id":76561199163905036,"connected_time":442000000000,"state":"active","ping":74},{"user_id":308,"name":"uhooter","steam_id":76561198007829078,"connected_time":2561000000000,"state":"active","ping":48},{"user_id":332,"name":"Archsam","steam_id":76561198137828616,"connected_time":762000000000,"state":"active","ping":147},{"user_id":339,"name":"GoofyAhGamingGuy","steam_id":76561199331315881,"connected_time":592000000000,"state":"active","ping":98},{"user_id":302,"name":"Fiendss","steam_id":76561198026186354,"connected_time":3471000000000,"state":"active","ping":88},{"user_id":344,"name":"Ringo x Seiran","steam_id":76561198357437908,"connected_time":120000000000,"state":"active","ping":62},{"user_id":325,"name":"The Silkyest of Boys","steam_id":76561198320921269,"connected_time":1068000000000,"state":"active","ping":91},{"user_id":345,"name":"PhaserLazer","steam_id":76561198407341298,"connected_time":116000000000,"state":"active","ping":73},{"user_id":305,"name":"jpuck","steam_id":76561198025018960,"connected_time":2863000000000,"state":"active","ping":70},{"user_id":342,"name":"Leafpool Enjoyer (Warrior Cats)","steam_id":76561198123549027,"connected_time":285000000000,"state":"active","ping":67},{"user_id":337,"name":"Rat (real)","steam_id":76561198302366619,"connected_time":637000000000,"state":"active","ping":102},{"user_id":307,"name":"CyberZayne","steam_id":76561198002351356,"connected_time":2680000000000,"state":"active","ping":98},{"user_id":333,"name":"Bon Gripper","steam_id":76561198090074621,"connected_time":753000000000,"state":"active","ping":61},{"user_id":329,"name":"groond","steam_id":76561198309426720,"connected_time":942000000000,"state":"active","ping":61},{"user_id":334,"name":"Raydn","steam_id":76561198418414338,"connected_time":750000000000,"state":"active","ping":81},{"user_id":306,"name":"DrD","steam_id":76561198067266383,"connected_time":2803000000000,"state":"active","ping":79},{"user_id":317,"name":"Michaelpc1","steam_id":76561198088365519,"connected_time":2051000000000,"state":"active","ping":76},{"user_id":289,"name":"blood bath","steam_id":76561199001918194,"connected_time":5006000000000,"state":"active","ping":117},{"user_id":341,"name":"bananalover5","steam_id":76561199143854578,"connected_time":403000000000,"state":"active","ping":88},{"user_id":260,"name":"hoOmIN","steam_id":76561198334947079,"connected_time":7136000000000,"state":"active","ping":90},{"user_id":331,"name":"DonoC","steam_id":76561198274473338,"connected_time":770000000000,"state":"active","ping":77},{"user_id":291,"name":"Lost","steam_id":76561198093713427,"connected_time":4672000000000,"state":"active","ping":60},{"user_id":318,"name":"fish","steam_id":76561198381953108,"connected_time":2039000000000,"state":"active","ping":60},{"user_id":346,"name":"Lunacy","steam_id":76561199386273760,"connected_time":110000000000,"state":"active","ping":112}]},{"server_id":106,"name":"Uncletopia | Chicago | 2 | All Maps","name_short":"chi-2","host":"chi-1.us.uncletopia.com","port":27025,"enabled":true,"region":"us-central","cc":"us","latitude":41.881832,"longitude":-87.62318,"reserved":0,"last_update":"0001-01-01T00:00:00Z","name_a2s":"Uncletopia | Chicago | 2 | All Maps","protocol":17,"map":"pl_frontier_final","folder":"tf","game":"Team Fortress","app_id":440,"player_count":24,"max_players":24,"Bots":0,"server_type":"Dedicated","server_os":"Linux","password":true,"vac":true,"version":"7882260","steam_id":85568392924469985,"keywords":["nocrits","nodmgspread","payload","uncletopia"],"game_id":440,"stv_port":27026,"stv_name":"Uncletopia | Chicago | 2 | All Maps | STV","players":[{"user_id":185,"name":"bad","steam_id":76561199106343854,"connected_time":211000000000,"state":"active","ping":66},{"user_id":146,"name":"threethree","steam_id":76561198177354155,"connected_time":3129000000000,"state":"active","ping":44},{"user_id":177,"name":"Wookie257","steam_id":76561198984452441,"connected_time":713000000000,"state":"active","ping":72},{"user_id":157,"name":"cactus eater","steam_id":76561199107499844,"connected_time":2249000000000,"state":"active","ping":111},{"user_id":182,"name":"Single Dad","steam_id":76561198036327396,"connected_time":288000000000,"state":"active","ping":63},{"user_id":159,"name":"CacoDemon","steam_id":76561199122784612,"connected_time":2149000000000,"state":"active","ping":183},{"user_id":161,"name":"Bocchi the Cock","steam_id":76561198152455316,"connected_time":1766000000000,"state":"active","ping":116},{"user_id":162,"name":"if i kill you do 5 push-ups","steam_id":76561198337692867,"connected_time":1762000000000,"state":"active","ping":72},{"user_id":165,"name":"HTA","steam_id":76561198043879140,"connected_time":1661000000000,"state":"active","ping":46},{"user_id":143,"name":"HEAVY PIN","steam_id":76561199060062825,"connected_time":3150000000000,"state":"active","ping":84},{"user_id":186,"name":"Jimothy Pickens","steam_id":76561199020884797,"connected_time":206000000000,"state":"active","ping":64},{"user_id":189,"name":"capybara","steam_id":76561198182288455,"connected_time":84000000000,"state":"active","ping":82},{"user_id":187,"name":"Ricky Dicky Doo Dah Grimes","steam_id":76561198143221900,"connected_time":202000000000,"state":"active","ping":60},{"user_id":166,"name":"The Pan Man From Slavic Land","steam_id":76561198401875841,"connected_time":1445000000000,"state":"active","ping":46},{"user_id":130,"name":"Bee_Pirate","steam_id":76561199000599111,"connected_time":4172000000000,"state":"active","ping":66},{"user_id":168,"name":"Super Ghostbusters (Full Album)","steam_id":76561198057415490,"connected_time":1432000000000,"state":"active","ping":54},{"user_id":163,"name":"SubZeroDestruction","steam_id":76561198145082209,"connected_time":1745000000000,"state":"active","ping":70},{"user_id":147,"name":"indi","steam_id":76561198045917538,"connected_time":3128000000000,"state":"active","ping":46},{"user_id":154,"name":"Soul_Intern","steam_id":76561198310238109,"connected_time":2516000000000,"state":"active","ping":93},{"user_id":115,"name":"♥Mommy Cadence♥","steam_id":76561199477663347,"connected_time":5301000000000,"state":"active","ping":90},{"user_id":180,"name":"ipodnova-Aura","steam_id":76561198272353485,"connected_time":428000000000,"state":"active","ping":68},{"user_id":172,"name":"Lovedaddy","steam_id":76561198006569710,"connected_time":1198000000000,"state":"active","ping":84},{"user_id":188,"name":"Extinct","steam_id":76561199013696367,"connected_time":97000000000,"state":"active","ping":64}]},{"server_id":402,"name":"Uncletopia | Chicago | 3 | All Maps","name_short":"chi-3","host":"chi-1.us.uncletopia.com","port":27035,"enabled":true,"region":"us-central","cc":"us","latitude":41.881832,"longitude":-87.62318,"reserved":0,"last_update":"0001-01-01T00:00:00Z","name_a2s":"Uncletopia | Chicago | 3 | All Maps","protocol":17,"map":"cp_mossrock","folder":"tf","game":"Team Fortress","app_id":440,"player_count":24,"max_players":24,"Bots":0,"server_type":"Dedicated","server_os":"Linux","password":true,"vac":true,"version":"7882260","steam_id":85568392924515191,"keywords":["cp","nocrits","nodmgspread","uncletopia"],"game_id":440,"stv_port":27036,"stv_name":"Uncletopia | Chicago | 3 | All Maps | STV","players":[{"user_id":150,"name":"The World's Softest Sandwich","steam_id":76561198015577707,"connected_time":2904000000000,"state":"active","ping":69},{"user_id":187,"name":"alpha1zer0ready","steam_id":76561199206731331,"connected_time":375000000000,"state":"active","ping":95},{"user_id":199,"name":"Ashine","steam_id":76561199001771988,"connected_time":7000000000,"state":"spawning","ping":62},{"user_id":190,"name":"typhoon","steam_id":76561198165123178,"connected_time":231000000000,"state":"active","ping":75},{"user_id":179,"name":"PlanktonTheWayICumBuckets","steam_id":76561198074678273,"connected_time":980000000000,"state":"active","ping":51},{"user_id":191,"name":"ǰếţţ ヅ","steam_id":76561198355883165,"connected_time":227000000000,"state":"active","ping":80},{"user_id":180,"name":"Lieutenant Laxative","steam_id":76561198044721722,"connected_time":746000000000,"state":"active","ping":81},{"user_id":192,"name":"Rukks","steam_id":76561197993918954,"connected_time":211000000000,"state":"active","ping":86},{"user_id":195,"name":"brett","steam_id":76561198799740059,"connected_time":194000000000,"state":"active","ping":76},{"user_id":163,"name":"Mirro","steam_id":76561198042182392,"connected_time":1628000000000,"state":"active","ping":69},{"user_id":193,"name":"B o o g","steam_id":76561199267535506,"connected_time":203000000000,"state":"active","ping":68},{"user_id":172,"name":"Letters","steam_id":76561198035508148,"connected_time":1043000000000,"state":"active","ping":91},{"user_id":121,"name":"HollowMan","steam_id":76561198967266827,"connected_time":5008000000000,"state":"active","ping":105},{"user_id":194,"name":"DualiTea","steam_id":76561198081733870,"connected_time":199000000000,"state":"active","ping":47},{"user_id":197,"name":"DRX","steam_id":76561198190639950,"connected_time":175000000000,"state":"active","ping":105},{"user_id":183,"name":"NoExit","steam_id":76561198065725996,"connected_time":613000000000,"state":"active","ping":100},{"user_id":188,"name":"top 0 controller player","steam_id":76561198188742162,"connected_time":359000000000,"state":"active","ping":362},{"user_id":158,"name":"the headphones you lost","steam_id":76561199201098634,"connected_time":2325000000000,"state":"active","ping":58},{"user_id":196,"name":"Brock Obama","steam_id":76561198094643755,"connected_time":191000000000,"state":"active","ping":75},{"user_id":137,"name":"abed","steam_id":76561198072856511,"connected_time":3303000000000,"state":"active","ping":95},{"user_id":177,"name":"Griffin","steam_id":76561198159339442,"connected_time":1021000000000,"state":"active","ping":68},{"user_id":147,"name":"Fresh Lychee","steam_id":76561198045399559,"connected_time":2983000000000,"state":"active","ping":58},{"user_id":198,"name":"Mr. Pink","steam_id":76561198065858172,"connected_time":103000000000,"state":"active","ping":72},{"user_id":184,"name":"Everything is lies!","steam_id":76561198044338811,"connected_time":611000000000,"state":"active","ping":49}]},{"server_id":403,"name":"Uncletopia | Chicago | 4 | All Maps","name_short":"chi-4","host":"chi-1.us.uncletopia.com","port":27045,"enabled":true,"region":"us-central","cc":"us","latitude":41.881832,"longitude":-87.62318,"reserved":0,"last_update":"0001-01-01T00:00:00Z","name_a2s":"Uncletopia | Chicago | 4 | All Maps","protocol":17,"map":"koth_cascade","folder":"tf","game":"Team Fortress","app_id":440,"player_count":0,"max_players":24,"Bots":0,"server_type":"Dedicated","server_os":"Linux","password":true,"vac":true,"version":"7882260","steam_id":85568392924515193,"keywords":["cp","nocrits","nodmgspread","uncletopia"],"game_id":440,"stv_port":27046,"stv_name":"Uncletopia | Chicago | 4 | All Maps | STV","players":null},{"server_id":36,"name":"Uncletopia | Chicago | 5 | All Maps","name_short":"chi-5","host":"chi-2.us.uncletopia.com","port":27015,"enabled":true,"region":"us-central","cc":"us","latitude":41.881832,"longitude":-87.62318,"reserved":0,"last_update":"0001-01-01T00:00:00Z","name_a2s":"Uncletopia | Chicago | 5 | All Maps","protocol":17,"map":"pl_upward","folder":"tf","game":"Team Fortress","app_id":440,"player_count":24,"max_players":24,"Bots":0,"server_type":"Dedicated","server_os":"Linux","password":true,"vac":true,"version":"7882260","steam_id":85568392924866362,"keywords":["nocrits","nodmgspread","payload","uncletopia"],"game_id":440,"stv_port":27016,"stv_name":"Uncletopia | Chicago | 5 | All Maps | STV","players":[{"user_id":244,"name":"Я","steam_id":76561198083276946,"connected_time":5780000000000,"state":"active","ping":66},{"user_id":301,"name":"judesro","steam_id":76561198352244888,"connected_time":213000000000,"state":"active","ping":70},{"user_id":292,"name":"Fiendish Frog","steam_id":76561198029478821,"connected_time":1131000000000,"state":"active","ping":71},{"user_id":286,"name":"cooluser.exe","steam_id":76561198215142075,"connected_time":1552000000000,"state":"active","ping":60},{"user_id":280,"name":"God (real)","steam_id":76561198131089513,"connected_time":2035000000000,"state":"active","ping":45},{"user_id":299,"name":"31 ☾","steam_id":76561198232617936,"connected_time":266000000000,"state":"active","ping":89},{"user_id":268,"name":"HideOnTate","steam_id":76561198209880837,"connected_time":3968000000000,"state":"active","ping":79},{"user_id":300,"name":"badbadnotgood","steam_id":76561199132802395,"connected_time":263000000000,"state":"active","ping":121},{"user_id":264,"name":"gorf?","steam_id":76561198142286417,"connected_time":4553000000000,"state":"active","ping":89},{"user_id":275,"name":"Whalemart","steam_id":76561198220579991,"connected_time":3194000000000,"state":"active","ping":108},{"user_id":249,"name":"Drew P. Sack","steam_id":76561198036201738,"connected_time":5682000000000,"state":"active","ping":55},{"user_id":302,"name":"Wandela","steam_id":76561198093703558,"connected_time":167000000000,"state":"active","ping":69},{"user_id":298,"name":"TG黑暗魔法Bl4ckDmon","steam_id":76561198099591549,"connected_time":624000000000,"state":"active","ping":70},{"user_id":279,"name":"Honey bun","steam_id":76561198093518222,"connected_time":2402000000000,"state":"active","ping":60},{"user_id":303,"name":"Smiles","steam_id":76561198107197973,"connected_time":112000000000,"state":"active","ping":59},{"user_id":304,"name":"Scrux","steam_id":76561198129763115,"connected_time":106000000000,"state":"active","ping":104},{"user_id":217,"name":"Margo_Rae","steam_id":76561198035046430,"connected_time":8564000000000,"state":"active","ping":88},{"user_id":287,"name":"watchfull","steam_id":76561198433266742,"connected_time":1525000000000,"state":"active","ping":100},{"user_id":281,"name":"Horizontally Spinning Rat(Real)","steam_id":76561199083035892,"connected_time":1962000000000,"state":"active","ping":93},{"user_id":288,"name":"CPU","steam_id":76561199029383454,"connected_time":1523000000000,"state":"active","ping":73},{"user_id":265,"name":"r0zemary (she/her)","steam_id":76561198128494897,"connected_time":4511000000000,"state":"active","ping":88},{"user_id":289,"name":"Yeahboiiii","steam_id":76561198390325068,"connected_time":1523000000000,"state":"active","ping":77},{"user_id":291,"name":"CinnamonBoy","steam_id":76561198882330338,"connected_time":1513000000000,"state":"active","ping":71},{"user_id":297,"name":"ATastyDonut","steam_id":76561198984819894,"connected_time":657000000000,"state":"active","ping":65}]},{"server_id":37,"name":"Uncletopia | Chicago | 6 | All Maps","name_short":"chi-6","host":"chi-2.us.uncletopia.com","port":27025,"enabled":true,"region":"us-central","cc":"us","latitude":41.881832,"longitude":-87.62318,"reserved":0,"last_update":"0001-01-01T00:00:00Z","name_a2s":"Uncletopia | Chicago | 6 | All Maps","protocol":17,"map":"ctf_2fort","folder":"tf","game":"Team Fortress","app_id":440,"player_count":24,"max_players":24,"Bots":0,"server_type":"Dedicated","server_os":"Linux","password":true,"vac":true,"version":"7882260","steam_id":85568392924866363,"keywords":["ctf","nocrits","nodmgspread","uncletopia"],"game_id":440,"stv_port":27026,"stv_name":"Uncletopia | Chicago | 6 | All Maps | STV","players":[{"user_id":45,"name":"bouncyballs.com","steam_id":76561198236166288,"connected_time":2655000000000,"state":"active","ping":81},{"user_id":90,"name":"john dark soul","steam_id":76561198072826791,"connected_time":33000000000,"state":"active","ping":64},{"user_id":84,"name":"I C U P","steam_id":76561198349252490,"connected_time":609000000000,"state":"active","ping":68},{"user_id":63,"name":"Mookie Burns","steam_id":76561199202153909,"connected_time":1723000000000,"state":"active","ping":78},{"user_id":55,"name":"nat","steam_id":76561198865090309,"connected_time":2362000000000,"state":"active","ping":87},{"user_id":68,"name":"derz","steam_id":76561198010742216,"connected_time":982000000000,"state":"active","ping":56},{"user_id":86,"name":"Spaghetti","steam_id":76561198019383013,"connected_time":486000000000,"state":"active","ping":66},{"user_id":56,"name":"gun spy","steam_id":76561198929646112,"connected_time":2340000000000,"state":"active","ping":81},{"user_id":70,"name":"The Real Jetpack Jackson","steam_id":76561199009471455,"connected_time":975000000000,"state":"active","ping":105},{"user_id":61,"name":"Bee","steam_id":76561198074681324,"connected_time":1808000000000,"state":"active","ping":65},{"user_id":50,"name":"Jasper Zawn","steam_id":76561198077651204,"connected_time":2511000000000,"state":"active","ping":77},{"user_id":22,"name":"PRAYTOGARFIELD","steam_id":76561198329035044,"connected_time":3393000000000,"state":"active","ping":53},{"user_id":71,"name":"Cheesi","steam_id":76561199417190840,"connected_time":964000000000,"state":"active","ping":68},{"user_id":24,"name":"That_shroomy_boi","steam_id":76561199107324153,"connected_time":3340000000000,"state":"active","ping":86},{"user_id":72,"name":"blossom","steam_id":76561198042735130,"connected_time":920000000000,"state":"active","ping":104},{"user_id":89,"name":"Pope / Vipergg78","steam_id":76561198387443076,"connected_time":188000000000,"state":"active","ping":45},{"user_id":74,"name":"TheGhostThatWas","steam_id":76561198055836483,"connected_time":894000000000,"state":"active","ping":60},{"user_id":65,"name":"Chuckles_Tuckles","steam_id":76561198962754911,"connected_time":1266000000000,"state":"active","ping":60},{"user_id":79,"name":"just jazz","steam_id":76561198010637797,"connected_time":750000000000,"state":"active","ping":75},{"user_id":80,"name":"tinkercrab11","steam_id":76561198881792140,"connected_time":726000000000,"state":"active","ping":83},{"user_id":87,"name":"volume_knob","steam_id":76561198333345456,"connected_time":342000000000,"state":"active","ping":57},{"user_id":64,"name":"Amagur","steam_id":76561198966847435,"connected_time":1531000000000,"state":"active","ping":101},{"user_id":51,"name":"Crab Shack #savetf2","steam_id":76561198187973071,"connected_time":2481000000000,"state":"active","ping":59},{"user_id":52,"name":"86","steam_id":76561198843258044,"connected_time":2453000000000,"state":"active","ping":66}]},{"server_id":38,"name":"Uncletopia | Chicago | 7 | Stopwatch Beta","name_short":"chi-7","host":"chi-2.us.uncletopia.com","port":27035,"enabled":true,"region":"us-central","cc":"us","latitude":41.881832,"longitude":-87.62318,"reserved":0,"last_update":"0001-01-01T00:00:00Z","name_a2s":"Uncletopia | Chicago | 7 | Stopwatch Beta","protocol":17,"map":"workshop/koth_product_final.ugc454272353","folder":"tf","game":"Team Fortress","app_id":440,"player_count":0,"max_players":24,"Bots":0,"server_type":"Dedicated","server_os":"Linux","password":true,"vac":true,"version":"7882260","steam_id":85568392924866364,"keywords":["cp","nocrits","nodmgspread","uncletopia"],"game_id":440,"stv_port":27036,"stv_name":"Uncletopia | Chicago | 7 | Stopwatch Beta | STV","players":null},{"server_id":39,"name":"Uncletopia | Chicago | 8 | Community","name_short":"chi-8","host":"chi-2.us.uncletopia.com","port":27045,"enabled":true,"region":"us-central","cc":"us","latitude":41.881832,"longitude":-87.62318,"reserved":0,"last_update":"0001-01-01T00:00:00Z","name_a2s":"Uncletopia | Chicago | 8 | Community","protocol":17,"map":"workshop/cp_overgrown_rc7b.ugc503939302","folder":"tf","game":"Team Fortress","app_id":440,"player_count":0,"max_players":24,"Bots":0,"server_type":"Dedicated","server_os":"Linux","password":true,"vac":true,"version":"7882260","steam_id":85568392924866365,"keywords":["cp","nocrits","nodmgspread","uncletopia"],"game_id":440,"stv_port":27046,"stv_name":"Uncletopia | Chicago | 8 | Community | STV","players":null},{"server_id":8,"name":"Uncletopia | Dallas | 1 | All Maps","name_short":"dal-1","host":"dal-1.us.uncletopia.com","port":27015,"enabled":true,"region":"us-central","cc":"us","latitude":32.779167,"longitude":-96.80889,"reserved":0,"last_update":"0001-01-01T00:00:00Z","name_a2s":"Uncletopia | Dallas | 1 | All Maps","protocol":17,"map":"pl_barnblitz","folder":"tf","game":"Team Fortress","app_id":440,"player_count":24,"max_players":24,"Bots":0,"server_type":"Dedicated","server_os":"Linux","password":true,"vac":true,"version":"7882260","steam_id":85568392924469986,"keywords":["nocrits","nodmgspread","payload","uncletopia"],"game_id":440,"stv_port":27016,"stv_name":"Uncletopia | Dallas | 1 | All Maps | STV","players":[{"user_id":306,"name":"Hiser","steam_id":76561198308193624,"connected_time":2043000000000,"state":"active","ping":63},{"user_id":333,"name":"TheDieeg","steam_id":76561199443116996,"connected_time":335000000000,"state":"active","ping":72},{"user_id":299,"name":"lofile :]","steam_id":76561198083798918,"connected_time":2709000000000,"state":"active","ping":75},{"user_id":128,"name":"Pheonix","steam_id":76561199470538309,"connected_time":11919000000000,"state":"active","ping":108},{"user_id":174,"name":"Hatfam","steam_id":76561199192629036,"connected_time":8860000000000,"state":"active","ping":100},{"user_id":323,"name":"RysN Yeen ♥","steam_id":76561198105359319,"connected_time":1128000000000,"state":"active","ping":69},{"user_id":287,"name":"skindiver376","steam_id":76561198056533071,"connected_time":3539000000000,"state":"active","ping":172},{"user_id":325,"name":"Junkers","steam_id":76561198047285126,"connected_time":922000000000,"state":"active","ping":60},{"user_id":332,"name":"Nexum","steam_id":76561198094203776,"connected_time":345000000000,"state":"active","ping":71},{"user_id":329,"name":"Torip0llo","steam_id":76561198251665862,"connected_time":513000000000,"state":"active","ping":102},{"user_id":326,"name":"FiddyFoMike","steam_id":76561198057072581,"connected_time":913000000000,"state":"active","ping":90},{"user_id":301,"name":"Paste","steam_id":76561198085388962,"connected_time":2683000000000,"state":"active","ping":61},{"user_id":335,"name":"Mystery Candidate","steam_id":76561198153968437,"connected_time":177000000000,"state":"active","ping":102},{"user_id":327,"name":"webaline","steam_id":76561199052450127,"connected_time":760000000000,"state":"active","ping":79},{"user_id":308,"name":"V3GA01","steam_id":76561199214699875,"connected_time":2017000000000,"state":"active","ping":80},{"user_id":314,"name":"Stardustry","steam_id":76561198090010107,"connected_time":1830000000000,"state":"active","ping":98},{"user_id":318,"name":"Gary Gilbert","steam_id":76561198143988056,"connected_time":1655000000000,"state":"active","ping":115},{"user_id":290,"name":"Minus Rep","steam_id":76561198065992476,"connected_time":3521000000000,"state":"active","ping":85},{"user_id":334,"name":"Floating Peasant","steam_id":76561198000183671,"connected_time":267000000000,"state":"active","ping":56},{"user_id":328,"name":"Vending Machine From The Sky","steam_id":76561198140351033,"connected_time":684000000000,"state":"active","ping":57},{"user_id":296,"name":"Pombley","steam_id":76561198141227263,"connected_time":2929000000000,"state":"active","ping":64},{"user_id":317,"name":"The Muffin Man","steam_id":76561199088286427,"connected_time":1787000000000,"state":"active","ping":114},{"user_id":305,"name":"Smug","steam_id":76561198448205229,"connected_time":2248000000000,"state":"active","ping":72},{"user_id":322,"name":"sbobi","steam_id":76561198320075173,"connected_time":1473000000000,"state":"active","ping":78}]},{"server_id":108,"name":"Uncletopia | Dallas | 2 | All Maps","name_short":"dal-2","host":"dal-1.us.uncletopia.com","port":27025,"enabled":true,"region":"us-central","cc":"us","latitude":32.779167,"longitude":-96.80889,"reserved":0,"last_update":"0001-01-01T00:00:00Z","name_a2s":"Uncletopia | Dallas | 2 | All Maps","protocol":17,"map":"plr_bananabay","folder":"tf","game":"Team Fortress","app_id":440,"player_count":23,"max_players":24,"Bots":0,"server_type":"Dedicated","server_os":"Linux","password":true,"vac":true,"version":"7882260","steam_id":85568392924469988,"keywords":["nocrits","nodmgspread","payload","uncletopia"],"game_id":440,"stv_port":27026,"stv_name":"Uncletopia | Dallas | 2 | All Maps | STV","players":[{"user_id":137,"name":"BigPimpin","steam_id":76561198119549348,"connected_time":96000000000,"state":"active","ping":49},{"user_id":138,"name":"Elvis Sandwich","steam_id":76561199252528662,"connected_time":83000000000,"state":"active","ping":121},{"user_id":22,"name":"Takyon","steam_id":76561198172075186,"connected_time":8455000000000,"state":"active","ping":175},{"user_id":120,"name":"Pretentious Gunspy","steam_id":76561199241325005,"connected_time":1404000000000,"state":"active","ping":91},{"user_id":136,"name":"TheFatNinja","steam_id":76561197998934635,"connected_time":163000000000,"state":"active","ping":62},{"user_id":139,"name":"Barrelface_Mgee","steam_id":76561198840544843,"connected_time":58000000000,"state":"active","ping":88},{"user_id":102,"name":"Angry","steam_id":76561198862622760,"connected_time":3590000000000,"state":"active","ping":75},{"user_id":122,"name":"WM1 PYRO","steam_id":76561198045893896,"connected_time":1345000000000,"state":"active","ping":114},{"user_id":134,"name":"ice dweller","steam_id":76561198329367716,"connected_time":314000000000,"state":"active","ping":87},{"user_id":53,"name":"Drive-By-Fish-Guy","steam_id":76561198105513652,"connected_time":6701000000000,"state":"active","ping":93},{"user_id":86,"name":"Kobeba","steam_id":76561198256921193,"connected_time":4454000000000,"state":"active","ping":60},{"user_id":141,"name":"TheViccan127","steam_id":76561199482134285,"connected_time":41000000000,"state":"active","ping":100},{"user_id":135,"name":"your neighbour's garden gnome","steam_id":76561199037050183,"connected_time":166000000000,"state":"active","ping":121},{"user_id":123,"name":"chiswola","steam_id":76561198046920142,"connected_time":1338000000000,"state":"active","ping":95},{"user_id":142,"name":"Legit_Jaxer","steam_id":76561198172234053,"connected_time":24000000000,"state":"active","ping":86},{"user_id":124,"name":"Shalrath","steam_id":76561198053151159,"connected_time":1331000000000,"state":"active","ping":80},{"user_id":143,"name":"Doppelgänger","steam_id":76561198036730436,"connected_time":20000000000,"state":"spawning","ping":73},{"user_id":81,"name":"D(b) Hell","steam_id":76561198067869016,"connected_time":4880000000000,"state":"active","ping":68},{"user_id":106,"name":"Pasta Enthusiast","steam_id":76561198306393090,"connected_time":3156000000000,"state":"active","ping":75},{"user_id":144,"name":"RIP Old Man Chico :(","steam_id":76561198865172720,"connected_time":5000000000,"state":"spawning","ping":70},{"user_id":127,"name":"Yosh","steam_id":76561198027078899,"connected_time":1290000000000,"state":"active","ping":70},{"user_id":129,"name":"watrfall9330","steam_id":76561199244606946,"connected_time":1283000000000,"state":"active","ping":98},{"user_id":131,"name":"HeavyMettleDick","steam_id":76561198001925087,"connected_time":1221000000000,"state":"active","ping":96}]},{"server_id":5,"name":"Uncletopia | Frankfurt | 1 | All Maps","name_short":"frk-1","host":"frk-1.de.uncletopia.com","port":27015,"enabled":true,"region":"eu","cc":"de","latitude":50.110924,"longitude":8.682127,"reserved":0,"last_update":"0001-01-01T00:00:00Z","name_a2s":"Uncletopia | Frankfurt | 1 | All Maps","protocol":17,"map":"cp_process_final","folder":"tf","game":"Team Fortress","app_id":440,"player_count":24,"max_players":24,"Bots":0,"server_type":"Dedicated","server_os":"Linux","password":true,"vac":true,"version":"7882260","steam_id":85568392924469989,"keywords":["cp","nocrits","nodmgspread","uncletopia"],"game_id":440,"stv_port":27016,"stv_name":"Uncletopia | Frankfurt | 1 | All Maps | STV","players":[{"user_id":390,"name":"rG kpn intruder.","steam_id":76561198072916231,"connected_time":471000000000,"state":"active","ping":75},{"user_id":391,"name":"krafno-lomac2006","steam_id":76561198808332971,"connected_time":444000000000,"state":"active","ping":71},{"user_id":358,"name":"Anri Okita's Massive Milkers","steam_id":76561199186352720,"connected_time":2102000000000,"state":"active","ping":76},{"user_id":385,"name":"Orbit","steam_id":76561198242999878,"connected_time":891000000000,"state":"active","ping":68},{"user_id":364,"name":"テイルス","steam_id":76561198022403271,"connected_time":1964000000000,"state":"active","ping":45},{"user_id":392,"name":"walter tighty whities","steam_id":76561198165620651,"connected_time":379000000000,"state":"active","ping":53},{"user_id":290,"name":"A stripper","steam_id":76561198034865891,"connected_time":7635000000000,"state":"active","ping":64},{"user_id":393,"name":"Ruvix","steam_id":76561198239689346,"connected_time":332000000000,"state":"active","ping":73},{"user_id":397,"name":"Pascal Darras","steam_id":76561198052136478,"connected_time":209000000000,"state":"active","ping":81},{"user_id":340,"name":"Cars","steam_id":76561198173329977,"connected_time":4389000000000,"state":"active","ping":69},{"user_id":361,"name":"Runyohell","steam_id":76561198309876860,"connected_time":2006000000000,"state":"active","ping":109},{"user_id":395,"name":"Faaaay","steam_id":76561198286392106,"connected_time":285000000000,"state":"active","ping":72},{"user_id":344,"name":"dimitrij_6ix_god","steam_id":76561199023275543,"connected_time":3393000000000,"state":"active","ping":74},{"user_id":396,"name":"SantiTzePug","steam_id":76561199049615996,"connected_time":266000000000,"state":"active","ping":90},{"user_id":398,"name":"TJ1212","steam_id":76561199013575313,"connected_time":159000000000,"state":"active","ping":64},{"user_id":368,"name":"Darkf065","steam_id":76561199029257202,"connected_time":1861000000000,"state":"active","ping":101},{"user_id":399,"name":"Svilar","steam_id":76561198828348612,"connected_time":159000000000,"state":"active","ping":92},{"user_id":375,"name":"Udinese Dion","steam_id":76561198067931573,"connected_time":1473000000000,"state":"active","ping":49},{"user_id":400,"name":"vurtun","steam_id":76561198857395274,"connected_time":142000000000,"state":"active","ping":55},{"user_id":401,"name":"os2","steam_id":76561199484358879,"connected_time":110000000000,"state":"active","ping":64},{"user_id":405,"name":"PashaVerti","steam_id":76561199013963024,"connected_time":25000000000,"state":"active","ping":88},{"user_id":402,"name":"generic alias","steam_id":76561198271607226,"connected_time":102000000000,"state":"active","ping":114},{"user_id":404,"name":"nolimitsauce","steam_id":76561197986954377,"connected_time":31000000000,"state":"active","ping":67},{"user_id":403,"name":"Endi","steam_id":76561198914938199,"connected_time":98000000000,"state":"active","ping":93}]},{"server_id":110,"name":"Uncletopia | Frankfurt | 2 | All Maps","name_short":"frk-2","host":"frk-1.de.uncletopia.com","port":27025,"enabled":true,"region":"eu","cc":"de","latitude":50.110924,"longitude":8.682127,"reserved":0,"last_update":"0001-01-01T00:00:00Z","name_a2s":"Uncletopia | Frankfurt | 2 | All Maps","protocol":17,"map":"plr_hightower","folder":"tf","game":"Team Fortress","app_id":440,"player_count":24,"max_players":24,"Bots":0,"server_type":"Dedicated","server_os":"Linux","password":true,"vac":true,"version":"7882260","steam_id":85568392924469990,"keywords":["nocrits","nodmgspread","payload","uncletopia"],"game_id":440,"stv_port":27026,"stv_name":"Uncletopia | Frankfurt | 2 | All Maps | STV","players":[{"user_id":496,"name":"evil fella","steam_id":76561199222429083,"connected_time":746000000000,"state":"active","ping":75},{"user_id":512,"name":"Brinier","steam_id":76561199012604288,"connected_time":71000000000,"state":"active","ping":66},{"user_id":391,"name":"The Mysterious Shadow Man","steam_id":76561198349648942,"connected_time":6784000000000,"state":"active","ping":92},{"user_id":466,"name":"Sex Man TF2","steam_id":76561198798657045,"connected_time":2408000000000,"state":"active","ping":80},{"user_id":503,"name":"midlpsyzl47","steam_id":76561199475972637,"connected_time":407000000000,"state":"active","ping":64},{"user_id":486,"name":"Ratatatatatatouille","steam_id":76561198182267098,"connected_time":1415000000000,"state":"active","ping":85},{"user_id":464,"name":"Oceanic | tuesday maybe","steam_id":76561197979741827,"connected_time":2550000000000,"state":"active","ping":73},{"user_id":495,"name":"runix","steam_id":76561198822655082,"connected_time":792000000000,"state":"active","ping":158},{"user_id":510,"name":"Hennerz","steam_id":76561197990305313,"connected_time":132000000000,"state":"active","ping":75},{"user_id":508,"name":"Ennard777","steam_id":76561198965409493,"connected_time":295000000000,"state":"active","ping":105},{"user_id":513,"name":"***** ***","steam_id":76561198048037379,"connected_time":43000000000,"state":"active","ping":73},{"user_id":477,"name":"Tin","steam_id":76561198022201818,"connected_time":1667000000000,"state":"active","ping":46},{"user_id":475,"name":"kallerannar","steam_id":76561199095701143,"connected_time":1790000000000,"state":"active","ping":81},{"user_id":488,"name":"Neco-arc Astolfo","steam_id":76561198989682540,"connected_time":1280000000000,"state":"active","ping":45},{"user_id":498,"name":"Nathaniel_B","steam_id":76561199036530516,"connected_time":635000000000,"state":"active","ping":115},{"user_id":500,"name":"Hetmanych","steam_id":76561198870926865,"connected_time":572000000000,"state":"active","ping":47},{"user_id":501,"name":"『Dorarhim』","steam_id":76561198220232352,"connected_time":572000000000,"state":"active","ping":50},{"user_id":417,"name":"Charged","steam_id":76561199127215130,"connected_time":4311000000000,"state":"active","ping":91},{"user_id":514,"name":"eggy","steam_id":76561198255623584,"connected_time":28000000000,"state":"active","ping":63},{"user_id":470,"name":"Mads","steam_id":76561198089261782,"connected_time":2120000000000,"state":"active","ping":60},{"user_id":493,"name":"balls","steam_id":76561198104509932,"connected_time":1081000000000,"state":"active","ping":106},{"user_id":415,"name":"wasps","steam_id":76561198049485054,"connected_time":4385000000000,"state":"active","ping":75},{"user_id":490,"name":"szipus alfonz","steam_id":76561198282160511,"connected_time":1229000000000,"state":"active","ping":58},{"user_id":505,"name":"\u003e:3","steam_id":76561198368312026,"connected_time":402000000000,"state":"active","ping":77}]},{"server_id":308,"name":"Uncletopia | Frankfurt | 3 | All Maps","name_short":"frk-3","host":"frk-1.de.uncletopia.com","port":27035,"enabled":true,"region":"eu","cc":"de","latitude":50.110924,"longitude":8.682127,"reserved":0,"last_update":"0001-01-01T00:00:00Z","name_a2s":"Uncletopia | Frankfurt | 3 | All Maps","protocol":17,"map":"cp_process_final","folder":"tf","game":"Team Fortress","app_id":440,"player_count":22,"max_players":24,"Bots":0,"server_type":"Dedicated","server_os":"Linux","password":true,"vac":true,"version":"7882260","steam_id":85568392924504274,"keywords":["cp","nocrits","nodmgspread","uncletopia"],"game_id":440,"stv_port":27036,"stv_name":"Uncletopia | Frankfurt | 3 | All Maps | STV","players":[{"user_id":530,"name":"W+M1 noob","steam_id":76561198120460686,"connected_time":1390000000000,"state":"active","ping":108},{"user_id":523,"name":"kita ikuYOOOOOOOOOOOOOOOOOOOOOO","steam_id":76561198148074472,"connected_time":1607000000000,"state":"active","ping":40},{"user_id":518,"name":"Immortal_Squid","steam_id":76561198248255490,"connected_time":1706000000000,"state":"active","ping":71},{"user_id":552,"name":"d u k k i","steam_id":76561198071807437,"connected_time":567000000000,"state":"active","ping":75},{"user_id":519,"name":"PsychedelicKermit","steam_id":76561198249304030,"connected_time":1682000000000,"state":"active","ping":82},{"user_id":529,"name":"Shekelstein","steam_id":76561198874759252,"connected_time":1456000000000,"state":"active","ping":89},{"user_id":549,"name":"Better Call Medic","steam_id":76561198939711234,"connected_time":914000000000,"state":"active","ping":116},{"user_id":554,"name":"rotating cranium","steam_id":76561198111134021,"connected_time":491000000000,"state":"active","ping":75},{"user_id":551,"name":"Piccadilly Willy","steam_id":76561198000312126,"connected_time":607000000000,"state":"active","ping":165},{"user_id":524,"name":"whalecore enjoyer","steam_id":76561198256619964,"connected_time":1600000000000,"state":"active","ping":76},{"user_id":525,"name":"wee woo","steam_id":76561198147277460,"connected_time":1599000000000,"state":"active","ping":55},{"user_id":526,"name":"la cucaracha","steam_id":76561198163244605,"connected_time":1586000000000,"state":"active","ping":65},{"user_id":533,"name":"Volodymyr Zelenskiy","steam_id":76561198273199378,"connected_time":1342000000000,"state":"active","ping":66},{"user_id":534,"name":"Hercules","steam_id":76561198041164170,"connected_time":1332000000000,"state":"active","ping":61},{"user_id":547,"name":"Sboobs","steam_id":76561198106917849,"connected_time":1079000000000,"state":"active","ping":55},{"user_id":536,"name":"Adam","steam_id":76561198259467867,"connected_time":1301000000000,"state":"active","ping":94},{"user_id":553,"name":"MR.CRAB","steam_id":76561198329833659,"connected_time":526000000000,"state":"active","ping":80},{"user_id":540,"name":"BrandonCurington","steam_id":76561198972330806,"connected_time":1250000000000,"state":"active","ping":87},{"user_id":550,"name":"Subterranean","steam_id":76561198106684566,"connected_time":777000000000,"state":"active","ping":76},{"user_id":555,"name":"Mr.O #deletesniper","steam_id":76561198039567498,"connected_time":482000000000,"state":"active","ping":62},{"user_id":546,"name":"Not A Fake Uncletopia Server","steam_id":76561198152871288,"connected_time":1128000000000,"state":"active","ping":62},{"user_id":494,"name":"dotdotdot","steam_id":76561198057628751,"connected_time":3133000000000,"state":"active","ping":64}]},{"server_id":309,"name":"Uncletopia | Frankfurt | 4 | All Maps","name_short":"frk-4","host":"frk-1.de.uncletopia.com","port":27045,"enabled":true,"region":"eu","cc":"de","latitude":50.110924,"longitude":8.682127,"reserved":0,"last_update":"0001-01-01T00:00:00Z","name_a2s":"Uncletopia | Frankfurt | 4 | All Maps","protocol":17,"map":"pl_borneo","folder":"tf","game":"Team Fortress","app_id":440,"player_count":24,"max_players":24,"Bots":0,"server_type":"Dedicated","server_os":"Linux","password":true,"vac":true,"version":"7882260","steam_id":85568392924504275,"keywords":["nocrits","nodmgspread","payload","uncletopia"],"game_id":440,"stv_port":27046,"stv_name":"Uncletopia | Frankfurt | 4 | All Maps | STV","players":[{"user_id":121,"name":"axl","steam_id":76561198991661832,"connected_time":916000000000,"state":"active","ping":66},{"user_id":120,"name":"ash","steam_id":76561198004728744,"connected_time":1222000000000,"state":"active","ping":45},{"user_id":128,"name":"Célério","steam_id":76561198088253576,"connected_time":398000000000,"state":"active","ping":45},{"user_id":124,"name":"Driver's drunkest God","steam_id":76561198969373800,"connected_time":628000000000,"state":"active","ping":70},{"user_id":132,"name":"Wattseyy","steam_id":76561198248567360,"connected_time":269000000000,"state":"active","ping":47},{"user_id":116,"name":"lupe","steam_id":76561198079813788,"connected_time":1471000000000,"state":"active","ping":53},{"user_id":137,"name":"дебил2014","steam_id":76561198203516436,"connected_time":107000000000,"state":"active","ping":56},{"user_id":68,"name":"Paul","steam_id":76561197996810343,"connected_time":4158000000000,"state":"active","ping":52},{"user_id":106,"name":"Le père Volca","steam_id":76561198235814492,"connected_time":1708000000000,"state":"active","ping":79},{"user_id":108,"name":"Ketich","steam_id":76561198021772703,"connected_time":1626000000000,"state":"active","ping":74},{"user_id":70,"name":"S.Scary","steam_id":76561198248602386,"connected_time":4144000000000,"state":"active","ping":64},{"user_id":71,"name":"tïger","steam_id":76561198260483157,"connected_time":4139000000000,"state":"active","ping":138},{"user_id":101,"name":"GigaChad g4skins","steam_id":76561199207300477,"connected_time":2733000000000,"state":"active","ping":58},{"user_id":129,"name":"Mooodyboi.♥","steam_id":76561198132577404,"connected_time":396000000000,"state":"active","ping":65},{"user_id":74,"name":"Difficult_Bit2901","steam_id":76561199004250744,"connected_time":4054000000000,"state":"active","ping":71},{"user_id":113,"name":"Providence","steam_id":76561198003920270,"connected_time":1546000000000,"state":"active","ping":83},{"user_id":122,"name":"Nards","steam_id":76561198001819260,"connected_time":876000000000,"state":"active","ping":71},{"user_id":114,"name":"yes","steam_id":76561198184881255,"connected_time":1544000000000,"state":"active","ping":76},{"user_id":115,"name":"LUM","steam_id":76561198069976825,"connected_time":1535000000000,"state":"active","ping":167},{"user_id":130,"name":"Rat head","steam_id":76561198184360615,"connected_time":320000000000,"state":"active","ping":90},{"user_id":131,"name":"Ass Consumer","steam_id":76561198989883175,"connected_time":315000000000,"state":"active","ping":66},{"user_id":134,"name":"Vonk","steam_id":76561199080400526,"connected_time":203000000000,"state":"active","ping":94},{"user_id":139,"name":"gaming","steam_id":76561198274062145,"connected_time":68000000000,"state":"active","ping":67},{"user_id":117,"name":"John Noob","steam_id":76561197999170026,"connected_time":1445000000000,"state":"active","ping":89}]},{"server_id":310,"name":"Uncletopia | Frankfurt | 5 | All Maps","name_short":"frk-5","host":"frk-1.de.uncletopia.com","port":27055,"enabled":true,"region":"eu","cc":"de","latitude":50.110924,"longitude":8.682127,"reserved":0,"last_update":"0001-01-01T00:00:00Z","name_a2s":"Uncletopia | Frankfurt | 5 | All Maps","protocol":17,"map":"pl_barnblitz","folder":"tf","game":"Team Fortress","app_id":440,"player_count":24,"max_players":24,"Bots":0,"server_type":"Dedicated","server_os":"Linux","password":true,"vac":true,"version":"7882260","steam_id":85568392924504277,"keywords":["nocrits","nodmgspread","payload","uncletopia"],"game_id":440,"stv_port":27056,"stv_name":"Uncletopia | Frankfurt | 5 | All Maps | STV","players":[{"user_id":166,"name":"kornetov.vitalya","steam_id":76561199286034833,"connected_time":2357000000000,"state":"active","ping":98},{"user_id":185,"name":"mangoface","steam_id":76561199028760996,"connected_time":276000000000,"state":"active","ping":68},{"user_id":197,"name":"Dr.Sees [F2P]","steam_id":76561199219233587,"connected_time":35000000000,"state":"active","ping":80},{"user_id":190,"name":"Technic","steam_id":76561198128096130,"connected_time":245000000000,"state":"active","ping":45},{"user_id":183,"name":"Neiro👽ᗩYY ᒪᗰᗩO","steam_id":76561198046743985,"connected_time":437000000000,"state":"active","ping":76},{"user_id":157,"name":"Doriian","steam_id":76561198071438810,"connected_time":2596000000000,"state":"active","ping":75},{"user_id":127,"name":"putrid weasel","steam_id":76561198012955043,"connected_time":5332000000000,"state":"active","ping":75},{"user_id":145,"name":"powej","steam_id":76561198056381418,"connected_time":3864000000000,"state":"active","ping":49},{"user_id":169,"name":"JOÃO MIGUEL","steam_id":76561198066297489,"connected_time":2271000000000,"state":"active","ping":76},{"user_id":188,"name":"zvekan","steam_id":76561198381101196,"connected_time":261000000000,"state":"active","ping":73},{"user_id":148,"name":"Dolcelatte","steam_id":76561198038501770,"connected_time":3581000000000,"state":"active","ping":49},{"user_id":174,"name":"chocolate flavoured femboy","steam_id":76561198819353867,"connected_time":1689000000000,"state":"active","ping":50},{"user_id":143,"name":"AndrewToasterr #SaveTF2","steam_id":76561198107159512,"connected_time":3900000000000,"state":"active","ping":59},{"user_id":189,"name":"Dor_atar","steam_id":76561198973980542,"connected_time":257000000000,"state":"active","ping":67},{"user_id":198,"name":"StealthCat","steam_id":76561198068937412,"connected_time":22000000000,"state":"spawning","ping":44},{"user_id":191,"name":"hud_saytext_time 0","steam_id":76561198010327228,"connected_time":238000000000,"state":"active","ping":79},{"user_id":179,"name":"Jabussy","steam_id":76561198111148719,"connected_time":1046000000000,"state":"active","ping":71},{"user_id":192,"name":"ScaryTree","steam_id":76561199384362833,"connected_time":236000000000,"state":"active","ping":63},{"user_id":176,"name":"Breizbuc","steam_id":76561198118220633,"connected_time":1646000000000,"state":"active","ping":70},{"user_id":196,"name":"GMsU | Acoul","steam_id":76561198229222992,"connected_time":214000000000,"state":"active","ping":54},{"user_id":138,"name":"After8","steam_id":76561198090750865,"connected_time":4416000000000,"state":"active","ping":64},{"user_id":193,"name":"PoundlandPrince","steam_id":76561198052088053,"connected_time":231000000000,"state":"active","ping":73},{"user_id":194,"name":"LIDL Loyalist","steam_id":76561198045039038,"connected_time":228000000000,"state":"active","ping":82},{"user_id":195,"name":"DelT","steam_id":76561198204007537,"connected_time":225000000000,"state":"active","ping":49}]},{"server_id":311,"name":"Uncletopia | Frankfurt | 6 | All Maps","name_short":"frk-6","host":"frk-1.de.uncletopia.com","port":27065,"enabled":true,"region":"eu","cc":"de","latitude":50.110924,"longitude":8.682127,"reserved":0,"last_update":"0001-01-01T00:00:00Z","name_a2s":"Uncletopia | Frankfurt | 6 | All Maps","protocol":17,"map":"pl_badwater","folder":"tf","game":"Team Fortress","app_id":440,"player_count":23,"max_players":24,"Bots":0,"server_type":"Dedicated","server_os":"Linux","password":true,"vac":true,"version":"7882260","steam_id":85568392924504278,"keywords":["nocrits","nodmgspread","payload","uncletopia"],"game_id":440,"stv_port":27066,"stv_name":"Uncletopia | Frankfurt | 6 | All Maps | STV","players":[{"user_id":453,"name":"Waltcha","steam_id":76561198007691468,"connected_time":2195000000000,"state":"active","ping":61},{"user_id":488,"name":"Amphy","steam_id":76561198073570219,"connected_time":64000000000,"state":"active","ping":61},{"user_id":383,"name":"bunglar","steam_id":76561198027374166,"connected_time":8400000000000,"state":"active","ping":59},{"user_id":468,"name":"Soundboard Gaming","steam_id":76561199216863678,"connected_time":1231000000000,"state":"active","ping":48},{"user_id":476,"name":"H012","steam_id":76561198984153770,"connected_time":879000000000,"state":"active","ping":177},{"user_id":469,"name":"LIGHTWEIGHT BABY","steam_id":76561198002761980,"connected_time":1215000000000,"state":"active","ping":57},{"user_id":487,"name":"BELADIT","steam_id":76561198011911501,"connected_time":204000000000,"state":"active","ping":74},{"user_id":477,"name":"bibib17","steam_id":76561198143319217,"connected_time":854000000000,"state":"active","ping":86},{"user_id":489,"name":"MILKY","steam_id":76561199261620682,"connected_time":55000000000,"state":"active","ping":75},{"user_id":465,"name":"Mus1cb0x","steam_id":76561199236531704,"connected_time":1339000000000,"state":"active","ping":94},{"user_id":466,"name":"CAMON ENGELAND","steam_id":76561198054301125,"connected_time":1318000000000,"state":"active","ping":96},{"user_id":451,"name":"WATANG!","steam_id":76561198040478926,"connected_time":2406000000000,"state":"active","ping":69},{"user_id":452,"name":"Django","steam_id":76561198090143282,"connected_time":2292000000000,"state":"active","ping":65},{"user_id":479,"name":"Professional HotDog","steam_id":76561199250225639,"connected_time":761000000000,"state":"active","ping":149},{"user_id":432,"name":"medicinal man","steam_id":76561198202668788,"connected_time":3697000000000,"state":"active","ping":61},{"user_id":486,"name":"twisted","steam_id":76561198039685348,"connected_time":415000000000,"state":"active","ping":73},{"user_id":481,"name":"Kotbube Peter","steam_id":76561198148386749,"connected_time":721000000000,"state":"active","ping":54},{"user_id":482,"name":"Oxy:*","steam_id":76561198275120049,"connected_time":694000000000,"state":"active","ping":61},{"user_id":411,"name":"giclure :;","steam_id":76561197986362828,"connected_time":6770000000000,"state":"active","ping":62},{"user_id":445,"name":"BastLover","steam_id":76561198247062724,"connected_time":2774000000000,"state":"active","ping":60},{"user_id":462,"name":"no weed","steam_id":76561199024279010,"connected_time":1434000000000,"state":"active","ping":94},{"user_id":470,"name":"Josh","steam_id":76561198274546904,"connected_time":1133000000000,"state":"active","ping":144},{"user_id":485,"name":"Aight","steam_id":76561198300453404,"connected_time":582000000000,"state":"active","ping":93}]},{"server_id":23,"name":"Uncletopia | Frankfurt | 7 | Stopwatch Beta","name_short":"frk-7","host":"frk-1.de.uncletopia.com","port":27075,"enabled":true,"region":"eu","cc":"de","latitude":50.110924,"longitude":8.682127,"reserved":0,"last_update":"0001-01-01T00:00:00Z","name_a2s":"Uncletopia | Frankfurt | 7 | Stopwatch Beta","protocol":17,"map":"pl_upward","folder":"tf","game":"Team Fortress","app_id":440,"player_count":0,"max_players":24,"Bots":0,"server_type":"Dedicated","server_os":"Linux","password":true,"vac":true,"version":"7882260","steam_id":85568392924742827,"keywords":["nocrits","nodmgspread","payload","uncletopia"],"game_id":440,"stv_port":27076,"stv_name":"Uncletopia | Frankfurt | 7 | Stopwatch Beta | STV","players":null},{"server_id":24,"name":"Uncletopia | Frankfurt | 8 | Community","name_short":"frk-8","host":"frk-1.de.uncletopia.com","port":27085,"enabled":true,"region":"eu","cc":"de","latitude":50.110924,"longitude":8.682127,"reserved":0,"last_update":"0001-01-01T00:00:00Z","name_a2s":"Uncletopia | Frankfurt | 8 | Community","protocol":17,"map":"workshop/koth_ramjam_rc1.ugc459778887","folder":"tf","game":"Team Fortress","app_id":440,"player_count":0,"max_players":24,"Bots":0,"server_type":"Dedicated","server_os":"Linux","password":true,"vac":true,"version":"7882260","steam_id":85568392924742828,"keywords":["cp","nocrits","nodmgspread","uncletopia"],"game_id":440,"stv_port":27086,"stv_name":"Uncletopia | Frankfurt | 8 | Community | STV","players":null},{"server_id":202,"name":"Uncletopia | Hong Kong | 1 | All Maps","name_short":"hgk-1","host":"hgk-1.hk.uncletopia.com","port":27015,"enabled":true,"region":"asia","cc":"hk","latitude":22.302711,"longitude":114.177216,"reserved":0,"last_update":"0001-01-01T00:00:00Z","name_a2s":"Uncletopia | Hong Kong | 1 | All Maps","protocol":17,"map":"koth_cascade","folder":"tf","game":"Team Fortress","app_id":440,"player_count":0,"max_players":24,"Bots":0,"server_type":"Dedicated","server_os":"Linux","password":true,"vac":true,"version":"7882260","steam_id":85568392924494504,"keywords":["cp","nocrits","nodmgspread","uncletopia"],"game_id":440,"stv_port":27016,"stv_name":"Uncletopia | Hong Kong | 1 | All Maps | STV","players":null},{"server_id":1,"name":"Uncletopia | Los Angeles | 1 | All Maps","name_short":"lax-1","host":"lax-1.us.uncletopia.com","port":27015,"enabled":true,"region":"us-west","cc":"us","latitude":33.94279,"longitude":-118.41004,"reserved":0,"last_update":"0001-01-01T00:00:00Z","name_a2s":"Uncletopia | Los Angeles | 1 | All Maps","protocol":17,"map":"pl_borneo","folder":"tf","game":"Team Fortress","app_id":440,"player_count":24,"max_players":24,"Bots":0,"server_type":"Dedicated","server_os":"Linux","password":true,"vac":true,"version":"7882260","steam_id":85568392924469991,"keywords":["nocrits","nodmgspread","payload","uncletopia"],"game_id":440,"stv_port":27016,"stv_name":"Uncletopia | Los Angeles | 1 | All Maps | STV","players":[{"user_id":76,"name":"TON 618","steam_id":76561198799230499,"connected_time":1255000000000,"state":"active","ping":97},{"user_id":63,"name":"cobala nomala dd24","steam_id":76561198213385439,"connected_time":2083000000000,"state":"active","ping":103},{"user_id":93,"name":"JC The Dumb","steam_id":76561199186185567,"connected_time":304000000000,"state":"active","ping":66},{"user_id":91,"name":"The Sydney Sleeper Itself","steam_id":76561198180251763,"connected_time":409000000000,"state":"active","ping":81},{"user_id":90,"name":"nelly modelo","steam_id":76561198044875206,"connected_time":512000000000,"state":"active","ping":74},{"user_id":16,"name":"scripy","steam_id":76561199267237541,"connected_time":5043000000000,"state":"active","ping":134},{"user_id":94,"name":"DistantJragon","steam_id":76561198117563641,"connected_time":290000000000,"state":"active","ping":101},{"user_id":51,"name":"AC3S Spade","steam_id":76561198266913930,"connected_time":2733000000000,"state":"active","ping":59},{"user_id":50,"name":"Genius Meme","steam_id":76561198162911254,"connected_time":2856000000000,"state":"active","ping":70},{"user_id":65,"name":"Bobert The Great","steam_id":76561198021285638,"connected_time":1964000000000,"state":"active","ping":49},{"user_id":80,"name":"Ernbergler","steam_id":76561198042583426,"connected_time":1106000000000,"state":"active","ping":71},{"user_id":92,"name":"dust | she/it","steam_id":76561198045218909,"connected_time":356000000000,"state":"active","ping":61},{"user_id":98,"name":"Dreamzapp","steam_id":76561199084936632,"connected_time":188000000000,"state":"active","ping":66},{"user_id":66,"name":"Tideflat","steam_id":76561198179850851,"connected_time":1930000000000,"state":"active","ping":87},{"user_id":73,"name":"Big White Delight","steam_id":76561198005301688,"connected_time":1476000000000,"state":"active","ping":89},{"user_id":30,"name":"nyoah","steam_id":76561198834915248,"connected_time":3731000000000,"state":"active","ping":60},{"user_id":72,"name":"PWWNED","steam_id":76561198841016072,"connected_time":1695000000000,"state":"active","ping":87},{"user_id":81,"name":"mentos14","steam_id":76561198097993629,"connected_time":1105000000000,"state":"active","ping":56},{"user_id":95,"name":"Dink","steam_id":76561198079508094,"connected_time":251000000000,"state":"active","ping":69},{"user_id":75,"name":"Just a Good Friend","steam_id":76561198140052403,"connected_time":1307000000000,"state":"active","ping":48},{"user_id":96,"name":"dweaver","steam_id":76561198119610135,"connected_time":247000000000,"state":"active","ping":60},{"user_id":83,"name":"albert jones","steam_id":76561198404271005,"connected_time":946000000000,"state":"active","ping":49},{"user_id":89,"name":"GLXy","steam_id":76561198207551544,"connected_time":543000000000,"state":"active","ping":79},{"user_id":97,"name":"Ekohtwo","steam_id":76561198067994868,"connected_time":207000000000,"state":"active","ping":106}]},{"server_id":112,"name":"Uncletopia | Los Angeles | 2 | All Maps","name_short":"lax-2","host":"lax-1.us.uncletopia.com","port":27025,"enabled":true,"region":"us-west","cc":"us","latitude":33.94279,"longitude":-118.41004,"reserved":0,"last_update":"0001-01-01T00:00:00Z","name_a2s":"Uncletopia | Los Angeles | 2 | All Maps","protocol":17,"map":"pl_badwater","folder":"tf","game":"Team Fortress","app_id":440,"player_count":0,"max_players":24,"Bots":0,"server_type":"Dedicated","server_os":"Linux","password":true,"vac":true,"version":"7882260","steam_id":85568392924469992,"keywords":["nocrits","nodmgspread","payload","uncletopia"],"game_id":440,"stv_port":27026,"stv_name":"Uncletopia | Los Angeles | 2 | All Maps | STV","players":null},{"server_id":324,"name":"Uncletopia | Los Angeles | 3 | All Maps","name_short":"lax-3","host":"lax-1.us.uncletopia.com","port":27035,"enabled":true,"region":"us-west","cc":"us","latitude":33.94279,"longitude":-118.41004,"reserved":0,"last_update":"0001-01-01T00:00:00Z","name_a2s":"Uncletopia | Los Angeles | 3 | All Maps","protocol":17,"map":"cp_process_final","folder":"tf","game":"Team Fortress","app_id":440,"player_count":0,"max_players":24,"Bots":0,"server_type":"Dedicated","server_os":"Linux","password":true,"vac":true,"version":"7882260","steam_id":85568392924510198,"keywords":["cp","nocrits","nodmgspread","uncletopia"],"game_id":440,"stv_port":27036,"stv_name":"Uncletopia | Los Angeles | 3 | All Maps | STV","players":null},{"server_id":25,"name":"Uncletopia | Los Angeles | 4 | Stopwatch Beta","name_short":"lax-4","host":"lax-1.us.uncletopia.com","port":27045,"enabled":true,"region":"us-west","cc":"us","latitude":33.94279,"longitude":-118.41004,"reserved":0,"last_update":"0001-01-01T00:00:00Z","name_a2s":"Uncletopia | Los Angeles | 4 | Stopwatch Beta","protocol":17,"map":"workshop/pl_barnblitz_pro7.ugc582280235","folder":"tf","game":"Team Fortress","app_id":440,"player_count":0,"max_players":24,"Bots":0,"server_type":"Dedicated","server_os":"Linux","password":true,"vac":true,"version":"7882260","steam_id":85568392924510199,"keywords":["nocrits","nodmgspread","payload","uncletopia"],"game_id":440,"stv_port":27046,"stv_name":"Uncletopia | Los Angeles | 4 | Stopwatch Beta | STV","players":null},{"server_id":11,"name":"Uncletopia | London | 1 | All Maps","name_short":"lon-1","host":"lon-1.uk.uncletopia.com","port":27015,"enabled":true,"region":"eu","cc":"gb","latitude":51.509865,"longitude":-0.118092,"reserved":0,"last_update":"0001-01-01T00:00:00Z","name_a2s":"Uncletopia | London | 1 | All Maps","protocol":17,"map":"pl_upward","folder":"tf","game":"Team Fortress","app_id":440,"player_count":24,"max_players":24,"Bots":0,"server_type":"Dedicated","server_os":"Linux","password":true,"vac":true,"version":"7882260","steam_id":85568392924367362,"keywords":["nocrits","nodmgspread","payload","uncletopia"],"game_id":440,"stv_port":27016,"stv_name":"Uncletopia | London | 1 | All Maps | STV","players":[{"user_id":376,"name":"Dr. Mike","steam_id":76561197991205793,"connected_time":17990000000000,"state":"active","ping":76},{"user_id":598,"name":"Hoff","steam_id":76561198026537318,"connected_time":2956000000000,"state":"active","ping":41},{"user_id":540,"name":"jimmy bob","steam_id":76561198319583692,"connected_time":5861000000000,"state":"active","ping":61},{"user_id":687,"name":"Evil Clark ver.02","steam_id":76561198119413461,"connected_time":923000000000,"state":"active","ping":70},{"user_id":578,"name":"Massmarine","steam_id":76561198038696531,"connected_time":3390000000000,"state":"active","ping":118},{"user_id":688,"name":"Asfreild","steam_id":76561198055901120,"connected_time":915000000000,"state":"active","ping":76},{"user_id":719,"name":"Maridor","steam_id":76561199094592508,"connected_time":344000000000,"state":"active","ping":77},{"user_id":603,"name":"DrSacrebleu","steam_id":76561198053229115,"connected_time":2866000000000,"state":"active","ping":69},{"user_id":584,"name":"DrExplosive 30fps gaming","steam_id":76561198063678579,"connected_time":3216000000000,"state":"active","ping":45},{"user_id":689,"name":"John Fortress","steam_id":76561197984661199,"connected_time":885000000000,"state":"active","ping":55},{"user_id":490,"name":"clunk","steam_id":76561198836460767,"connected_time":9733000000000,"state":"active","ping":67},{"user_id":667,"name":"Oph","steam_id":76561199473424810,"connected_time":1338000000000,"state":"active","ping":56},{"user_id":668,"name":"Gravy","steam_id":76561198029548074,"connected_time":1282000000000,"state":"active","ping":55},{"user_id":502,"name":"Prole","steam_id":76561198049837199,"connected_time":9194000000000,"state":"active","ping":142},{"user_id":575,"name":"Wardruna96","steam_id":76561199057083828,"connected_time":3588000000000,"state":"active","ping":84},{"user_id":632,"name":"dnljns","steam_id":76561198085091752,"connected_time":2144000000000,"state":"active","ping":89},{"user_id":572,"name":"on1on (fried)","steam_id":76561197995304137,"connected_time":3663000000000,"state":"active","ping":75},{"user_id":638,"name":"goktwoxd","steam_id":76561198065114415,"connected_time":2001000000000,"state":"active","ping":88},{"user_id":686,"name":"rex110","steam_id":76561198159631448,"connected_time":934000000000,"state":"active","ping":84},{"user_id":637,"name":"Boki","steam_id":76561198044553351,"connected_time":2026000000000,"state":"active","ping":76},{"user_id":694,"name":"notƒreshprince","steam_id":76561198012239150,"connected_time":802000000000,"state":"active","ping":41},{"user_id":702,"name":"Buddy","steam_id":76561198050185582,"connected_time":628000000000,"state":"active","ping":57},{"user_id":661,"name":"Osama Bin do your mama","steam_id":76561198018834701,"connected_time":1563000000000,"state":"active","ping":78},{"user_id":656,"name":"Ritzy","steam_id":76561198381955342,"connected_time":1628000000000,"state":"active","ping":51}]},{"server_id":114,"name":"Uncletopia | London | 2 | All Maps","name_short":"lon-2","host":"lon-1.uk.uncletopia.com","port":27025,"enabled":true,"region":"eu","cc":"gb","latitude":51.509865,"longitude":-0.118092,"reserved":0,"last_update":"0001-01-01T00:00:00Z","name_a2s":"Uncletopia | London | 2 | All Maps","protocol":17,"map":"pl_barnblitz","folder":"tf","game":"Team Fortress","app_id":440,"player_count":24,"max_players":24,"Bots":0,"server_type":"Dedicated","server_os":"Linux","password":true,"vac":true,"version":"7882260","steam_id":85568392924470941,"keywords":["nocrits","nodmgspread","payload","uncletopia"],"game_id":440,"stv_port":27026,"stv_name":"Uncletopia | London | 2 | All Maps | STV","players":[{"user_id":364,"name":"✪ qua ✪","steam_id":76561198066408333,"connected_time":9723000000000,"state":"active","ping":76},{"user_id":547,"name":"Dio","steam_id":76561198117685434,"connected_time":757000000000,"state":"active","ping":90},{"user_id":552,"name":"Sloneczku","steam_id":76561198032886890,"connected_time":669000000000,"state":"active","ping":84},{"user_id":581,"name":"Levood","steam_id":76561198088461401,"connected_time":120000000000,"state":"active","ping":83},{"user_id":583,"name":"SnusRunkarn","steam_id":76561199124072329,"connected_time":96000000000,"state":"active","ping":96},{"user_id":468,"name":"Dirty Joe","steam_id":76561198142418870,"connected_time":2629000000000,"state":"active","ping":43},{"user_id":456,"name":"あさみ on 25hz-chan","steam_id":76561198064969039,"connected_time":3271000000000,"state":"active","ping":55},{"user_id":418,"name":"SonGockel","steam_id":76561198047949936,"connected_time":5587000000000,"state":"active","ping":86},{"user_id":558,"name":"Donny","steam_id":76561198317950036,"connected_time":612000000000,"state":"active","ping":91},{"user_id":484,"name":"ducks","steam_id":76561198166148685,"connected_time":1985000000000,"state":"active","ping":37},{"user_id":545,"name":"Gr1mmac","steam_id":76561198056875785,"connected_time":896000000000,"state":"active","ping":88},{"user_id":442,"name":"20BB Raxor","steam_id":76561198239927434,"connected_time":4001000000000,"state":"active","ping":87},{"user_id":586,"name":"ahcenetupe","steam_id":76561198916501470,"connected_time":25000000000,"state":"active","ping":59},{"user_id":357,"name":"VolcanicArts","steam_id":76561198063453246,"connected_time":10117000000000,"state":"active","ping":59},{"user_id":582,"name":"D0kai","steam_id":76561198389271720,"connected_time":120000000000,"state":"active","ping":61},{"user_id":574,"name":"Dr. Cox","steam_id":76561198246629218,"connected_time":172000000000,"state":"active","ping":112},{"user_id":502,"name":"Charmedelf","steam_id":76561197993611881,"connected_time":1669000000000,"state":"active","ping":58},{"user_id":499,"name":"Regan","steam_id":76561198100631086,"connected_time":1715000000000,"state":"active","ping":54},{"user_id":559,"name":"Insain Bolt!","steam_id":76561198025687726,"connected_time":597000000000,"state":"active","ping":76},{"user_id":563,"name":"zoinks!","steam_id":76561198068645362,"connected_time":349000000000,"state":"active","ping":45},{"user_id":556,"name":"Shark","steam_id":76561198205226501,"connected_time":653000000000,"state":"active","ping":154},{"user_id":461,"name":"Makłowicz","steam_id":76561198281831506,"connected_time":3126000000000,"state":"active","ping":97},{"user_id":577,"name":"Alfred","steam_id":76561198348799252,"connected_time":159000000000,"state":"active","ping":46},{"user_id":421,"name":"Potote","steam_id":76561198982608096,"connected_time":5377000000000,"state":"active","ping":90}]},{"server_id":320,"name":"Uncletopia | London | 3 | All Maps","name_short":"lon-3","host":"lon-1.uk.uncletopia.com","port":27035,"enabled":true,"region":"eu","cc":"gb","latitude":51.509865,"longitude":-0.118092,"reserved":0,"last_update":"0001-01-01T00:00:00Z","name_a2s":"Uncletopia | London | 3 | All Maps","protocol":17,"map":"cp_snakewater_final1","folder":"tf","game":"Team Fortress","app_id":440,"player_count":24,"max_players":24,"Bots":0,"server_type":"Dedicated","server_os":"Linux","password":true,"vac":true,"version":"7882260","steam_id":85568392924510192,"keywords":["cp","nocrits","nodmgspread","uncletopia"],"game_id":440,"stv_port":27036,"stv_name":"Uncletopia | London | 3 | All Maps | STV","players":[{"user_id":446,"name":"[Éire] Hype!","steam_id":76561198061449287,"connected_time":910000000000,"state":"active","ping":55},{"user_id":406,"name":"Emma","steam_id":76561198076724979,"connected_time":4085000000000,"state":"active","ping":62},{"user_id":436,"name":"Obvi","steam_id":76561198088735927,"connected_time":2158000000000,"state":"active","ping":61},{"user_id":467,"name":"JOHN GAMING (#1 gunspy)","steam_id":76561199085822219,"connected_time":10000000000,"state":"active","ping":120},{"user_id":454,"name":"originalakalil","steam_id":76561199481172481,"connected_time":592000000000,"state":"active","ping":160},{"user_id":425,"name":"marc","steam_id":76561198018694332,"connected_time":2856000000000,"state":"active","ping":74},{"user_id":447,"name":"LizaЯdlЧ","steam_id":76561198176750238,"connected_time":837000000000,"state":"active","ping":69},{"user_id":449,"name":"Harrison256","steam_id":76561198078975210,"connected_time":802000000000,"state":"active","ping":52},{"user_id":420,"name":"Toofy","steam_id":76561197989727907,"connected_time":3089000000000,"state":"active","ping":38},{"user_id":450,"name":"Anonymous47007","steam_id":76561199005211417,"connected_time":786000000000,"state":"active","ping":78},{"user_id":413,"name":"Aroo","steam_id":76561198132601368,"connected_time":3935000000000,"state":"active","ping":84},{"user_id":451,"name":"Mandele","steam_id":76561199183213205,"connected_time":699000000000,"state":"active","ping":99},{"user_id":452,"name":"Petight","steam_id":76561197999438798,"connected_time":648000000000,"state":"active","ping":32},{"user_id":453,"name":"8onJour","steam_id":76561198995725491,"connected_time":638000000000,"state":"active","ping":96},{"user_id":445,"name":"DragonLord","steam_id":76561198074279225,"connected_time":961000000000,"state":"active","ping":52},{"user_id":455,"name":"Controller Gaming","steam_id":76561198134805479,"connected_time":588000000000,"state":"active","ping":52},{"user_id":456,"name":"Cat_Man","steam_id":76561198030209865,"connected_time":525000000000,"state":"active","ping":139},{"user_id":457,"name":"cat","steam_id":76561198832231975,"connected_time":479000000000,"state":"active","ping":91},{"user_id":443,"name":"cry a little, cry a lot","steam_id":76561198039472276,"connected_time":1164000000000,"state":"active","ping":75},{"user_id":465,"name":"Space Rimmer","steam_id":76561198069243201,"connected_time":146000000000,"state":"active","ping":48},{"user_id":463,"name":"Mark 'The Beast' Labbett","steam_id":76561198118892116,"connected_time":269000000000,"state":"active","ping":51},{"user_id":460,"name":"h","steam_id":76561198273551016,"connected_time":419000000000,"state":"active","ping":69},{"user_id":461,"name":"thatCerv","steam_id":76561198037798308,"connected_time":409000000000,"state":"active","ping":56},{"user_id":462,"name":"Donnersphaehre","steam_id":76561199157807184,"connected_time":385000000000,"state":"active","ping":74}]},{"server_id":321,"name":"Uncletopia | London | 4 | All Maps","name_short":"lon-4","host":"lon-1.uk.uncletopia.com","port":27045,"enabled":true,"region":"eu","cc":"gb","latitude":51.509865,"longitude":-0.118092,"reserved":0,"last_update":"0001-01-01T00:00:00Z","name_a2s":"Uncletopia | London | 4 | All Maps","protocol":17,"map":"koth_viaduct","folder":"tf","game":"Team Fortress","app_id":440,"player_count":0,"max_players":24,"Bots":0,"server_type":"Dedicated","server_os":"Linux","password":true,"vac":true,"version":"7882260","steam_id":85568392924510193,"keywords":["cp","nocrits","nodmgspread","uncletopia"],"game_id":440,"stv_port":27046,"stv_name":"Uncletopia | London | 4 | All Maps | STV","players":null},{"server_id":21,"name":"Uncletopia | London | 5 | All Maps","name_short":"lon-5","host":"lon-1.uk.uncletopia.com","port":27055,"enabled":true,"region":"eu","cc":"gb","latitude":51.509865,"longitude":-0.118092,"reserved":0,"last_update":"0001-01-01T00:00:00Z","name_a2s":"Uncletopia | London | 5 | All Maps","protocol":17,"map":"pl_frontier_final","folder":"tf","game":"Team Fortress","app_id":440,"player_count":24,"max_players":24,"Bots":0,"server_type":"Dedicated","server_os":"Linux","password":true,"vac":true,"version":"7882260","steam_id":85568392924742829,"keywords":["nocrits","nodmgspread","payload","uncletopia"],"game_id":440,"stv_port":27056,"stv_name":"Uncletopia | London | 5 | All Maps | STV","players":[{"user_id":47,"name":"Manmanen","steam_id":76561198086357575,"connected_time":699000000000,"state":"active","ping":60},{"user_id":54,"name":"hallu","steam_id":76561198198581079,"connected_time":572000000000,"state":"active","ping":69},{"user_id":25,"name":"Jackie Chan","steam_id":76561199378865926,"connected_time":1798000000000,"state":"active","ping":87},{"user_id":26,"name":"my poosy","steam_id":76561198170609049,"connected_time":1794000000000,"state":"active","ping":67},{"user_id":27,"name":"pizzaboob","steam_id":76561198097507847,"connected_time":1791000000000,"state":"active","ping":82},{"user_id":63,"name":"GaryNope","steam_id":76561198023923135,"connected_time":123000000000,"state":"active","ping":56},{"user_id":57,"name":"WolfmanCZ","steam_id":76561199157141414,"connected_time":511000000000,"state":"active","ping":81},{"user_id":33,"name":"Critless","steam_id":76561198133968184,"connected_time":1169000000000,"state":"active","ping":47},{"user_id":55,"name":"stickurr","steam_id":76561198089536805,"connected_time":562000000000,"state":"active","ping":45},{"user_id":34,"name":"frosty","steam_id":76561198094560834,"connected_time":1165000000000,"state":"active","ping":51},{"user_id":64,"name":"combat collin","steam_id":76561198011450253,"connected_time":43000000000,"state":"active","ping":43},{"user_id":45,"name":"Obesekid69","steam_id":76561198260087570,"connected_time":735000000000,"state":"active","ping":68},{"user_id":39,"name":"piss man (real)","steam_id":76561198839843428,"connected_time":992000000000,"state":"active","ping":100},{"user_id":40,"name":"Dr Ludwig","steam_id":76561198426522902,"connected_time":988000000000,"state":"active","ping":53},{"user_id":49,"name":"ThisIsRoy","steam_id":76561198015644698,"connected_time":682000000000,"state":"active","ping":71},{"user_id":60,"name":"Mayor Wank from Wanker Town","steam_id":76561197998253588,"connected_time":444000000000,"state":"active","ping":58},{"user_id":61,"name":"Mr. Oak","steam_id":76561198331315713,"connected_time":333000000000,"state":"active","ping":52},{"user_id":50,"name":"Adept","steam_id":76561198131323235,"connected_time":682000000000,"state":"active","ping":67},{"user_id":51,"name":"elyo","steam_id":76561198209442489,"connected_time":679000000000,"state":"active","ping":73},{"user_id":52,"name":"gerrie van boven","steam_id":76561198151439160,"connected_time":672000000000,"state":"active","ping":55},{"user_id":53,"name":"Cornelius Shacklebart","steam_id":76561198000735878,"connected_time":648000000000,"state":"active","ping":60},{"user_id":62,"name":"cptndiabetes13","steam_id":76561199229546849,"connected_time":200000000000,"state":"active","ping":147},{"user_id":58,"name":"4nalpr0d","steam_id":76561198052092018,"connected_time":508000000000,"state":"active","ping":45},{"user_id":59,"name":"BLACK MAN FROM JOJO","steam_id":76561198272948471,"connected_time":475000000000,"state":"active","ping":132}]},{"server_id":22,"name":"Uncletopia | London | 6 | All Maps","name_short":"lon-6","host":"lon-1.uk.uncletopia.com","port":27065,"enabled":true,"region":"eu","cc":"gb","latitude":51.509865,"longitude":-0.118092,"reserved":0,"last_update":"0001-01-01T00:00:00Z","name_a2s":"Uncletopia | London | 6 | All Maps","protocol":17,"map":"koth_lakeside_final","folder":"tf","game":"Team Fortress","app_id":440,"player_count":24,"max_players":24,"Bots":0,"server_type":"Dedicated","server_os":"Linux","password":true,"vac":true,"version":"7882260","steam_id":85568392924742830,"keywords":["cp","nocrits","nodmgspread","uncletopia"],"game_id":440,"stv_port":27066,"stv_name":"Uncletopia | London | 6 | All Maps | STV","players":[{"user_id":300,"name":"Dreyfus","steam_id":76561198366687805,"connected_time":2549000000000,"state":"active","ping":70},{"user_id":324,"name":"TheWildKirby","steam_id":76561198836027309,"connected_time":1429000000000,"state":"active","ping":54},{"user_id":345,"name":"local fridge pisser","steam_id":76561199123021898,"connected_time":280000000000,"state":"active","ping":89},{"user_id":316,"name":"Sylvanas","steam_id":76561198154904165,"connected_time":1787000000000,"state":"active","ping":104},{"user_id":323,"name":"1 toke 4 mars bars","steam_id":76561198056460000,"connected_time":1506000000000,"state":"active","ping":48},{"user_id":346,"name":"Egor Pomidor","steam_id":76561199175688390,"connected_time":270000000000,"state":"active","ping":78},{"user_id":341,"name":"Bambi","steam_id":76561198166972711,"connected_time":535000000000,"state":"active","ping":53},{"user_id":282,"name":"Janitor","steam_id":76561198889405297,"connected_time":3299000000000,"state":"active","ping":70},{"user_id":299,"name":"Hivel","steam_id":76561198151390773,"connected_time":2605000000000,"state":"active","ping":98},{"user_id":335,"name":"Mommy O.","steam_id":76561198122933193,"connected_time":749000000000,"state":"active","ping":87},{"user_id":347,"name":"kotamine","steam_id":76561198068907991,"connected_time":266000000000,"state":"active","ping":75},{"user_id":308,"name":"Raingnome @SaveTF2","steam_id":76561198007394958,"connected_time":2003000000000,"state":"active","ping":56},{"user_id":319,"name":"Swimpz","steam_id":76561198137479945,"connected_time":1683000000000,"state":"active","ping":91},{"user_id":343,"name":"Yahram Qiehpah","steam_id":76561198049533385,"connected_time":489000000000,"state":"active","ping":125},{"user_id":348,"name":"vadr","steam_id":76561198334528186,"connected_time":207000000000,"state":"active","ping":47},{"user_id":309,"name":"Bulczany","steam_id":76561198116469727,"connected_time":1974000000000,"state":"active","ping":110},{"user_id":339,"name":"AverageName","steam_id":76561199114333959,"connected_time":630000000000,"state":"active","ping":62},{"user_id":311,"name":"Gerryjunior","steam_id":76561198863276463,"connected_time":1947000000000,"state":"active","ping":78},{"user_id":312,"name":"pippis!","steam_id":76561198264553801,"connected_time":1942000000000,"state":"active","ping":87},{"user_id":337,"name":"snorrbrod","steam_id":76561198142389396,"connected_time":706000000000,"state":"active","ping":80},{"user_id":338,"name":"Cak3","steam_id":76561198012633295,"connected_time":700000000000,"state":"active","ping":60},{"user_id":302,"name":"Dzamor","steam_id":76561198061586246,"connected_time":2360000000000,"state":"active","ping":95},{"user_id":275,"name":"JohnnyBoyNo.1","steam_id":76561199244941646,"connected_time":4476000000000,"state":"active","ping":129},{"user_id":297,"name":"Milk","steam_id":76561198125876588,"connected_time":3015000000000,"state":"active","ping":40}]},{"server_id":40,"name":"Uncletopia | London | 7 | No Payload","name_short":"lon-7","host":"lon-1.uk.uncletopia.com","port":27075,"enabled":true,"region":"eu","cc":"gb","latitude":51.509865,"longitude":-0.118092,"reserved":0,"last_update":"0001-01-01T00:00:00Z","name_a2s":"Uncletopia | London | 7 | No Payload","protocol":17,"map":"ctf_turbine","folder":"tf","game":"Team Fortress","app_id":440,"player_count":24,"max_players":24,"Bots":0,"server_type":"Dedicated","server_os":"Linux","password":true,"vac":true,"version":"7882260","steam_id":85568392924964314,"keywords":["ctf","nocrits","nodmgspread","uncletopia"],"game_id":440,"stv_port":27076,"stv_name":"Uncletopia | London | 7 | No Payload | STV","players":[{"user_id":542,"name":"Pinkchup","steam_id":76561198106802803,"connected_time":5610000000000,"state":"active","ping":75},{"user_id":615,"name":"Gordon","steam_id":76561198303652059,"connected_time":462000000000,"state":"active","ping":71},{"user_id":617,"name":"vadim_kotler","steam_id":76561199016634369,"connected_time":283000000000,"state":"active","ping":101},{"user_id":581,"name":"Jack.Orlando","steam_id":76561198802400236,"connected_time":2614000000000,"state":"active","ping":82},{"user_id":603,"name":"Small Tiddies Loli Trap","steam_id":76561198088563129,"connected_time":1310000000000,"state":"active","ping":130},{"user_id":566,"name":"Cursed.","steam_id":76561198381491880,"connected_time":3678000000000,"state":"active","ping":96},{"user_id":614,"name":"sub class?","steam_id":76561199184873889,"connected_time":577000000000,"state":"active","ping":79},{"user_id":618,"name":"a","steam_id":76561198390523242,"connected_time":280000000000,"state":"active","ping":80},{"user_id":619,"name":"F2P_Spy","steam_id":76561198970762992,"connected_time":75000000000,"state":"active","ping":88},{"user_id":558,"name":"Bubba","steam_id":76561198163662191,"connected_time":4183000000000,"state":"active","ping":79},{"user_id":620,"name":"sethlington14","steam_id":76561199438357690,"connected_time":57000000000,"state":"active","ping":60},{"user_id":544,"name":"ThatGamingKiwi","steam_id":76561199170522237,"connected_time":5410000000000,"state":"active","ping":146},{"user_id":605,"name":"LasagneMan","steam_id":76561198971904377,"connected_time":1252000000000,"state":"active","ping":56},{"user_id":622,"name":"OutOfRage","steam_id":76561198211205791,"connected_time":31000000000,"state":"active","ping":45},{"user_id":600,"name":"OweMeOneCannoli","steam_id":76561198040946676,"connected_time":1613000000000,"state":"active","ping":60},{"user_id":565,"name":"Minimi","steam_id":76561198873850443,"connected_time":3774000000000,"state":"active","ping":123},{"user_id":594,"name":"idc","steam_id":76561198322087870,"connected_time":2156000000000,"state":"active","ping":102},{"user_id":546,"name":"M2rtRa","steam_id":76561198111036466,"connected_time":5248000000000,"state":"active","ping":78},{"user_id":623,"name":"Poodle","steam_id":76561198015483504,"connected_time":16000000000,"state":"active","ping":87},{"user_id":595,"name":"GZimmer","steam_id":76561198088794767,"connected_time":2093000000000,"state":"active","ping":50},{"user_id":596,"name":"The Subway Scientist","steam_id":76561198193757646,"connected_time":2040000000000,"state":"active","ping":48},{"user_id":624,"name":"pensami forte","steam_id":76561198066071855,"connected_time":5000000000,"state":"spawning","ping":72},{"user_id":593,"name":"L4gman","steam_id":76561198048227040,"connected_time":2202000000000,"state":"active","ping":91},{"user_id":548,"name":"Maha","steam_id":76561198451573245,"connected_time":5112000000000,"state":"active","ping":60}]},{"server_id":41,"name":"Uncletopia | London | 8 | Community","name_short":"lon-8","host":"lon-1.uk.uncletopia.com","port":27085,"enabled":true,"region":"eu","cc":"gb","latitude":51.509865,"longitude":-0.118092,"reserved":0,"last_update":"0001-01-01T00:00:00Z","name_a2s":"Uncletopia | London | 8 | Community","protocol":17,"map":"workshop/cp_villa_b19.ugc2113052569","folder":"tf","game":"Team Fortress","app_id":440,"player_count":24,"max_players":24,"Bots":0,"server_type":"Dedicated","server_os":"Linux","password":true,"vac":true,"version":"7882260","steam_id":85568392924964315,"keywords":["cp","nocrits","nodmgspread","uncletopia"],"game_id":440,"stv_port":27086,"stv_name":"Uncletopia | London | 8 | Community | STV","players":[{"user_id":312,"name":"Tegnerud","steam_id":76561198214185612,"connected_time":112000000000,"state":"active","ping":75},{"user_id":313,"name":"static","steam_id":76561198836825741,"connected_time":8000000000,"state":"spawning","ping":199},{"user_id":206,"name":"X-tis","steam_id":76561198043837480,"connected_time":8786000000000,"state":"active","ping":71},{"user_id":295,"name":"Goodboi989","steam_id":76561199012797025,"connected_time":1398000000000,"state":"active","ping":168},{"user_id":299,"name":"cream gravy","steam_id":76561198973069177,"connected_time":1312000000000,"state":"active","ping":57},{"user_id":290,"name":"AXAL","steam_id":76561198178250598,"connected_time":1586000000000,"state":"active","ping":81},{"user_id":294,"name":"Tomfool","steam_id":76561197993256481,"connected_time":1444000000000,"state":"active","ping":88},{"user_id":212,"name":"Jonathan","steam_id":76561198087988880,"connected_time":8017000000000,"state":"active","ping":60},{"user_id":305,"name":"firehoes","steam_id":76561198322586709,"connected_time":1036000000000,"state":"active","ping":49},{"user_id":303,"name":"mark of the outsider","steam_id":76561198309246388,"connected_time":1156000000000,"state":"active","ping":59},{"user_id":307,"name":"thuke","steam_id":76561198093821065,"connected_time":542000000000,"state":"active","ping":87},{"user_id":257,"name":"waffle toaster","steam_id":76561198799089628,"connected_time":4738000000000,"state":"active","ping":45},{"user_id":308,"name":"☞LaZe☜","steam_id":76561198202191400,"connected_time":468000000000,"state":"active","ping":55},{"user_id":205,"name":"Fat Pigeon","steam_id":76561198817940142,"connected_time":8856000000000,"state":"active","ping":45},{"user_id":215,"name":"and i'm javert!","steam_id":76561198117033273,"connected_time":7949000000000,"state":"active","ping":52},{"user_id":255,"name":"TheEmeraldStar","steam_id":76561198072942529,"connected_time":4789000000000,"state":"active","ping":75},{"user_id":256,"name":"F0RGTPR0X","steam_id":76561198037119829,"connected_time":4769000000000,"state":"active","ping":85},{"user_id":310,"name":"ldshwt","steam_id":76561198090364357,"connected_time":306000000000,"state":"active","ping":64},{"user_id":302,"name":"Edgy","steam_id":76561198083241196,"connected_time":1196000000000,"state":"active","ping":55},{"user_id":243,"name":"Trimping Squire","steam_id":76561198367203640,"connected_time":5797000000000,"state":"active","ping":45},{"user_id":285,"name":"SHARAГA","steam_id":76561198145055526,"connected_time":2112000000000,"state":"active","ping":135},{"user_id":204,"name":"wibe","steam_id":76561198002519060,"connected_time":8941000000000,"state":"active","ping":76},{"user_id":306,"name":"oRang3_","steam_id":76561198841009476,"connected_time":1020000000000,"state":"active","ping":69},{"user_id":311,"name":"ifre3","steam_id":76561198052545817,"connected_time":257000000000,"state":"active","ping":109}]},{"server_id":300,"name":"Uncletopia | Montréal | 1 | All Maps","name_short":"mtl-1","host":"mtl-1.ca.uncletopia.com","port":27015,"enabled":true,"region":"us-east","cc":"ca","latitude":45.50889,"longitude":-73.56167,"reserved":0,"last_update":"0001-01-01T00:00:00Z","name_a2s":"Uncletopia | Montréal | 1 | All Maps","protocol":17,"map":"cp_mountainlab","folder":"tf","game":"Team Fortress","app_id":440,"player_count":0,"max_players":24,"Bots":0,"server_type":"Dedicated","server_os":"Linux","password":true,"vac":true,"version":"7882260","steam_id":85568392924500087,"keywords":["cp","nocrits","nodmgspread","uncletopia"],"game_id":440,"stv_port":27016,"stv_name":"Uncletopia | Montréal | 1 | All Maps | STV","players":null},{"server_id":301,"name":"Uncletopia | Montréal | 2 | All Maps","name_short":"mtl-2","host":"mtl-1.ca.uncletopia.com","port":27025,"enabled":true,"region":"us-east","cc":"ca","latitude":45.50889,"longitude":-73.56167,"reserved":0,"last_update":"0001-01-01T00:00:00Z","name_a2s":"Uncletopia | Montréal | 2 | All Maps","protocol":17,"map":"pl_frontier_final","folder":"tf","game":"Team Fortress","app_id":440,"player_count":0,"max_players":24,"Bots":0,"server_type":"Dedicated","server_os":"Linux","password":true,"vac":true,"version":"7882260","steam_id":85568392924500088,"keywords":["nocrits","nodmgspread","payload","uncletopia"],"game_id":440,"stv_port":27026,"stv_name":"Uncletopia | Montréal | 2 | All Maps | STV","players":null},{"server_id":302,"name":"Uncletopia | Montréal | 3 | All Maps","name_short":"mtl-3","host":"mtl-1.ca.uncletopia.com","port":27035,"enabled":true,"region":"us-east","cc":"ca","latitude":45.50889,"longitude":-73.56167,"reserved":0,"last_update":"0001-01-01T00:00:00Z","name_a2s":"Uncletopia | Montréal | 3 | All Maps","protocol":17,"map":"pl_borneo","folder":"tf","game":"Team Fortress","app_id":440,"player_count":0,"max_players":24,"Bots":0,"server_type":"Dedicated","server_os":"Linux","password":true,"vac":true,"version":"7882260","steam_id":85568392924500089,"keywords":["nocrits","nodmgspread","payload","uncletopia"],"game_id":440,"stv_port":27036,"stv_name":"Uncletopia | Montréal | 3 | All Maps | STV","players":null},{"server_id":303,"name":"Uncletopia | Montréal | 4 | No Payload","name_short":"mtl-4","host":"mtl-1.ca.uncletopia.com","port":27045,"enabled":true,"region":"us-east","cc":"ca","latitude":45.50889,"longitude":-73.56167,"reserved":0,"last_update":"0001-01-01T00:00:00Z","name_a2s":"Uncletopia | Montréal | 4 | No Payload","protocol":17,"map":"cp_altitude","folder":"tf","game":"Team Fortress","app_id":440,"player_count":0,"max_players":24,"Bots":0,"server_type":"Dedicated","server_os":"Linux","password":true,"vac":true,"version":"7882260","steam_id":85568392924500090,"keywords":["cp","nocrits","nodmgspread","uncletopia"],"game_id":440,"stv_port":27046,"stv_name":"Uncletopia | Montréal | 4 | No Payload | STV","players":null},{"server_id":13,"name":"Uncletopia | New York City | 1 | All Maps","name_short":"nyc-1","host":"nyc-1.us.uncletopia.com","port":27015,"enabled":true,"region":"us-east","cc":"us","latitude":40.73061,"longitude":-73.93524,"reserved":0,"last_update":"0001-01-01T00:00:00Z","name_a2s":"Uncletopia | New York City | 1 | All Maps","protocol":17,"map":"koth_highpass","folder":"tf","game":"Team Fortress","app_id":440,"player_count":23,"max_players":24,"Bots":0,"server_type":"Dedicated","server_os":"Linux","password":true,"vac":true,"version":"7882260","steam_id":85568392924469993,"keywords":["cp","nocrits","nodmgspread","uncletopia"],"game_id":440,"stv_port":27016,"stv_name":"Uncletopia | New York City | 1 | All Maps | STV","players":[{"user_id":150,"name":"BasicPeaches","steam_id":76561198190890150,"connected_time":672000000000,"state":"active","ping":61},{"user_id":100,"name":"Aristotle Voulton","steam_id":76561198100174923,"connected_time":4112000000000,"state":"active","ping":75},{"user_id":157,"name":"Big Ears","steam_id":76561198851363077,"connected_time":376000000000,"state":"active","ping":69},{"user_id":130,"name":"Kushkatt","steam_id":76561198058397659,"connected_time":2450000000000,"state":"active","ping":72},{"user_id":110,"name":"eternal damnation","steam_id":76561198329087915,"connected_time":3142000000000,"state":"active","ping":118},{"user_id":152,"name":"Mythius","steam_id":76561198401392472,"connected_time":553000000000,"state":"active","ping":60},{"user_id":155,"name":"inclinedtoserve","steam_id":76561198049947541,"connected_time":428000000000,"state":"active","ping":44},{"user_id":154,"name":"Chaotic Rushu","steam_id":76561198170054407,"connected_time":515000000000,"state":"active","ping":68},{"user_id":156,"name":"Titar Industries","steam_id":76561198143078476,"connected_time":422000000000,"state":"active","ping":69},{"user_id":158,"name":"scrotal recall","steam_id":76561198135945598,"connected_time":331000000000,"state":"active","ping":75},{"user_id":165,"name":"hoboways","steam_id":76561198168035195,"connected_time":107000000000,"state":"active","ping":79},{"user_id":138,"name":"BallofBandages","steam_id":76561198089817918,"connected_time":1894000000000,"state":"active","ping":60},{"user_id":160,"name":"Cite(nhh)","steam_id":76561198889749019,"connected_time":301000000000,"state":"active","ping":48},{"user_id":108,"name":"lost in spaaaaace","steam_id":76561199085974120,"connected_time":3446000000000,"state":"active","ping":57},{"user_id":161,"name":"Jupiter Jazz","steam_id":76561198870349289,"connected_time":296000000000,"state":"active","ping":83},{"user_id":166,"name":"ObsessedNerd505","steam_id":76561199045531456,"connected_time":75000000000,"state":"active","ping":45},{"user_id":125,"name":"Bottom Ramen","steam_id":76561197970450546,"connected_time":2804000000000,"state":"active","ping":128},{"user_id":162,"name":"Indigolake","steam_id":76561198202215807,"connected_time":293000000000,"state":"active","ping":71},{"user_id":163,"name":"the_Harvard_School_of_Buisness","steam_id":76561199060920185,"connected_time":174000000000,"state":"active","ping":72},{"user_id":136,"name":"F0restFerret","steam_id":76561199112458876,"connected_time":2058000000000,"state":"active","ping":52},{"user_id":164,"name":"ReTrying","steam_id":76561198976162684,"connected_time":154000000000,"state":"active","ping":70},{"user_id":167,"name":"Ectomonkey","steam_id":76561198125417062,"connected_time":66000000000,"state":"active","ping":122},{"user_id":146,"name":"Spec4","steam_id":76561199481045103,"connected_time":1408000000000,"state":"active","ping":89}]},{"server_id":14,"name":"Uncletopia | New York City | 2 | All Maps","name_short":"nyc-2","host":"nyc-1.us.uncletopia.com","port":27025,"enabled":true,"region":"us-east","cc":"us","latitude":40.73061,"longitude":-73.93524,"reserved":0,"last_update":"0001-01-01T00:00:00Z","name_a2s":"Uncletopia | New York City | 2 | All Maps","protocol":17,"map":"pl_frontier_final","folder":"tf","game":"Team Fortress","app_id":440,"player_count":24,"max_players":24,"Bots":0,"server_type":"Dedicated","server_os":"Linux","password":true,"vac":true,"version":"7882260","steam_id":85568392924469994,"keywords":["nocrits","nodmgspread","payload","uncletopia"],"game_id":440,"stv_port":27026,"stv_name":"Uncletopia | New York City | 2 | All Maps | STV","players":[{"user_id":260,"name":"Dank_Krill","steam_id":76561198839913424,"connected_time":1095000000000,"state":"active","ping":54},{"user_id":259,"name":"Ian","steam_id":76561199078852180,"connected_time":1115000000000,"state":"active","ping":63},{"user_id":256,"name":"P♥is♥n","steam_id":76561198140584050,"connected_time":1495000000000,"state":"active","ping":55},{"user_id":264,"name":"Yayboo Bear","steam_id":76561197990770266,"connected_time":733000000000,"state":"active","ping":89},{"user_id":275,"name":"New the Elf","steam_id":76561198108775488,"connected_time":135000000000,"state":"active","ping":57},{"user_id":205,"name":"vastrobotmax","steam_id":76561198417110724,"connected_time":4537000000000,"state":"active","ping":70},{"user_id":195,"name":"eater of bee hives","steam_id":76561199030261869,"connected_time":5214000000000,"state":"active","ping":88},{"user_id":222,"name":"V3CTOR Gaminf","steam_id":76561199233035882,"connected_time":3084000000000,"state":"active","ping":116},{"user_id":265,"name":"Ursus Ludius","steam_id":76561198025470722,"connected_time":718000000000,"state":"active","ping":67},{"user_id":269,"name":"-W3E- grim10465","steam_id":76561198045698581,"connected_time":480000000000,"state":"active","ping":45},{"user_id":245,"name":"Dr. Prostate","steam_id":76561198171085627,"connected_time":2289000000000,"state":"active","ping":53},{"user_id":272,"name":"Bale","steam_id":76561198093034439,"connected_time":364000000000,"state":"active","ping":74},{"user_id":258,"name":"acurlyquote","steam_id":76561198110033420,"connected_time":1310000000000,"state":"active","ping":73},{"user_id":271,"name":"dr peppah chug!","steam_id":76561198068835693,"connected_time":365000000000,"state":"active","ping":80},{"user_id":233,"name":"some tree","steam_id":76561198166093346,"connected_time":2839000000000,"state":"active","ping":63},{"user_id":248,"name":"bass","steam_id":76561198045444622,"connected_time":2131000000000,"state":"active","ping":45},{"user_id":247,"name":"cool safe name","steam_id":76561198237827742,"connected_time":2254000000000,"state":"active","ping":43},{"user_id":228,"name":"Mr. Sauce","steam_id":76561198055512324,"connected_time":2966000000000,"state":"active","ping":60},{"user_id":246,"name":"HadesTheKing","steam_id":76561198071731749,"connected_time":2267000000000,"state":"active","ping":53},{"user_id":261,"name":"wushi","steam_id":76561198078330635,"connected_time":974000000000,"state":"active","ping":55},{"user_id":262,"name":"Wallet","steam_id":76561198081067377,"connected_time":852000000000,"state":"active","ping":45},{"user_id":251,"name":"wowisthatleo","steam_id":76561199020860911,"connected_time":1835000000000,"state":"active","ping":165},{"user_id":268,"name":"Scorpianswag","steam_id":76561198260651036,"connected_time":672000000000,"state":"active","ping":104},{"user_id":274,"name":"Jadthegamerofgames","steam_id":76561198310575719,"connected_time":309000000000,"state":"active","ping":49}]},{"server_id":15,"name":"Uncletopia | New York City | 3 | Stopwatch Beta","name_short":"nyc-3","host":"nyc-1.us.uncletopia.com","port":27035,"enabled":true,"region":"us-east","cc":"us","latitude":40.73061,"longitude":-73.93524,"reserved":0,"last_update":"0001-01-01T00:00:00Z","name_a2s":"Uncletopia | New York City | 3 | Stopwatch Beta","protocol":17,"map":"cp_sunshine","folder":"tf","game":"Team Fortress","app_id":440,"player_count":0,"max_players":24,"Bots":0,"server_type":"Dedicated","server_os":"Linux","password":true,"vac":true,"version":"7882260","steam_id":85568392924742820,"keywords":["cp","nocrits","nodmgspread","uncletopia"],"game_id":440,"stv_port":27036,"stv_name":"Uncletopia | New York City | 3 | Stopwatch Beta | STV","players":null},{"server_id":16,"name":"Uncletopia | New York City | 4 | Community","name_short":"nyc-4","host":"nyc-1.us.uncletopia.com","port":27045,"enabled":true,"region":"us-east","cc":"us","latitude":40.73061,"longitude":-73.93524,"reserved":0,"last_update":"0001-01-01T00:00:00Z","name_a2s":"Uncletopia | New York City | 4 | Community","protocol":17,"map":"workshop/koth_slaughter_rc1.ugc1712845210","folder":"tf","game":"Team Fortress","app_id":440,"player_count":0,"max_players":24,"Bots":0,"server_type":"Dedicated","server_os":"Linux","password":true,"vac":true,"version":"7882260","steam_id":85568392924742821,"keywords":["cp","nocrits","nodmgspread","uncletopia"],"game_id":440,"stv_port":27046,"stv_name":"Uncletopia | New York City | 4 | Community | STV","players":null},{"server_id":142,"name":"Uncletopia | São Paulo | 1 | All Maps","name_short":"sao-1","host":"sao-1.br.uncletopia.com","port":27015,"enabled":true,"region":"sa","cc":"br","latitude":-23.533773,"longitude":-46.62529,"reserved":0,"last_update":"0001-01-01T00:00:00Z","name_a2s":"Uncletopia | São Paulo | 1 | All Maps","protocol":17,"map":"koth_viaduct","folder":"tf","game":"Team Fortress","app_id":440,"player_count":0,"max_players":24,"Bots":0,"server_type":"Dedicated","server_os":"Linux","password":true,"vac":true,"version":"7882260","steam_id":85568392924469996,"keywords":["cp","nocrits","nodmgspread","uncletopia"],"game_id":440,"stv_port":27016,"stv_name":"Uncletopia | São Paulo | 1 | All Maps | STV","players":null},{"server_id":143,"name":"Uncletopia | São Paulo | 2 | All Maps","name_short":"sao-2","host":"sao-2.br.uncletopia.com","port":27015,"enabled":true,"region":"sa","cc":"br","latitude":-23.533773,"longitude":-46.62529,"reserved":0,"last_update":"0001-01-01T00:00:00Z","name_a2s":"Uncletopia | São Paulo | 2 | All Maps","protocol":17,"map":"koth_viaduct","folder":"tf","game":"Team Fortress","app_id":440,"player_count":3,"max_players":24,"Bots":0,"server_type":"Dedicated","server_os":"Linux","password":true,"vac":true,"version":"7882260","steam_id":85568392924485349,"keywords":["cp","nocrits","nodmgspread","uncletopia"],"game_id":440,"stv_port":27016,"stv_name":"Uncletopia | São Paulo | 2 | All Maps | STV","players":[{"user_id":20,"name":"Tio KillerParty","steam_id":76561198067918814,"connected_time":242000000000,"state":"active","ping":59},{"user_id":21,"name":"Tou_Matt","steam_id":76561198898317327,"connected_time":172000000000,"state":"active","ping":45},{"user_id":22,"name":"HeadShotGamerBR","steam_id":76561198116856702,"connected_time":126000000000,"state":"active","ping":62}]},{"server_id":7,"name":"Uncletopia | Seattle | 1 | All Maps","name_short":"sea-1","host":"sea-1.us.uncletopia.com","port":27015,"enabled":true,"region":"us-west","cc":"us","latitude":47.608013,"longitude":-122.33517,"reserved":0,"last_update":"0001-01-01T00:00:00Z","name_a2s":"Uncletopia | Seattle | 1 | All Maps","protocol":17,"map":"pl_upward","folder":"tf","game":"Team Fortress","app_id":440,"player_count":24,"max_players":24,"Bots":0,"server_type":"Dedicated","server_os":"Linux","password":true,"vac":true,"version":"7882260","steam_id":85568392924469997,"keywords":["nocrits","nodmgspread","payload","uncletopia"],"game_id":440,"stv_port":27016,"stv_name":"Uncletopia | Seattle | 1 | All Maps | STV","players":[{"user_id":229,"name":"Chiki","steam_id":76561198063590320,"connected_time":500000000000,"state":"active","ping":107},{"user_id":193,"name":"O","steam_id":76561198450073779,"connected_time":2789000000000,"state":"active","ping":46},{"user_id":174,"name":"Themasterman75","steam_id":76561199385573293,"connected_time":4437000000000,"state":"active","ping":65},{"user_id":203,"name":"muffinman12126","steam_id":76561199471924109,"connected_time":2011000000000,"state":"active","ping":69},{"user_id":230,"name":"Leroy","steam_id":76561199013064727,"connected_time":455000000000,"state":"active","ping":89},{"user_id":231,"name":"Coyote","steam_id":76561198428625600,"connected_time":454000000000,"state":"active","ping":94},{"user_id":180,"name":"o o o o o o o o o","steam_id":76561197993757506,"connected_time":3777000000000,"state":"active","ping":71},{"user_id":226,"name":"OH JIMMY I'M HOME #SavedTf2","steam_id":76561198396658806,"connected_time":977000000000,"state":"active","ping":71},{"user_id":211,"name":"lolzfrdawin21","steam_id":76561199006665979,"connected_time":1627000000000,"state":"active","ping":111},{"user_id":232,"name":"dwight schrute","steam_id":76561198001237877,"connected_time":449000000000,"state":"active","ping":90},{"user_id":228,"name":"Cheese Fiend","steam_id":76561198053602591,"connected_time":544000000000,"state":"active","ping":68},{"user_id":221,"name":"tlm","steam_id":76561198178457461,"connected_time":1267000000000,"state":"active","ping":98},{"user_id":191,"name":"AmiableNebula","steam_id":76561198094306627,"connected_time":2998000000000,"state":"active","ping":74},{"user_id":206,"name":"cool beans","steam_id":76561198321591685,"connected_time":1758000000000,"state":"active","ping":68},{"user_id":176,"name":"› Pavvy","steam_id":76561197998662839,"connected_time":4240000000000,"state":"active","ping":63},{"user_id":192,"name":"color gibus enjoyer","steam_id":76561198253531160,"connected_time":2875000000000,"state":"active","ping":55},{"user_id":196,"name":"Rain","steam_id":76561198065612273,"connected_time":2684000000000,"state":"active","ping":47},{"user_id":207,"name":"Its Joever","steam_id":76561198196916347,"connected_time":1721000000000,"state":"active","ping":116},{"user_id":233,"name":"BasedGod","steam_id":76561198061177973,"connected_time":429000000000,"state":"active","ping":61},{"user_id":208,"name":"anon","steam_id":76561199119625209,"connected_time":1711000000000,"state":"active","ping":45},{"user_id":227,"name":"Spicy Within Reason","steam_id":76561198066700370,"connected_time":932000000000,"state":"active","ping":53},{"user_id":120,"name":"Headmouth","steam_id":76561198019789855,"connected_time":8386000000000,"state":"active","ping":176},{"user_id":202,"name":"dr pepper","steam_id":76561198032821962,"connected_time":2056000000000,"state":"active","ping":74},{"user_id":213,"name":"DoctorDucky","steam_id":76561198356434380,"connected_time":1539000000000,"state":"active","ping":87}]},{"server_id":119,"name":"Uncletopia | Seattle | 2 | All Maps","name_short":"sea-2","host":"sea-1.us.uncletopia.com","port":27025,"enabled":true,"region":"us-west","cc":"us","latitude":47.608013,"longitude":-122.33517,"reserved":0,"last_update":"0001-01-01T00:00:00Z","name_a2s":"Uncletopia | Seattle | 2 | All Maps","protocol":17,"map":"pl_borneo","folder":"tf","game":"Team Fortress","app_id":440,"player_count":24,"max_players":24,"Bots":0,"server_type":"Dedicated","server_os":"Linux","password":true,"vac":true,"version":"7882260","steam_id":85568392924469998,"keywords":["nocrits","nodmgspread","payload","uncletopia"],"game_id":440,"stv_port":27026,"stv_name":"Uncletopia | Seattle | 2 | All Maps | STV","players":[{"user_id":153,"name":"provo","steam_id":76561198042843798,"connected_time":373000000000,"state":"active","ping":117},{"user_id":134,"name":"Master Of Whales","steam_id":76561198349104889,"connected_time":2132000000000,"state":"active","ping":84},{"user_id":160,"name":"Aux","steam_id":76561199091651065,"connected_time":23000000000,"state":"active","ping":164},{"user_id":152,"name":"greens beans","steam_id":76561198153611491,"connected_time":440000000000,"state":"active","ping":50},{"user_id":138,"name":"✧Ⓒⓘⓒⓘ✧","steam_id":76561198090077268,"connected_time":1780000000000,"state":"active","ping":95},{"user_id":92,"name":"Gonotic gnelf","steam_id":76561199135847219,"connected_time":4538000000000,"state":"active","ping":127},{"user_id":145,"name":"dirty30","steam_id":76561198021226566,"connected_time":1394000000000,"state":"active","ping":47},{"user_id":155,"name":"vareh","steam_id":76561197993190926,"connected_time":294000000000,"state":"active","ping":61},{"user_id":141,"name":"reymundo","steam_id":76561197989412830,"connected_time":1459000000000,"state":"active","ping":93},{"user_id":157,"name":"DropBear","steam_id":76561197964435496,"connected_time":240000000000,"state":"active","ping":127},{"user_id":146,"name":"oi josuke","steam_id":76561198136169355,"connected_time":1307000000000,"state":"active","ping":100},{"user_id":125,"name":"SuperRuskii","steam_id":76561199455324778,"connected_time":2592000000000,"state":"active","ping":102},{"user_id":142,"name":"green bean","steam_id":76561198113099204,"connected_time":1446000000000,"state":"active","ping":52},{"user_id":126,"name":"emissions_master","steam_id":76561198870649125,"connected_time":2547000000000,"state":"active","ping":70},{"user_id":131,"name":"Corpe","steam_id":76561198054490549,"connected_time":2274000000000,"state":"active","ping":49},{"user_id":143,"name":"Aviyarn","steam_id":76561199074194652,"connected_time":1444000000000,"state":"active","ping":128},{"user_id":151,"name":"doomshroom","steam_id":76561198092827250,"connected_time":822000000000,"state":"active","ping":55},{"user_id":158,"name":"Chuck Dimbly","steam_id":76561198110240968,"connected_time":193000000000,"state":"active","ping":132},{"user_id":100,"name":"james may","steam_id":76561198043857339,"connected_time":4373000000000,"state":"active","ping":72},{"user_id":89,"name":"tf3aflyingmouse","steam_id":76561198058134934,"connected_time":4642000000000,"state":"active","ping":106},{"user_id":150,"name":"BLU3","steam_id":76561198059652670,"connected_time":930000000000,"state":"active","ping":46},{"user_id":111,"name":"Wafflemuscle","steam_id":76561198868628982,"connected_time":3499000000000,"state":"active","ping":47},{"user_id":159,"name":"Follow God not others","steam_id":76561198452519031,"connected_time":126000000000,"state":"active","ping":55},{"user_id":133,"name":"Vicpop","steam_id":76561197970531290,"connected_time":2225000000000,"state":"active","ping":63}]},{"server_id":406,"name":"Uncletopia | Seattle | 3 | Stopwatch Beta","name_short":"sea-3","host":"sea-1.us.uncletopia.com","port":27035,"enabled":true,"region":"us-west","cc":"us","latitude":47.608013,"longitude":-122.33517,"reserved":0,"last_update":"0001-01-01T00:00:00Z","name_a2s":"Uncletopia | Seattle | 3 | Stopwatch Beta","protocol":17,"map":"pl_borneo","folder":"tf","game":"Team Fortress","app_id":440,"player_count":0,"max_players":24,"Bots":0,"server_type":"Dedicated","server_os":"Linux","password":true,"vac":true,"version":"7882260","steam_id":85568392924515217,"keywords":["nocrits","nodmgspread","payload","uncletopia"],"game_id":440,"stv_port":27036,"stv_name":"Uncletopia | Seattle | 3 | Stopwatch Beta | STV","players":null},{"server_id":17,"name":"Uncletopia | San Francisco | 1 | All Maps","name_short":"sfo-1","host":"sfo-1.us.uncletopia.com","port":27015,"enabled":true,"region":"us-west","cc":"us","latitude":37.77397,"longitude":-122.4313,"reserved":0,"last_update":"0001-01-01T00:00:00Z","name_a2s":"Uncletopia | San Francisco | 1 | All Maps","protocol":17,"map":"cp_process_final","folder":"tf","game":"Team Fortress","app_id":440,"player_count":0,"max_players":24,"Bots":0,"server_type":"Dedicated","server_os":"Linux","password":true,"vac":true,"version":"7757534","steam_id":85568392924469999,"keywords":["cp","nocrits","nodmgspread","uncletopia"],"game_id":440,"stv_port":27016,"stv_name":"Uncletopia | San Francisco | 1 | All Maps | STV","players":null},{"server_id":18,"name":"Uncletopia | San Francisco | 2 | All Maps","name_short":"sfo-2","host":"sfo-1.us.uncletopia.com","port":27025,"enabled":true,"region":"us-west","cc":"us","latitude":37.77397,"longitude":-122.4313,"reserved":0,"last_update":"0001-01-01T00:00:00Z","name_a2s":"Uncletopia | San Francisco | 2 | All Maps","protocol":17,"map":"koth_highpass","folder":"tf","game":"Team Fortress","app_id":440,"player_count":0,"max_players":24,"Bots":0,"server_type":"Dedicated","server_os":"Linux","password":true,"vac":true,"version":"7757534","steam_id":85568392924470000,"keywords":["cp","nocrits","nodmgspread","uncletopia"],"game_id":440,"stv_port":27026,"stv_name":"Uncletopia | San Francisco | 2 | All Maps | STV","players":null},{"server_id":19,"name":"Uncletopia | San Francisco | 3 | Stopwatch Beta","name_short":"sfo-3","host":"sfo-1.us.uncletopia.com","port":27035,"enabled":true,"region":"us-west","cc":"us","latitude":37.77397,"longitude":-122.4313,"reserved":0,"last_update":"0001-01-01T00:00:00Z","name_a2s":"Uncletopia | San Francisco | 3 | Stopwatch Beta","protocol":17,"map":"koth_lakeside_final","folder":"tf","game":"Team Fortress","app_id":440,"player_count":0,"max_players":24,"Bots":0,"server_type":"Dedicated","server_os":"Linux","password":true,"vac":true,"version":"7757534","steam_id":85568392924742824,"keywords":["cp","nocrits","nodmgspread","uncletopia"],"game_id":440,"stv_port":27036,"stv_name":"Uncletopia | San Francisco | 3 | Stopwatch Beta | STV","players":null},{"server_id":20,"name":"Uncletopia | San Francisco | 4 | Community","name_short":"sfo-4","host":"sfo-1.us.uncletopia.com","port":27045,"enabled":true,"region":"us-west","cc":"us","latitude":37.77397,"longitude":-122.4313,"reserved":0,"last_update":"0001-01-01T00:00:00Z","name_a2s":"Uncletopia | San Francisco | 4 | Community","protocol":17,"map":"cp_altitude","folder":"tf","game":"Team Fortress","app_id":440,"player_count":0,"max_players":24,"Bots":0,"server_type":"Dedicated","server_os":"Linux","password":true,"vac":true,"version":"7757534","steam_id":85568392924742826,"keywords":["cp","nocrits","nodmgspread","uncletopia"],"game_id":440,"stv_port":27046,"stv_name":"Uncletopia | San Francisco | 4 | Community | STV","players":null},{"server_id":141,"name":"Uncletopia | Sydney | 1 | All Maps","name_short":"syd-1","host":"syd-1.au.uncletopia.com","port":27015,"enabled":true,"region":"au","cc":"au","latitude":-33.865143,"longitude":151.2099,"reserved":0,"last_update":"0001-01-01T00:00:00Z","name_a2s":"Uncletopia | Sydney | 1 | All Maps","protocol":17,"map":"pl_swiftwater_final1","folder":"tf","game":"Team Fortress","app_id":440,"player_count":0,"max_players":24,"Bots":0,"server_type":"Dedicated","server_os":"Linux","password":true,"vac":true,"version":"7882260","steam_id":85568392924470001,"keywords":["nocrits","nodmgspread","payload","uncletopia"],"game_id":440,"stv_port":27016,"stv_name":"Uncletopia | Sydney | 1 | All Maps | STV","players":null},{"server_id":123,"name":"Uncletopia | Sydney | 2 | All Maps","name_short":"syd-2","host":"syd-1.au.uncletopia.com","port":27025,"enabled":true,"region":"au","cc":"au","latitude":-33.865143,"longitude":151.2099,"reserved":0,"last_update":"0001-01-01T00:00:00Z","name_a2s":"Uncletopia | Sydney | 2 | All Maps","protocol":17,"map":"cp_snakewater_final1","folder":"tf","game":"Team Fortress","app_id":440,"player_count":0,"max_players":24,"Bots":0,"server_type":"Dedicated","server_os":"Linux","password":true,"vac":true,"version":"7882260","steam_id":85568392924470002,"keywords":["cp","nocrits","nodmgspread","uncletopia"],"game_id":440,"stv_port":27026,"stv_name":"Uncletopia | Sydney | 2 | All Maps | STV","players":null},{"server_id":395,"name":"Uncletopia | Sydney | 3 | All Maps","name_short":"syd-3","host":"syd-1.au.uncletopia.com","port":27035,"enabled":true,"region":"au","cc":"au","latitude":-33.865143,"longitude":151.2099,"reserved":0,"last_update":"0001-01-01T00:00:00Z","name_a2s":"Uncletopia | Sydney | 3 | All Maps","protocol":17,"map":"koth_viaduct","folder":"tf","game":"Team Fortress","app_id":440,"player_count":0,"max_players":24,"Bots":0,"server_type":"Dedicated","server_os":"Linux","password":true,"vac":true,"version":"7882260","steam_id":85568392925194467,"keywords":["cp","nocrits","nodmgspread","uncletopia"],"game_id":440,"stv_port":27036,"stv_name":"Uncletopia | Sydney | 3 | All Maps | STV","players":null},{"server_id":396,"name":"Uncletopia | Sydney | 4 | All Maps","name_short":"syd-4","host":"syd-1.au.uncletopia.com","port":27045,"enabled":true,"region":"au","cc":"au","latitude":-33.865143,"longitude":151.2099,"reserved":0,"last_update":"0001-01-01T00:00:00Z","name_a2s":"Uncletopia | Sydney | 4 | All Maps","protocol":17,"map":"pl_borneo","folder":"tf","game":"Team Fortress","app_id":440,"player_count":0,"max_players":24,"Bots":0,"server_type":"Dedicated","server_os":"Linux","password":true,"vac":true,"version":"7882260","steam_id":85568392925397958,"keywords":["nocrits","nodmgspread","payload","uncletopia"],"game_id":440,"stv_port":27046,"stv_name":"Uncletopia | Sydney | 4 | All Maps | STV","players":null},{"server_id":58,"name":"Uncletopia | Sydney | 5 | Stopwatch Beta","name_short":"syd-5","host":"syd-1.au.uncletopia.com","port":27055,"enabled":true,"region":"au","cc":"au","latitude":-33.865143,"longitude":151.2099,"reserved":0,"last_update":"0001-01-01T00:00:00Z","name_a2s":"Uncletopia | Sydney | 5 | Stopwatch Beta","protocol":17,"map":"koth_highpass","folder":"tf","game":"Team Fortress","app_id":440,"player_count":0,"max_players":24,"Bots":0,"server_type":"Dedicated","server_os":"Linux","password":true,"vac":true,"version":"7882260","steam_id":85568392925397959,"keywords":["cp","nocrits","nodmgspread","uncletopia"],"game_id":440,"stv_port":27056,"stv_name":"Uncletopia | Sydney | 5 | Stopwatch Beta | STV","players":null},{"server_id":59,"name":"Uncletopia | Sydney | 6 | Community","name_short":"syd-6","host":"syd-1.au.uncletopia.com","port":27065,"enabled":true,"region":"au","cc":"au","latitude":-33.865143,"longitude":151.2099,"reserved":0,"last_update":"0001-01-01T00:00:00Z","name_a2s":"Uncletopia | Sydney | 6 | Community","protocol":17,"map":"workshop/koth_ramjam_rc1.ugc459778887","folder":"tf","game":"Team Fortress","app_id":440,"player_count":0,"max_players":24,"Bots":0,"server_type":"Dedicated","server_os":"Linux","password":true,"vac":true,"version":"7882260","steam_id":85568392925397960,"keywords":["cp","nocrits","nodmgspread","uncletopia"],"game_id":440,"stv_port":27066,"stv_name":"Uncletopia | Sydney | 6 | Community | STV","players":null},{"server_id":49,"name":"Uncletopia | Warsaw | 1 | All Maps","name_short":"waw-1","host":"waw-1.pl.uncletopia.com","port":27015,"enabled":true,"region":"eu","cc":"pl","latitude":52.2297,"longitude":21.017532,"reserved":0,"last_update":"0001-01-01T00:00:00Z","name_a2s":"","protocol":0,"map":"","folder":"","game":"","app_id":0,"player_count":0,"max_players":0,"Bots":0,"server_type":"","server_os":"","password":false,"vac":false,"version":"","steam_id":0,"keywords":null,"game_id":0,"stv_port":0,"stv_name":"","players":null},{"server_id":50,"name":"Uncletopia | Warsaw | 2 | All Maps","name_short":"waw-2","host":"waw-1.pl.uncletopia.com","port":27025,"enabled":true,"region":"eu","cc":"pl","latitude":52.2297,"longitude":21.017532,"reserved":0,"last_update":"0001-01-01T00:00:00Z","name_a2s":"Uncletopia | Warsaw | 2 | All Maps","protocol":17,"map":"cp_mountainlab","folder":"tf","game":"Team Fortress","app_id":440,"player_count":0,"max_players":24,"Bots":0,"server_type":"Dedicated","server_os":"Linux","password":true,"vac":true,"version":"7882260","steam_id":85568392925397851,"keywords":["cp","nocrits","nodmgspread","uncletopia"],"game_id":440,"stv_port":27026,"stv_name":"Uncletopia | Warsaw | 2 | All Maps | STV","players":null},{"server_id":51,"name":"Uncletopia | Warsaw | 3 | All Maps","name_short":"waw-3","host":"waw-1.pl.uncletopia.com","port":27035,"enabled":true,"region":"eu","cc":"pl","latitude":52.2297,"longitude":21.017532,"reserved":0,"last_update":"0001-01-01T00:00:00Z","name_a2s":"Uncletopia | Warsaw | 3 | All Maps","protocol":17,"map":"cp_process_final","folder":"tf","game":"Team Fortress","app_id":440,"player_count":0,"max_players":24,"Bots":0,"server_type":"Dedicated","server_os":"Linux","password":true,"vac":true,"version":"7882260","steam_id":85568392925397852,"keywords":["cp","nocrits","nodmgspread","uncletopia"],"game_id":440,"stv_port":27036,"stv_name":"Uncletopia | Warsaw | 3 | All Maps | STV","players":null},{"server_id":52,"name":"Uncletopia | Warsaw | 4 | All Maps","name_short":"waw-4","host":"waw-1.pl.uncletopia.com","port":27045,"enabled":true,"region":"eu","cc":"pl","latitude":52.2297,"longitude":21.017532,"reserved":0,"last_update":"0001-01-01T00:00:00Z","name_a2s":"Uncletopia | Warsaw | 4 | All Maps","protocol":17,"map":"koth_highpass","folder":"tf","game":"Team Fortress","app_id":440,"player_count":0,"max_players":24,"Bots":0,"server_type":"Dedicated","server_os":"Linux","password":true,"vac":true,"version":"7882260","steam_id":85568392925397853,"keywords":["cp","nocrits","nodmgspread","uncletopia"],"game_id":440,"stv_port":27046,"stv_name":"Uncletopia | Warsaw | 4 | All Maps | STV","players":null},{"server_id":53,"name":"Uncletopia | Warsaw | 5 | Stopwatch Beta","name_short":"waw-5","host":"waw-1.pl.uncletopia.com","port":27055,"enabled":true,"region":"eu","cc":"pl","latitude":52.2297,"longitude":21.017532,"reserved":0,"last_update":"0001-01-01T00:00:00Z","name_a2s":"Uncletopia | Warsaw | 5 | Stopwatch Beta","protocol":17,"map":"cp_process_final","folder":"tf","game":"Team Fortress","app_id":440,"player_count":0,"max_players":24,"Bots":0,"server_type":"Dedicated","server_os":"Linux","password":true,"vac":true,"version":"7882260","steam_id":85568392925397854,"keywords":["cp","nocrits","nodmgspread","uncletopia"],"game_id":440,"stv_port":27056,"stv_name":"Uncletopia | Warsaw | 5 | Stopwatch Beta | STV","players":null},{"server_id":54,"name":"Uncletopia | Warsaw | 6 | Community","name_short":"waw-6","host":"waw-1.pl.uncletopia.com","port":27065,"enabled":true,"region":"eu","cc":"pl","latitude":52.2297,"longitude":21.017532,"reserved":0,"last_update":"0001-01-01T00:00:00Z","name_a2s":"Uncletopia | Warsaw | 6 | Community","protocol":17,"map":"koth_viaduct","folder":"tf","game":"Team Fortress","app_id":440,"player_count":0,"max_players":24,"Bots":0,"server_type":"Dedicated","server_os":"Linux","password":true,"vac":true,"version":"7882260","steam_id":85568392925397856,"keywords":["cp","nocrits","nodmgspread","uncletopia"],"game_id":440,"stv_port":27066,"stv_name":"Uncletopia | Warsaw | 6 | Community | STV","players":null}]}