{"status":true,"message":"","result":[{"server_id":9,"name":"Uncletopia | Atlanta | 1 | All Maps","name_short":"atl-1","host":"atl-1.us.uncletopia.com","port":27015,"enabled":true,"region":"us-east","cc":"us","latitude":33.753746,"longitude":-84.38633,"reserved":0,"last_update":"0001-01-01T00:00:00Z","name_a2s":"Uncletopia | Atlanta | 1 | All Maps","protocol":17,"map":"koth_cascade","folder":"tf","game":"Team Fortress","app_id":440,"player_count":0,"max_players":24,"Bots":0,"server_type":"Dedicated","server_os":"Linux","password":true,"vac":true,"version":"7882260","steam_id":85568392924469982,"keywords":["cp","nocrits","nodmgspread","uncletopia"],"game_id":440,"stv_port":27016,"stv_name":"Uncletopia | Atlanta | 1 | All Maps | STV","players":null},{"server_id":104,"name":"Uncletopia | Atlanta | 2 | All Maps","name_short":"atl-2","host":"atl-1.us.uncletopia.com","port":27025,"enabled":true,"region":"us-east","cc":"us","latitude":33.753746,"longitude":-84.38633,"reserved":0,"last_update":"0001-01-01T00:00:00Z","name_a2s":"Uncletopia | Atlanta | 2 | All Maps","protocol":17,"map":"cp_process_final","folder":"tf","game":"Team Fortress","app_id":440,"player_count":0,"max_players":24,"Bots":0,"server_type":"Dedicated","server_os":"Linux","password":true,"vac":true,"version":"7882260","steam_id":85568392924469983,"keywords":["cp","nocrits","nodmgspread","uncletopia"],"game_id":440,"stv_port":27026,"stv_name":"Uncletopia | Atlanta | 2 | All Maps | STV","players":null},{"server_id":400,"name":"Uncletopia | Atlanta | 3 | Community","name_short":"atl-3","host":"atl-1.us.uncletopia.com","port":27035,"enabled":true,"region":"us-east","cc":"us","latitude":33.753746,"longitude":-84.38633,"reserved":0,"last_update":"0001-01-01T00:00:00Z","name_a2s":"Uncletopia | Atlanta | 3 | Community","protocol":17,"map":"workshop/koth_synthetic_rc6a.ugc1549817316","folder":"tf","game":"Team Fortress","app_id":440,"player_count":0,"max_players":24,"Bots":0,"server_type":"Dedicated","server_os":"Linux","password":true,"vac":true,"version":"7882260","steam_id":85568392924515187,"keywords":["cp","nocrits","nodmgspread","uncletopia"],"game_id":440,"stv_port":27036,"stv_name":"Uncletopia | Atlanta | 3 | Community | STV","players":null},{"server_id":401,"name":"Uncletopia | Atlanta | 4 | No Payload","name_short":"atl-4","host":"atl-1.us.uncletopia.com","port":27045,"enabled":true,"region":"us-east","cc":"us","latitude":33.753746,"longitude":-84.38633,"reserved":0,"last_update":"0001-01-01T00:00:00Z","name_a2s":"","protocol":0,"map":"","folder":"","game":"","app_id":0,"player_count":0,"max_players":0,"Bots":0,"server_type":"","server_os":"","password":false,"vac":false,"version":"","steam_id":0,"keywords":null,"game_id":0,"stv_port":0,"stv_name":"","players":null},{"server_id":2,"name":"Uncletopia | Chicago | 1 | All Maps","name_short":"chi-1","host":"chi-1.us.uncletopia.com","port":27015,"enabled":true,"region":"us-central","cc":"us","latitude":41.881832,"longitude":-87.62318,"reserved":0,"last_update":"0001-01-01T00:00:00Z","name_a2s":"Uncletopia | Chicago | 1 | All Maps","protocol":17,"map":"pl_borneo","folder":"tf","game":"Team Fortress","app_id":440,"player_count":24,"max_players":24,"Bots":0,"server_type":"Dedicated","server_os":"Linux","password":true,"vac":true,"version":"7882260","steam_id":85568392924469984,"keywords":["nocrits","nodmgspread","payload","uncletopia"],"game_id":440,"stv_port":27016,"stv_name":"Uncletopia | Chicago | 1 | All Maps | STV","players":[{"user_id":752,"name":"c9","steam_id":76561198136642793,"connected_time":14605000000000,"state":"active","ping":69},{"user_id":885,"name":"High Medic","steam_id":76561198082405984,"connected_time":813000000000,"state":"active","ping":60},{"user_id":889,"name":"Kedata","steam_id":76561198047750050,"connected_time":496000000000,"state":"active","ping":45},{"user_id":874,"name":"LerN","steam_id":76561198083463877,"connected_time":1902000000000,"state":"active","ping":56},{"user_id":855,"name":"LVL","steam_id":76561198334403617,"connected_time":4342000000000,"state":"active","ping":58},{"user_id":833,"name":"Pongallow","steam_id":76561198146876078,"connected_time":5994000000000,"state":"active","ping":48},{"user_id":888,"name":"soupy","steam_id":76561197974283797,"connected_time":537000000000,"state":"active","ping":39},{"user_id":897,"name":"Kh√¢rn the Betrayer","steam_id":76561198153135858,"connected_time":28000000000,"state":"active","ping":73},{"user_id":881,"name":"rice white","steam_id":76561198320732910,"connected_time":1492000000000,"state":"active","ping":74},{"user_id":886,"name":"narcotics","steam_id":76561198152560062,"connected_time":667000000000,"state":"active","ping":46},{"user_id":859,"name":"eveie0mlets","steam_id":76561198259172011,"connected_time":4252000000000,"state":"active","ping":86},{"user_id":875,"name":"playguy carter","steam_id":76561198080679337,"connected_time":1827000000000,"state":"active","ping":57},{"user_id":882,"name":"SpecialForce19","steam_id":76561198120974644,"connected_time":1447000000000,"state":"active","ping":79},{"user_id":877,"name":"Salda√±a","steam_id":76561198214473001,"connected_time":1761000000000,"state":"active","ping":89},{"user_id":754,"name":"SLICK PAPI #IMDADDYASF","steam_id":76561198144766439,"connected_time":14576000000000,"state":"active","ping":44},{"user_id":869,"name":"Mr. Owmew","steam_id":76561199032490400,"connected_time":3016000000000,"state":"active","ping":76},{"user_id":748,"name":"Melody","steam_id":76561198407789232,"connected_time":14694000000000,"state":"active","ping":116},{"user_id":870,"name":"Sparky","steam_id":76561198086845464,"connected_time":2971000000000,"state":"active","ping":57},{"user_id":849,"name":"JSlayz","steam_id":76561198853768655,"connected_time":5118000000000,"state":"active","ping":45},{"user_id":892,"name":"Kingmook53","steam_id":76561198108047871,"connected_time":329000000000,"state":"active","ping":54},{"user_id":878,"name":"viagra addict","steam_id":76561198017705248,"connected_time":1758000000000,"state":"active","ping":45},{"user_id":891,"name":"salvation army buttless chaps","steam_id":76561198014326643,"connected_time":474000000000,"state":"active","ping":72},{"user_id":871,"name":"Fairy WeedMother","steam_id":76561198831382303,"connected_time":2353000000000,"state":"active","ping":66},{"user_id":896,"name":"Nobody","steam_id":76561198286486517,"connected_time":158000000000,"state":"active","ping":103}]},{"server_id":106,"name":"Uncletopia | Chicago | 2 | All Maps","name_short":"chi-2","host":"chi-1.us.uncletopia.com","port":27025,"enabled":true,"region":"us-central","cc":"us","latitude":41.881832,"longitude":-87.62318,"reserved":0,"last_update":"0001-01-01T00:00:00Z","name_a2s":"Uncletopia | Chicago | 2 | All Maps","protocol":17,"map":"pl_badwater","folder":"tf","game":"Team Fortress","app_id":440,"player_count":24,"max_players":24,"Bots":0,"server_type":"Dedicated","server_os":"Linux","password":true,"vac":true,"version":"7882260","steam_id":85568392924469985,"keywords":["nocrits","nodmgspread","payload","uncletopia"],"game_id":440,"stv_port":27026,"stv_name":"Uncletopia | Chicago | 2 | All Maps | STV","players":[{"user_id":1030,"name":"Professionally Braindead „ÉÑ","steam_id":76561198276714220,"connected_time":1361000000000,"state":"active","ping":59},{"user_id":1031,"name":"the tf2 player of all time","steam_id":76561198881665250,"connected_time":1349000000000,"state":"active","ping":102},{"user_id":1040,"name":"Quietsharp","steam_id":76561198277968438,"connected_time":534000000000,"state":"active","ping":104},{"user_id":1032,"name":"stock","steam_id":76561198849461209,"connected_time":1349000000000,"state":"active","ping":62},{"user_id":1042,"name":"Purplest","steam_id":76561198093523277,"connected_time":409000000000,"state":"active","ping":45},{"user_id":1043,"name":"puppy :3","steam_id":76561198011196264,"connected_time":368000000000,"state":"active","ping":45},{"user_id":1033,"name":"boy from the rafters","steam_id":76561198042926224,"connected_time":1319000000000,"state":"active","ping":106},{"user_id":1024,"name":"Jesse Bear","steam_id":76561198217075305,"connected_time":1843000000000,"state":"active","ping":80},{"user_id":1044,"name":"kree","steam_id":76561197979960008,"connected_time":319000000000,"state":"active","ping":53},{"user_id":943,"name":"VIEGO CORLEONE","steam_id":76561198273568117,"connected_time":7388000000000,"state":"active","ping":61},{"user_id":1047,"name":"Lol funny monke","steam_id":76561198017200146,"connected_time":128000000000,"state":"active","ping":69},{"user_id":1048,"name":"sky walker","steam_id":76561198937717599,"connected_time":54000000000,"state":"active","ping":62},{"user_id":1045,"name":"KrylonHeretic","steam_id":76561198139811459,"connected_time":283000000000,"state":"active","ping":113},{"user_id":1029,"name":"Chief Diggery K.","steam_id":76561198066629137,"connected_time":1386000000000,"state":"active","ping":99},{"user_id":1034,"name":"fruitymario","steam_id":76561198047190430,"connected_time":1309000000000,"state":"active","ping":78},{"user_id":1046,"name":"Scorpianswag","steam_id":76561198260651036,"connected_time":261000000000,"state":"active","ping":90},{"user_id":1036,"name":"Cy4nideCutie","steam_id":76561198126686695,"connected_time":1152000000000,"state":"active","ping":70},{"user_id":997,"name":"[TKC] Robert","steam_id":76561198138796942,"connected_time":4338000000000,"state":"active","ping":57},{"user_id":1007,"name":"Ja","steam_id":76561198396340174,"connected_time":2637000000000,"state":"active","ping":68},{"user_id":1002,"name":"luv","steam_id":76561199480586167,"connected_time":2965000000000,"state":"active","ping":101},{"user_id":1037,"name":"xd Clover","steam_id":76561198038905361,"connected_time":1103000000000,"state":"active","ping":57},{"user_id":1049,"name":"basmati jarate","steam_id":76561198319442494,"connected_time":3000000000,"state":"spawning","ping":110},{"user_id":1021,"name":"shittystripper","steam_id":76561198101012071,"connected_time":2096000000000,"state":"active","ping":104},{"user_id":1038,"name":"Spiderfight1","steam_id":76561199189991528,"connected_time":1085000000000,"state":"active","ping":98}]},{"server_id":402,"name":"Uncletopia | Chicago | 3 | All Maps","name_short":"chi-3","host":"chi-1.us.uncletopia.com","port":27035,"enabled":true,"region":"us-central","cc":"us","latitude":41.881832,"longitude":-87.62318,"reserved":0,"last_update":"0001-01-01T00:00:00Z","name_a2s":"Uncletopia | Chicago | 3 | All Maps","protocol":17,"map":"cp_mountainlab","folder":"tf","game":"Team Fortress","app_id":440,"player_count":20,"max_players":24,"Bots":0,"server_type":"Dedicated","server_os":"Linux","password":true,"vac":true,"version":"7882260","steam_id":85568392924515191,"keywords":["cp","nocrits","nodmgspread","uncletopia"],"game_id":440,"stv_port":27036,"stv_name":"Uncletopia | Chicago | 3 | All Maps | STV","players":[{"user_id":1172,"name":"ScrockCat","steam_id":76561198012882208,"connected_time":1318000000000,"state":"active","ping":92},{"user_id":1179,"name":"Trepan Stan","steam_id":76561198103243847,"connected_time":756000000000,"state":"active","ping":92},{"user_id":1191,"name":"Retro Phoenix","steam_id":76561198077176271,"connected_time":30000000000,"state":"active","ping":55},{"user_id":1139,"name":"Airik","steam_id":76561198208249865,"connected_time":4330000000000,"state":"active","ping":88},{"user_id":1166,"name":"Antipathy","steam_id":76561199120802649,"connected_time":1751000000000,"state":"active","ping":72},{"user_id":1175,"name":"justapikmin","steam_id":76561199023650282,"connected_time":1022000000000,"state":"active","ping":77},{"user_id":1062,"name":"VidzCMC","steam_id":76561198848142973,"connected_time":10291000000000,"state":"active","ping":49},{"user_id":1163,"name":"Jin","steam_id":76561198119873148,"connected_time":2314000000000,"state":"active","ping":104},{"user_id":1185,"name":"creamer","steam_id":76561198144095056,"connected_time":655000000000,"state":"active","ping":59},{"user_id":1131,"name":"June","steam_id":76561198211858204,"connected_time":4475000000000,"state":"active","ping":116},{"user_id":1140,"name":"frank","steam_id":76561198137777483,"connected_time":4280000000000,"state":"active","ping":61},{"user_id":1186,"name":"Dr. Chad Feelgood","steam_id":76561198454077219,"connected_time":384000000000,"state":"active","ping":55},{"user_id":1177,"name":"Gay Cake","steam_id":76561198004388831,"connected_time":785000000000,"state":"active","ping":69},{"user_id":1189,"name":"James","steam_id":76561198077251918,"connected_time":328000000000,"state":"active","ping":91},{"user_id":1190,"name":"Mr.noob","steam_id":76561199200442395,"connected_time":328000000000,"state":"active","ping":166},{"user_id":1181,"name":"|AG| Level","steam_id":76561198063633592,"connected_time":747000000000,"state":"active","ping":107},{"user_id":1065,"name":"Grand","steam_id":76561198290143399,"connected_time":10174000000000,"state":"active","ping":66},{"user_id":1182,"name":"Sneakinsed","steam_id":76561199102075970,"connected_time":742000000000,"state":"active","ping":92},{"user_id":1187,"name":"Peppsy","steam_id":76561198074018528,"connected_time":363000000000,"state":"active","ping":157},{"user_id":1066,"name":"Truffles","steam_id":76561198095868800,"connected_time":10135000000000,"state":"active","ping":84}]},{"server_id":403,"name":"Uncletopia | Chicago | 4 | All Maps","name_short":"chi-4","host":"chi-1.us.uncletopia.com","port":27045,"enabled":true,"region":"us-central","cc":"us","latitude":41.881832,"longitude":-87.62318,"reserved":0,"last_update":"0001-01-01T00:00:00Z","name_a2s":"Uncletopia | Chicago | 4 | All Maps","protocol":17,"map":"pl_snowycoast","folder":"tf","game":"Team Fortress","app_id":440,"player_count":0,"max_players":24,"Bots":0,"server_type":"Dedicated","server_os":"Linux","password":true,"vac":true,"version":"7882260","steam_id":85568392924515193,"keywords":["nocrits","nodmgspread","payload","uncletopia"],"game_id":440,"stv_port":27046,"stv_name":"Uncletopia | Chicago | 4 | All Maps | STV","players":null},{"server_id":36,"name":"Uncletopia | Chicago | 5 | All Maps","name_short":"chi-5","host":"chi-2.us.uncletopia.com","port":27015,"enabled":true,"region":"us-central","cc":"us","latitude":41.881832,"longitude":-87.62318,"reserved":0,"last_update":"0001-01-01T00:00:00Z","name_a2s":"Uncletopia | Chicago | 5 | All Maps","protocol":17,"map":"cp_mountainlab","folder":"tf","game":"Team Fortress","app_id":440,"player_count":0,"max_players":24,"Bots":0,"server_type":"Dedicated","server_os":"Linux","password":true,"vac":true,"version":"7882260","steam_id":85568392924866362,"keywords":["cp","nocrits","nodmgspread","uncletopia"],"game_id":440,"stv_port":27016,"stv_name":"Uncletopia | Chicago | 5 | All Maps | STV","players":null},{"server_id":37,"name":"Uncletopia | Chicago | 6 | All Maps","name_short":"chi-6","host":"chi-2.us.uncletopia.com","port":27025,"enabled":true,"region":"us-central","cc":"us","latitude":41.881832,"longitude":-87.62318,"reserved":0,"last_update":"0001-01-01T00:00:00Z","name_a2s":"Uncletopia | Chicago | 6 | All Maps","protocol":17,"map":"pl_snowycoast","folder":"tf","game":"Team Fortress","app_id":440,"player_count":0,"max_players":24,"Bots":0,"server_type":"Dedicated","server_os":"Linux","password":true,"vac":true,"version":"7882260","steam_id":85568392924866363,"keywords":["nocrits","nodmgspread","payload","uncletopia"],"game_id":440,"stv_port":27026,"stv_name":"Uncletopia | Chicago | 6 | All Maps | STV","players":null},{"server_id":38,"name":"Uncletopia | Chicago | 7 | Stopwatch Beta","name_short":"chi-7","host":"chi-2.us.uncletopia.com","port":27035,"enabled":true,"region":"us-central","cc":"us","latitude":41.881832,"longitude":-87.62318,"reserved":0,"last_update":"0001-01-01T00:00:00Z","name_a2s":"Uncletopia | Chicago | 7 | Stopwatch Beta","protocol":17,"map":"pl_swiftwater_final1","folder":"tf","game":"Team Fortress","app_id":440,"player_count":0,"max_players":24,"Bots":0,"server_type":"Dedicated","server_os":"Linux","password":true,"vac":true,"version":"7882260","steam_id":85568392924866364,"keywords":["nocrits","nodmgspread","payload","uncletopia"],"game_id":440,"stv_port":27036,"stv_name":"Uncletopia | Chicago | 7 | Stopwatch Beta | STV","players":null},{"server_id":39,"name":"Uncletopia | Chicago | 8 | Community","name_short":"chi-8","host":"chi-2.us.uncletopia.com","port":27045,"enabled":true,"region":"us-central","cc":"us","latitude":41.881832,"longitude":-87.62318,"reserved":0,"last_update":"0001-01-01T00:00:00Z","name_a2s":"Uncletopia | Chicago | 8 | Community","protocol":17,"map":"workshop/pl_divulgence_b4b.ugc2884808746","folder":"tf","game":"Team Fortress","app_id":440,"player_count":0,"max_players":24,"Bots":0,"server_type":"Dedicated","server_os":"Linux","password":true,"vac":true,"version":"7882260","steam_id":85568392924866365,"keywords":["nocrits","nodmgspread","payload","uncletopia"],"game_id":440,"stv_port":27046,"stv_name":"Uncletopia | Chicago | 8 | Community | STV","players":null},{"server_id":8,"name":"Uncletopia | Dallas | 1 | All Maps","name_short":"dal-1","host":"dal-1.us.uncletopia.com","port":27015,"enabled":true,"region":"us-central","cc":"us","latitude":32.779167,"longitude":-96.80889,"reserved":0,"last_update":"0001-01-01T00:00:00Z","name_a2s":"Uncletopia | Dallas | 1 | All Maps","protocol":17,"map":"koth_highpass","folder":"tf","game":"Team Fortress","app_id":440,"player_count":0,"max_players":24,"Bots":0,"server_type":"Dedicated","server_os":"Linux","password":true,"vac":true,"version":"7882260","steam_id":85568392924469986,"keywords":["cp","nocrits","nodmgspread","uncletopia"],"game_id":440,"stv_port":27016,"stv_name":"Uncletopia | Dallas | 1 | All Maps | STV","players":null},{"server_id":108,"name":"Uncletopia | Dallas | 2 | All Maps","name_short":"dal-2","host":"dal-1.us.uncletopia.com","port":27025,"enabled":true,"region":"us-central","cc":"us","latitude":32.779167,"longitude":-96.80889,"reserved":0,"last_update":"0001-01-01T00:00:00Z","name_a2s":"Uncletopia | Dallas | 2 | All Maps","protocol":17,"map":"pl_badwater","folder":"tf","game":"Team Fortress","app_id":440,"player_count":24,"max_players":24,"Bots":0,"server_type":"Dedicated","server_os":"Linux","password":true,"vac":true,"version":"7882260","steam_id":85568392924469988,"keywords":["nocrits","nodmgspread","payload","uncletopia"],"game_id":440,"stv_port":27026,"stv_name":"Uncletopia | Dallas | 2 | All Maps | STV","players":[{"user_id":557,"name":"PirateJet","steam_id":76561198050858744,"connected_time":1112000000000,"state":"active","ping":84},{"user_id":558,"name":"seasoul","steam_id":76561198883302327,"connected_time":967000000000,"state":"active","ping":96},{"user_id":508,"name":"CheeseLikeSubstance","steam_id":76561197977170646,"connected_time":5597000000000,"state":"active","ping":62},{"user_id":541,"name":"Rusted Cake","steam_id":76561198209755931,"connected_time":2379000000000,"state":"active","ping":88},{"user_id":549,"name":"Iron","steam_id":76561198247918478,"connected_time":1634000000000,"state":"active","ping":70},{"user_id":568,"name":"WintardedWarrior","steam_id":76561198191204983,"connected_time":454000000000,"state":"active","ping":99},{"user_id":570,"name":"seats","steam_id":76561197998756039,"connected_time":401000000000,"state":"active","ping":76},{"user_id":561,"name":"AudaCD","steam_id":76561198202775853,"connected_time":880000000000,"state":"active","ping":60},{"user_id":491,"name":"piebluedog","steam_id":76561198141362745,"connected_time":7107000000000,"state":"active","ping":65},{"user_id":555,"name":"—Å—á–∏–∑—è—≥","steam_id":76561199182960322,"connected_time":1324000000000,"state":"active","ping":50},{"user_id":548,"name":"CAPN YO HO","steam_id":76561198261749130,"connected_time":1678000000000,"state":"active","ping":77},{"user_id":510,"name":"{ST} Oxythemoron","steam_id":76561198060089965,"connected_time":5511000000000,"state":"active","ping":52},{"user_id":543,"name":"‚ô° ironterrortrain ‚ô°","steam_id":76561198046460418,"connected_time":2324000000000,"state":"active","ping":99},{"user_id":544,"name":"Average Tunnel Vision Switcher","steam_id":76561198318189010,"connected_time":2317000000000,"state":"active","ping":83},{"user_id":556,"name":"bolainassr0","steam_id":76561199079078845,"connected_time":1276000000000,"state":"active","ping":83},{"user_id":562,"name":"Combat_Toast","steam_id":76561199479241263,"connected_time":876000000000,"state":"active","ping":180},{"user_id":571,"name":"Bork Bork","steam_id":76561198045081654,"connected_time":296000000000,"state":"active","ping":91},{"user_id":564,"name":"‚òπ","steam_id":76561198804763186,"connected_time":794000000000,"state":"active","ping":83},{"user_id":519,"name":"Artic_Ryuu","steam_id":76561198182194918,"connected_time":4607000000000,"state":"active","ping":78},{"user_id":565,"name":"chikin.sauce","steam_id":76561198042464635,"connected_time":759000000000,"state":"active","ping":61},{"user_id":455,"name":"zpalmtree","steam_id":76561198134307620,"connected_time":10626000000000,"state":"active","ping":91},{"user_id":566,"name":"highschool drop-out","steam_id":76561198366299848,"connected_time":721000000000,"state":"active","ping":73},{"user_id":536,"name":"Shamrock Shake Oct.10.2020 @8pm","steam_id":76561198833313201,"connected_time":2978000000000,"state":"active","ping":93},{"user_id":567,"name":"Icarus the legend","steam_id":76561199013250091,"connected_time":696000000000,"state":"active","ping":57}]},{"server_id":5,"name":"Uncletopia | Frankfurt | 1 | All Maps","name_short":"frk-1","host":"frk-1.de.uncletopia.com","port":27015,"enabled":true,"region":"eu","cc":"de","latitude":50.110924,"longitude":8.682127,"reserved":0,"last_update":"0001-01-01T00:00:00Z","name_a2s":"Uncletopia | Frankfurt | 1 | All Maps","protocol":17,"map":"cp_process_final","folder":"tf","game":"Team Fortress","app_id":440,"player_count":0,"max_players":24,"Bots":0,"server_type":"Dedicated","server_os":"Linux","password":true,"vac":true,"version":"7882260","steam_id":85568392924469989,"keywords":["cp","nocrits","nodmgspread","uncletopia"],"game_id":440,"stv_port":27016,"stv_name":"Uncletopia | Frankfurt | 1 | All Maps | STV","players":null},{"server_id":110,"name":"Uncletopia | Frankfurt | 2 | All Maps","name_short":"frk-2","host":"frk-1.de.uncletopia.com","port":27025,"enabled":true,"region":"eu","cc":"de","latitude":50.110924,"longitude":8.682127,"reserved":0,"last_update":"0001-01-01T00:00:00Z","name_a2s":"Uncletopia | Frankfurt | 2 | All Maps","protocol":17,"map":"cp_mountainlab","folder":"tf","game":"Team Fortress","app_id":440,"player_count":0,"max_players":24,"Bots":0,"server_type":"Dedicated","server_os":"Linux","password":true,"vac":true,"version":"7882260","steam_id":85568392924469990,"keywords":["cp","nocrits","nodmgspread","uncletopia"],"game_id":440,"stv_port":27026,"stv_name":"Uncletopia | Frankfurt | 2 | All Maps | STV","players":null},{"server_id":308,"name":"Uncletopia | Frankfurt | 3 | All Maps","name_short":"frk-3","host":"frk-1.de.uncletopia.com","port":27035,"enabled":true,"region":"eu","cc":"de","latitude":50.110924,"longitude":8.682127,"reserved":0,"last_update":"0001-01-01T00:00:00Z","name_a2s":"Uncletopia | Frankfurt | 3 | All Maps","protocol":17,"map":"pl_snowycoast","folder":"tf","game":"Team Fortress","app_id":440,"player_count":0,"max_players":24,"Bots":0,"server_type":"Dedicated","server_os":"Linux","password":true,"vac":true,"version":"7882260","steam_id":85568392924504274,"keywords":["nocrits","nodmgspread","payload","uncletopia"],"game_id":440,"stv_port":27036,"stv_name":"Uncletopia | Frankfurt | 3 | All Maps | STV","players":null},{"server_id":309,"name":"Uncletopia | Frankfurt | 4 | All Maps","name_short":"frk-4","host":"frk-1.de.uncletopia.com","port":27045,"enabled":true,"region":"eu","cc":"de","latitude":50.110924,"longitude":8.682127,"reserved":0,"last_update":"0001-01-01T00:00:00Z","name_a2s":"Uncletopia | Frankfurt | 4 | All Maps","protocol":17,"map":"cp_mountainlab","folder":"tf","game":"Team Fortress","app_id":440,"player_count":0,"max_players":24,"Bots":0,"server_type":"Dedicated","server_os":"Linux","password":true,"vac":true,"version":"7882260","steam_id":85568392924504275,"keywords":["cp","nocrits","nodmgspread","uncletopia"],"game_id":440,"stv_port":27046,"stv_name":"Uncletopia | Frankfurt | 4 | All Maps | STV","players":null},{"server_id":310,"name":"Uncletopia | Frankfurt | 5 | All Maps","name_short":"frk-5","host":"frk-1.de.uncletopia.com","port":27055,"enabled":true,"region":"eu","cc":"de","latitude":50.110924,"longitude":8.682127,"reserved":0,"last_update":"0001-01-01T00:00:00Z","name_a2s":"Uncletopia | Frankfurt | 5 | All Maps","protocol":17,"map":"cp_mountainlab","folder":"tf","game":"Team Fortress","app_id":440,"player_count":0,"max_players":24,"Bots":0,"server_type":"Dedicated","server_os":"Linux","password":true,"vac":true,"version":"7882260","steam_id":85568392924504277,"keywords":["cp","nocrits","nodmgspread","uncletopia"],"game_id":440,"stv_port":27056,"stv_name":"Uncletopia | Frankfurt | 5 | All Maps | STV","players":null},{"server_id":311,"name":"Uncletopia | Frankfurt | 6 | All Maps","name_short":"frk-6","host":"frk-1.de.uncletopia.com","port":27065,"enabled":true,"region":"eu","cc":"de","latitude":50.110924,"longitude":8.682127,"reserved":0,"last_update":"0001-01-01T00:00:00Z","name_a2s":"Uncletopia | Frankfurt | 6 | All Maps","protocol":17,"map":"koth_cascade","folder":"tf","game":"Team Fortress","app_id":440,"player_count":0,"max_players":24,"Bots":0,"server_type":"Dedicated","server_os":"Linux","password":true,"vac":true,"version":"7882260","steam_id":85568392924504278,"keywords":["cp","nocrits","nodmgspread","uncletopia"],"game_id":440,"stv_port":27066,"stv_name":"Uncletopia | Frankfurt | 6 | All Maps | STV","players":null},{"server_id":23,"name":"Uncletopia | Frankfurt | 7 | Stopwatch Beta","name_short":"frk-7","host":"frk-1.de.uncletopia.com","port":27075,"enabled":true,"region":"eu","cc":"de","latitude":50.110924,"longitude":8.682127,"reserved":0,"last_update":"0001-01-01T00:00:00Z","name_a2s":"Uncletopia | Frankfurt | 7 | Stopwatch Beta","protocol":17,"map":"cp_dustbowl","folder":"tf","game":"Team Fortress","app_id":440,"player_count":0,"max_players":24,"Bots":0,"server_type":"Dedicated","server_os":"Linux","password":true,"vac":true,"version":"7882260","steam_id":85568392924742827,"keywords":["cp","nocrits","nodmgspread","uncletopia"],"game_id":440,"stv_port":27076,"stv_name":"Uncletopia | Frankfurt | 7 | Stopwatch Beta | STV","players":null},{"server_id":24,"name":"Uncletopia | Frankfurt | 8 | Community","name_short":"frk-8","host":"frk-1.de.uncletopia.com","port":27085,"enabled":true,"region":"eu","cc":"de","latitude":50.110924,"longitude":8.682127,"reserved":0,"last_update":"0001-01-01T00:00:00Z","name_a2s":"Uncletopia | Frankfurt | 8 | Community","protocol":17,"map":"koth_cascade","folder":"tf","game":"Team Fortress","app_id":440,"player_count":0,"max_players":24,"Bots":0,"server_type":"Dedicated","server_os":"Linux","password":true,"vac":true,"version":"7882260","steam_id":85568392924742828,"keywords":["cp","nocrits","nodmgspread","uncletopia"],"game_id":440,"stv_port":27086,"stv_name":"Uncletopia | Frankfurt | 8 | Community | STV","players":null},{"server_id":202,"name":"Uncletopia | Hong Kong | 1 | All Maps","name_short":"hgk-1","host":"hgk-1.hk.uncletopia.com","port":27015,"enabled":true,"region":"asia","cc":"hk","latitude":22.302711,"longitude":114.177216,"reserved":0,"last_update":"0001-01-01T00:00:00Z","name_a2s":"Uncletopia | Hong Kong | 1 | All Maps","protocol":17,"map":"pl_snowycoast","folder":"tf","game":"Team Fortress","app_id":440,"player_count":25,"max_players":24,"Bots":0,"server_type":"Dedicated","server_os":"Linux","password":true,"vac":true,"version":"7882260","steam_id":85568392924494504,"keywords":["nocrits","nodmgspread","payload","uncletopia"],"game_id":440,"stv_port":27016,"stv_name":"Uncletopia | Hong Kong | 1 | All Maps | STV","players":[{"user_id":245,"name":"im_0ff","steam_id":76561198339346695,"connected_time":2324000000000,"state":"active","ping":126},{"user_id":254,"name":"Mystery cheese üßÄ","steam_id":76561198304002409,"connected_time":1442000000000,"state":"active","ping":87},{"user_id":261,"name":"Â∏ï","steam_id":76561198439343999,"connected_time":1158000000000,"state":"active","ping":98},{"user_id":248,"name":"TomProPlayer","steam_id":76561199223292521,"connected_time":1993000000000,"state":"active","ping":69},{"user_id":265,"name":"Lelouch","steam_id":76561198828840546,"connected_time":212000000000,"state":"active","ping":76},{"user_id":264,"name":"H·∫±ng Ra ƒë∆°","steam_id":76561199373637717,"connected_time":450000000000,"state":"active","ping":64},{"user_id":158,"name":"bodacious bogey","steam_id":76561198055553140,"connected_time":11147000000000,"state":"active","ping":75},{"user_id":262,"name":"Telekhine","steam_id":76561198387120618,"connected_time":649000000000,"state":"active","ping":59},{"user_id":257,"name":"Kyo","steam_id":76561198088550274,"connected_time":1418000000000,"state":"active","ping":45},{"user_id":259,"name":"redheart","steam_id":76561198878176849,"connected_time":1264000000000,"state":"active","ping":90},{"user_id":239,"name":"UltraFat","steam_id":76561198253918132,"connected_time":3380000000000,"state":"active","ping":91},{"user_id":174,"name":"Stupid B","steam_id":76561198131423270,"connected_time":9300000000000,"state":"active","ping":123},{"user_id":214,"name":"Michael Scott","steam_id":76561198023082794,"connected_time":5637000000000,"state":"active","ping":53},{"user_id":256,"name":"Drutzhfer","steam_id":76561198299948446,"connected_time":1440000000000,"state":"active","ping":98},{"user_id":258,"name":"vintage","steam_id":76561198230213828,"connected_time":1416000000000,"state":"active","ping":123},{"user_id":250,"name":"MeetTeMedic99","steam_id":76561199208706868,"connected_time":1795000000000,"state":"active","ping":81},{"user_id":223,"name":"screaming sniper","steam_id":76561199085568674,"connected_time":4912000000000,"state":"active","ping":75},{"user_id":253,"name":"El Blanco","steam_id":76561198100044991,"connected_time":1456000000000,"state":"active","ping":139},{"user_id":236,"name":"ksvk","steam_id":76561198152588681,"connected_time":3481000000000,"state":"active","ping":81},{"user_id":199,"name":"‡πã","steam_id":76561198413116920,"connected_time":7040000000000,"state":"active","ping":77},{"user_id":255,"name":"urotsuki with da doobie","steam_id":76561198074339034,"connected_time":1442000000000,"state":"active","ping":76},{"user_id":266,"name":"DoesColder","steam_id":76561198959978678,"connected_time":4000000000,"state":"spawning","ping":83},{"user_id":267,"name":"eeeeeee","steam_id":76561199205561410,"connected_time":4000000000,"state":"spawning","ping":122},{"user_id":244,"name":"Milf (The fan O'Milk)","steam_id":76561198213031155,"connected_time":2337000000000,"state":"active","ping":96},{"user_id":208,"name":"silverhouse7","steam_id":76561198349634906,"connected_time":6983000000000,"state":"active","ping":94}]},{"server_id":1,"name":"Uncletopia | Los Angeles | 1 | All Maps","name_short":"lax-1","host":"lax-1.us.uncletopia.com","port":27015,"enabled":true,"region":"us-west","cc":"us","latitude":33.94279,"longitude":-118.41004,"reserved":0,"last_update":"0001-01-01T00:00:00Z","name_a2s":"Uncletopia | Los Angeles | 1 | All Maps","protocol":17,"map":"cp_mountainlab","folder":"tf","game":"Team Fortress","app_id":440,"player_count":1,"max_players":24,"Bots":0,"server_type":"Dedicated","server_os":"Linux","password":true,"vac":true,"version":"7882260","steam_id":85568392924469991,"keywords":["cp","nocrits","nodmgspread","uncletopia"],"game_id":440,"stv_port":27016,"stv_name":"Uncletopia | Los Angeles | 1 | All Maps | STV","players":[{"user_id":579,"name":"yavuzselimtarlaci","steam_id":76561199479785133,"connected_time":52000000000,"state":"active","ping":236}]},{"server_id":112,"name":"Uncletopia | Los Angeles | 2 | All Maps","name_short":"lax-2","host":"lax-1.us.uncletopia.com","port":27025,"enabled":true,"region":"us-west","cc":"us","latitude":33.94279,"longitude":-118.41004,"reserved":0,"last_update":"0001-01-01T00:00:00Z","name_a2s":"Uncletopia | Los Angeles | 2 | All Maps","protocol":17,"map":"pl_pier","folder":"tf","game":"Team Fortress","app_id":440,"player_count":20,"max_players":24,"Bots":0,"server_type":"Dedicated","server_os":"Linux","password":true,"vac":true,"version":"7882260","steam_id":85568392924469992,"keywords":["nocrits","nodmgspread","payload","uncletopia"],"game_id":440,"stv_port":27026,"stv_name":"Uncletopia | Los Angeles | 2 | All Maps | STV","players":[{"user_id":412,"name":"Jomdac","steam_id":76561198150447896,"connected_time":3958000000000,"state":"active","ping":51},{"user_id":482,"name":"Plink","steam_id":76561198426226585,"connected_time":928000000000,"state":"active","ping":48},{"user_id":484,"name":"C. Trebonius Pius","steam_id":76561198310327706,"connected_time":382000000000,"state":"active","ping":218},{"user_id":480,"name":"Jeffery","steam_id":76561199226711716,"connected_time":1391000000000,"state":"active","ping":44},{"user_id":409,"name":"F3RRAL","steam_id":76561198172279275,"connected_time":4239000000000,"state":"active","ping":45},{"user_id":417,"name":"LX-24","steam_id":76561198016168993,"connected_time":3347000000000,"state":"active","ping":89},{"user_id":475,"name":"DRFEELGOOD","steam_id":76561198114603745,"connected_time":1605000000000,"state":"active","ping":49},{"user_id":419,"name":"eau:","steam_id":76561198110020262,"connected_time":3215000000000,"state":"active","ping":40},{"user_id":483,"name":"Puskinti","steam_id":76561198032120688,"connected_time":400000000000,"state":"active","ping":82},{"user_id":485,"name":"Tomoscones","steam_id":76561198813586588,"connected_time":151000000000,"state":"active","ping":59},{"user_id":486,"name":"dog (WhiskeyH)","steam_id":76561198045261136,"connected_time":76000000000,"state":"active","ping":63},{"user_id":487,"name":"unlucky","steam_id":76561199204822104,"connected_time":54000000000,"state":"active","ping":51},{"user_id":473,"name":"big fish","steam_id":76561198186479818,"connected_time":1709000000000,"state":"active","ping":53},{"user_id":478,"name":"SNŒªRTLE","steam_id":76561198321853655,"connected_time":1431000000000,"state":"active","ping":66},{"user_id":488,"name":"An Alien Mango","steam_id":76561198864823970,"connected_time":42000000000,"state":"active","ping":87},{"user_id":489,"name":"JonBoy","steam_id":76561198082052480,"connected_time":12000000000,"state":"spawning","ping":95},{"user_id":490,"name":"[Colorbomb]","steam_id":76561198006316527,"connected_time":11000000000,"state":"active","ping":78},{"user_id":453,"name":"Assassin","steam_id":76561198321410235,"connected_time":2394000000000,"state":"active","ping":44},{"user_id":383,"name":"rimble","steam_id":76561198150137369,"connected_time":5905000000000,"state":"active","ping":52},{"user_id":438,"name":"ICLII","steam_id":76561198113279795,"connected_time":2656000000000,"state":"active","ping":67}]},{"server_id":324,"name":"Uncletopia | Los Angeles | 3 | All Maps","name_short":"lax-3","host":"lax-1.us.uncletopia.com","port":27035,"enabled":true,"region":"us-west","cc":"us","latitude":33.94279,"longitude":-118.41004,"reserved":0,"last_update":"0001-01-01T00:00:00Z","name_a2s":"Uncletopia | Los Angeles | 3 | All Maps","protocol":17,"map":"pl_pier","folder":"tf","game":"Team Fortress","app_id":440,"player_count":0,"max_players":24,"Bots":0,"server_type":"Dedicated","server_os":"Linux","password":true,"vac":true,"version":"7882260","steam_id":85568392924510198,"keywords":["nocrits","nodmgspread","payload","uncletopia"],"game_id":440,"stv_port":27036,"stv_name":"Uncletopia | Los Angeles | 3 | All Maps | STV","players":null},{"server_id":25,"name":"Uncletopia | Los Angeles | 4 | Stopwatch Beta","name_short":"lax-4","host":"lax-1.us.uncletopia.com","port":27045,"enabled":true,"region":"us-west","cc":"us","latitude":33.94279,"longitude":-118.41004,"reserved":0,"last_update":"0001-01-01T00:00:00Z","name_a2s":"Uncletopia | Los Angeles | 4 | Stopwatch Beta","protocol":17,"map":"workshop/pl_badwater_pro_v12.ugc2142942074","folder":"tf","game":"Team Fortress","app_id":440,"player_count":0,"max_players":24,"Bots":0,"server_type":"Dedicated","server_os":"Linux","password":true,"vac":true,"version":"7882260","steam_id":85568392924510199,"keywords":["nocrits","nodmgspread","payload","uncletopia"],"game_id":440,"stv_port":27046,"stv_name":"Uncletopia | Los Angeles | 4 | Stopwatch Beta | STV","players":null},{"server_id":11,"name":"Uncletopia | London | 1 | All Maps","name_short":"lon-1","host":"lon-1.uk.uncletopia.com","port":27015,"enabled":true,"region":"eu","cc":"gb","latitude":51.509865,"longitude":-0.118092,"reserved":0,"last_update":"0001-01-01T00:00:00Z","name_a2s":"Uncletopia | London | 1 | All Maps","protocol":17,"map":"pl_pier","folder":"tf","game":"Team Fortress","app_id":440,"player_count":22,"max_players":24,"Bots":0,"server_type":"Dedicated","server_os":"Linux","password":true,"vac":true,"version":"7882260","steam_id":85568392924367362,"keywords":["nocrits","nodmgspread","payload","uncletopia"],"game_id":440,"stv_port":27016,"stv_name":"Uncletopia | London | 1 | All Maps | STV","players":[{"user_id":4,"name":"band-aid copyright infringement","steam_id":76561199027095451,"connected_time":4728000000000,"state":"active","ping":87},{"user_id":5,"name":"Xenometan","steam_id":76561198208408392,"connected_time":3556000000000,"state":"active","ping":115},{"user_id":7,"name":"Kolanciasty ‚ô•","steam_id":76561198020042179,"connected_time":2057000000000,"state":"active","ping":89},{"user_id":30,"name":"Uncle Terry","steam_id":76561198396415736,"connected_time":131000000000,"state":"active","ping":54},{"user_id":36,"name":"-CLAN- moose","steam_id":76561198117853826,"connected_time":71000000000,"state":"active","ping":187},{"user_id":10,"name":"Mika","steam_id":76561199183780280,"connected_time":1268000000000,"state":"active","ping":58},{"user_id":14,"name":"pootis sentry","steam_id":76561199225363633,"connected_time":546000000000,"state":"active","ping":100},{"user_id":24,"name":"GEP Gun","steam_id":76561197981821003,"connected_time":283000000000,"state":"active","ping":52},{"user_id":13,"name":"Rare bulldog owner","steam_id":76561199407941086,"connected_time":658000000000,"state":"active","ping":75},{"user_id":16,"name":"Mizel G4Skins","steam_id":76561199226604824,"connected_time":507000000000,"state":"active","ping":100},{"user_id":18,"name":"nemelex","steam_id":76561198958005865,"connected_time":467000000000,"state":"active","ping":58},{"user_id":29,"name":"autistic luigi","steam_id":76561199218285040,"connected_time":146000000000,"state":"active","ping":90},{"user_id":20,"name":"Intruder","steam_id":76561198156128173,"connected_time":420000000000,"state":"active","ping":76},{"user_id":21,"name":"WALTER WHITE","steam_id":76561199147666336,"connected_time":386000000000,"state":"active","ping":74},{"user_id":38,"name":"Mirandaws","steam_id":76561198930890710,"connected_time":53000000000,"state":"active","ping":75},{"user_id":32,"name":"Random","steam_id":76561199116602799,"connected_time":123000000000,"state":"active","ping":46},{"user_id":33,"name":"Internet Explorer","steam_id":76561198109246960,"connected_time":116000000000,"state":"active","ping":49},{"user_id":34,"name":"Captain Beefheart","steam_id":76561198031573426,"connected_time":113000000000,"state":"active","ping":72},{"user_id":37,"name":"dabuttsniffer","steam_id":76561198369227367,"connected_time":64000000000,"state":"active","ping":98},{"user_id":39,"name":"marvs","steam_id":76561198851777617,"connected_time":11000000000,"state":"spawning","ping":32},{"user_id":40,"name":"mkwii","steam_id":76561198062507768,"connected_time":10000000000,"state":"spawning","ping":59},{"user_id":41,"name":"Saint","steam_id":76561198003296382,"connected_time":0,"state":"connecting","ping":0}]},{"server_id":114,"name":"Uncletopia | London | 2 | All Maps","name_short":"lon-2","host":"lon-1.uk.uncletopia.com","port":27025,"enabled":true,"region":"eu","cc":"gb","latitude":51.509865,"longitude":-0.118092,"reserved":0,"last_update":"0001-01-01T00:00:00Z","name_a2s":"Uncletopia | London | 2 | All Maps","protocol":17,"map":"pl_swiftwater_final1","folder":"tf","game":"Team Fortress","app_id":440,"player_count":0,"max_players":24,"Bots":0,"server_type":"Dedicated","server_os":"Linux","password":true,"vac":true,"version":"7882260","steam_id":85568392924470941,"keywords":["nocrits","nodmgspread","payload","uncletopia"],"game_id":440,"stv_port":27026,"stv_name":"Uncletopia | London | 2 | All Maps | STV","players":null},{"server_id":320,"name":"Uncletopia | London | 3 | All Maps","name_short":"lon-3","host":"lon-1.uk.uncletopia.com","port":27035,"enabled":true,"region":"eu","cc":"gb","latitude":51.509865,"longitude":-0.118092,"reserved":0,"last_update":"0001-01-01T00:00:00Z","name_a2s":"Uncletopia | London | 3 | All Maps","protocol":17,"map":"pl_borneo","folder":"tf","game":"Team Fortress","app_id":440,"player_count":23,"max_players":24,"Bots":0,"server_type":"Dedicated","server_os":"Linux","password":true,"vac":true,"version":"7882260","steam_id":85568392924510192,"keywords":["nocrits","nodmgspread","payload","uncletopia"],"game_id":440,"stv_port":27036,"stv_name":"Uncletopia | London | 3 | All Maps | STV","players":[{"user_id":93,"name":"Wujek Cacek","steam_id":76561198010267943,"connected_time":1230000000000,"state":"active","ping":75},{"user_id":56,"name":"Pastill","steam_id":76561198067484436,"connected_time":4053000000000,"state":"active","ping":108},{"user_id":96,"name":"Koli","steam_id":76561197992428783,"connected_time":1015000000000,"state":"active","ping":62},{"user_id":89,"name":"Pawoss","steam_id":76561198050416391,"connected_time":1449000000000,"state":"active","ping":90},{"user_id":97,"name":"on1on (roughly chopped)","steam_id":76561197995304137,"connected_time":1010000000000,"state":"active","ping":70},{"user_id":68,"name":"Cars","steam_id":76561198173329977,"connected_time":3094000000000,"state":"active","ping":49},{"user_id":83,"name":"jaime8D","steam_id":76561197980590671,"connected_time":2162000000000,"state":"active","ping":74},{"user_id":43,"name":"Vany_I","steam_id":76561198821698134,"connected_time":5031000000000,"state":"active","ping":141},{"user_id":73,"name":"AmssoBador Spacelot","steam_id":76561197993444617,"connected_time":2640000000000,"state":"active","ping":76},{"user_id":99,"name":"J√∏rn","steam_id":76561199073257952,"connected_time":825000000000,"state":"active","ping":71},{"user_id":67,"name":"Mr_Pulse_","steam_id":76561198095001602,"connected_time":3111000000000,"state":"active","ping":104},{"user_id":91,"name":"jerf(bored)","steam_id":76561199213901239,"connected_time":1398000000000,"state":"active","ping":46},{"user_id":84,"name":"Germanium_Ge","steam_id":76561198130561775,"connected_time":2145000000000,"state":"active","ping":57},{"user_id":85,"name":"Lord of Beans","steam_id":76561198283379801,"connected_time":1832000000000,"state":"active","ping":121},{"user_id":95,"name":"laser","steam_id":76561198036030697,"connected_time":1061000000000,"state":"active","ping":73},{"user_id":62,"name":"One-Face","steam_id":76561197999384826,"connected_time":3319000000000,"state":"active","ping":64},{"user_id":92,"name":"Egg","steam_id":76561199360189459,"connected_time":1341000000000,"state":"active","ping":66},{"user_id":100,"name":"YOUR MOM GAMING","steam_id":76561199429562693,"connected_time":791000000000,"state":"active","ping":71},{"user_id":103,"name":"Iva","steam_id":76561198254963150,"connected_time":194000000000,"state":"active","ping":69},{"user_id":75,"name":"Hardy Rose","steam_id":76561197994099242,"connected_time":2567000000000,"state":"active","ping":88},{"user_id":86,"name":"crx3","steam_id":76561198064490510,"connected_time":1662000000000,"state":"active","ping":72},{"user_id":87,"name":"fmdi","steam_id":76561199433879329,"connected_time":1484000000000,"state":"active","ping":77},{"user_id":104,"name":"PashaVerti","steam_id":76561199013963024,"connected_time":123000000000,"state":"active","ping":93}]},{"server_id":321,"name":"Uncletopia | London | 4 | All Maps","name_short":"lon-4","host":"lon-1.uk.uncletopia.com","port":27045,"enabled":true,"region":"eu","cc":"gb","latitude":51.509865,"longitude":-0.118092,"reserved":0,"last_update":"0001-01-01T00:00:00Z","name_a2s":"Uncletopia | London | 4 | All Maps","protocol":17,"map":"pl_upward","folder":"tf","game":"Team Fortress","app_id":440,"player_count":0,"max_players":24,"Bots":0,"server_type":"Dedicated","server_os":"Linux","password":true,"vac":true,"version":"7882260","steam_id":85568392924510193,"keywords":["nocrits","nodmgspread","payload","uncletopia"],"game_id":440,"stv_port":27046,"stv_name":"Uncletopia | London | 4 | All Maps | STV","players":null},{"server_id":21,"name":"Uncletopia | London | 5 | All Maps","name_short":"lon-5","host":"lon-1.uk.uncletopia.com","port":27055,"enabled":true,"region":"eu","cc":"gb","latitude":51.509865,"longitude":-0.118092,"reserved":0,"last_update":"0001-01-01T00:00:00Z","name_a2s":"Uncletopia | London | 5 | All Maps","protocol":17,"map":"pl_frontier_final","folder":"tf","game":"Team Fortress","app_id":440,"player_count":0,"max_players":24,"Bots":0,"server_type":"Dedicated","server_os":"Linux","password":true,"vac":true,"version":"7882260","steam_id":85568392924742829,"keywords":["nocrits","nodmgspread","payload","uncletopia"],"game_id":440,"stv_port":27056,"stv_name":"Uncletopia | London | 5 | All Maps | STV","players":null},{"server_id":22,"name":"Uncletopia | London | 6 | All Maps","name_short":"lon-6","host":"lon-1.uk.uncletopia.com","port":27065,"enabled":true,"region":"eu","cc":"gb","latitude":51.509865,"longitude":-0.118092,"reserved":0,"last_update":"0001-01-01T00:00:00Z","name_a2s":"Uncletopia | London | 6 | All Maps","protocol":17,"map":"cp_dustbowl","folder":"tf","game":"Team Fortress","app_id":440,"player_count":24,"max_players":24,"Bots":0,"server_type":"Dedicated","server_os":"Linux","password":true,"vac":true,"version":"7882260","steam_id":85568392924742830,"keywords":["cp","nocrits","nodmgspread","uncletopia"],"game_id":440,"stv_port":27066,"stv_name":"Uncletopia | London | 6 | All Maps | STV","players":[{"user_id":108,"name":"Nostradamus","steam_id":76561198349792686,"connected_time":2444000000000,"state":"active","ping":71},{"user_id":119,"name":"Marcus","steam_id":76561198205027963,"connected_time":1026000000000,"state":"active","ping":61},{"user_id":112,"name":"WHUSSKEY","steam_id":76561198137827441,"connected_time":1792000000000,"state":"active","ping":77},{"user_id":127,"name":"I am the one who donks","steam_id":76561198419583460,"connected_time":738000000000,"state":"active","ping":62},{"user_id":142,"name":"–ù—ñ–∫—ñ—Ç—Ä–æ–Ω","steam_id":76561198044401080,"connected_time":223000000000,"state":"active","ping":69},{"user_id":122,"name":"SpyCrab  Erik Twice","steam_id":76561198009710309,"connected_time":821000000000,"state":"active","ping":62},{"user_id":93,"name":"askulap","steam_id":76561197992018795,"connected_time":3473000000000,"state":"active","ping":86},{"user_id":136,"name":"lulu","steam_id":76561199147764133,"connected_time":508000000000,"state":"active","ping":74},{"user_id":124,"name":"Û†Ä°Û†Ä°","steam_id":76561198399390201,"connected_time":784000000000,"state":"active","ping":104},{"user_id":111,"name":"Peigg","steam_id":76561198414749782,"connected_time":2110000000000,"state":"active","ping":97},{"user_id":125,"name":"Lessoz","steam_id":76561199211572036,"connected_time":747000000000,"state":"active","ping":84},{"user_id":139,"name":"gardontar","steam_id":76561198169929053,"connected_time":433000000000,"state":"active","ping":55},{"user_id":128,"name":"KAZAM | Tervez","steam_id":76561198045459068,"connected_time":702000000000,"state":"active","ping":91},{"user_id":98,"name":"Deleteanal","steam_id":76561199197830829,"connected_time":3029000000000,"state":"active","ping":106},{"user_id":89,"name":"Guru","steam_id":76561198093853069,"connected_time":4001000000000,"state":"active","ping":64},{"user_id":131,"name":"Uriziel","steam_id":76561198046950794,"connected_time":627000000000,"state":"active","ping":103},{"user_id":141,"name":"TrollFace","steam_id":76561198799317717,"connected_time":379000000000,"state":"active","ping":116},{"user_id":137,"name":"pol is egg","steam_id":76561198171749265,"connected_time":483000000000,"state":"active","ping":76},{"user_id":84,"name":"Penis Contortionist","steam_id":76561198073663784,"connected_time":5005000000000,"state":"active","ping":35},{"user_id":40,"name":"PP_master69420","steam_id":76561199019913910,"connected_time":9018000000000,"state":"active","ping":80},{"user_id":134,"name":"Kacperos12","steam_id":76561198044168268,"connected_time":600000000000,"state":"active","ping":93},{"user_id":115,"name":"Dr. Feelgood","steam_id":76561199173885103,"connected_time":1524000000000,"state":"active","ping":142},{"user_id":135,"name":"Mr. Frog","steam_id":76561198016568920,"connected_time":595000000000,"state":"active","ping":52},{"user_id":117,"name":"Yanniki","steam_id":76561197986058110,"connected_time":1205000000000,"state":"active","ping":62}]},{"server_id":40,"name":"Uncletopia | London | 7 | No Payload","name_short":"lon-7","host":"lon-1.uk.uncletopia.com","port":27075,"enabled":true,"region":"eu","cc":"gb","latitude":51.509865,"longitude":-0.118092,"reserved":0,"last_update":"0001-01-01T00:00:00Z","name_a2s":"Uncletopia | London | 7 | No Payload","protocol":17,"map":"koth_nucleus","folder":"tf","game":"Team Fortress","app_id":440,"player_count":24,"max_players":24,"Bots":0,"server_type":"Dedicated","server_os":"Linux","password":true,"vac":true,"version":"7882260","steam_id":85568392924964314,"keywords":["cp","nocrits","nodmgspread","uncletopia"],"game_id":440,"stv_port":27076,"stv_name":"Uncletopia | London | 7 | No Payload | STV","players":[{"user_id":3,"name":"Tx_madmash","steam_id":76561198924656512,"connected_time":5602000000000,"state":"active","ping":64},{"user_id":48,"name":"Paul B√§umer","steam_id":76561198308302932,"connected_time":1658000000000,"state":"active","ping":100},{"user_id":78,"name":"Zeyo","steam_id":76561198110198881,"connected_time":159000000000,"state":"active","ping":75},{"user_id":64,"name":"T - Bone","steam_id":76561198107005109,"connected_time":806000000000,"state":"active","ping":101},{"user_id":74,"name":"Dark ^^","steam_id":76561198036241064,"connected_time":271000000000,"state":"active","ping":66},{"user_id":21,"name":"Nyhde","steam_id":76561198012771416,"connected_time":3221000000000,"state":"active","ping":106},{"user_id":15,"name":"Yeets3er","steam_id":76561199137127757,"connected_time":3657000000000,"state":"active","ping":59},{"user_id":69,"name":"Adam","steam_id":76561198259467867,"connected_time":430000000000,"state":"active","ping":89},{"user_id":47,"name":"Mephistopheles","steam_id":76561199033390312,"connected_time":1795000000000,"state":"active","ping":118},{"user_id":49,"name":"dorak","steam_id":76561198818037965,"connected_time":1643000000000,"state":"active","ping":116},{"user_id":76,"name":"Volmari","steam_id":76561198054253542,"connected_time":217000000000,"state":"active","ping":78},{"user_id":23,"name":"Egor Pomidor","steam_id":76561199175688390,"connected_time":3155000000000,"state":"active","ping":86},{"user_id":75,"name":"–¢—Ä—É–ø –í–æ–ª–æ–¥—è","steam_id":76561198035718457,"connected_time":263000000000,"state":"active","ping":88},{"user_id":50,"name":"Khaiden","steam_id":76561198104454754,"connected_time":1597000000000,"state":"active","ping":97},{"user_id":71,"name":"Kvadrat","steam_id":76561198022834916,"connected_time":390000000000,"state":"active","ping":126},{"user_id":41,"name":"Fallen Dog","steam_id":76561198851387188,"connected_time":2123000000000,"state":"active","ping":65},{"user_id":66,"name":"Shark","steam_id":76561198205226501,"connected_time":715000000000,"state":"active","ping":163},{"user_id":72,"name":"Shadow Jesus","steam_id":76561198272980963,"connected_time":330000000000,"state":"active","ping":64},{"user_id":57,"name":"Louis Armstrong Gaming","steam_id":76561199142022395,"connected_time":1429000000000,"state":"active","ping":81},{"user_id":73,"name":"Fat Pigeon","steam_id":76561198817940142,"connected_time":303000000000,"state":"active","ping":48},{"user_id":37,"name":"Stuid","steam_id":76561199427506542,"connected_time":2343000000000,"state":"active","ping":77},{"user_id":53,"name":"Latte","steam_id":76561197999947657,"connected_time":1537000000000,"state":"active","ping":100},{"user_id":63,"name":"Even R√º√ºd","steam_id":76561197981144291,"connected_time":889000000000,"state":"active","ping":65},{"user_id":58,"name":"StormPumpe","steam_id":76561198081905430,"connected_time":1419000000000,"state":"active","ping":67}]},{"server_id":41,"name":"Uncletopia | London | 8 | Community","name_short":"lon-8","host":"lon-1.uk.uncletopia.com","port":27085,"enabled":true,"region":"eu","cc":"gb","latitude":51.509865,"longitude":-0.118092,"reserved":0,"last_update":"0001-01-01T00:00:00Z","name_a2s":"Uncletopia | London | 8 | Community","protocol":17,"map":"pl_swiftwater_final1","folder":"tf","game":"Team Fortress","app_id":440,"player_count":0,"max_players":24,"Bots":0,"server_type":"Dedicated","server_os":"Linux","password":true,"vac":true,"version":"7882260","steam_id":85568392924964315,"keywords":["nocrits","nodmgspread","payload","uncletopia"],"game_id":440,"stv_port":27086,"stv_name":"Uncletopia | London | 8 | Community | STV","players":null},{"server_id":300,"name":"Uncletopia | Montr√©al | 1 | All Maps","name_short":"mtl-1","host":"mtl-1.ca.uncletopia.com","port":27015,"enabled":true,"region":"us-east","cc":"ca","latitude":45.50889,"longitude":-73.56167,"reserved":0,"last_update":"0001-01-01T00:00:00Z","name_a2s":"Uncletopia | Montr√©al | 1 | All Maps","protocol":17,"map":"pl_barnblitz","folder":"tf","game":"Team Fortress","app_id":440,"player_count":0,"max_players":24,"Bots":0,"server_type":"Dedicated","server_os":"Linux","password":true,"vac":true,"version":"7882260","steam_id":85568392924500087,"keywords":["nocrits","nodmgspread","payload","uncletopia"],"game_id":440,"stv_port":27016,"stv_name":"Uncletopia | Montr√©al | 1 | All Maps | STV","players":null},{"server_id":301,"name":"Uncletopia | Montr√©al | 2 | All Maps","name_short":"mtl-2","host":"mtl-1.ca.uncletopia.com","port":27025,"enabled":true,"region":"us-east","cc":"ca","latitude":45.50889,"longitude":-73.56167,"reserved":0,"last_update":"0001-01-01T00:00:00Z","name_a2s":"Uncletopia | Montr√©al | 2 | All Maps","protocol":17,"map":"koth_highpass","folder":"tf","game":"Team Fortress","app_id":440,"player_count":0,"max_players":24,"Bots":0,"server_type":"Dedicated","server_os":"Linux","password":true,"vac":true,"version":"7882260","steam_id":85568392924500088,"keywords":["cp","nocrits","nodmgspread","uncletopia"],"game_id":440,"stv_port":27026,"stv_name":"Uncletopia | Montr√©al | 2 | All Maps | STV","players":null},{"server_id":302,"name":"Uncletopia | Montr√©al | 3 | All Maps","name_short":"mtl-3","host":"mtl-1.ca.uncletopia.com","port":27035,"enabled":true,"region":"us-east","cc":"ca","latitude":45.50889,"longitude":-73.56167,"reserved":0,"last_update":"0001-01-01T00:00:00Z","name_a2s":"Uncletopia | Montr√©al | 3 | All Maps","protocol":17,"map":"koth_cascade","folder":"tf","game":"Team Fortress","app_id":440,"player_count":0,"max_players":24,"Bots":0,"server_type":"Dedicated","server_os":"Linux","password":true,"vac":true,"version":"7882260","steam_id":85568392924500089,"keywords":["cp","nocrits","nodmgspread","uncletopia"],"game_id":440,"stv_port":27036,"stv_name":"Uncletopia | Montr√©al | 3 | All Maps | STV","players":null},{"server_id":303,"name":"Uncletopia | Montr√©al | 4 | No Payload","name_short":"mtl-4","host":"mtl-1.ca.uncletopia.com","port":27045,"enabled":true,"region":"us-east","cc":"ca","latitude":45.50889,"longitude":-73.56167,"reserved":0,"last_update":"0001-01-01T00:00:00Z","name_a2s":"Uncletopia | Montr√©al | 4 | No Payload","protocol":17,"map":"koth_nucleus","folder":"tf","game":"Team Fortress","app_id":440,"player_count":0,"max_players":24,"Bots":0,"server_type":"Dedicated","server_os":"Linux","password":true,"vac":true,"version":"7882260","steam_id":85568392924500090,"keywords":["cp","nocrits","nodmgspread","uncletopia"],"game_id":440,"stv_port":27046,"stv_name":"Uncletopia | Montr√©al | 4 | No Payload | STV","players":null},{"server_id":13,"name":"Uncletopia | New York City | 1 | All Maps","name_short":"nyc-1","host":"nyc-1.us.uncletopia.com","port":27015,"enabled":true,"region":"us-east","cc":"us","latitude":40.73061,"longitude":-73.93524,"reserved":0,"last_update":"0001-01-01T00:00:00Z","name_a2s":"Uncletopia | New York City | 1 | All Maps","protocol":17,"map":"cp_5gorge","folder":"tf","game":"Team Fortress","app_id":440,"player_count":0,"max_players":24,"Bots":0,"server_type":"Dedicated","server_os":"Linux","password":true,"vac":true,"version":"7882260","steam_id":85568392924469993,"keywords":["cp","nocrits","nodmgspread","uncletopia"],"game_id":440,"stv_port":27016,"stv_name":"Uncletopia | New York City | 1 | All Maps | STV","players":null},{"server_id":14,"name":"Uncletopia | New York City | 2 | All Maps","name_short":"nyc-2","host":"nyc-1.us.uncletopia.com","port":27025,"enabled":true,"region":"us-east","cc":"us","latitude":40.73061,"longitude":-73.93524,"reserved":0,"last_update":"0001-01-01T00:00:00Z","name_a2s":"Uncletopia | New York City | 2 | All Maps","protocol":17,"map":"koth_lakeside_final","folder":"tf","game":"Team Fortress","app_id":440,"player_count":0,"max_players":24,"Bots":0,"server_type":"Dedicated","server_os":"Linux","password":true,"vac":true,"version":"7882260","steam_id":85568392924469994,"keywords":["cp","nocrits","nodmgspread","uncletopia"],"game_id":440,"stv_port":27026,"stv_name":"Uncletopia | New York City | 2 | All Maps | STV","players":null},{"server_id":15,"name":"Uncletopia | New York City | 3 | Stopwatch Beta","name_short":"nyc-3","host":"nyc-1.us.uncletopia.com","port":27035,"enabled":true,"region":"us-east","cc":"us","latitude":40.73061,"longitude":-73.93524,"reserved":0,"last_update":"0001-01-01T00:00:00Z","name_a2s":"Uncletopia | New York City | 3 | Stopwatch Beta","protocol":17,"map":"pl_borneo","folder":"tf","game":"Team Fortress","app_id":440,"player_count":0,"max_players":24,"Bots":0,"server_type":"Dedicated","server_os":"Linux","password":true,"vac":true,"version":"7882260","steam_id":85568392924742820,"keywords":["nocrits","nodmgspread","payload","uncletopia"],"game_id":440,"stv_port":27036,"stv_name":"Uncletopia | New York City | 3 | Stopwatch Beta | STV","players":null},{"server_id":16,"name":"Uncletopia | New York City | 4 | Community","name_short":"nyc-4","host":"nyc-1.us.uncletopia.com","port":27045,"enabled":true,"region":"us-east","cc":"us","latitude":40.73061,"longitude":-73.93524,"reserved":0,"last_update":"0001-01-01T00:00:00Z","name_a2s":"Uncletopia | New York City | 4 | Community","protocol":17,"map":"workshop/koth_kemptown_rc1.ugc767410655","folder":"tf","game":"Team Fortress","app_id":440,"player_count":0,"max_players":24,"Bots":0,"server_type":"Dedicated","server_os":"Linux","password":true,"vac":true,"version":"7882260","steam_id":85568392924742821,"keywords":["cp","nocrits","nodmgspread","uncletopia"],"game_id":440,"stv_port":27046,"stv_name":"Uncletopia | New York City | 4 | Community | STV","players":null},{"server_id":142,"name":"Uncletopia | S√£o Paulo | 1 | All Maps","name_short":"sao-1","host":"sao-1.br.uncletopia.com","port":27015,"enabled":true,"region":"sa","cc":"br","latitude":-23.533773,"longitude":-46.62529,"reserved":0,"last_update":"0001-01-01T00:00:00Z","name_a2s":"Uncletopia | S√£o Paulo | 1 | All Maps","protocol":17,"map":"cp_process_final","folder":"tf","game":"Team Fortress","app_id":440,"player_count":0,"max_players":24,"Bots":0,"server_type":"Dedicated","server_os":"Linux","password":true,"vac":true,"version":"7882260","steam_id":85568392924469996,"keywords":["cp","nocrits","nodmgspread","uncletopia"],"game_id":440,"stv_port":27016,"stv_name":"Uncletopia | S√£o Paulo | 1 | All Maps | STV","players":null},{"server_id":143,"name":"Uncletopia | S√£o Paulo | 2 | All Maps","name_short":"sao-2","host":"sao-2.br.uncletopia.com","port":27015,"enabled":true,"region":"sa","cc":"br","latitude":-23.533773,"longitude":-46.62529,"reserved":0,"last_update":"0001-01-01T00:00:00Z","name_a2s":"Uncletopia | S√£o Paulo | 2 | All Maps","protocol":17,"map":"pl_pier","folder":"tf","game":"Team Fortress","app_id":440,"player_count":0,"max_players":24,"Bots":0,"server_type":"Dedicated","server_os":"Linux","password":true,"vac":true,"version":"7882260","steam_id":85568392924485349,"keywords":["nocrits","nodmgspread","payload","uncletopia"],"game_id":440,"stv_port":27016,"stv_name":"Uncletopia | S√£o Paulo | 2 | All Maps | STV","players":null},{"server_id":7,"name":"Uncletopia | Seattle | 1 | All Maps","name_short":"sea-1","host":"sea-1.us.uncletopia.com","port":27015,"enabled":true,"region":"us-west","cc":"us","latitude":47.608013,"longitude":-122.33517,"reserved":0,"last_update":"0001-01-01T00:00:00Z","name_a2s":"Uncletopia | Seattle | 1 | All Maps","protocol":17,"map":"koth_harvest_final","folder":"tf","game":"Team Fortress","app_id":440,"player_count":25,"max_players":24,"Bots":0,"server_type":"Dedicated","server_os":"Linux","password":true,"vac":true,"version":"7882260","steam_id":85568392924469997,"keywords":["cp","nocrits","nodmgspread","uncletopia"],"game_id":440,"stv_port":27016,"stv_name":"Uncletopia | Seattle | 1 | All Maps | STV","players":[{"user_id":740,"name":"resh","steam_id":76561198239598834,"connected_time":4689000000000,"state":"active","ping":130},{"user_id":665,"name":"oil","steam_id":76561198099980149,"connected_time":11779000000000,"state":"active","ping":70},{"user_id":768,"name":"delight","steam_id":76561197980280272,"connected_time":1258000000000,"state":"active","ping":44},{"user_id":747,"name":"Eloquence","steam_id":76561198930623466,"connected_time":4089000000000,"state":"active","ping":80},{"user_id":684,"name":"profile name","steam_id":76561198032625036,"connected_time":9008000000000,"state":"active","ping":57},{"user_id":775,"name":"„Åµ„Çè„Åµ„ÇèÊØõÂ∏É","steam_id":76561198088403016,"connected_time":1245000000000,"state":"active","ping":180},{"user_id":746,"name":"Sir Loincloth","steam_id":76561198033073991,"connected_time":4207000000000,"state":"active","ping":62},{"user_id":774,"name":"Dot...","steam_id":76561198169920115,"connected_time":1248000000000,"state":"active","ping":94},{"user_id":723,"name":"white muslim dane cook","steam_id":76561198000979872,"connected_time":6330000000000,"state":"active","ping":87},{"user_id":597,"name":"roryisonamobilehotspot","steam_id":76561198065825165,"connected_time":18133000000000,"state":"active","ping":97},{"user_id":771,"name":"never knows best","steam_id":76561197989933601,"connected_time":1250000000000,"state":"active","ping":51},{"user_id":777,"name":"JTuu","steam_id":76561198030606396,"connected_time":1118000000000,"state":"active","ping":43},{"user_id":762,"name":"Oh No! It's Twister!","steam_id":76561198016791916,"connected_time":2393000000000,"state":"active","ping":83},{"user_id":767,"name":"bota box burglar","steam_id":76561198134309750,"connected_time":1262000000000,"state":"active","ping":100},{"user_id":765,"name":"Ariel Tone","steam_id":76561198086475014,"connected_time":1950000000000,"state":"active","ping":54},{"user_id":670,"name":"smeasly got the dab pen","steam_id":76561198028718812,"connected_time":11457000000000,"state":"active","ping":41},{"user_id":722,"name":"Oakus Maximus","steam_id":76561198317179010,"connected_time":6381000000000,"state":"active","ping":67},{"user_id":763,"name":"Rocket Drifter","steam_id":76561198046952513,"connected_time":2208000000000,"state":"active","ping":46},{"user_id":778,"name":"Rommel2007","steam_id":76561198041744631,"connected_time":1111000000000,"state":"active","ping":84},{"user_id":735,"name":"Inflight","steam_id":76561198920049475,"connected_time":5299000000000,"state":"active","ping":112},{"user_id":782,"name":"glock in my rawry :3","steam_id":76561198084885479,"connected_time":396000000000,"state":"active","ping":74},{"user_id":744,"name":"Erntest","steam_id":76561198049499899,"connected_time":4594000000000,"state":"active","ping":66},{"user_id":779,"name":"bullet man","steam_id":76561198080058079,"connected_time":1095000000000,"state":"active","ping":56},{"user_id":803,"name":"toilet thief","steam_id":76561198057486874,"connected_time":1000000000,"state":"spawning","ping":44},{"user_id":787,"name":"jorts","steam_id":76561199041179985,"connected_time":312000000000,"state":"active","ping":56}]},{"server_id":119,"name":"Uncletopia | Seattle | 2 | All Maps","name_short":"sea-2","host":"sea-1.us.uncletopia.com","port":27025,"enabled":true,"region":"us-west","cc":"us","latitude":47.608013,"longitude":-122.33517,"reserved":0,"last_update":"0001-01-01T00:00:00Z","name_a2s":"Uncletopia | Seattle | 2 | All Maps","protocol":17,"map":"pl_frontier_final","folder":"tf","game":"Team Fortress","app_id":440,"player_count":7,"max_players":24,"Bots":0,"server_type":"Dedicated","server_os":"Linux","password":true,"vac":true,"version":"7882260","steam_id":85568392924469998,"keywords":["nocrits","nodmgspread","payload","uncletopia"],"game_id":440,"stv_port":27026,"stv_name":"Uncletopia | Seattle | 2 | All Maps | STV","players":[{"user_id":795,"name":"THE PRODGIAL STUNNA","steam_id":76561198325613425,"connected_time":868000000000,"state":"active","ping":89},{"user_id":806,"name":"Joey Gonzales","steam_id":76561198215557329,"connected_time":66000000000,"state":"active","ping":222},{"user_id":789,"name":"a cat plushie","steam_id":76561198080046542,"connected_time":1448000000000,"state":"active","ping":41},{"user_id":790,"name":"Bitter","steam_id":76561198047426244,"connected_time":1316000000000,"state":"active","ping":42},{"user_id":792,"name":"Rodrick Knee","steam_id":76561198283021062,"connected_time":1100000000000,"state":"active","ping":126},{"user_id":794,"name":"Not Slavoj ≈Ωi≈æek","steam_id":76561198004619616,"connected_time":1019000000000,"state":"active","ping":68},{"user_id":799,"name":"ImReallyFeelinIt","steam_id":76561198325006142,"connected_time":528000000000,"state":"active","ping":57}]},{"server_id":406,"name":"Uncletopia | Seattle | 3 | Stopwatch Beta","name_short":"sea-3","host":"sea-1.us.uncletopia.com","port":27035,"enabled":true,"region":"us-west","cc":"us","latitude":47.608013,"longitude":-122.33517,"reserved":0,"last_update":"0001-01-01T00:00:00Z","name_a2s":"Uncletopia | Seattle | 3 | Stopwatch Beta","protocol":17,"map":"pl_swiftwater_final1","folder":"tf","game":"Team Fortress","app_id":440,"player_count":0,"max_players":24,"Bots":0,"server_type":"Dedicated","server_os":"Linux","password":true,"vac":true,"version":"7882260","steam_id":85568392924515217,"keywords":["nocrits","nodmgspread","payload","uncletopia"],"game_id":440,"stv_port":27036,"stv_name":"Uncletopia | Seattle | 3 | Stopwatch Beta | STV","players":null},{"server_id":17,"name":"Uncletopia | San Francisco | 1 | All Maps","name_short":"sfo-1","host":"sfo-1.us.uncletopia.com","port":27015,"enabled":true,"region":"us-west","cc":"us","latitude":37.77397,"longitude":-122.4313,"reserved":0,"last_update":"0001-01-01T00:00:00Z","name_a2s":"Uncletopia | San Francisco | 1 | All Maps","protocol":17,"map":"koth_lakeside_final","folder":"tf","game":"Team Fortress","app_id":440,"player_count":23,"max_players":24,"Bots":0,"server_type":"Dedicated","server_os":"Linux","password":true,"vac":true,"version":"7882260","steam_id":85568392924469999,"keywords":["cp","nocrits","nodmgspread","uncletopia"],"game_id":440,"stv_port":27016,"stv_name":"Uncletopia | San Francisco | 1 | All Maps | STV","players":[{"user_id":266,"name":"Sofa","steam_id":76561198066802620,"connected_time":2493000000000,"state":"active","ping":47},{"user_id":277,"name":"Tank","steam_id":76561198231513484,"connected_time":1383000000000,"state":"active","ping":54},{"user_id":246,"name":"SQbuilder","steam_id":76561198076473375,"connected_time":3538000000000,"state":"active","ping":43},{"user_id":278,"name":"R3n3gade","steam_id":76561198145984116,"connected_time":1349000000000,"state":"active","ping":58},{"user_id":254,"name":"Big Oz","steam_id":76561198970897660,"connected_time":3189000000000,"state":"active","ping":80},{"user_id":265,"name":"Timebomb2134","steam_id":76561199065629825,"connected_time":2601000000000,"state":"active","ping":69},{"user_id":280,"name":"Hog Rider","steam_id":76561198270106555,"connected_time":1081000000000,"state":"active","ping":55},{"user_id":281,"name":"Baggage","steam_id":76561198215128080,"connected_time":1062000000000,"state":"active","ping":56},{"user_id":258,"name":"Renon","steam_id":76561198023239819,"connected_time":3082000000000,"state":"active","ping":56},{"user_id":282,"name":"An Unhappy Clown","steam_id":76561198175516514,"connected_time":1061000000000,"state":"active","ping":88},{"user_id":250,"name":"Giorno Giovanna","steam_id":76561198044106874,"connected_time":3390000000000,"state":"active","ping":62},{"user_id":293,"name":"yogi","steam_id":76561198067986753,"connected_time":746000000000,"state":"active","ping":57},{"user_id":283,"name":"NaxRat","steam_id":76561198992710128,"connected_time":1056000000000,"state":"active","ping":64},{"user_id":298,"name":"cringy","steam_id":76561198323000455,"connected_time":424000000000,"state":"active","ping":68},{"user_id":294,"name":"Ruthless2467","steam_id":76561198124055298,"connected_time":741000000000,"state":"active","ping":53},{"user_id":268,"name":"Kuren$y","steam_id":76561198081386742,"connected_time":2419000000000,"state":"active","ping":55},{"user_id":287,"name":"Bagoool","steam_id":76561198065368286,"connected_time":990000000000,"state":"active","ping":86},{"user_id":288,"name":"lite","steam_id":76561198041535914,"connected_time":984000000000,"state":"active","ping":100},{"user_id":289,"name":"Prez Pineapple","steam_id":76561198253755258,"connected_time":953000000000,"state":"active","ping":68},{"user_id":228,"name":"Raphael","steam_id":76561198101425586,"connected_time":5063000000000,"state":"active","ping":68},{"user_id":290,"name":"KOOLAID","steam_id":76561198062775462,"connected_time":897000000000,"state":"active","ping":55},{"user_id":300,"name":"Aztea","steam_id":76561198982089893,"connected_time":196000000000,"state":"active","ping":87},{"user_id":253,"name":"brucking","steam_id":76561198348213337,"connected_time":3236000000000,"state":"active","ping":57}]},{"server_id":18,"name":"Uncletopia | San Francisco | 2 | All Maps","name_short":"sfo-2","host":"sfo-1.us.uncletopia.com","port":27025,"enabled":true,"region":"us-west","cc":"us","latitude":37.77397,"longitude":-122.4313,"reserved":0,"last_update":"0001-01-01T00:00:00Z","name_a2s":"Uncletopia | San Francisco | 2 | All Maps","protocol":17,"map":"koth_highpass","folder":"tf","game":"Team Fortress","app_id":440,"player_count":3,"max_players":24,"Bots":0,"server_type":"Dedicated","server_os":"Linux","password":true,"vac":true,"version":"7882260","steam_id":85568392924470000,"keywords":["cp","nocrits","nodmgspread","uncletopia"],"game_id":440,"stv_port":27026,"stv_name":"Uncletopia | San Francisco | 2 | All Maps | STV","players":[{"user_id":211,"name":"MegaMott","steam_id":76561199172245274,"connected_time":2417000000000,"state":"active","ping":70},{"user_id":212,"name":"Deacon","steam_id":76561197998532724,"connected_time":2373000000000,"state":"active","ping":70},{"user_id":213,"name":"Picklefrits","steam_id":76561198067070390,"connected_time":2206000000000,"state":"active","ping":106}]},{"server_id":19,"name":"Uncletopia | San Francisco | 3 | Stopwatch Beta","name_short":"sfo-3","host":"sfo-1.us.uncletopia.com","port":27035,"enabled":true,"region":"us-west","cc":"us","latitude":37.77397,"longitude":-122.4313,"reserved":0,"last_update":"0001-01-01T00:00:00Z","name_a2s":"Uncletopia | San Francisco | 3 | Stopwatch Beta","protocol":17,"map":"pl_frontier_final","folder":"tf","game":"Team Fortress","app_id":440,"player_count":0,"max_players":24,"Bots":0,"server_type":"Dedicated","server_os":"Linux","password":true,"vac":true,"version":"7882260","steam_id":85568392924742824,"keywords":["nocrits","nodmgspread","payload","uncletopia"],"game_id":440,"stv_port":27036,"stv_name":"Uncletopia | San Francisco | 3 | Stopwatch Beta | STV","players":null},{"server_id":20,"name":"Uncletopia | San Francisco | 4 | Community","name_short":"sfo-4","host":"sfo-1.us.uncletopia.com","port":27045,"enabled":true,"region":"us-west","cc":"us","latitude":37.77397,"longitude":-122.4313,"reserved":0,"last_update":"0001-01-01T00:00:00Z","name_a2s":"Uncletopia | San Francisco | 4 | Community","protocol":17,"map":"workshop/koth_slaughter_rc1.ugc1712845210","folder":"tf","game":"Team Fortress","app_id":440,"player_count":0,"max_players":24,"Bots":0,"server_type":"Dedicated","server_os":"Linux","password":true,"vac":true,"version":"7882260","steam_id":85568392924742826,"keywords":["cp","nocrits","nodmgspread","uncletopia"],"game_id":440,"stv_port":27046,"stv_name":"Uncletopia | San Francisco | 4 | Community | STV","players":null},{"server_id":141,"name":"Uncletopia | Sydney | 1 | All Maps","name_short":"syd-1","host":"syd-1.au.uncletopia.com","port":27015,"enabled":true,"region":"au","cc":"au","latitude":-33.865143,"longitude":151.2099,"reserved":0,"last_update":"0001-01-01T00:00:00Z","name_a2s":"Uncletopia | Sydney | 1 | All Maps","protocol":17,"map":"koth_viaduct","folder":"tf","game":"Team Fortress","app_id":440,"player_count":9,"max_players":24,"Bots":0,"server_type":"Dedicated","server_os":"Linux","password":true,"vac":true,"version":"7882260","steam_id":85568392924470001,"keywords":["cp","nocrits","nodmgspread","uncletopia"],"game_id":440,"stv_port":27016,"stv_name":"Uncletopia | Sydney | 1 | All Maps | STV","players":[{"user_id":162,"name":"Shiki Eiki","steam_id":76561198095744048,"connected_time":866000000000,"state":"active","ping":87},{"user_id":159,"name":"Komeji","steam_id":76561198125237921,"connected_time":1190000000000,"state":"active","ping":41},{"user_id":161,"name":"Powersurge The Protogen -BvM-","steam_id":76561198013117218,"connected_time":1120000000000,"state":"active","ping":51},{"user_id":163,"name":"Zepi","steam_id":76561198018887052,"connected_time":689000000000,"state":"active","ping":51},{"user_id":164,"name":"Rouva Lautan","steam_id":76561198948183007,"connected_time":668000000000,"state":"active","ping":58},{"user_id":165,"name":"CypressFluff (She/Her)","steam_id":76561198174667818,"connected_time":615000000000,"state":"active","ping":54},{"user_id":167,"name":"stevenw","steam_id":76561198133041525,"connected_time":379000000000,"state":"active","ping":89},{"user_id":169,"name":"bird up","steam_id":76561198347964028,"connected_time":108000000000,"state":"active","ping":74},{"user_id":170,"name":"Cyborgcupine","steam_id":76561198257389366,"connected_time":30000000000,"state":"active","ping":94}]},{"server_id":123,"name":"Uncletopia | Sydney | 2 | All Maps","name_short":"syd-2","host":"syd-1.au.uncletopia.com","port":27025,"enabled":true,"region":"au","cc":"au","latitude":-33.865143,"longitude":151.2099,"reserved":0,"last_update":"0001-01-01T00:00:00Z","name_a2s":"Uncletopia | Sydney | 2 | All Maps","protocol":17,"map":"koth_lakeside_final","folder":"tf","game":"Team Fortress","app_id":440,"player_count":24,"max_players":24,"Bots":0,"server_type":"Dedicated","server_os":"Linux","password":true,"vac":true,"version":"7882260","steam_id":85568392924470002,"keywords":["cp","nocrits","nodmgspread","uncletopia"],"game_id":440,"stv_port":27026,"stv_name":"Uncletopia | Sydney | 2 | All Maps | STV","players":[{"user_id":348,"name":"mushroom","steam_id":76561197992336470,"connected_time":3340000000000,"state":"active","ping":97},{"user_id":317,"name":"skye","steam_id":76561198037129845,"connected_time":5870000000000,"state":"active","ping":42},{"user_id":366,"name":"rat like behaver","steam_id":76561198000568803,"connected_time":2226000000000,"state":"active","ping":53},{"user_id":379,"name":"Comic Sans G","steam_id":76561198036184916,"connected_time":1069000000000,"state":"active","ping":81},{"user_id":344,"name":"michael","steam_id":76561198052848358,"connected_time":3571000000000,"state":"active","ping":68},{"user_id":368,"name":"zorbingus blurgorgus","steam_id":76561198063481761,"connected_time":2133000000000,"state":"active","ping":45},{"user_id":393,"name":"weezer","steam_id":76561199439508788,"connected_time":208000000000,"state":"active","ping":64},{"user_id":376,"name":"Local Trash Expert","steam_id":76561198145598622,"connected_time":1083000000000,"state":"active","ping":82},{"user_id":388,"name":"Phobia¬≤","steam_id":76561198038833524,"connected_time":388000000000,"state":"active","ping":59},{"user_id":307,"name":"locust no.2","steam_id":76561198060024585,"connected_time":6443000000000,"state":"active","ping":33},{"user_id":365,"name":"Frog Friend","steam_id":76561198054505772,"connected_time":2255000000000,"state":"active","ping":57},{"user_id":320,"name":"locust infestation","steam_id":76561198025099660,"connected_time":5834000000000,"state":"active","ping":32},{"user_id":342,"name":"Snowy","steam_id":76561198255720598,"connected_time":3865000000000,"state":"active","ping":47},{"user_id":394,"name":"yohkes","steam_id":76561198053942284,"connected_time":138000000000,"state":"active","ping":37},{"user_id":380,"name":"koyaa","steam_id":76561198047484772,"connected_time":1068000000000,"state":"active","ping":75},{"user_id":384,"name":"Jodelk√∂nig Franzl Lang","steam_id":76561198007667830,"connected_time":572000000000,"state":"active","ping":59},{"user_id":375,"name":"R","steam_id":76561197996963023,"connected_time":1182000000000,"state":"active","ping":75},{"user_id":378,"name":"perturb (feed/seed)","steam_id":76561198085124297,"connected_time":1081000000000,"state":"active","ping":53},{"user_id":371,"name":"TKGX","steam_id":76561199278561931,"connected_time":1894000000000,"state":"active","ping":43},{"user_id":358,"name":"Minimindd","steam_id":76561199006274892,"connected_time":2691000000000,"state":"active","ping":50},{"user_id":377,"name":"Griffin","steam_id":76561198024926514,"connected_time":1081000000000,"state":"active","ping":89},{"user_id":367,"name":"Marrow","steam_id":76561198123605344,"connected_time":2219000000000,"state":"active","ping":63},{"user_id":389,"name":"HORIZ0N","steam_id":76561199006929134,"connected_time":318000000000,"state":"active","ping":63},{"user_id":395,"name":"Bill Nye","steam_id":76561198312898168,"connected_time":129000000000,"state":"active","ping":59}]},{"server_id":395,"name":"Uncletopia | Sydney | 3 | All Maps","name_short":"syd-3","host":"syd-1.au.uncletopia.com","port":27035,"enabled":true,"region":"au","cc":"au","latitude":-33.865143,"longitude":151.2099,"reserved":0,"last_update":"0001-01-01T00:00:00Z","name_a2s":"Uncletopia | Sydney | 3 | All Maps","protocol":17,"map":"plr_hightower","folder":"tf","game":"Team Fortress","app_id":440,"player_count":4,"max_players":24,"Bots":0,"server_type":"Dedicated","server_os":"Linux","password":true,"vac":true,"version":"7882260","steam_id":85568392925194467,"keywords":["nocrits","nodmgspread","payload","uncletopia"],"game_id":440,"stv_port":27036,"stv_name":"Uncletopia | Sydney | 3 | All Maps | STV","players":[{"user_id":15,"name":"Soldier main(Really)","steam_id":76561198153397177,"connected_time":1424000000000,"state":"active","ping":53},{"user_id":16,"name":"the weed alien","steam_id":76561199205171109,"connected_time":1421000000000,"state":"active","ping":69},{"user_id":18,"name":"Cris.p bacon","steam_id":76561199230423491,"connected_time":589000000000,"state":"active","ping":109},{"user_id":20,"name":"shroomjak","steam_id":76561198805154742,"connected_time":227000000000,"state":"active","ping":269}]},{"server_id":396,"name":"Uncletopia | Sydney | 4 | All Maps","name_short":"syd-4","host":"syd-1.au.uncletopia.com","port":27045,"enabled":true,"region":"au","cc":"au","latitude":-33.865143,"longitude":151.2099,"reserved":0,"last_update":"0001-01-01T00:00:00Z","name_a2s":"Uncletopia | Sydney | 4 | All Maps","protocol":17,"map":"koth_highpass","folder":"tf","game":"Team Fortress","app_id":440,"player_count":0,"max_players":24,"Bots":0,"server_type":"Dedicated","server_os":"Linux","password":true,"vac":true,"version":"7882260","steam_id":85568392925397958,"keywords":["cp","nocrits","nodmgspread","uncletopia"],"game_id":440,"stv_port":27046,"stv_name":"Uncletopia | Sydney | 4 | All Maps | STV","players":null},{"server_id":58,"name":"Uncletopia | Sydney | 5 | Stopwatch Beta","name_short":"syd-5","host":"syd-1.au.uncletopia.com","port":27055,"enabled":true,"region":"au","cc":"au","latitude":-33.865143,"longitude":151.2099,"reserved":0,"last_update":"0001-01-01T00:00:00Z","name_a2s":"Uncletopia | Sydney | 5 | Stopwatch Beta","protocol":17,"map":"koth_highpass","folder":"tf","game":"Team Fortress","app_id":440,"player_count":0,"max_players":24,"Bots":0,"server_type":"Dedicated","server_os":"Linux","password":true,"vac":true,"version":"7882260","steam_id":85568392925397959,"keywords":["cp","nocrits","nodmgspread","uncletopia"],"game_id":440,"stv_port":27056,"stv_name":"Uncletopia | Sydney | 5 | Stopwatch Beta | STV","players":null},{"server_id":59,"name":"Uncletopia | Sydney | 6 | Community","name_short":"syd-6","host":"syd-1.au.uncletopia.com","port":27065,"enabled":true,"region":"au","cc":"au","latitude":-33.865143,"longitude":151.2099,"reserved":0,"last_update":"0001-01-01T00:00:00Z","name_a2s":"Uncletopia | Sydney | 6 | Community","protocol":17,"map":"workshop/koth_product_final.ugc454272353","folder":"tf","game":"Team Fortress","app_id":440,"player_count":0,"max_players":24,"Bots":0,"server_type":"Dedicated","server_os":"Linux","password":true,"vac":true,"version":"7882260","steam_id":85568392925397960,"keywords":["cp","nocrits","nodmgspread","uncletopia"],"game_id":440,"stv_port":27066,"stv_name":"Uncletopia | Sydney | 6 | Community | STV","players":null},{"server_id":49,"name":"Uncletopia | Warsaw | 1 | All Maps","name_short":"waw-1","host":"waw-1.pl.uncletopia.com","port":27015,"enabled":true,"region":"eu","cc":"pl","latitude":52.2297,"longitude":21.017532,"reserved":0,"last_update":"0001-01-01T00:00:00Z","name_a2s":"","protocol":0,"map":"","folder":"","game":"","app_id":0,"player_count":0,"max_players":0,"Bots":0,"server_type":"","server_os":"","password":false,"vac":false,"version":"","steam_id":0,"keywords":null,"game_id":0,"stv_port":0,"stv_name":"","players":null},{"server_id":50,"name":"Uncletopia | Warsaw | 2 | All Maps","name_short":"waw-2","host":"waw-1.pl.uncletopia.com","port":27025,"enabled":true,"region":"eu","cc":"pl","latitude":52.2297,"longitude":21.017532,"reserved":0,"last_update":"0001-01-01T00:00:00Z","name_a2s":"Uncletopia | Warsaw | 2 | All Maps","protocol":17,"map":"pl_upward","folder":"tf","game":"Team Fortress","app_id":440,"player_count":0,"max_players":24,"Bots":0,"server_type":"Dedicated","server_os":"Linux","password":true,"vac":true,"version":"7882260","steam_id":85568392925397851,"keywords":["nocrits","nodmgspread","payload","uncletopia"],"game_id":440,"stv_port":27026,"stv_name":"Uncletopia | Warsaw | 2 | All Maps | STV","players":null},{"server_id":51,"name":"Uncletopia | Warsaw | 3 | All Maps","name_short":"waw-3","host":"waw-1.pl.uncletopia.com","port":27035,"enabled":true,"region":"eu","cc":"pl","latitude":52.2297,"longitude":21.017532,"reserved":0,"last_update":"0001-01-01T00:00:00Z","name_a2s":"Uncletopia | Warsaw | 3 | All Maps","protocol":17,"map":"koth_viaduct","folder":"tf","game":"Team Fortress","app_id":440,"player_count":0,"max_players":24,"Bots":0,"server_type":"Dedicated","server_os":"Linux","password":true,"vac":true,"version":"7882260","steam_id":85568392925397852,"keywords":["cp","nocrits","nodmgspread","uncletopia"],"game_id":440,"stv_port":27036,"stv_name":"Uncletopia | Warsaw | 3 | All Maps | STV","players":null},{"server_id":52,"name":"Uncletopia | Warsaw | 4 | All Maps","name_short":"waw-4","host":"waw-1.pl.uncletopia.com","port":27045,"enabled":true,"region":"eu","cc":"pl","latitude":52.2297,"longitude":21.017532,"reserved":0,"last_update":"0001-01-01T00:00:00Z","name_a2s":"Uncletopia | Warsaw | 4 | All Maps","protocol":17,"map":"koth_highpass","folder":"tf","game":"Team Fortress","app_id":440,"player_count":0,"max_players":24,"Bots":0,"server_type":"Dedicated","server_os":"Linux","password":true,"vac":true,"version":"7882260","steam_id":85568392925397853,"keywords":["cp","nocrits","nodmgspread","uncletopia"],"game_id":440,"stv_port":27046,"stv_name":"Uncletopia | Warsaw | 4 | All Maps | STV","players":null},{"server_id":53,"name":"Uncletopia | Warsaw | 5 | Stopwatch Beta","name_short":"waw-5","host":"waw-1.pl.uncletopia.com","port":27055,"enabled":true,"region":"eu","cc":"pl","latitude":52.2297,"longitude":21.017532,"reserved":0,"last_update":"0001-01-01T00:00:00Z","name_a2s":"Uncletopia | Warsaw | 5 | Stopwatch Beta","protocol":17,"map":"cp_mountainlab","folder":"tf","game":"Team Fortress","app_id":440,"player_count":0,"max_players":24,"Bots":0,"server_type":"Dedicated","server_os":"Linux","password":true,"vac":true,"version":"7882260","steam_id":85568392925397854,"keywords":["cp","nocrits","nodmgspread","uncletopia"],"game_id":440,"stv_port":27056,"stv_name":"Uncletopia | Warsaw | 5 | Stopwatch Beta | STV","players":null},{"server_id":54,"name":"Uncletopia | Warsaw | 6 | Community","name_short":"waw-6","host":"waw-1.pl.uncletopia.com","port":27065,"enabled":true,"region":"eu","cc":"pl","latitude":52.2297,"longitude":21.017532,"reserved":0,"last_update":"0001-01-01T00:00:00Z","name_a2s":"Uncletopia | Warsaw | 6 | Community","protocol":17,"map":"koth_viaduct","folder":"tf","game":"Team Fortress","app_id":440,"player_count":0,"max_players":24,"Bots":0,"server_type":"Dedicated","server_os":"Linux","password":true,"vac":true,"version":"7882260","steam_id":85568392925397856,"keywords":["cp","nocrits","nodmgspread","uncletopia"],"game_id":440,"stv_port":27066,"stv_name":"Uncletopia | Warsaw | 6 | Community | STV","players":null}]}