{"status":true,"message":"","result":[{"server_id":9,"name":"Uncletopia | Atlanta | 1 | All Maps","name_short":"atl-1","host":"atl-1.us.uncletopia.com","port":27015,"enabled":true,"region":"us-east","cc":"us","latitude":33.753746,"longitude":-84.38633,"reserved":0,"last_update":"0001-01-01T00:00:00Z","name_a2s":"Uncletopia | Atlanta | 1 | All Maps","protocol":17,"map":"pl_upward","folder":"tf","game":"Team Fortress","app_id":440,"player_count":24,"max_players":24,"Bots":0,"server_type":"Dedicated","server_os":"Linux","password":true,"vac":true,"version":"7757534","steam_id":85568392924469982,"keywords":["nocrits","nodmgspread","payload","uncletopia"],"game_id":440,"stv_port":27016,"stv_name":"Uncletopia | Atlanta | 1 | All Maps | STV","players":[{"user_id":74,"name":"Ryoukai","steam_id":76561198023207340,"connected_time":8156000000000,"state":"active","ping":73},{"user_id":165,"name":"Scut","steam_id":76561198973734291,"connected_time":883000000000,"state":"active","ping":142},{"user_id":158,"name":"knotsofunny","steam_id":76561198071336304,"connected_time":1671000000000,"state":"active","ping":61},{"user_id":160,"name":"Boop","steam_id":76561198376703875,"connected_time":918000000000,"state":"active","ping":64},{"user_id":122,"name":"Numbers","steam_id":76561198178240575,"connected_time":4413000000000,"state":"active","ping":80},{"user_id":161,"name":"BLU1 l Epifiny","steam_id":76561198027958086,"connected_time":917000000000,"state":"active","ping":101},{"user_id":144,"name":"Spy_Is_Pye","steam_id":76561199439622967,"connected_time":2812000000000,"state":"active","ping":70},{"user_id":97,"name":"Kfleppey","steam_id":76561198096893904,"connected_time":5891000000000,"state":"spawning","ping":77},{"user_id":93,"name":"ATL1 | Bandicario","steam_id":76561198432036026,"connected_time":5950000000000,"state":"active","ping":44},{"user_id":111,"name":"oinkpig234","steam_id":76561198883733811,"connected_time":5084000000000,"state":"active","ping":91},{"user_id":162,"name":"RED1 | mayhem","steam_id":76561199246637881,"connected_time":917000000000,"state":"active","ping":48},{"user_id":140,"name":"amazing","steam_id":76561198386233160,"connected_time":3459000000000,"state":"active","ping":76},{"user_id":112,"name":"Ubuntu Phone","steam_id":76561198008110407,"connected_time":5078000000000,"state":"active","ping":146},{"user_id":85,"name":"Karma","steam_id":76561198030565234,"connected_time":7135000000000,"state":"active","ping":65},{"user_id":147,"name":"mothsprings","steam_id":76561198928604937,"connected_time":2470000000000,"state":"active","ping":73},{"user_id":163,"name":"☭","steam_id":76561198138444785,"connected_time":911000000000,"state":"active","ping":68},{"user_id":142,"name":"Weerk","steam_id":76561199209543551,"connected_time":2896000000000,"state":"active","ping":60},{"user_id":55,"name":"Ashes!","steam_id":76561197998475441,"connected_time":10146000000000,"state":"active","ping":90},{"user_id":166,"name":"Callsign Eagle","steam_id":76561198055472331,"connected_time":688000000000,"state":"active","ping":65},{"user_id":98,"name":"keysandrew","steam_id":76561198077178683,"connected_time":5888000000000,"state":"active","ping":62},{"user_id":152,"name":"harry gooch","steam_id":76561198024817457,"connected_time":2145000000000,"state":"active","ping":66},{"user_id":145,"name":"the snoog","steam_id":76561198159339442,"connected_time":2811000000000,"state":"active","ping":90},{"user_id":168,"name":"Scrumpus","steam_id":76561198073613253,"connected_time":108000000000,"state":"active","ping":59},{"user_id":130,"name":"Super Noob","steam_id":76561199179611350,"connected_time":4270000000000,"state":"spawning","ping":130}]},{"server_id":400,"name":"Uncletopia | Atlanta | 3 | Community","name_short":"atl-3","host":"atl-1.us.uncletopia.com","port":27035,"enabled":true,"region":"us-east","cc":"us","latitude":33.753746,"longitude":-84.38633,"reserved":0,"last_update":"0001-01-01T00:00:00Z","name_a2s":"Uncletopia | Atlanta | 3 | Community","protocol":17,"map":"workshop/pl_divulgence_b4b.ugc2884808746","folder":"tf","game":"Team Fortress","app_id":440,"player_count":0,"max_players":24,"Bots":0,"server_type":"Dedicated","server_os":"Linux","password":true,"vac":true,"version":"7757534","steam_id":85568392924515187,"keywords":["nocrits","nodmgspread","payload","uncletopia"],"game_id":440,"stv_port":27036,"stv_name":"Uncletopia | Atlanta | 3 | Community | STV","players":null},{"server_id":401,"name":"Uncletopia | Atlanta | 4 | No Payload","name_short":"atl-4","host":"atl-1.us.uncletopia.com","port":27045,"enabled":true,"region":"us-east","cc":"us","latitude":33.753746,"longitude":-84.38633,"reserved":0,"last_update":"0001-01-01T00:00:00Z","name_a2s":"Uncletopia | Atlanta | 4 | No Payload","protocol":17,"map":"pl_pier","folder":"tf","game":"Team Fortress","app_id":440,"player_count":0,"max_players":24,"Bots":0,"server_type":"Dedicated","server_os":"Linux","password":true,"vac":true,"version":"7723704","steam_id":85568392924515188,"keywords":["nocrits","nodmgspread","payload","uncletopia"],"game_id":440,"stv_port":27046,"stv_name":"Uncletopia | Atlanta | 4 | No Payload | STV","players":null},{"server_id":2,"name":"Uncletopia | Chicago | 1 | All Maps","name_short":"chi-1","host":"chi-1.us.uncletopia.com","port":27015,"enabled":true,"region":"us-central","cc":"us","latitude":41.881832,"longitude":-87.62318,"reserved":0,"last_update":"0001-01-01T00:00:00Z","name_a2s":"Uncletopia | Chicago | 1 | All Maps","protocol":17,"map":"pl_frontier_final","folder":"tf","game":"Team Fortress","app_id":440,"player_count":21,"max_players":24,"Bots":0,"server_type":"Dedicated","server_os":"Linux","password":true,"vac":true,"version":"7757534","steam_id":85568392924469984,"keywords":["nocrits","nodmgspread","payload","uncletopia"],"game_id":440,"stv_port":27016,"stv_name":"Uncletopia | Chicago | 1 | All Maps | STV","players":[{"user_id":358,"name":"merge without looking","steam_id":76561198056702628,"connected_time":1051000000000,"state":"active","ping":48},{"user_id":323,"name":"♥ Femboy♥Ventily ♥","steam_id":76561198157260335,"connected_time":3789000000000,"state":"active","ping":45},{"user_id":355,"name":"maS","steam_id":76561198033846407,"connected_time":1398000000000,"state":"active","ping":56},{"user_id":356,"name":"sockman","steam_id":76561198306826566,"connected_time":1250000000000,"state":"active","ping":81},{"user_id":326,"name":"Big Phony","steam_id":76561199092395311,"connected_time":3783000000000,"state":"active","ping":61},{"user_id":343,"name":"TECHNOVIKINGMURDERCLAN","steam_id":76561198151032242,"connected_time":2365000000000,"state":"active","ping":58},{"user_id":312,"name":"brothax","steam_id":76561197996713526,"connected_time":5589000000000,"state":"active","ping":75},{"user_id":257,"name":"blob","steam_id":76561198122375328,"connected_time":8156000000000,"state":"active","ping":64},{"user_id":351,"name":"Bread Slice","steam_id":76561199075936060,"connected_time":1555000000000,"state":"active","ping":63},{"user_id":357,"name":"baguette","steam_id":76561198066048980,"connected_time":1121000000000,"state":"active","ping":32},{"user_id":359,"name":"Quansen","steam_id":76561198151594550,"connected_time":649000000000,"state":"active","ping":46},{"user_id":348,"name":"McGangBang","steam_id":76561198862379865,"connected_time":1610000000000,"state":"active","ping":49},{"user_id":244,"name":"debin","steam_id":76561198070711217,"connected_time":9401000000000,"state":"active","ping":45},{"user_id":340,"name":"Intro","steam_id":76561198028471074,"connected_time":2541000000000,"state":"active","ping":71},{"user_id":305,"name":"defs98","steam_id":76561198134813102,"connected_time":5797000000000,"state":"active","ping":45},{"user_id":345,"name":"BOT Bot","steam_id":76561197995225620,"connected_time":1723000000000,"state":"active","ping":66},{"user_id":360,"name":"jumpy.cfg","steam_id":76561198199808295,"connected_time":472000000000,"state":"active","ping":32},{"user_id":341,"name":"Joeyd2129 #saveTF2","steam_id":76561198238471088,"connected_time":2520000000000,"state":"active","ping":93},{"user_id":342,"name":"Tenori","steam_id":76561198046773795,"connected_time":2481000000000,"state":"active","ping":61},{"user_id":350,"name":"donk","steam_id":76561199202761955,"connected_time":1604000000000,"state":"active","ping":73},{"user_id":260,"name":"bocchi la roca","steam_id":76561198025668771,"connected_time":7460000000000,"state":"active","ping":125}]},{"server_id":106,"name":"Uncletopia | Chicago | 2 | All Maps","name_short":"chi-2","host":"chi-1.us.uncletopia.com","port":27025,"enabled":true,"region":"us-central","cc":"us","latitude":41.881832,"longitude":-87.62318,"reserved":0,"last_update":"0001-01-01T00:00:00Z","name_a2s":"Uncletopia | Chicago | 2 | All Maps","protocol":17,"map":"pl_upward","folder":"tf","game":"Team Fortress","app_id":440,"player_count":24,"max_players":24,"Bots":0,"server_type":"Dedicated","server_os":"Linux","password":true,"vac":true,"version":"7757534","steam_id":85568392924469985,"keywords":["nocrits","nodmgspread","payload","uncletopia"],"game_id":440,"stv_port":27026,"stv_name":"Uncletopia | Chicago | 2 | All Maps | STV","players":[{"user_id":239,"name":"Viokik","steam_id":76561198408846602,"connected_time":590000000000,"state":"active","ping":67},{"user_id":251,"name":"nnobi","steam_id":76561198878729277,"connected_time":415000000000,"state":"active","ping":76},{"user_id":193,"name":"hierodule","steam_id":76561198023229665,"connected_time":3554000000000,"state":"active","ping":75},{"user_id":234,"name":"Who's Pablo","steam_id":76561198380533809,"connected_time":895000000000,"state":"active","ping":58},{"user_id":262,"name":"Uncle Poots","steam_id":76561198426690701,"connected_time":24000000000,"state":"active","ping":51},{"user_id":211,"name":"pun","steam_id":76561197961240677,"connected_time":2482000000000,"state":"active","ping":62},{"user_id":263,"name":"Romo","steam_id":76561198243101572,"connected_time":15000000000,"state":"spawning","ping":72},{"user_id":245,"name":"Six","steam_id":76561198052472822,"connected_time":466000000000,"state":"active","ping":72},{"user_id":218,"name":"Morgster","steam_id":76561198131697761,"connected_time":2168000000000,"state":"active","ping":86},{"user_id":194,"name":"The T-Bag King","steam_id":76561199257045202,"connected_time":3438000000000,"state":"active","ping":70},{"user_id":213,"name":"Kritzburgh","steam_id":76561198149466938,"connected_time":2472000000000,"state":"active","ping":62},{"user_id":259,"name":"Angstrom Boli","steam_id":76561198025670585,"connected_time":166000000000,"state":"active","ping":73},{"user_id":215,"name":"SpinetinglingToast","steam_id":76561198099470670,"connected_time":2295000000000,"state":"active","ping":74},{"user_id":170,"name":"Rukks","steam_id":76561197993918954,"connected_time":5569000000000,"state":"active","ping":87},{"user_id":248,"name":"hamude.alsarhan2011","steam_id":76561199259727736,"connected_time":442000000000,"state":"active","ping":169},{"user_id":221,"name":"cyber.genius","steam_id":76561198034121017,"connected_time":1961000000000,"state":"active","ping":75},{"user_id":252,"name":"Alabit","steam_id":76561198065578560,"connected_time":412000000000,"state":"active","ping":76},{"user_id":198,"name":"scottish canadian greasemonkey","steam_id":76561199376407123,"connected_time":3401000000000,"state":"active","ping":85},{"user_id":254,"name":"Nen","steam_id":76561198893347370,"connected_time":368000000000,"state":"active","ping":112},{"user_id":255,"name":"PenguinSafe","steam_id":76561198330002534,"connected_time":221000000000,"state":"active","ping":73},{"user_id":206,"name":"mountain","steam_id":76561198078395002,"connected_time":3112000000000,"state":"active","ping":64},{"user_id":261,"name":"Willem DripFoe","steam_id":76561198385114441,"connected_time":165000000000,"state":"active","ping":115},{"user_id":210,"name":"Brown_Dream","steam_id":76561198975766145,"connected_time":2512000000000,"state":"active","ping":83},{"user_id":238,"name":"hilarious dinglebat","steam_id":76561198170840838,"connected_time":708000000000,"state":"active","ping":85}]},{"server_id":402,"name":"Uncletopia | Chicago | 3 | All Maps","name_short":"chi-3","host":"chi-1.us.uncletopia.com","port":27035,"enabled":true,"region":"us-central","cc":"us","latitude":41.881832,"longitude":-87.62318,"reserved":0,"last_update":"0001-01-01T00:00:00Z","name_a2s":"Uncletopia | Chicago | 3 | All Maps","protocol":17,"map":"cp_snakewater_final1","folder":"tf","game":"Team Fortress","app_id":440,"player_count":0,"max_players":24,"Bots":0,"server_type":"Dedicated","server_os":"Linux","password":true,"vac":true,"version":"7757534","steam_id":85568392924515191,"keywords":["cp","nocrits","nodmgspread","uncletopia"],"game_id":440,"stv_port":27036,"stv_name":"Uncletopia | Chicago | 3 | All Maps | STV","players":null},{"server_id":403,"name":"Uncletopia | Chicago | 4 | All Maps","name_short":"chi-4","host":"chi-1.us.uncletopia.com","port":27045,"enabled":true,"region":"us-central","cc":"us","latitude":41.881832,"longitude":-87.62318,"reserved":0,"last_update":"0001-01-01T00:00:00Z","name_a2s":"Uncletopia | Chicago | 4 | All Maps","protocol":17,"map":"pl_barnblitz","folder":"tf","game":"Team Fortress","app_id":440,"player_count":24,"max_players":24,"Bots":0,"server_type":"Dedicated","server_os":"Linux","password":true,"vac":true,"version":"7757534","steam_id":85568392924515193,"keywords":["nocrits","nodmgspread","payload","uncletopia"],"game_id":440,"stv_port":27046,"stv_name":"Uncletopia | Chicago | 4 | All Maps | STV","players":[{"user_id":13,"name":"Wahooka","steam_id":76561197962240925,"connected_time":2089000000000,"state":"active","ping":55},{"user_id":60,"name":"homeboy top ramen","steam_id":76561198185980055,"connected_time":505000000000,"state":"active","ping":60},{"user_id":58,"name":"Skullypoo","steam_id":76561198067912022,"connected_time":728000000000,"state":"active","ping":72},{"user_id":22,"name":"Eeshton","steam_id":76561198018309077,"connected_time":1750000000000,"state":"active","ping":80},{"user_id":12,"name":"no wtf not that","steam_id":76561198461518382,"connected_time":2147000000000,"state":"active","ping":56},{"user_id":15,"name":"Booker","steam_id":76561198065120639,"connected_time":1873000000000,"state":"active","ping":90},{"user_id":42,"name":"herman","steam_id":76561199013344690,"connected_time":1229000000000,"state":"active","ping":88},{"user_id":17,"name":"cum fetish","steam_id":76561198992624074,"connected_time":1848000000000,"state":"active","ping":66},{"user_id":44,"name":"Gump","steam_id":76561197995129241,"connected_time":1073000000000,"state":"active","ping":83},{"user_id":49,"name":"Kedata","steam_id":76561198047750050,"connected_time":803000000000,"state":"active","ping":44},{"user_id":62,"name":"flexer_2000","steam_id":76561198084422657,"connected_time":163000000000,"state":"active","ping":91},{"user_id":53,"name":"Mervous Thrifty","steam_id":76561198063250819,"connected_time":764000000000,"state":"active","ping":44},{"user_id":23,"name":"I Can't Stop Smelling My Finger","steam_id":76561198189445709,"connected_time":1742000000000,"state":"active","ping":117},{"user_id":25,"name":"uberwolf64000","steam_id":76561198905661211,"connected_time":1732000000000,"state":"active","ping":103},{"user_id":50,"name":"NUt","steam_id":76561198031007966,"connected_time":798000000000,"state":"active","ping":75},{"user_id":51,"name":"+r Testament 2.0","steam_id":76561198257691881,"connected_time":786000000000,"state":"active","ping":92},{"user_id":63,"name":":)","steam_id":76561198093921290,"connected_time":88000000000,"state":"active","ping":49},{"user_id":40,"name":"Medl3y Batel","steam_id":76561198179888142,"connected_time":1416000000000,"state":"active","ping":59},{"user_id":61,"name":"Solaris","steam_id":76561198073166053,"connected_time":488000000000,"state":"active","ping":62},{"user_id":33,"name":"deech","steam_id":76561198066429444,"connected_time":1635000000000,"state":"active","ping":67},{"user_id":56,"name":"tabasco","steam_id":76561198355094896,"connected_time":745000000000,"state":"active","ping":79},{"user_id":57,"name":"Meh","steam_id":76561198078187920,"connected_time":741000000000,"state":"active","ping":88},{"user_id":41,"name":"StupidStuff","steam_id":76561198850565003,"connected_time":1413000000000,"state":"active","ping":70},{"user_id":47,"name":"Small tiny feet","steam_id":76561199141538581,"connected_time":1055000000000,"state":"active","ping":116}]},{"server_id":36,"name":"Uncletopia | Chicago | 5 | All Maps","name_short":"chi-5","host":"chi-2.us.uncletopia.com","port":27015,"enabled":true,"region":"us-central","cc":"us","latitude":41.881832,"longitude":-87.62318,"reserved":0,"last_update":"0001-01-01T00:00:00Z","name_a2s":"Uncletopia | Chicago | 5 | All Maps","protocol":17,"map":"pl_badwater","folder":"tf","game":"Team Fortress","app_id":440,"player_count":24,"max_players":24,"Bots":0,"server_type":"Dedicated","server_os":"Linux","password":true,"vac":true,"version":"7757534","steam_id":85568392924866362,"keywords":["nocrits","nodmgspread","payload","uncletopia"],"game_id":440,"stv_port":27016,"stv_name":"Uncletopia | Chicago | 5 | All Maps | STV","players":[{"user_id":111,"name":"Iggy Dogg","steam_id":76561198059602545,"connected_time":1393000000000,"state":"active","ping":53},{"user_id":103,"name":"volta","steam_id":76561199214283884,"connected_time":2211000000000,"state":"active","ping":90},{"user_id":99,"name":"The Sydney Sleeper Itself","steam_id":76561198180251763,"connected_time":2396000000000,"state":"active","ping":72},{"user_id":18,"name":"Fresh Lychee","steam_id":76561198045399559,"connected_time":7051000000000,"state":"active","ping":56},{"user_id":19,"name":"The World's Softest Sandwich","steam_id":76561198015577707,"connected_time":7039000000000,"state":"active","ping":79},{"user_id":123,"name":"heist","steam_id":76561197960430077,"connected_time":207000000000,"state":"active","ping":59},{"user_id":120,"name":"FROYO donovin","steam_id":76561198045679387,"connected_time":654000000000,"state":"active","ping":45},{"user_id":112,"name":"Frenemy \u003e:D","steam_id":76561198011363677,"connected_time":1358000000000,"state":"active","ping":45},{"user_id":59,"name":"Biznickel","steam_id":76561199422511230,"connected_time":4468000000000,"state":"active","ping":103},{"user_id":94,"name":"bhop","steam_id":76561198064885639,"connected_time":2559000000000,"state":"active","ping":79},{"user_id":118,"name":"Samwise565","steam_id":76561197996819083,"connected_time":672000000000,"state":"active","ping":68},{"user_id":121,"name":"bash -lc ./asshat.sh","steam_id":76561198004584315,"connected_time":606000000000,"state":"active","ping":62},{"user_id":81,"name":"AverageRundownJoe.ttv","steam_id":76561198059359620,"connected_time":3230000000000,"state":"active","ping":82},{"user_id":113,"name":"MãɾʞóŦħ","steam_id":76561198819418878,"connected_time":1156000000000,"state":"active","ping":75},{"user_id":122,"name":"gnome","steam_id":76561198262275475,"connected_time":457000000000,"state":"active","ping":84},{"user_id":95,"name":"FDR, The God King","steam_id":76561198300349976,"connected_time":2506000000000,"state":"active","ping":76},{"user_id":100,"name":"Local","steam_id":76561198069537437,"connected_time":2391000000000,"state":"active","ping":118},{"user_id":61,"name":"psy","steam_id":76561198013195018,"connected_time":4461000000000,"state":"active","ping":77},{"user_id":102,"name":"Macho Ravioli","steam_id":76561198135494174,"connected_time":2376000000000,"state":"active","ping":104},{"user_id":109,"name":"dwnkins","steam_id":76561198856016840,"connected_time":1578000000000,"state":"active","ping":66},{"user_id":110,"name":"Sjsparrow","steam_id":76561197995352435,"connected_time":1488000000000,"state":"active","ping":51},{"user_id":92,"name":"Rifter","steam_id":76561198077430698,"connected_time":2684000000000,"state":"active","ping":64},{"user_id":42,"name":"Lightatex","steam_id":76561199068097196,"connected_time":5836000000000,"state":"active","ping":58},{"user_id":115,"name":"mangoface","steam_id":76561199028760996,"connected_time":1093000000000,"state":"active","ping":154}]},{"server_id":37,"name":"Uncletopia | Chicago | 6 | All Maps","name_short":"chi-6","host":"chi-2.us.uncletopia.com","port":27025,"enabled":true,"region":"us-central","cc":"us","latitude":41.881832,"longitude":-87.62318,"reserved":0,"last_update":"0001-01-01T00:00:00Z","name_a2s":"Uncletopia | Chicago | 6 | All Maps","protocol":17,"map":"pl_badwater","folder":"tf","game":"Team Fortress","app_id":440,"player_count":24,"max_players":24,"Bots":0,"server_type":"Dedicated","server_os":"Linux","password":true,"vac":true,"version":"7757534","steam_id":85568392924866363,"keywords":["nocrits","nodmgspread","payload","uncletopia"],"game_id":440,"stv_port":27026,"stv_name":"Uncletopia | Chicago | 6 | All Maps | STV","players":[{"user_id":199,"name":"20 miles for a Quaalude","steam_id":76561198042579477,"connected_time":204000000000,"state":"active","ping":61},{"user_id":203,"name":"Ros","steam_id":76561199055963822,"connected_time":173000000000,"state":"active","ping":82},{"user_id":187,"name":"cheetaz","steam_id":76561198224614084,"connected_time":1902000000000,"state":"active","ping":74},{"user_id":188,"name":"s4vitar","steam_id":76561198295543608,"connected_time":1889000000000,"state":"active","ping":78},{"user_id":154,"name":"T/Bot","steam_id":76561198150895931,"connected_time":3201000000000,"state":"active","ping":88},{"user_id":169,"name":"wack","steam_id":76561198095697330,"connected_time":2760000000000,"state":"active","ping":71},{"user_id":121,"name":"King Sans","steam_id":76561198294198517,"connected_time":6006000000000,"state":"active","ping":59},{"user_id":202,"name":"Prophet","steam_id":76561198134948582,"connected_time":193000000000,"state":"active","ping":142},{"user_id":193,"name":"gib b","steam_id":76561198048425690,"connected_time":1513000000000,"state":"active","ping":44},{"user_id":204,"name":"mineblast99","steam_id":76561199065648954,"connected_time":135000000000,"state":"active","ping":81},{"user_id":190,"name":"Tallyden","steam_id":76561197998572962,"connected_time":1857000000000,"state":"active","ping":60},{"user_id":197,"name":"LittleJoeRambler","steam_id":76561198015890576,"connected_time":1059000000000,"state":"active","ping":78},{"user_id":196,"name":"Marauding Morty","steam_id":76561198013159528,"connected_time":1087000000000,"state":"active","ping":55},{"user_id":160,"name":"KaizerCalamaki","steam_id":76561198028206911,"connected_time":3087000000000,"state":"active","ping":45},{"user_id":198,"name":"GOD of SEX","steam_id":76561198209689295,"connected_time":486000000000,"state":"active","ping":85},{"user_id":145,"name":"KevCraft","steam_id":76561199000622939,"connected_time":4259000000000,"state":"active","ping":73},{"user_id":200,"name":"jamzine","steam_id":76561198186168293,"connected_time":198000000000,"state":"active","ping":69},{"user_id":134,"name":"FoodzAreGoodz","steam_id":76561198309262052,"connected_time":5283000000000,"state":"active","ping":111},{"user_id":172,"name":"vollot","steam_id":76561198333275750,"connected_time":2731000000000,"state":"active","ping":110},{"user_id":201,"name":"brr skibidi dop dop dop","steam_id":76561198991982630,"connected_time":193000000000,"state":"active","ping":54},{"user_id":173,"name":"Riis","steam_id":76561199345210632,"connected_time":2712000000000,"state":"active","ping":92},{"user_id":174,"name":"Ethereal","steam_id":76561199385170644,"connected_time":2704000000000,"state":"active","ping":56},{"user_id":181,"name":"Bugs","steam_id":76561198049967903,"connected_time":2533000000000,"state":"active","ping":82},{"user_id":182,"name":"Newt","steam_id":76561198325146097,"connected_time":2533000000000,"state":"active","ping":99}]},{"server_id":38,"name":"Uncletopia | Chicago | 7 | Stopwatch Beta","name_short":"chi-7","host":"chi-2.us.uncletopia.com","port":27035,"enabled":true,"region":"us-central","cc":"us","latitude":41.881832,"longitude":-87.62318,"reserved":0,"last_update":"0001-01-01T00:00:00Z","name_a2s":"Uncletopia | Chicago | 7 | Stopwatch Beta","protocol":17,"map":"pl_upward","folder":"tf","game":"Team Fortress","app_id":440,"player_count":0,"max_players":24,"Bots":0,"server_type":"Dedicated","server_os":"Linux","password":true,"vac":true,"version":"7757534","steam_id":85568392924866364,"keywords":["nocrits","nodmgspread","payload","uncletopia"],"game_id":440,"stv_port":27036,"stv_name":"Uncletopia | Chicago | 7 | Stopwatch Beta | STV","players":null},{"server_id":39,"name":"Uncletopia | Chicago | 8 | Community","name_short":"chi-8","host":"chi-2.us.uncletopia.com","port":27045,"enabled":true,"region":"us-central","cc":"us","latitude":41.881832,"longitude":-87.62318,"reserved":0,"last_update":"0001-01-01T00:00:00Z","name_a2s":"Uncletopia | Chicago | 8 | Community","protocol":17,"map":"workshop/koth_kemptown_rc1.ugc767410655","folder":"tf","game":"Team Fortress","app_id":440,"player_count":0,"max_players":24,"Bots":0,"server_type":"Dedicated","server_os":"Linux","password":true,"vac":true,"version":"7757534","steam_id":85568392924866365,"keywords":["cp","nocrits","nodmgspread","uncletopia"],"game_id":440,"stv_port":27046,"stv_name":"Uncletopia | Chicago | 8 | Community | STV","players":null},{"server_id":8,"name":"Uncletopia | Dallas | 1 | All Maps","name_short":"dal-1","host":"dal-1.us.uncletopia.com","port":27015,"enabled":true,"region":"us-central","cc":"us","latitude":32.779167,"longitude":-96.80889,"reserved":0,"last_update":"0001-01-01T00:00:00Z","name_a2s":"Uncletopia | Dallas | 1 | All Maps","protocol":17,"map":"cp_dustbowl","folder":"tf","game":"Team Fortress","app_id":440,"player_count":23,"max_players":24,"Bots":0,"server_type":"Dedicated","server_os":"Linux","password":true,"vac":true,"version":"7757534","steam_id":85568392924469986,"keywords":["cp","nocrits","nodmgspread","uncletopia"],"game_id":440,"stv_port":27016,"stv_name":"Uncletopia | Dallas | 1 | All Maps | STV","players":[{"user_id":161,"name":"Source Enjoyer","steam_id":76561198105663173,"connected_time":2092000000000,"state":"active","ping":74},{"user_id":187,"name":"ro","steam_id":76561198935253634,"connected_time":64000000000,"state":"active","ping":77},{"user_id":184,"name":"Bagel","steam_id":76561198167747447,"connected_time":162000000000,"state":"active","ping":104},{"user_id":130,"name":"Whoa","steam_id":76561197970353496,"connected_time":4847000000000,"state":"active","ping":76},{"user_id":185,"name":"OrangeShoes","steam_id":76561197971249940,"connected_time":157000000000,"state":"active","ping":86},{"user_id":186,"name":"Dr. Ludwig","steam_id":76561198110246392,"connected_time":108000000000,"state":"active","ping":59},{"user_id":188,"name":"notquiteblue","steam_id":76561198838382205,"connected_time":36000000000,"state":"active","ping":75},{"user_id":159,"name":"Nevu","steam_id":76561198378240571,"connected_time":2121000000000,"state":"active","ping":118},{"user_id":153,"name":"gps","steam_id":76561198067492304,"connected_time":2627000000000,"state":"active","ping":60},{"user_id":176,"name":"Domini Inferi","steam_id":76561198041622168,"connected_time":492000000000,"state":"active","ping":71},{"user_id":182,"name":"Kali","steam_id":76561198966395141,"connected_time":308000000000,"state":"active","ping":89},{"user_id":127,"name":"radiohead enjoyer","steam_id":76561198397662124,"connected_time":4961000000000,"state":"active","ping":62},{"user_id":147,"name":"Carl, Good to see you","steam_id":76561198070574075,"connected_time":3826000000000,"state":"active","ping":71},{"user_id":162,"name":"ShovelShaman","steam_id":76561198048119461,"connected_time":2087000000000,"state":"active","ping":76},{"user_id":154,"name":"LegendaryMister151","steam_id":76561198064890524,"connected_time":2546000000000,"state":"active","ping":94},{"user_id":163,"name":"DaSoulFlaya","steam_id":76561198047916808,"connected_time":2087000000000,"state":"active","ping":101},{"user_id":164,"name":"Vitzenhauzer","steam_id":76561198116449787,"connected_time":2078000000000,"state":"active","ping":88},{"user_id":189,"name":"Apeshit Larry","steam_id":76561198058233155,"connected_time":1000000000,"state":"spawning","ping":179},{"user_id":132,"name":"death eater","steam_id":76561198165567310,"connected_time":4556000000000,"state":"active","ping":69},{"user_id":169,"name":"Speedy","steam_id":76561198873086850,"connected_time":1441000000000,"state":"active","ping":104},{"user_id":156,"name":"wiiblob","steam_id":76561198109106242,"connected_time":2176000000000,"state":"active","ping":151},{"user_id":178,"name":"vncnt","steam_id":76561198046113319,"connected_time":385000000000,"state":"active","ping":42},{"user_id":179,"name":"UPS","steam_id":76561198214115167,"connected_time":376000000000,"state":"active","ping":76}]},{"server_id":108,"name":"Uncletopia | Dallas | 2 | All Maps","name_short":"dal-2","host":"dal-1.us.uncletopia.com","port":27025,"enabled":true,"region":"us-central","cc":"us","latitude":32.779167,"longitude":-96.80889,"reserved":0,"last_update":"0001-01-01T00:00:00Z","name_a2s":"Uncletopia | Dallas | 2 | All Maps","protocol":17,"map":"pl_barnblitz","folder":"tf","game":"Team Fortress","app_id":440,"player_count":24,"max_players":24,"Bots":0,"server_type":"Dedicated","server_os":"Linux","password":true,"vac":true,"version":"7757534","steam_id":85568392924469988,"keywords":["nocrits","nodmgspread","payload","uncletopia"],"game_id":440,"stv_port":27026,"stv_name":"Uncletopia | Dallas | 2 | All Maps | STV","players":[{"user_id":275,"name":"Provocator","steam_id":76561197961830410,"connected_time":656000000000,"state":"active","ping":89},{"user_id":276,"name":"zigeon12","steam_id":76561199370536274,"connected_time":638000000000,"state":"active","ping":74},{"user_id":257,"name":"Jovo","steam_id":76561197993265970,"connected_time":2406000000000,"state":"active","ping":90},{"user_id":283,"name":"BamBam","steam_id":76561198063110026,"connected_time":460000000000,"state":"active","ping":74},{"user_id":255,"name":"Rat Smacker","steam_id":76561199090197628,"connected_time":2741000000000,"state":"active","ping":68},{"user_id":288,"name":"cozy times","steam_id":76561198147391779,"connected_time":45000000000,"state":"active","ping":54},{"user_id":289,"name":"Rin \"Hindwing\" Redtail","steam_id":76561199074865638,"connected_time":40000000000,"state":"active","ping":51},{"user_id":277,"name":"Number1JP101","steam_id":76561198876489925,"connected_time":635000000000,"state":"active","ping":61},{"user_id":278,"name":"FEESH EGG","steam_id":76561198164699517,"connected_time":632000000000,"state":"active","ping":91},{"user_id":285,"name":"ApplesMate","steam_id":76561198832763278,"connected_time":121000000000,"state":"active","ping":61},{"user_id":221,"name":"Moscow Medic","steam_id":76561198071040516,"connected_time":4851000000000,"state":"active","ping":86},{"user_id":182,"name":"GLG.Liz","steam_id":76561198021957956,"connected_time":6924000000000,"state":"active","ping":49},{"user_id":259,"name":"Ok then","steam_id":76561198891914787,"connected_time":2371000000000,"state":"active","ping":89},{"user_id":280,"name":"Corbe","steam_id":76561198353893927,"connected_time":604000000000,"state":"active","ping":62},{"user_id":281,"name":"FakeBot","steam_id":76561197961193303,"connected_time":586000000000,"state":"active","ping":108},{"user_id":262,"name":"Piss Champion","steam_id":76561198059362878,"connected_time":2270000000000,"state":"active","ping":75},{"user_id":282,"name":"3SAD","steam_id":76561198049211468,"connected_time":584000000000,"state":"active","ping":69},{"user_id":242,"name":"Stock Medic","steam_id":76561198065479730,"connected_time":3526000000000,"state":"active","ping":73},{"user_id":274,"name":"meppy","steam_id":76561198141359549,"connected_time":1011000000000,"state":"active","ping":75},{"user_id":241,"name":"Potato Knight","steam_id":76561198256439806,"connected_time":3574000000000,"state":"active","ping":61},{"user_id":287,"name":"Nico The Cheese","steam_id":76561199065272792,"connected_time":66000000000,"state":"active","ping":101},{"user_id":270,"name":"Z4lTte","steam_id":76561198283258068,"connected_time":1203000000000,"state":"active","ping":81},{"user_id":272,"name":"North Central Positronics Rep","steam_id":76561198133718360,"connected_time":1022000000000,"state":"active","ping":87},{"user_id":253,"name":"hummus in my tummus","steam_id":76561199438698036,"connected_time":2931000000000,"state":"active","ping":87}]},{"server_id":5,"name":"Uncletopia | Frankfurt | 1 | All Maps","name_short":"frk-1","host":"frk-1.de.uncletopia.com","port":27015,"enabled":true,"region":"eu","cc":"de","latitude":50.110924,"longitude":8.682127,"reserved":0,"last_update":"0001-01-01T00:00:00Z","name_a2s":"Uncletopia | Frankfurt | 1 | All Maps","protocol":17,"map":"pl_upward","folder":"tf","game":"Team Fortress","app_id":440,"player_count":24,"max_players":24,"Bots":0,"server_type":"Dedicated","server_os":"Linux","password":true,"vac":true,"version":"7757534","steam_id":85568392924469989,"keywords":["nocrits","nodmgspread","payload","uncletopia"],"game_id":440,"stv_port":27016,"stv_name":"Uncletopia | Frankfurt | 1 | All Maps | STV","players":[{"user_id":232,"name":"[Erathia]ARKHALIS","steam_id":76561198993900003,"connected_time":1168000000000,"state":"active","ping":78},{"user_id":235,"name":"Thermal","steam_id":76561198142872443,"connected_time":1018000000000,"state":"active","ping":61},{"user_id":186,"name":"usia","steam_id":76561198120406679,"connected_time":4003000000000,"state":"active","ping":75},{"user_id":240,"name":"MateMO","steam_id":76561198146180114,"connected_time":427000000000,"state":"active","ping":100},{"user_id":208,"name":"w4gthp0h","steam_id":76561198133193445,"connected_time":3147000000000,"state":"active","ping":79},{"user_id":243,"name":"table","steam_id":76561198091145295,"connected_time":217000000000,"state":"active","ping":104},{"user_id":199,"name":"Crank starring Jason Statham","steam_id":76561198083615367,"connected_time":3447000000000,"state":"active","ping":55},{"user_id":178,"name":"TheKlin","steam_id":76561198032331453,"connected_time":5684000000000,"state":"active","ping":96},{"user_id":242,"name":"cheezus","steam_id":76561198891046692,"connected_time":423000000000,"state":"active","ping":61},{"user_id":211,"name":"cyborgowl","steam_id":76561198057489492,"connected_time":2633000000000,"state":"active","ping":105},{"user_id":190,"name":"KiT","steam_id":76561198043770371,"connected_time":3935000000000,"state":"active","ping":111},{"user_id":209,"name":"EdSuedi","steam_id":76561199387956486,"connected_time":2923000000000,"state":"active","ping":58},{"user_id":213,"name":"DeadlyFish","steam_id":76561198144617521,"connected_time":2593000000000,"state":"active","ping":94},{"user_id":236,"name":"sork","steam_id":76561198082446459,"connected_time":1013000000000,"state":"active","ping":70},{"user_id":234,"name":"{CPBR}SPRSTR","steam_id":76561197998887733,"connected_time":1049000000000,"state":"active","ping":94},{"user_id":147,"name":"Carry Krypl","steam_id":76561198136938121,"connected_time":7479000000000,"state":"active","ping":59},{"user_id":230,"name":"Primitive_But...Modern?","steam_id":76561198840959973,"connected_time":1384000000000,"state":"active","ping":124},{"user_id":215,"name":"Prax","steam_id":76561198095875649,"connected_time":2590000000000,"state":"active","ping":59},{"user_id":233,"name":"rabbitface26","steam_id":76561198327540113,"connected_time":1086000000000,"state":"active","ping":57},{"user_id":231,"name":"HelwiiHill","steam_id":76561198066730552,"connected_time":1380000000000,"state":"active","ping":90},{"user_id":151,"name":"chr","steam_id":76561198073016365,"connected_time":7423000000000,"state":"active","ping":83},{"user_id":225,"name":"Mr Muffin","steam_id":76561198091713066,"connected_time":1824000000000,"state":"active","ping":59},{"user_id":180,"name":"Dr Sex","steam_id":76561198029044617,"connected_time":5656000000000,"state":"active","ping":63},{"user_id":205,"name":"eduardo","steam_id":76561198014491925,"connected_time":3277000000000,"state":"active","ping":115}]},{"server_id":110,"name":"Uncletopia | Frankfurt | 2 | All Maps","name_short":"frk-2","host":"frk-1.de.uncletopia.com","port":27025,"enabled":true,"region":"eu","cc":"de","latitude":50.110924,"longitude":8.682127,"reserved":0,"last_update":"0001-01-01T00:00:00Z","name_a2s":"Uncletopia | Frankfurt | 2 | All Maps","protocol":17,"map":"pl_thundermountain","folder":"tf","game":"Team Fortress","app_id":440,"player_count":24,"max_players":24,"Bots":0,"server_type":"Dedicated","server_os":"Linux","password":true,"vac":true,"version":"7757534","steam_id":85568392924469990,"keywords":["nocrits","nodmgspread","payload","uncletopia"],"game_id":440,"stv_port":27026,"stv_name":"Uncletopia | Frankfurt | 2 | All Maps | STV","players":[{"user_id":481,"name":"mr.bertik","steam_id":76561199090893519,"connected_time":1093000000000,"state":"active","ping":93},{"user_id":487,"name":"BlinkedUp","steam_id":76561198249985618,"connected_time":543000000000,"state":"active","ping":62},{"user_id":454,"name":"NotFionn","steam_id":76561198890525176,"connected_time":2925000000000,"state":"active","ping":93},{"user_id":448,"name":"Tywhip","steam_id":76561199207545191,"connected_time":2980000000000,"state":"active","ping":58},{"user_id":489,"name":"RazortMan","steam_id":76561198400125220,"connected_time":72000000000,"state":"active","ping":74},{"user_id":484,"name":"Mr Lemon","steam_id":76561198054685254,"connected_time":752000000000,"state":"active","ping":72},{"user_id":420,"name":"Paul Bäumer","steam_id":76561198308302932,"connected_time":4191000000000,"state":"active","ping":105},{"user_id":449,"name":"schmidtipotato","steam_id":76561198144934585,"connected_time":2977000000000,"state":"active","ping":132},{"user_id":442,"name":"Lux","steam_id":76561198060417740,"connected_time":2998000000000,"state":"active","ping":46},{"user_id":483,"name":"kbbq","steam_id":76561198346638308,"connected_time":925000000000,"state":"active","ping":59},{"user_id":439,"name":"Menty","steam_id":76561198036748212,"connected_time":3156000000000,"state":"active","ping":47},{"user_id":452,"name":"Marko Rutto","steam_id":76561198124226614,"connected_time":2952000000000,"state":"active","ping":48},{"user_id":471,"name":"Sabour","steam_id":76561197963965445,"connected_time":1323000000000,"state":"active","ping":59},{"user_id":468,"name":"gGABEsz","steam_id":76561198117199068,"connected_time":1397000000000,"state":"active","ping":61},{"user_id":472,"name":"Izzermann","steam_id":76561199100131945,"connected_time":1320000000000,"state":"active","ping":44},{"user_id":473,"name":"Samlikekristaps","steam_id":76561198888033938,"connected_time":1305000000000,"state":"active","ping":76},{"user_id":464,"name":"Clamor_","steam_id":76561198104368295,"connected_time":2317000000000,"state":"active","ping":73},{"user_id":486,"name":"VolcanicArts","steam_id":76561198063453246,"connected_time":693000000000,"state":"active","ping":68},{"user_id":488,"name":"thefatcontroller","steam_id":76561199332965146,"connected_time":254000000000,"state":"active","ping":98},{"user_id":462,"name":"Joe Blazey","steam_id":76561198931658649,"connected_time":2348000000000,"state":"active","ping":102},{"user_id":469,"name":"Star in a pond","steam_id":76561198205501279,"connected_time":1370000000000,"state":"active","ping":91},{"user_id":459,"name":"Fori","steam_id":76561198377310820,"connected_time":2554000000000,"state":"active","ping":46},{"user_id":474,"name":"UltimateAura","steam_id":76561198338361324,"connected_time":1298000000000,"state":"active","ping":48},{"user_id":490,"name":"ellie","steam_id":76561198134650962,"connected_time":60000000000,"state":"active","ping":59}]},{"server_id":308,"name":"Uncletopia | Frankfurt | 3 | All Maps","name_short":"frk-3","host":"frk-1.de.uncletopia.com","port":27035,"enabled":true,"region":"eu","cc":"de","latitude":50.110924,"longitude":8.682127,"reserved":0,"last_update":"0001-01-01T00:00:00Z","name_a2s":"Uncletopia | Frankfurt | 3 | All Maps","protocol":17,"map":"pl_swiftwater_final1","folder":"tf","game":"Team Fortress","app_id":440,"player_count":24,"max_players":24,"Bots":0,"server_type":"Dedicated","server_os":"Linux","password":true,"vac":true,"version":"7757534","steam_id":85568392924504274,"keywords":["nocrits","nodmgspread","payload","uncletopia"],"game_id":440,"stv_port":27036,"stv_name":"Uncletopia | Frankfurt | 3 | All Maps | STV","players":[{"user_id":214,"name":"!!!!!!!!!!!!!!!!!!!!!!!!!!!!!!!","steam_id":76561198069649097,"connected_time":75000000000,"state":"spawning","ping":64},{"user_id":206,"name":"wes","steam_id":76561198273536400,"connected_time":315000000000,"state":"active","ping":145},{"user_id":202,"name":"Magiccomplex","steam_id":76561199203555188,"connected_time":486000000000,"state":"active","ping":43},{"user_id":203,"name":"Awesoem","steam_id":76561198042689770,"connected_time":452000000000,"state":"active","ping":189},{"user_id":185,"name":"Dooble donk man look at me donk","steam_id":76561198225523596,"connected_time":2211000000000,"state":"active","ping":63},{"user_id":199,"name":"Silent Person","steam_id":76561198107763537,"connected_time":958000000000,"state":"active","ping":70},{"user_id":196,"name":"ActiWix","steam_id":76561198021813586,"connected_time":1457000000000,"state":"active","ping":51},{"user_id":207,"name":"hud_saytext_time 0","steam_id":76561198010327228,"connected_time":311000000000,"state":"active","ping":51},{"user_id":131,"name":"Minimi","steam_id":76561198873850443,"connected_time":5429000000000,"state":"active","ping":56},{"user_id":165,"name":"Kraiti","steam_id":76561198847296908,"connected_time":3701000000000,"state":"active","ping":72},{"user_id":200,"name":"MihaelJakob","steam_id":76561198337635701,"connected_time":504000000000,"state":"active","ping":65},{"user_id":211,"name":"M4R1O","steam_id":76561198050528464,"connected_time":293000000000,"state":"active","ping":60},{"user_id":198,"name":"mudman","steam_id":76561198079420187,"connected_time":979000000000,"state":"active","ping":147},{"user_id":208,"name":"puck *18badies ^_^","steam_id":76561198121260981,"connected_time":305000000000,"state":"active","ping":59},{"user_id":209,"name":"mt","steam_id":76561197961319303,"connected_time":304000000000,"state":"active","ping":44},{"user_id":193,"name":"purplecan","steam_id":76561199208283508,"connected_time":1975000000000,"state":"active","ping":56},{"user_id":201,"name":"cazador","steam_id":76561198123096922,"connected_time":502000000000,"state":"active","ping":107},{"user_id":134,"name":"Creb","steam_id":76561198984970920,"connected_time":5393000000000,"state":"active","ping":119},{"user_id":212,"name":"E","steam_id":76561198166340115,"connected_time":265000000000,"state":"active","ping":69},{"user_id":162,"name":"Michał","steam_id":76561198320346362,"connected_time":4327000000000,"state":"active","ping":61},{"user_id":159,"name":"Ducc","steam_id":76561198030677425,"connected_time":4365000000000,"state":"active","ping":53},{"user_id":213,"name":"J.J. the Jet Plane","steam_id":76561197964264446,"connected_time":176000000000,"state":"active","ping":65},{"user_id":210,"name":"Sheerluck Holmes","steam_id":76561198051161936,"connected_time":298000000000,"state":"active","ping":60},{"user_id":171,"name":"Pinkchup","steam_id":76561198106802803,"connected_time":3340000000000,"state":"active","ping":75}]},{"server_id":309,"name":"Uncletopia | Frankfurt | 4 | All Maps","name_short":"frk-4","host":"frk-1.de.uncletopia.com","port":27045,"enabled":true,"region":"eu","cc":"de","latitude":50.110924,"longitude":8.682127,"reserved":0,"last_update":"0001-01-01T00:00:00Z","name_a2s":"Uncletopia | Frankfurt | 4 | All Maps","protocol":17,"map":"koth_lakeside_final","folder":"tf","game":"Team Fortress","app_id":440,"player_count":23,"max_players":24,"Bots":0,"server_type":"Dedicated","server_os":"Linux","password":true,"vac":true,"version":"7757534","steam_id":85568392924504275,"keywords":["cp","nocrits","nodmgspread","uncletopia"],"game_id":440,"stv_port":27046,"stv_name":"Uncletopia | Frankfurt | 4 | All Maps | STV","players":[{"user_id":76,"name":"KajaStorm","steam_id":76561199215842872,"connected_time":3917000000000,"state":"active","ping":182},{"user_id":129,"name":"meth","steam_id":76561198023211417,"connected_time":716000000000,"state":"active","ping":60},{"user_id":105,"name":"Cippo95","steam_id":76561198255311582,"connected_time":2270000000000,"state":"active","ping":62},{"user_id":128,"name":"tm","steam_id":76561198256619964,"connected_time":734000000000,"state":"active","ping":76},{"user_id":140,"name":"sperma gyerek","steam_id":76561198742407927,"connected_time":588000000000,"state":"active","ping":77},{"user_id":154,"name":"Farao Ramses II","steam_id":76561198078722712,"connected_time":55000000000,"state":"active","ping":49},{"user_id":142,"name":"A non elite gamer","steam_id":76561199040460389,"connected_time":540000000000,"state":"active","ping":91},{"user_id":132,"name":"manKe","steam_id":76561198008564860,"connected_time":683000000000,"state":"active","ping":58},{"user_id":114,"name":"Gebagemid","steam_id":76561198003684717,"connected_time":1611000000000,"state":"active","ping":64},{"user_id":150,"name":"wasto-/-™","steam_id":76561198102888038,"connected_time":226000000000,"state":"active","ping":45},{"user_id":134,"name":"ikc159","steam_id":76561198020559026,"connected_time":675000000000,"state":"active","ping":60},{"user_id":119,"name":"goblin","steam_id":76561198151122921,"connected_time":1074000000000,"state":"active","ping":77},{"user_id":147,"name":"ivan.p.mello073","steam_id":76561199446594528,"connected_time":414000000000,"state":"active","ping":81},{"user_id":155,"name":"NothingMan","steam_id":76561198051284446,"connected_time":36000000000,"state":"spawning","ping":64},{"user_id":156,"name":"Lone Stranger","steam_id":76561198994639500,"connected_time":17000000000,"state":"spawning","ping":74},{"user_id":120,"name":"itsTay","steam_id":76561198202990635,"connected_time":1057000000000,"state":"active","ping":60},{"user_id":137,"name":"another stale meme","steam_id":76561198163244605,"connected_time":628000000000,"state":"active","ping":66},{"user_id":145,"name":"Hooggers","steam_id":76561198120447741,"connected_time":466000000000,"state":"active","ping":103},{"user_id":89,"name":"Kalarad","steam_id":76561198981545517,"connected_time":3035000000000,"state":"active","ping":93},{"user_id":139,"name":"NightOmega","steam_id":76561198323608522,"connected_time":615000000000,"state":"active","ping":74},{"user_id":153,"name":"Bottom of the barrel terrorist","steam_id":76561198929386604,"connected_time":123000000000,"state":"active","ping":85},{"user_id":123,"name":"Pastoss","steam_id":76561198379098260,"connected_time":1016000000000,"state":"active","ping":58},{"user_id":152,"name":"gpupdate","steam_id":76561198154677956,"connected_time":163000000000,"state":"active","ping":73}]},{"server_id":310,"name":"Uncletopia | Frankfurt | 5 | All Maps","name_short":"frk-5","host":"frk-1.de.uncletopia.com","port":27055,"enabled":true,"region":"eu","cc":"de","latitude":50.110924,"longitude":8.682127,"reserved":0,"last_update":"0001-01-01T00:00:00Z","name_a2s":"Uncletopia | Frankfurt | 5 | All Maps","protocol":17,"map":"pl_borneo","folder":"tf","game":"Team Fortress","app_id":440,"player_count":24,"max_players":24,"Bots":0,"server_type":"Dedicated","server_os":"Linux","password":true,"vac":true,"version":"7757534","steam_id":85568392924504277,"keywords":["nocrits","nodmgspread","payload","uncletopia"],"game_id":440,"stv_port":27056,"stv_name":"Uncletopia | Frankfurt | 5 | All Maps | STV","players":[{"user_id":405,"name":"jabar7","steam_id":76561198055137986,"connected_time":3532000000000,"state":"active","ping":60},{"user_id":438,"name":"Radio_Active!","steam_id":76561199217286835,"connected_time":1609000000000,"state":"active","ping":105},{"user_id":427,"name":"Qwerty","steam_id":76561198023525894,"connected_time":2333000000000,"state":"active","ping":83},{"user_id":382,"name":"Dzan50","steam_id":76561198059758591,"connected_time":5811000000000,"state":"active","ping":77},{"user_id":449,"name":"ArikMor","steam_id":76561199124472513,"connected_time":1014000000000,"state":"active","ping":127},{"user_id":440,"name":"Sparky","steam_id":76561198036754195,"connected_time":1262000000000,"state":"active","ping":43},{"user_id":456,"name":"Bè.éS","steam_id":76561198045752247,"connected_time":538000000000,"state":"active","ping":49},{"user_id":410,"name":"󠀡󠀡","steam_id":76561198015585266,"connected_time":3313000000000,"state":"active","ping":87},{"user_id":442,"name":"angel","steam_id":76561198121408313,"connected_time":1231000000000,"state":"active","ping":67},{"user_id":433,"name":"Zelmor","steam_id":76561197997708311,"connected_time":2104000000000,"state":"active","ping":47},{"user_id":424,"name":"SantiThePug #ReviveTheCaber","steam_id":76561199049615996,"connected_time":2504000000000,"state":"active","ping":77},{"user_id":346,"name":"Penis Contortionist","steam_id":76561198073663784,"connected_time":7918000000000,"state":"active","ping":52},{"user_id":451,"name":"Deckard","steam_id":76561198004704647,"connected_time":884000000000,"state":"active","ping":87},{"user_id":457,"name":"Mefuu","steam_id":76561198287729818,"connected_time":534000000000,"state":"active","ping":118},{"user_id":390,"name":"DespawnedDiamond","steam_id":76561198841944417,"connected_time":5268000000000,"state":"active","ping":65},{"user_id":400,"name":"Clorox Consumer","steam_id":76561198120949216,"connected_time":4019000000000,"state":"active","ping":60},{"user_id":381,"name":"antlionguard","steam_id":76561198072747143,"connected_time":5829000000000,"state":"active","ping":88},{"user_id":444,"name":"dddd","steam_id":76561198120894372,"connected_time":1226000000000,"state":"active","ping":101},{"user_id":460,"name":"etc","steam_id":76561197998394797,"connected_time":324000000000,"state":"active","ping":62},{"user_id":425,"name":"toe eater","steam_id":76561199272782484,"connected_time":2383000000000,"state":"active","ping":60},{"user_id":458,"name":"Donuts","steam_id":76561198276757957,"connected_time":532000000000,"state":"active","ping":133},{"user_id":459,"name":"lawn","steam_id":76561198001243486,"connected_time":382000000000,"state":"active","ping":59},{"user_id":413,"name":"holykyckling","steam_id":76561198040661615,"connected_time":3128000000000,"state":"active","ping":75},{"user_id":435,"name":"yurkur","steam_id":76561198407108497,"connected_time":1962000000000,"state":"active","ping":56}]},{"server_id":311,"name":"Uncletopia | Frankfurt | 6 | All Maps","name_short":"frk-6","host":"frk-1.de.uncletopia.com","port":27065,"enabled":true,"region":"eu","cc":"de","latitude":50.110924,"longitude":8.682127,"reserved":0,"last_update":"0001-01-01T00:00:00Z","name_a2s":"Uncletopia | Frankfurt | 6 | All Maps","protocol":17,"map":"pl_upward","folder":"tf","game":"Team Fortress","app_id":440,"player_count":24,"max_players":24,"Bots":0,"server_type":"Dedicated","server_os":"Linux","password":true,"vac":true,"version":"7757534","steam_id":85568392924504278,"keywords":["nocrits","nodmgspread","payload","uncletopia"],"game_id":440,"stv_port":27066,"stv_name":"Uncletopia | Frankfurt | 6 | All Maps | STV","players":[{"user_id":73,"name":"nynon","steam_id":76561197998432126,"connected_time":2097000000000,"state":"active","ping":94},{"user_id":82,"name":"WAP assassin","steam_id":76561198133532980,"connected_time":1573000000000,"state":"active","ping":60},{"user_id":88,"name":"Tuga inglesa","steam_id":76561198442803577,"connected_time":1083000000000,"state":"active","ping":84},{"user_id":86,"name":"LynxRecruit","steam_id":76561198086568235,"connected_time":1340000000000,"state":"active","ping":56},{"user_id":95,"name":"Puro ♥","steam_id":76561198039016765,"connected_time":729000000000,"state":"active","ping":91},{"user_id":50,"name":"frosty","steam_id":76561198094560834,"connected_time":3421000000000,"state":"active","ping":61},{"user_id":81,"name":"Сладкий Пупсик","steam_id":76561199138260473,"connected_time":1686000000000,"state":"active","ping":74},{"user_id":87,"name":"Mr.Man","steam_id":76561199175688390,"connected_time":1267000000000,"state":"active","ping":76},{"user_id":97,"name":"Slimeby","steam_id":76561198353438688,"connected_time":524000000000,"state":"active","ping":76},{"user_id":99,"name":"Dodoshka","steam_id":76561198093464840,"connected_time":476000000000,"state":"active","ping":92},{"user_id":85,"name":"Pszemo \u003c3","steam_id":76561198020851452,"connected_time":1380000000000,"state":"active","ping":119},{"user_id":75,"name":"Cheshie cdna","steam_id":76561198067204908,"connected_time":2067000000000,"state":"active","ping":71},{"user_id":68,"name":"Zazou","steam_id":76561198028076362,"connected_time":2388000000000,"state":"active","ping":59},{"user_id":98,"name":"Velma","steam_id":76561198047359132,"connected_time":509000000000,"state":"active","ping":69},{"user_id":96,"name":"degrade me goth mommy","steam_id":76561198075539799,"connected_time":721000000000,"state":"active","ping":59},{"user_id":51,"name":"moser23","steam_id":76561197960543171,"connected_time":3396000000000,"state":"active","ping":54},{"user_id":76,"name":"twitch.tv/biofun_","steam_id":76561198170609049,"connected_time":2061000000000,"state":"active","ping":61},{"user_id":54,"name":"mishka.*","steam_id":76561198040003628,"connected_time":3342000000000,"state":"active","ping":76},{"user_id":92,"name":"Mohutniy_Did","steam_id":76561198361438340,"connected_time":798000000000,"state":"active","ping":80},{"user_id":56,"name":"Festive Ash","steam_id":76561198381715288,"connected_time":3325000000000,"state":"active","ping":77},{"user_id":78,"name":"Chespia chda","steam_id":76561198097507847,"connected_time":2014000000000,"state":"active","ping":78},{"user_id":62,"name":"Michi ❀","steam_id":76561198972047944,"connected_time":3240000000000,"state":"active","ping":72},{"user_id":61,"name":"NIKITA","steam_id":76561197992927989,"connected_time":3277000000000,"state":"active","ping":88},{"user_id":70,"name":"Animatic","steam_id":76561198186421601,"connected_time":2362000000000,"state":"active","ping":177}]},{"server_id":23,"name":"Uncletopia | Frankfurt | 7 | Stopwatch Beta","name_short":"frk-7","host":"frk-1.de.uncletopia.com","port":27075,"enabled":true,"region":"eu","cc":"de","latitude":50.110924,"longitude":8.682127,"reserved":0,"last_update":"0001-01-01T00:00:00Z","name_a2s":"Uncletopia | Frankfurt | 7 | Stopwatch Beta","protocol":17,"map":"pl_frontier_final","folder":"tf","game":"Team Fortress","app_id":440,"player_count":0,"max_players":24,"Bots":0,"server_type":"Dedicated","server_os":"Linux","password":true,"vac":true,"version":"7757534","steam_id":85568392924742827,"keywords":["nocrits","nodmgspread","payload","uncletopia"],"game_id":440,"stv_port":27076,"stv_name":"Uncletopia | Frankfurt | 7 | Stopwatch Beta | STV","players":null},{"server_id":24,"name":"Uncletopia | Frankfurt | 8 | Community","name_short":"frk-8","host":"frk-1.de.uncletopia.com","port":27085,"enabled":true,"region":"eu","cc":"de","latitude":50.110924,"longitude":8.682127,"reserved":0,"last_update":"0001-01-01T00:00:00Z","name_a2s":"Uncletopia | Frankfurt | 8 | Community","protocol":17,"map":"workshop/cp_indulge.ugc528106646","folder":"tf","game":"Team Fortress","app_id":440,"player_count":0,"max_players":24,"Bots":0,"server_type":"Dedicated","server_os":"Linux","password":true,"vac":true,"version":"7757534","steam_id":85568392924742828,"keywords":["cp","nocrits","nodmgspread","uncletopia"],"game_id":440,"stv_port":27086,"stv_name":"Uncletopia | Frankfurt | 8 | Community | STV","players":null},{"server_id":202,"name":"Uncletopia | Hong Kong | 1 | All Maps","name_short":"hgk-1","host":"hgk-1.hk.uncletopia.com","port":27015,"enabled":true,"region":"asia","cc":"hk","latitude":22.302711,"longitude":114.177216,"reserved":0,"last_update":"0001-01-01T00:00:00Z","name_a2s":"Uncletopia | Hong Kong | 1 | All Maps","protocol":17,"map":"koth_lakeside_final","folder":"tf","game":"Team Fortress","app_id":440,"player_count":0,"max_players":24,"Bots":0,"server_type":"Dedicated","server_os":"Linux","password":true,"vac":true,"version":"7757534","steam_id":85568392924494504,"keywords":["cp","nocrits","nodmgspread","uncletopia"],"game_id":440,"stv_port":27016,"stv_name":"Uncletopia | Hong Kong | 1 | All Maps | STV","players":null},{"server_id":1,"name":"Uncletopia | Los Angeles | 1 | All Maps","name_short":"lax-1","host":"lax-1.us.uncletopia.com","port":27015,"enabled":true,"region":"us-west","cc":"us","latitude":33.94279,"longitude":-118.41004,"reserved":0,"last_update":"0001-01-01T00:00:00Z","name_a2s":"Uncletopia | Los Angeles | 1 | All Maps","protocol":17,"map":"cp_sunshine","folder":"tf","game":"Team Fortress","app_id":440,"player_count":0,"max_players":24,"Bots":0,"server_type":"Dedicated","server_os":"Linux","password":true,"vac":true,"version":"7757534","steam_id":85568392924469991,"keywords":["cp","nocrits","nodmgspread","uncletopia"],"game_id":440,"stv_port":27016,"stv_name":"Uncletopia | Los Angeles | 1 | All Maps | STV","players":null},{"server_id":112,"name":"Uncletopia | Los Angeles | 2 | All Maps","name_short":"lax-2","host":"lax-1.us.uncletopia.com","port":27025,"enabled":true,"region":"us-west","cc":"us","latitude":33.94279,"longitude":-118.41004,"reserved":0,"last_update":"0001-01-01T00:00:00Z","name_a2s":"Uncletopia | Los Angeles | 2 | All Maps","protocol":17,"map":"koth_cascade","folder":"tf","game":"Team Fortress","app_id":440,"player_count":0,"max_players":24,"Bots":0,"server_type":"Dedicated","server_os":"Linux","password":true,"vac":true,"version":"7757534","steam_id":85568392924469992,"keywords":["cp","nocrits","nodmgspread","uncletopia"],"game_id":440,"stv_port":27026,"stv_name":"Uncletopia | Los Angeles | 2 | All Maps | STV","players":null},{"server_id":324,"name":"Uncletopia | Los Angeles | 3 | All Maps","name_short":"lax-3","host":"lax-1.us.uncletopia.com","port":27035,"enabled":true,"region":"us-west","cc":"us","latitude":33.94279,"longitude":-118.41004,"reserved":0,"last_update":"0001-01-01T00:00:00Z","name_a2s":"Uncletopia | Los Angeles | 3 | All Maps","protocol":17,"map":"pl_upward","folder":"tf","game":"Team Fortress","app_id":440,"player_count":0,"max_players":24,"Bots":0,"server_type":"Dedicated","server_os":"Linux","password":true,"vac":true,"version":"7757534","steam_id":85568392924510198,"keywords":["nocrits","nodmgspread","payload","uncletopia"],"game_id":440,"stv_port":27036,"stv_name":"Uncletopia | Los Angeles | 3 | All Maps | STV","players":null},{"server_id":25,"name":"Uncletopia | Los Angeles | 4 | Stopwatch Beta","name_short":"lax-4","host":"lax-1.us.uncletopia.com","port":27045,"enabled":true,"region":"us-west","cc":"us","latitude":33.94279,"longitude":-118.41004,"reserved":0,"last_update":"0001-01-01T00:00:00Z","name_a2s":"Uncletopia | Los Angeles | 4 | Stopwatch Beta","protocol":17,"map":"pl_frontier_final","folder":"tf","game":"Team Fortress","app_id":440,"player_count":0,"max_players":24,"Bots":0,"server_type":"Dedicated","server_os":"Linux","password":true,"vac":true,"version":"7757534","steam_id":85568392924510199,"keywords":["nocrits","nodmgspread","payload","uncletopia"],"game_id":440,"stv_port":27046,"stv_name":"Uncletopia | Los Angeles | 4 | Stopwatch Beta | STV","players":null},{"server_id":11,"name":"Uncletopia | London | 1 | All Maps","name_short":"lon-1","host":"lon-1.uk.uncletopia.com","port":27015,"enabled":true,"region":"eu","cc":"gb","latitude":51.509865,"longitude":-0.118092,"reserved":0,"last_update":"0001-01-01T00:00:00Z","name_a2s":"Uncletopia | London | 1 | All Maps","protocol":17,"map":"pl_barnblitz","folder":"tf","game":"Team Fortress","app_id":440,"player_count":24,"max_players":24,"Bots":0,"server_type":"Dedicated","server_os":"Linux","password":true,"vac":true,"version":"7757534","steam_id":85568392924367362,"keywords":["nocrits","nodmgspread","payload","uncletopia"],"game_id":440,"stv_port":27016,"stv_name":"Uncletopia | London | 1 | All Maps | STV","players":[{"user_id":581,"name":"bruhemian","steam_id":76561198191854931,"connected_time":2462000000000,"state":"active","ping":54},{"user_id":542,"name":"тукку ирма","steam_id":76561197998715016,"connected_time":4986000000000,"state":"active","ping":61},{"user_id":597,"name":"Le Bon Toutou","steam_id":76561198300902712,"connected_time":1085000000000,"state":"active","ping":75},{"user_id":548,"name":"Gamer_X","steam_id":76561198085349286,"connected_time":4610000000000,"state":"active","ping":84},{"user_id":600,"name":"♦Silvia♦","steam_id":76561198373039444,"connected_time":853000000000,"state":"active","ping":112},{"user_id":615,"name":"Giovine Killjoy","steam_id":76561198059375315,"connected_time":103000000000,"state":"active","ping":78},{"user_id":573,"name":"hazza","steam_id":76561198220057697,"connected_time":2788000000000,"state":"active","ping":56},{"user_id":593,"name":"profreshional cactus","steam_id":76561198837919828,"connected_time":1328000000000,"state":"active","ping":114},{"user_id":582,"name":"most sane mentalist","steam_id":76561198310095220,"connected_time":2209000000000,"state":"active","ping":45},{"user_id":589,"name":"MoistMomMauler","steam_id":76561198069359049,"connected_time":1640000000000,"state":"active","ping":75},{"user_id":509,"name":"LordTrap.exe","steam_id":76561198318089716,"connected_time":8009000000000,"state":"active","ping":46},{"user_id":614,"name":"DN77","steam_id":76561199121396324,"connected_time":142000000000,"state":"active","ping":88},{"user_id":609,"name":"prolific bulge","steam_id":76561198117247903,"connected_time":260000000000,"state":"active","ping":45},{"user_id":604,"name":"skilltissues","steam_id":76561198025828664,"connected_time":773000000000,"state":"active","ping":60},{"user_id":607,"name":"FairlyFatFungus","steam_id":76561199152828854,"connected_time":529000000000,"state":"active","ping":55},{"user_id":610,"name":"Aaron","steam_id":76561197990046953,"connected_time":216000000000,"state":"active","ping":68},{"user_id":518,"name":"Gnarville","steam_id":76561198006373329,"connected_time":7387000000000,"state":"active","ping":51},{"user_id":561,"name":"Pabs :D","steam_id":76561198000016962,"connected_time":3104000000000,"state":"active","ping":73},{"user_id":585,"name":"Tafrum","steam_id":76561198053868147,"connected_time":2015000000000,"state":"active","ping":93},{"user_id":605,"name":"Gabe","steam_id":76561197994239444,"connected_time":750000000000,"state":"active","ping":110},{"user_id":596,"name":"Grim the lemon","steam_id":76561199083433988,"connected_time":1141000000000,"state":"active","ping":49},{"user_id":606,"name":"duster cat","steam_id":76561198832231975,"connected_time":673000000000,"state":"active","ping":92},{"user_id":611,"name":"magnarull","steam_id":76561198972383118,"connected_time":215000000000,"state":"active","ping":78},{"user_id":564,"name":"alf","steam_id":76561198060249715,"connected_time":3057000000000,"state":"active","ping":48}]},{"server_id":114,"name":"Uncletopia | London | 2 | All Maps","name_short":"lon-2","host":"lon-1.uk.uncletopia.com","port":27025,"enabled":true,"region":"eu","cc":"gb","latitude":51.509865,"longitude":-0.118092,"reserved":0,"last_update":"0001-01-01T00:00:00Z","name_a2s":"Uncletopia | London | 2 | All Maps","protocol":17,"map":"pl_upward","folder":"tf","game":"Team Fortress","app_id":440,"player_count":24,"max_players":24,"Bots":0,"server_type":"Dedicated","server_os":"Linux","password":true,"vac":true,"version":"7757534","steam_id":85568392924470941,"keywords":["nocrits","nodmgspread","payload","uncletopia"],"game_id":440,"stv_port":27026,"stv_name":"Uncletopia | London | 2 | All Maps | STV","players":[{"user_id":444,"name":"Lovelessvaccuum","steam_id":76561198079555422,"connected_time":856000000000,"state":"active","ping":37},{"user_id":457,"name":"AWildTamim","steam_id":76561198048060652,"connected_time":287000000000,"state":"active","ping":33},{"user_id":446,"name":"Ganjdolf","steam_id":76561198077229553,"connected_time":817000000000,"state":"active","ping":54},{"user_id":455,"name":"Sotviing","steam_id":76561198154311159,"connected_time":493000000000,"state":"active","ping":75},{"user_id":431,"name":"UltimateSlayer","steam_id":76561198384109309,"connected_time":2550000000000,"state":"active","ping":56},{"user_id":453,"name":"kiss alien 👽","steam_id":76561198058897463,"connected_time":676000000000,"state":"active","ping":58},{"user_id":447,"name":"ahhhhhhhhhh","steam_id":76561198271867664,"connected_time":805000000000,"state":"active","ping":60},{"user_id":423,"name":"Carrot Arc","steam_id":76561198164957006,"connected_time":2733000000000,"state":"active","ping":85},{"user_id":422,"name":"KingVoker","steam_id":76561198039602539,"connected_time":2811000000000,"state":"active","ping":76},{"user_id":462,"name":"Savlon","steam_id":76561198011597274,"connected_time":129000000000,"state":"active","ping":30},{"user_id":456,"name":"Fus in Boots","steam_id":76561198053897722,"connected_time":490000000000,"state":"active","ping":51},{"user_id":433,"name":"Jess","steam_id":76561198015022965,"connected_time":2283000000000,"state":"active","ping":56},{"user_id":461,"name":"Jesse on cocainer","steam_id":76561198355545012,"connected_time":183000000000,"state":"active","ping":92},{"user_id":459,"name":"Pvt. Grichmann","steam_id":76561197977589522,"connected_time":206000000000,"state":"active","ping":92},{"user_id":442,"name":"Topia","steam_id":76561198163571788,"connected_time":1436000000000,"state":"active","ping":96},{"user_id":434,"name":"Albert Einstein","steam_id":76561198351190006,"connected_time":2084000000000,"state":"active","ping":96},{"user_id":429,"name":"RLCrazyCat3","steam_id":76561197983757878,"connected_time":2600000000000,"state":"active","ping":67},{"user_id":435,"name":"_zipfile","steam_id":76561198066133808,"connected_time":2079000000000,"state":"active","ping":74},{"user_id":463,"name":"Vezage","steam_id":76561198064916164,"connected_time":7000000000,"state":"active","ping":118},{"user_id":452,"name":"JustAnIrishLad","steam_id":76561198130773016,"connected_time":730000000000,"state":"active","ping":71},{"user_id":437,"name":"butts","steam_id":76561198060105180,"connected_time":1925000000000,"state":"active","ping":73},{"user_id":454,"name":"Ale Hodjason","steam_id":76561198046324091,"connected_time":595000000000,"state":"active","ping":102},{"user_id":430,"name":"mordecai.nmc","steam_id":76561197997223851,"connected_time":2599000000000,"state":"active","ping":50},{"user_id":398,"name":":)","steam_id":76561198103988618,"connected_time":4792000000000,"state":"active","ping":60}]},{"server_id":320,"name":"Uncletopia | London | 3 | All Maps","name_short":"lon-3","host":"lon-1.uk.uncletopia.com","port":27035,"enabled":true,"region":"eu","cc":"gb","latitude":51.509865,"longitude":-0.118092,"reserved":0,"last_update":"0001-01-01T00:00:00Z","name_a2s":"Uncletopia | London | 3 | All Maps","protocol":17,"map":"pl_badwater","folder":"tf","game":"Team Fortress","app_id":440,"player_count":24,"max_players":24,"Bots":0,"server_type":"Dedicated","server_os":"Linux","password":true,"vac":true,"version":"7757534","steam_id":85568392924510192,"keywords":["nocrits","nodmgspread","payload","uncletopia"],"game_id":440,"stv_port":27036,"stv_name":"Uncletopia | London | 3 | All Maps | STV","players":[{"user_id":409,"name":"JujuBalu","steam_id":76561198207253071,"connected_time":401000000000,"state":"active","ping":38},{"user_id":377,"name":"Xydran","steam_id":76561198042397402,"connected_time":2536000000000,"state":"active","ping":74},{"user_id":400,"name":"DuckGod","steam_id":76561198333027986,"connected_time":1362000000000,"state":"active","ping":71},{"user_id":383,"name":"PantsOnMyers","steam_id":76561198948552451,"connected_time":2166000000000,"state":"active","ping":48},{"user_id":408,"name":"Jayco","steam_id":76561198122497262,"connected_time":409000000000,"state":"active","ping":68},{"user_id":387,"name":"JoueurFrançais","steam_id":76561198108081068,"connected_time":2085000000000,"state":"active","ping":60},{"user_id":388,"name":"dash.","steam_id":76561198084796149,"connected_time":2027000000000,"state":"active","ping":48},{"user_id":395,"name":"\"LS\"bulleloup5 [FR]","steam_id":76561198882411373,"connected_time":1697000000000,"state":"active","ping":48},{"user_id":410,"name":"KLYTX","steam_id":76561198209111768,"connected_time":398000000000,"state":"active","ping":52},{"user_id":401,"name":"⛧GENRIJA⛧","steam_id":76561198121112338,"connected_time":1356000000000,"state":"active","ping":63},{"user_id":404,"name":"TMC","steam_id":76561198077956157,"connected_time":542000000000,"state":"active","ping":40},{"user_id":411,"name":"CouT1nho","steam_id":76561198203926376,"connected_time":372000000000,"state":"active","ping":44},{"user_id":292,"name":"Yatsuzume","steam_id":76561198059762108,"connected_time":5767000000000,"state":"active","ping":54},{"user_id":352,"name":"willo","steam_id":76561198034442999,"connected_time":3572000000000,"state":"active","ping":54},{"user_id":389,"name":"doubletwist","steam_id":76561198062571317,"connected_time":2009000000000,"state":"active","ping":104},{"user_id":390,"name":"Cypher","steam_id":76561199023619899,"connected_time":1985000000000,"state":"active","ping":61},{"user_id":407,"name":"Brinier","steam_id":76561199012604288,"connected_time":474000000000,"state":"active","ping":73},{"user_id":412,"name":"SleepyGirl |FR|","steam_id":76561198436182201,"connected_time":370000000000,"state":"active","ping":54},{"user_id":414,"name":"Wc Biere","steam_id":76561198200886539,"connected_time":253000000000,"state":"active","ping":120},{"user_id":382,"name":"MEGOS","steam_id":76561198172740637,"connected_time":2185000000000,"state":"active","ping":61},{"user_id":380,"name":"Fluffy","steam_id":76561198084447725,"connected_time":2403000000000,"state":"active","ping":49},{"user_id":294,"name":"RoXeUr-KaMiKaZe","steam_id":76561197998204782,"connected_time":5764000000000,"state":"active","ping":57},{"user_id":398,"name":"Taez","steam_id":76561198261820803,"connected_time":1569000000000,"state":"active","ping":60},{"user_id":372,"name":"lord-carlos","steam_id":76561198025150761,"connected_time":2836000000000,"state":"active","ping":60}]},{"server_id":321,"name":"Uncletopia | London | 4 | All Maps","name_short":"lon-4","host":"lon-1.uk.uncletopia.com","port":27045,"enabled":true,"region":"eu","cc":"gb","latitude":51.509865,"longitude":-0.118092,"reserved":0,"last_update":"0001-01-01T00:00:00Z","name_a2s":"Uncletopia | London | 4 | All Maps","protocol":17,"map":"pl_borneo","folder":"tf","game":"Team Fortress","app_id":440,"player_count":24,"max_players":24,"Bots":0,"server_type":"Dedicated","server_os":"Linux","password":true,"vac":true,"version":"7757534","steam_id":85568392924510193,"keywords":["nocrits","nodmgspread","payload","uncletopia"],"game_id":440,"stv_port":27046,"stv_name":"Uncletopia | London | 4 | All Maps | STV","players":[{"user_id":132,"name":"nalKISSA","steam_id":76561198132342062,"connected_time":3740000000000,"state":"active","ping":74},{"user_id":163,"name":"tqla","steam_id":76561198073092585,"connected_time":1465000000000,"state":"active","ping":116},{"user_id":183,"name":"Charles Darwin","steam_id":76561197973496139,"connected_time":639000000000,"state":"active","ping":65},{"user_id":193,"name":"Levoslav","steam_id":76561199186957940,"connected_time":393000000000,"state":"active","ping":52},{"user_id":133,"name":"Jugi","steam_id":76561198051177722,"connected_time":3715000000000,"state":"active","ping":82},{"user_id":176,"name":"Bob_Tostas","steam_id":76561198249006560,"connected_time":1007000000000,"state":"active","ping":85},{"user_id":179,"name":"Boyarishnik","steam_id":76561198986324207,"connected_time":966000000000,"state":"active","ping":96},{"user_id":161,"name":"dafydd","steam_id":76561198052200325,"connected_time":1484000000000,"state":"active","ping":82},{"user_id":126,"name":"Paul Penix","steam_id":76561197996941396,"connected_time":4123000000000,"state":"active","ping":42},{"user_id":158,"name":"Captain HandicappedCock","steam_id":76561198109850402,"connected_time":1704000000000,"state":"active","ping":71},{"user_id":182,"name":"Mike","steam_id":76561198203070687,"connected_time":692000000000,"state":"active","ping":58},{"user_id":184,"name":"PASTAMANIA!","steam_id":76561197967858558,"connected_time":635000000000,"state":"active","ping":49},{"user_id":139,"name":"hut hut","steam_id":76561198088426580,"connected_time":3418000000000,"state":"active","ping":62},{"user_id":187,"name":"Johnny Cockroach","steam_id":76561198049648277,"connected_time":609000000000,"state":"active","ping":104},{"user_id":194,"name":"Mazanec","steam_id":76561198965590155,"connected_time":384000000000,"state":"active","ping":59},{"user_id":188,"name":"Neo Testament","steam_id":76561199049633351,"connected_time":605000000000,"state":"active","ping":73},{"user_id":124,"name":"tiiyama","steam_id":76561198046196005,"connected_time":4147000000000,"state":"active","ping":54},{"user_id":195,"name":"benibachi","steam_id":76561198190816499,"connected_time":383000000000,"state":"active","ping":79},{"user_id":157,"name":"majora's boostio","steam_id":76561198392628642,"connected_time":1780000000000,"state":"active","ping":33},{"user_id":180,"name":"big al","steam_id":76561198800662675,"connected_time":760000000000,"state":"active","ping":58},{"user_id":190,"name":"not drunk","steam_id":76561199184873889,"connected_time":594000000000,"state":"active","ping":67},{"user_id":191,"name":"Tortoise Guy","steam_id":76561199047825610,"connected_time":589000000000,"state":"active","ping":89},{"user_id":170,"name":"Cosmetic brain","steam_id":76561198055936410,"connected_time":1373000000000,"state":"active","ping":81},{"user_id":138,"name":"Kapitan Polska","steam_id":76561197968069413,"connected_time":3599000000000,"state":"active","ping":76}]},{"server_id":21,"name":"Uncletopia | London | 5 | All Maps","name_short":"lon-5","host":"lon-1.uk.uncletopia.com","port":27055,"enabled":true,"region":"eu","cc":"gb","latitude":51.509865,"longitude":-0.118092,"reserved":0,"last_update":"0001-01-01T00:00:00Z","name_a2s":"Uncletopia | London | 5 | All Maps","protocol":17,"map":"cp_dustbowl","folder":"tf","game":"Team Fortress","app_id":440,"player_count":24,"max_players":24,"Bots":0,"server_type":"Dedicated","server_os":"Linux","password":true,"vac":true,"version":"7757534","steam_id":85568392924742829,"keywords":["cp","nocrits","nodmgspread","uncletopia"],"game_id":440,"stv_port":27056,"stv_name":"Uncletopia | London | 5 | All Maps | STV","players":[{"user_id":231,"name":"Kinas","steam_id":76561198084438097,"connected_time":1880000000000,"state":"active","ping":122},{"user_id":248,"name":"DrunkHungarian","steam_id":76561198853346540,"connected_time":1101000000000,"state":"active","ping":65},{"user_id":220,"name":"Insanitybomb","steam_id":76561198048707708,"connected_time":2552000000000,"state":"active","ping":61},{"user_id":239,"name":"Snort Vaulter","steam_id":76561198151757381,"connected_time":1177000000000,"state":"active","ping":39},{"user_id":238,"name":"MAKENTAKEN","steam_id":76561199127359587,"connected_time":1212000000000,"state":"active","ping":98},{"user_id":260,"name":"FishNachoz","steam_id":76561198026519426,"connected_time":73000000000,"state":"active","ping":52},{"user_id":197,"name":"jona3838","steam_id":76561199097658195,"connected_time":4758000000000,"state":"active","ping":93},{"user_id":213,"name":"Toast Nook","steam_id":76561199093949301,"connected_time":3980000000000,"state":"active","ping":85},{"user_id":236,"name":"-makina","steam_id":76561198273042780,"connected_time":1645000000000,"state":"active","ping":66},{"user_id":230,"name":"Laxslow","steam_id":76561198065361846,"connected_time":2009000000000,"state":"active","ping":66},{"user_id":240,"name":"sovar","steam_id":76561199004424341,"connected_time":1171000000000,"state":"active","ping":65},{"user_id":257,"name":"Dave","steam_id":76561198130510336,"connected_time":565000000000,"state":"active","ping":61},{"user_id":256,"name":"Nokia 3.1","steam_id":76561199170010907,"connected_time":576000000000,"state":"active","ping":90},{"user_id":259,"name":"vofkin","steam_id":76561198017037101,"connected_time":117000000000,"state":"active","ping":158},{"user_id":255,"name":"Icetanker","steam_id":76561198094189764,"connected_time":772000000000,"state":"active","ping":55},{"user_id":229,"name":"Rex Z'Beq","steam_id":76561199300590000,"connected_time":2222000000000,"state":"active","ping":84},{"user_id":150,"name":"feed","steam_id":76561198311512285,"connected_time":8308000000000,"state":"active","ping":105},{"user_id":253,"name":"Viral Pink Sauce","steam_id":76561198174510235,"connected_time":992000000000,"state":"active","ping":49},{"user_id":237,"name":"Skyfoogle","steam_id":76561198027177883,"connected_time":1542000000000,"state":"active","ping":55},{"user_id":246,"name":"john depp","steam_id":76561198161199653,"connected_time":1122000000000,"state":"active","ping":129},{"user_id":148,"name":"hideki","steam_id":76561198030728517,"connected_time":8357000000000,"state":"active","ping":44},{"user_id":251,"name":"Gorlami","steam_id":76561198139623088,"connected_time":1051000000000,"state":"active","ping":94},{"user_id":258,"name":"Nokah","steam_id":76561198973184361,"connected_time":366000000000,"state":"active","ping":76},{"user_id":211,"name":"Plop_","steam_id":76561198112567921,"connected_time":4237000000000,"state":"active","ping":43}]},{"server_id":22,"name":"Uncletopia | London | 6 | All Maps","name_short":"lon-6","host":"lon-1.uk.uncletopia.com","port":27065,"enabled":true,"region":"eu","cc":"gb","latitude":51.509865,"longitude":-0.118092,"reserved":0,"last_update":"0001-01-01T00:00:00Z","name_a2s":"Uncletopia | London | 6 | All Maps","protocol":17,"map":"cp_sunshine","folder":"tf","game":"Team Fortress","app_id":440,"player_count":24,"max_players":24,"Bots":0,"server_type":"Dedicated","server_os":"Linux","password":true,"vac":true,"version":"7757534","steam_id":85568392924742830,"keywords":["cp","nocrits","nodmgspread","uncletopia"],"game_id":440,"stv_port":27066,"stv_name":"Uncletopia | London | 6 | All Maps | STV","players":[{"user_id":311,"name":"IndigoJones","steam_id":76561198050284262,"connected_time":1254000000000,"state":"active","ping":50},{"user_id":220,"name":"Lubrsi","steam_id":76561198040208195,"connected_time":7662000000000,"state":"active","ping":52},{"user_id":307,"name":"Truegr","steam_id":76561198811912339,"connected_time":1389000000000,"state":"active","ping":67},{"user_id":319,"name":"Sítheach","steam_id":76561198138915310,"connected_time":516000000000,"state":"active","ping":58},{"user_id":281,"name":"Citrus","steam_id":76561198090650837,"connected_time":3307000000000,"state":"active","ping":105},{"user_id":306,"name":"Hilldog","steam_id":76561198082209322,"connected_time":1439000000000,"state":"active","ping":88},{"user_id":322,"name":"Noob_with_source","steam_id":76561198870362103,"connected_time":171000000000,"state":"active","ping":48},{"user_id":268,"name":"Mr. Mundy","steam_id":76561198132008918,"connected_time":5218000000000,"state":"active","ping":84},{"user_id":297,"name":"102ping","steam_id":76561199000963772,"connected_time":1918000000000,"state":"active","ping":70},{"user_id":321,"name":"Sixten the Pale","steam_id":76561197981806008,"connected_time":351000000000,"state":"active","ping":70},{"user_id":309,"name":"happy","steam_id":76561198053141766,"connected_time":1341000000000,"state":"active","ping":101},{"user_id":310,"name":"daphnit (she/they)","steam_id":76561198021596004,"connected_time":1259000000000,"state":"active","ping":52},{"user_id":317,"name":"Takyon","steam_id":76561197975733840,"connected_time":1050000000000,"state":"active","ping":83},{"user_id":269,"name":"Nick","steam_id":76561198036109469,"connected_time":5199000000000,"state":"active","ping":84},{"user_id":299,"name":"♥ Purple Blood ♥ | P.U.R.","steam_id":76561198965998351,"connected_time":1861000000000,"state":"active","ping":80},{"user_id":288,"name":"Hexagon","steam_id":76561198151205758,"connected_time":3217000000000,"state":"active","ping":60},{"user_id":313,"name":"Tolfo!","steam_id":76561198080052291,"connected_time":1250000000000,"state":"active","ping":61},{"user_id":314,"name":"ᶦˢʳᵃᵉˡ","steam_id":76561198051832269,"connected_time":1225000000000,"state":"active","ping":69},{"user_id":318,"name":"Aximus","steam_id":76561198024575710,"connected_time":1039000000000,"state":"active","ping":73},{"user_id":320,"name":"Spieller","steam_id":76561198057197847,"connected_time":488000000000,"state":"active","ping":84},{"user_id":260,"name":"washed up","steam_id":76561198275742101,"connected_time":5714000000000,"state":"active","ping":65},{"user_id":323,"name":"ProsecutorYan","steam_id":76561198048374803,"connected_time":30000000000,"state":"active","ping":54},{"user_id":316,"name":"YEGOR","steam_id":76561198054619083,"connected_time":1196000000000,"state":"active","ping":89},{"user_id":259,"name":"Mrr7782","steam_id":76561198094861232,"connected_time":5761000000000,"state":"active","ping":81}]},{"server_id":40,"name":"Uncletopia | London | 7 | No Payload","name_short":"lon-7","host":"lon-1.uk.uncletopia.com","port":27075,"enabled":true,"region":"eu","cc":"gb","latitude":51.509865,"longitude":-0.118092,"reserved":0,"last_update":"0001-01-01T00:00:00Z","name_a2s":"Uncletopia | London | 7 | No Payload","protocol":17,"map":"koth_badlands","folder":"tf","game":"Team Fortress","app_id":440,"player_count":5,"max_players":24,"Bots":0,"server_type":"Dedicated","server_os":"Linux","password":true,"vac":true,"version":"7757534","steam_id":85568392924964314,"keywords":["cp","nocrits","nodmgspread","uncletopia"],"game_id":440,"stv_port":27076,"stv_name":"Uncletopia | London | 7 | No Payload | STV","players":[{"user_id":22,"name":"Chuga_Brown","steam_id":76561198363399618,"connected_time":497000000000,"state":"active","ping":61},{"user_id":23,"name":"Swagger","steam_id":76561199309859626,"connected_time":433000000000,"state":"active","ping":62},{"user_id":24,"name":"YourDoom","steam_id":76561198080790857,"connected_time":252000000000,"state":"active","ping":31},{"user_id":25,"name":"Mester","steam_id":76561199425541624,"connected_time":218000000000,"state":"active","ping":79},{"user_id":26,"name":"Swedde","steam_id":76561198297296440,"connected_time":59000000000,"state":"active","ping":69}]},{"server_id":41,"name":"Uncletopia | London | 8 | Community","name_short":"lon-8","host":"lon-1.uk.uncletopia.com","port":27085,"enabled":true,"region":"eu","cc":"gb","latitude":51.509865,"longitude":-0.118092,"reserved":0,"last_update":"0001-01-01T00:00:00Z","name_a2s":"Uncletopia | London | 8 | Community","protocol":17,"map":"workshop/pl_corrode_rc2.ugc546577989","folder":"tf","game":"Team Fortress","app_id":440,"player_count":0,"max_players":24,"Bots":0,"server_type":"Dedicated","server_os":"Linux","password":true,"vac":true,"version":"7757534","steam_id":85568392924964315,"keywords":["nocrits","nodmgspread","payload","uncletopia"],"game_id":440,"stv_port":27086,"stv_name":"Uncletopia | London | 8 | Community | STV","players":null},{"server_id":300,"name":"Uncletopia | Montréal | 1 | All Maps","name_short":"mtl-1","host":"mtl-1.ca.uncletopia.com","port":27015,"enabled":true,"region":"us-east","cc":"ca","latitude":45.50889,"longitude":-73.56167,"reserved":0,"last_update":"0001-01-01T00:00:00Z","name_a2s":"Uncletopia | Montréal | 1 | All Maps","protocol":17,"map":"pl_snowycoast","folder":"tf","game":"Team Fortress","app_id":440,"player_count":0,"max_players":24,"Bots":0,"server_type":"Dedicated","server_os":"Linux","password":true,"vac":true,"version":"7757534","steam_id":85568392924500087,"keywords":["nocrits","nodmgspread","payload","uncletopia"],"game_id":440,"stv_port":27016,"stv_name":"Uncletopia | Montréal | 1 | All Maps | STV","players":null},{"server_id":301,"name":"Uncletopia | Montréal | 2 | All Maps","name_short":"mtl-2","host":"mtl-1.ca.uncletopia.com","port":27025,"enabled":true,"region":"us-east","cc":"ca","latitude":45.50889,"longitude":-73.56167,"reserved":0,"last_update":"0001-01-01T00:00:00Z","name_a2s":"Uncletopia | Montréal | 2 | All Maps","protocol":17,"map":"pl_snowycoast","folder":"tf","game":"Team Fortress","app_id":440,"player_count":0,"max_players":24,"Bots":0,"server_type":"Dedicated","server_os":"Linux","password":true,"vac":true,"version":"7757534","steam_id":85568392924500088,"keywords":["nocrits","nodmgspread","payload","uncletopia"],"game_id":440,"stv_port":27026,"stv_name":"Uncletopia | Montréal | 2 | All Maps | STV","players":null},{"server_id":302,"name":"Uncletopia | Montréal | 3 | All Maps","name_short":"mtl-3","host":"mtl-1.ca.uncletopia.com","port":27035,"enabled":true,"region":"us-east","cc":"ca","latitude":45.50889,"longitude":-73.56167,"reserved":0,"last_update":"0001-01-01T00:00:00Z","name_a2s":"Uncletopia | Montréal | 3 | All Maps","protocol":17,"map":"pl_swiftwater_final1","folder":"tf","game":"Team Fortress","app_id":440,"player_count":0,"max_players":24,"Bots":0,"server_type":"Dedicated","server_os":"Linux","password":true,"vac":true,"version":"7757534","steam_id":85568392924500089,"keywords":["nocrits","nodmgspread","payload","uncletopia"],"game_id":440,"stv_port":27036,"stv_name":"Uncletopia | Montréal | 3 | All Maps | STV","players":null},{"server_id":303,"name":"Uncletopia | Montréal | 4 | No Payload","name_short":"mtl-4","host":"mtl-1.ca.uncletopia.com","port":27045,"enabled":true,"region":"us-east","cc":"ca","latitude":45.50889,"longitude":-73.56167,"reserved":0,"last_update":"0001-01-01T00:00:00Z","name_a2s":"Uncletopia | Montréal | 4 | No Payload","protocol":17,"map":"koth_brazil","folder":"tf","game":"Team Fortress","app_id":440,"player_count":0,"max_players":24,"Bots":0,"server_type":"Dedicated","server_os":"Linux","password":true,"vac":true,"version":"7757534","steam_id":85568392924500090,"keywords":["cp","nocrits","nodmgspread","uncletopia"],"game_id":440,"stv_port":27046,"stv_name":"Uncletopia | Montréal | 4 | No Payload | STV","players":null},{"server_id":13,"name":"Uncletopia | New York City | 1 | All Maps","name_short":"nyc-1","host":"nyc-1.us.uncletopia.com","port":27015,"enabled":true,"region":"us-east","cc":"us","latitude":40.73061,"longitude":-73.93524,"reserved":0,"last_update":"0001-01-01T00:00:00Z","name_a2s":"Uncletopia | New York City | 1 | All Maps","protocol":17,"map":"pl_borneo","folder":"tf","game":"Team Fortress","app_id":440,"player_count":22,"max_players":24,"Bots":0,"server_type":"Dedicated","server_os":"Linux","password":true,"vac":true,"version":"7757534","steam_id":85568392924469993,"keywords":["nocrits","nodmgspread","payload","uncletopia"],"game_id":440,"stv_port":27016,"stv_name":"Uncletopia | New York City | 1 | All Maps | STV","players":[{"user_id":312,"name":"whales•wok","steam_id":76561198137743898,"connected_time":18000000000,"state":"active","ping":62},{"user_id":301,"name":"ShaqtusHD (She/Her)","steam_id":76561199138286233,"connected_time":745000000000,"state":"active","ping":55},{"user_id":302,"name":"bikerkid207","steam_id":76561198390782783,"connected_time":674000000000,"state":"active","ping":46},{"user_id":313,"name":"blademiss","steam_id":76561198062083019,"connected_time":16000000000,"state":"active","ping":109},{"user_id":281,"name":"shokie","steam_id":76561197997961542,"connected_time":2519000000000,"state":"active","ping":65},{"user_id":303,"name":"Sodemo","steam_id":76561198074987146,"connected_time":463000000000,"state":"active","ping":71},{"user_id":292,"name":"Mal","steam_id":76561198066074151,"connected_time":1747000000000,"state":"active","ping":77},{"user_id":285,"name":"zeffy","steam_id":76561198089983428,"connected_time":1835000000000,"state":"active","ping":76},{"user_id":270,"name":"butch cowboy monkey","steam_id":76561198097175164,"connected_time":3127000000000,"state":"active","ping":69},{"user_id":308,"name":"underscore_","steam_id":76561198242183264,"connected_time":65000000000,"state":"active","ping":72},{"user_id":224,"name":"waku waku","steam_id":76561197999151676,"connected_time":6503000000000,"state":"active","ping":46},{"user_id":310,"name":"Sir Iasis","steam_id":76561198035666760,"connected_time":40000000000,"state":"active","ping":75},{"user_id":298,"name":"Pebbled","steam_id":76561199390347605,"connected_time":1258000000000,"state":"active","ping":96},{"user_id":258,"name":"cellogamer","steam_id":76561198016937098,"connected_time":3640000000000,"state":"active","ping":45},{"user_id":294,"name":"JamesSaysRelax","steam_id":76561198055687973,"connected_time":1324000000000,"state":"active","ping":68},{"user_id":311,"name":"yellow gatorade","steam_id":76561198413125750,"connected_time":32000000000,"state":"spawning","ping":50},{"user_id":297,"name":"TTVFromieFromage","steam_id":76561198190259574,"connected_time":1294000000000,"state":"active","ping":119},{"user_id":305,"name":"Dong-A-Tron 28.0","steam_id":76561198082202698,"connected_time":165000000000,"state":"active","ping":48},{"user_id":282,"name":"Goldbug","steam_id":76561198025221202,"connected_time":2307000000000,"state":"active","ping":110},{"user_id":309,"name":"xMystic_Fire","steam_id":76561198189961543,"connected_time":49000000000,"state":"connecting","ping":116},{"user_id":278,"name":"killerdragon130","steam_id":76561198899790922,"connected_time":2976000000000,"state":"spawning","ping":93},{"user_id":255,"name":"Cursed mario","steam_id":76561198971168093,"connected_time":3927000000000,"state":"active","ping":157}]},{"server_id":14,"name":"Uncletopia | New York City | 2 | All Maps","name_short":"nyc-2","host":"nyc-1.us.uncletopia.com","port":27025,"enabled":true,"region":"us-east","cc":"us","latitude":40.73061,"longitude":-73.93524,"reserved":0,"last_update":"0001-01-01T00:00:00Z","name_a2s":"Uncletopia | New York City | 2 | All Maps","protocol":17,"map":"pl_borneo","folder":"tf","game":"Team Fortress","app_id":440,"player_count":24,"max_players":24,"Bots":0,"server_type":"Dedicated","server_os":"Linux","password":true,"vac":true,"version":"7757534","steam_id":85568392924469994,"keywords":["nocrits","nodmgspread","payload","uncletopia"],"game_id":440,"stv_port":27026,"stv_name":"Uncletopia | New York City | 2 | All Maps | STV","players":[{"user_id":147,"name":"Johnny Lawrence #JohnnyMaxxing","steam_id":76561199367141671,"connected_time":446000000000,"state":"active","ping":45},{"user_id":149,"name":"P.C. Baby","steam_id":76561198067011379,"connected_time":130000000000,"state":"active","ping":135},{"user_id":94,"name":"Cryo_Dave","steam_id":76561198796748347,"connected_time":3842000000000,"state":"active","ping":128},{"user_id":120,"name":"Myn","steam_id":76561198055438857,"connected_time":1832000000000,"state":"active","ping":64},{"user_id":132,"name":"Rostovne","steam_id":76561198050293434,"connected_time":1194000000000,"state":"active","ping":52},{"user_id":131,"name":"old slimey ichabod","steam_id":76561198043900518,"connected_time":1338000000000,"state":"active","ping":61},{"user_id":150,"name":"Lord Scrubling","steam_id":76561198263744445,"connected_time":112000000000,"state":"active","ping":81},{"user_id":151,"name":"Biscuit","steam_id":76561198219019759,"connected_time":70000000000,"state":"active","ping":128},{"user_id":124,"name":"vastrobotmax","steam_id":76561198417110724,"connected_time":1601000000000,"state":"active","ping":72},{"user_id":140,"name":"guyinatophat51","steam_id":76561198180230694,"connected_time":540000000000,"state":"active","ping":55},{"user_id":152,"name":"ectro","steam_id":76561198301394343,"connected_time":42000000000,"state":"spawning","ping":127},{"user_id":44,"name":"AmirKhaan","steam_id":76561198992403254,"connected_time":7541000000000,"state":"active","ping":59},{"user_id":148,"name":"Baron von Whoopsie","steam_id":76561197996691013,"connected_time":304000000000,"state":"active","ping":54},{"user_id":141,"name":"Ninjasupahman","steam_id":76561198083284498,"connected_time":505000000000,"state":"active","ping":45},{"user_id":142,"name":"Blorgus_J_Blart","steam_id":76561198430926135,"connected_time":505000000000,"state":"active","ping":88},{"user_id":111,"name":"Bird","steam_id":76561198247484514,"connected_time":2756000000000,"state":"active","ping":57},{"user_id":143,"name":"Another Day Of Zok","steam_id":76561198155872356,"connected_time":503000000000,"state":"active","ping":33},{"user_id":89,"name":"Huge","steam_id":76561199030987614,"connected_time":4530000000000,"state":"active","ping":95},{"user_id":116,"name":"KFC☭","steam_id":76561199206815320,"connected_time":2192000000000,"state":"active","ping":121},{"user_id":144,"name":"Spoon","steam_id":76561198385976450,"connected_time":493000000000,"state":"active","ping":56},{"user_id":133,"name":"Nuggets","steam_id":76561198267826226,"connected_time":1161000000000,"state":"active","ping":120},{"user_id":146,"name":"\u003e:D","steam_id":76561198074678273,"connected_time":475000000000,"state":"active","ping":37},{"user_id":134,"name":"emerald6","steam_id":76561198141978758,"connected_time":1119000000000,"state":"active","ping":57},{"user_id":145,"name":"the spy from team fortress 2","steam_id":76561198047797306,"connected_time":490000000000,"state":"active","ping":45}]},{"server_id":15,"name":"Uncletopia | New York City | 3 | Stopwatch Beta","name_short":"nyc-3","host":"nyc-1.us.uncletopia.com","port":27035,"enabled":true,"region":"us-east","cc":"us","latitude":40.73061,"longitude":-73.93524,"reserved":0,"last_update":"0001-01-01T00:00:00Z","name_a2s":"Uncletopia | New York City | 3 | Stopwatch Beta","protocol":17,"map":"cp_granary","folder":"tf","game":"Team Fortress","app_id":440,"player_count":0,"max_players":24,"Bots":0,"server_type":"Dedicated","server_os":"Linux","password":true,"vac":true,"version":"7757534","steam_id":85568392924742820,"keywords":["cp","nocrits","nodmgspread","uncletopia"],"game_id":440,"stv_port":27036,"stv_name":"Uncletopia | New York City | 3 | Stopwatch Beta | STV","players":null},{"server_id":16,"name":"Uncletopia | New York City | 4 | Community","name_short":"nyc-4","host":"nyc-1.us.uncletopia.com","port":27045,"enabled":true,"region":"us-east","cc":"us","latitude":40.73061,"longitude":-73.93524,"reserved":0,"last_update":"0001-01-01T00:00:00Z","name_a2s":"Uncletopia | New York City | 4 | Community","protocol":17,"map":"workshop/cp_kalinka_rc6a.ugc1272700588","folder":"tf","game":"Team Fortress","app_id":440,"player_count":0,"max_players":24,"Bots":0,"server_type":"Dedicated","server_os":"Linux","password":true,"vac":true,"version":"7757534","steam_id":85568392924742821,"keywords":["cp","nocrits","nodmgspread","uncletopia"],"game_id":440,"stv_port":27046,"stv_name":"Uncletopia | New York City | 4 | Community | STV","players":null},{"server_id":142,"name":"Uncletopia | São Paulo | 1 | All Maps","name_short":"sao-1","host":"sao-1.br.uncletopia.com","port":27015,"enabled":true,"region":"sa","cc":"br","latitude":-23.533773,"longitude":-46.62529,"reserved":0,"last_update":"0001-01-01T00:00:00Z","name_a2s":"Uncletopia | São Paulo | 1 | All Maps","protocol":17,"map":"pl_badwater","folder":"tf","game":"Team Fortress","app_id":440,"player_count":0,"max_players":24,"Bots":0,"server_type":"Dedicated","server_os":"Linux","password":true,"vac":true,"version":"7757534","steam_id":85568392924469996,"keywords":["nocrits","nodmgspread","payload","uncletopia"],"game_id":440,"stv_port":27016,"stv_name":"Uncletopia | São Paulo | 1 | All Maps | STV","players":null},{"server_id":143,"name":"Uncletopia | São Paulo | 2 | All Maps","name_short":"sao-2","host":"sao-2.br.uncletopia.com","port":27015,"enabled":true,"region":"sa","cc":"br","latitude":-23.533773,"longitude":-46.62529,"reserved":0,"last_update":"0001-01-01T00:00:00Z","name_a2s":"Uncletopia | São Paulo | 2 | All Maps","protocol":17,"map":"cp_altitude","folder":"tf","game":"Team Fortress","app_id":440,"player_count":2,"max_players":24,"Bots":0,"server_type":"Dedicated","server_os":"Linux","password":true,"vac":true,"version":"7757534","steam_id":85568392924485349,"keywords":["cp","nocrits","nodmgspread","uncletopia"],"game_id":440,"stv_port":27016,"stv_name":"Uncletopia | São Paulo | 2 | All Maps | STV","players":[{"user_id":68,"name":":\u003e","steam_id":76561198317090330,"connected_time":334000000000,"state":"active","ping":59},{"user_id":46,"name":"lumoxd","steam_id":76561199389788313,"connected_time":2204000000000,"state":"active","ping":52}]},{"server_id":7,"name":"Uncletopia | Seattle | 1 | All Maps","name_short":"sea-1","host":"sea-1.us.uncletopia.com","port":27015,"enabled":true,"region":"us-west","cc":"us","latitude":47.608013,"longitude":-122.33517,"reserved":0,"last_update":"0001-01-01T00:00:00Z","name_a2s":"Uncletopia | Seattle | 1 | All Maps","protocol":17,"map":"pl_badwater","folder":"tf","game":"Team Fortress","app_id":440,"player_count":20,"max_players":24,"Bots":0,"server_type":"Dedicated","server_os":"Linux","password":true,"vac":true,"version":"7757534","steam_id":85568392924469997,"keywords":["nocrits","nodmgspread","payload","uncletopia"],"game_id":440,"stv_port":27016,"stv_name":"Uncletopia | Seattle | 1 | All Maps | STV","players":[{"user_id":249,"name":"ben122123","steam_id":76561199440120139,"connected_time":2887000000000,"state":"connecting","ping":62},{"user_id":289,"name":"Acryligoop","steam_id":76561198079850249,"connected_time":89000000000,"state":"connecting","ping":68},{"user_id":252,"name":"Electric Hawk","steam_id":76561198129732108,"connected_time":2792000000000,"state":"connecting","ping":99},{"user_id":281,"name":"plerfle","steam_id":76561198884169779,"connected_time":801000000000,"state":"connecting","ping":66},{"user_id":273,"name":"s3aM0th","steam_id":76561199051077883,"connected_time":1392000000000,"state":"spawning","ping":63},{"user_id":263,"name":"chadder3001","steam_id":76561198343659858,"connected_time":2205000000000,"state":"connecting","ping":51},{"user_id":240,"name":"noraneko","steam_id":76561198025418738,"connected_time":3234000000000,"state":"spawning","ping":60},{"user_id":266,"name":"Peppy","steam_id":76561198866629645,"connected_time":1641000000000,"state":"connecting","ping":76},{"user_id":270,"name":"Julien","steam_id":76561199389584938,"connected_time":1543000000000,"state":"connecting","ping":63},{"user_id":290,"name":"all mechies, no fundies","steam_id":76561198121633820,"connected_time":23000000000,"state":"connecting","ping":83},{"user_id":291,"name":"Raniel Dicciardo","steam_id":76561198053859538,"connected_time":21000000000,"state":"connecting","ping":89},{"user_id":228,"name":"Eric Cartman","steam_id":76561198850898505,"connected_time":4364000000000,"state":"connecting","ping":70},{"user_id":265,"name":"flishko","steam_id":76561198326489802,"connected_time":1645000000000,"state":"connecting","ping":58},{"user_id":288,"name":"Goat","steam_id":76561198130683707,"connected_time":401000000000,"state":"connecting","ping":96},{"user_id":245,"name":"Gay Cannibal Enjoyer","steam_id":76561198273751425,"connected_time":3215000000000,"state":"connecting","ping":141},{"user_id":235,"name":"eraser cat","steam_id":76561199045570463,"connected_time":3746000000000,"state":"spawning","ping":61},{"user_id":286,"name":"Number28","steam_id":76561198315018819,"connected_time":478000000000,"state":"connecting","ping":98},{"user_id":241,"name":"dougrocks421","steam_id":76561198165063918,"connected_time":3234000000000,"state":"connecting","ping":46}]},{"server_id":119,"name":"Uncletopia | Seattle | 2 | All Maps","name_short":"sea-2","host":"sea-1.us.uncletopia.com","port":27025,"enabled":true,"region":"us-west","cc":"us","latitude":47.608013,"longitude":-122.33517,"reserved":0,"last_update":"0001-01-01T00:00:00Z","name_a2s":"Uncletopia | Seattle | 2 | All Maps","protocol":17,"map":"koth_viaduct","folder":"tf","game":"Team Fortress","app_id":440,"player_count":20,"max_players":24,"Bots":0,"server_type":"Dedicated","server_os":"Linux","password":true,"vac":true,"version":"7757534","steam_id":85568392924469998,"keywords":["cp","nocrits","nodmgspread","uncletopia"],"game_id":440,"stv_port":27026,"stv_name":"Uncletopia | Seattle | 2 | All Maps | STV","players":[{"user_id":24,"name":"2u1t3500_______","steam_id":76561198870649125,"connected_time":713000000000,"state":"active","ping":67},{"user_id":16,"name":"Belmore","steam_id":76561198009355231,"connected_time":1180000000000,"state":"active","ping":73},{"user_id":17,"name":"༘ ⋆˚🎧Caffeine☕*˖°","steam_id":76561199259309294,"connected_time":1180000000000,"state":"active","ping":118},{"user_id":25,"name":"Thaenrge","steam_id":76561198027234280,"connected_time":683000000000,"state":"active","ping":122},{"user_id":19,"name":"rip souplantation","steam_id":76561198135633918,"connected_time":789000000000,"state":"active","ping":74},{"user_id":20,"name":"Biddy","steam_id":76561198255305591,"connected_time":767000000000,"state":"active","ping":102},{"user_id":53,"name":"Coolshroomish","steam_id":76561199109440924,"connected_time":0,"state":"spawning","ping":73},{"user_id":52,"name":"ImFr0sty","steam_id":76561199441249487,"connected_time":97000000000,"state":"active","ping":123},{"user_id":33,"name":"Kalir","steam_id":76561197996125658,"connected_time":309000000000,"state":"active","ping":95},{"user_id":31,"name":"elder lich joe biden","steam_id":76561198257134732,"connected_time":418000000000,"state":"active","ping":59},{"user_id":34,"name":"SlitherDoodle","steam_id":76561198000275473,"connected_time":309000000000,"state":"active","ping":50},{"user_id":40,"name":"Tourmaline Lazuli","steam_id":76561198987049358,"connected_time":253000000000,"state":"active","ping":93},{"user_id":46,"name":"dom","steam_id":76561198066114874,"connected_time":172000000000,"state":"active","ping":54},{"user_id":38,"name":"Project Dusk","steam_id":76561198193521149,"connected_time":276000000000,"state":"active","ping":130},{"user_id":41,"name":"mmmBoyo","steam_id":76561198821360261,"connected_time":251000000000,"state":"active","ping":91},{"user_id":42,"name":"Kaluka","steam_id":76561198036861445,"connected_time":231000000000,"state":"active","ping":121},{"user_id":48,"name":"TheCowledWiz","steam_id":76561198016735868,"connected_time":142000000000,"state":"active","ping":48},{"user_id":44,"name":"tabris","steam_id":76561198137096044,"connected_time":216000000000,"state":"active","ping":82},{"user_id":50,"name":"Phantom_03","steam_id":76561198217929829,"connected_time":132000000000,"state":"active","ping":68},{"user_id":51,"name":"Quon Grene for Vice Prez","steam_id":76561198127545817,"connected_time":128000000000,"state":"active","ping":74}]},{"server_id":406,"name":"Uncletopia | Seattle | 3 | Stopwatch Beta","name_short":"sea-3","host":"sea-1.us.uncletopia.com","port":27035,"enabled":true,"region":"us-west","cc":"us","latitude":47.608013,"longitude":-122.33517,"reserved":0,"last_update":"0001-01-01T00:00:00Z","name_a2s":"Uncletopia | Seattle | 3 | Stopwatch Beta","protocol":17,"map":"pl_barnblitz","folder":"tf","game":"Team Fortress","app_id":440,"player_count":1,"max_players":24,"Bots":0,"server_type":"Dedicated","server_os":"Linux","password":true,"vac":true,"version":"7757534","steam_id":85568392924515217,"keywords":["nocrits","nodmgspread","payload","uncletopia"],"game_id":440,"stv_port":27036,"stv_name":"Uncletopia | Seattle | 3 | Stopwatch Beta | STV","players":[{"user_id":6,"name":"Saturn's Ring","steam_id":76561198173267015,"connected_time":638000000000,"state":"active","ping":83}]},{"server_id":17,"name":"Uncletopia | San Francisco | 1 | All Maps","name_short":"sfo-1","host":"sfo-1.us.uncletopia.com","port":27015,"enabled":true,"region":"us-west","cc":"us","latitude":37.77397,"longitude":-122.4313,"reserved":0,"last_update":"0001-01-01T00:00:00Z","name_a2s":"Uncletopia | San Francisco | 1 | All Maps","protocol":17,"map":"pl_swiftwater_final1","folder":"tf","game":"Team Fortress","app_id":440,"player_count":24,"max_players":24,"Bots":0,"server_type":"Dedicated","server_os":"Linux","password":true,"vac":true,"version":"7757534","steam_id":85568392924469999,"keywords":["nocrits","nodmgspread","payload","uncletopia"],"game_id":440,"stv_port":27016,"stv_name":"Uncletopia | San Francisco | 1 | All Maps | STV","players":[{"user_id":122,"name":"WaterWorks","steam_id":76561198801899310,"connected_time":2169000000000,"state":"active","ping":48},{"user_id":159,"name":"Sammy!","steam_id":76561198184171743,"connected_time":443000000000,"state":"active","ping":54},{"user_id":151,"name":"Dentivent","steam_id":76561197971953043,"connected_time":1044000000000,"state":"active","ping":66},{"user_id":157,"name":"ryghehn","steam_id":76561198195359229,"connected_time":586000000000,"state":"active","ping":60},{"user_id":123,"name":"Livin' Like Larry","steam_id":76561198313360974,"connected_time":2081000000000,"state":"active","ping":38},{"user_id":147,"name":"The Squid Gamer™","steam_id":76561198340621517,"connected_time":1179000000000,"state":"active","ping":86},{"user_id":129,"name":"NETTASTINI","steam_id":76561199135904313,"connected_time":1685000000000,"state":"active","ping":121},{"user_id":133,"name":"anipe10","steam_id":76561199084698417,"connected_time":1559000000000,"state":"active","ping":80},{"user_id":150,"name":"Jimjonjoe","steam_id":76561199195695913,"connected_time":1046000000000,"state":"active","ping":99},{"user_id":166,"name":"Rusty","steam_id":76561198055585129,"connected_time":359000000000,"state":"active","ping":61},{"user_id":155,"name":"nhoj_","steam_id":76561198048003380,"connected_time":622000000000,"state":"active","ping":47},{"user_id":163,"name":"jesse_pinkman","steam_id":76561199152329048,"connected_time":421000000000,"state":"active","ping":64},{"user_id":143,"name":"Mom","steam_id":76561198207936000,"connected_time":1272000000000,"state":"active","ping":44},{"user_id":161,"name":"natel11","steam_id":76561198385148393,"connected_time":426000000000,"state":"active","ping":67},{"user_id":164,"name":"james may","steam_id":76561198043857339,"connected_time":416000000000,"state":"active","ping":59},{"user_id":156,"name":"Pyro TF2","steam_id":76561199103122686,"connected_time":609000000000,"state":"active","ping":86},{"user_id":165,"name":"lukas","steam_id":76561198172454407,"connected_time":391000000000,"state":"active","ping":81},{"user_id":103,"name":"Satori Komeiji","steam_id":76561198158211423,"connected_time":3272000000000,"state":"active","ping":48},{"user_id":107,"name":"Altruisticailuridae","steam_id":76561198335295596,"connected_time":3080000000000,"state":"active","ping":68},{"user_id":148,"name":"doopsuiker","steam_id":76561198025916703,"connected_time":1170000000000,"state":"active","ping":127},{"user_id":139,"name":"Nexo Fighter","steam_id":76561199187418090,"connected_time":1419000000000,"state":"active","ping":165},{"user_id":146,"name":"Lo-Pan","steam_id":76561198085670133,"connected_time":1215000000000,"state":"active","ping":100},{"user_id":167,"name":"Ruler of Everything","steam_id":76561199168680069,"connected_time":264000000000,"state":"active","ping":134},{"user_id":124,"name":"Ed Sheeran rapping","steam_id":76561198200485827,"connected_time":2058000000000,"state":"active","ping":60}]},{"server_id":18,"name":"Uncletopia | San Francisco | 2 | All Maps","name_short":"sfo-2","host":"sfo-1.us.uncletopia.com","port":27025,"enabled":true,"region":"us-west","cc":"us","latitude":37.77397,"longitude":-122.4313,"reserved":0,"last_update":"0001-01-01T00:00:00Z","name_a2s":"Uncletopia | San Francisco | 2 | All Maps","protocol":17,"map":"cp_altitude","folder":"tf","game":"Team Fortress","app_id":440,"player_count":0,"max_players":24,"Bots":0,"server_type":"Dedicated","server_os":"Linux","password":true,"vac":true,"version":"7757534","steam_id":85568392924470000,"keywords":["cp","nocrits","nodmgspread","uncletopia"],"game_id":440,"stv_port":27026,"stv_name":"Uncletopia | San Francisco | 2 | All Maps | STV","players":null},{"server_id":19,"name":"Uncletopia | San Francisco | 3 | Stopwatch Beta","name_short":"sfo-3","host":"sfo-1.us.uncletopia.com","port":27035,"enabled":true,"region":"us-west","cc":"us","latitude":37.77397,"longitude":-122.4313,"reserved":0,"last_update":"0001-01-01T00:00:00Z","name_a2s":"Uncletopia | San Francisco | 3 | Stopwatch Beta","protocol":17,"map":"pl_borneo","folder":"tf","game":"Team Fortress","app_id":440,"player_count":0,"max_players":24,"Bots":0,"server_type":"Dedicated","server_os":"Linux","password":true,"vac":true,"version":"7757534","steam_id":85568392924742824,"keywords":["nocrits","nodmgspread","payload","uncletopia"],"game_id":440,"stv_port":27036,"stv_name":"Uncletopia | San Francisco | 3 | Stopwatch Beta | STV","players":null},{"server_id":20,"name":"Uncletopia | San Francisco | 4 | Community","name_short":"sfo-4","host":"sfo-1.us.uncletopia.com","port":27045,"enabled":true,"region":"us-west","cc":"us","latitude":37.77397,"longitude":-122.4313,"reserved":0,"last_update":"0001-01-01T00:00:00Z","name_a2s":"Uncletopia | San Francisco | 4 | Community","protocol":17,"map":"workshop/koth_ramjam_rc1.ugc459778887","folder":"tf","game":"Team Fortress","app_id":440,"player_count":0,"max_players":24,"Bots":0,"server_type":"Dedicated","server_os":"Linux","password":true,"vac":true,"version":"7757534","steam_id":85568392924742826,"keywords":["cp","nocrits","nodmgspread","uncletopia"],"game_id":440,"stv_port":27046,"stv_name":"Uncletopia | San Francisco | 4 | Community | STV","players":null},{"server_id":141,"name":"Uncletopia | Sydney | 1 | All Maps","name_short":"syd-1","host":"syd-1.au.uncletopia.com","port":27015,"enabled":true,"region":"au","cc":"au","latitude":-33.865143,"longitude":151.2099,"reserved":0,"last_update":"0001-01-01T00:00:00Z","name_a2s":"Uncletopia | Sydney | 1 | All Maps","protocol":17,"map":"cp_process_final","folder":"tf","game":"Team Fortress","app_id":440,"player_count":0,"max_players":24,"Bots":0,"server_type":"Dedicated","server_os":"Linux","password":true,"vac":true,"version":"7757534","steam_id":85568392924470001,"keywords":["cp","nocrits","nodmgspread","uncletopia"],"game_id":440,"stv_port":27016,"stv_name":"Uncletopia | Sydney | 1 | All Maps | STV","players":null},{"server_id":123,"name":"Uncletopia | Sydney | 2 | All Maps","name_short":"syd-2","host":"syd-1.au.uncletopia.com","port":27025,"enabled":true,"region":"au","cc":"au","latitude":-33.865143,"longitude":151.2099,"reserved":0,"last_update":"0001-01-01T00:00:00Z","name_a2s":"Uncletopia | Sydney | 2 | All Maps","protocol":17,"map":"koth_viaduct","folder":"tf","game":"Team Fortress","app_id":440,"player_count":0,"max_players":24,"Bots":0,"server_type":"Dedicated","server_os":"Linux","password":true,"vac":true,"version":"7757534","steam_id":85568392924470002,"keywords":["cp","nocrits","nodmgspread","uncletopia"],"game_id":440,"stv_port":27026,"stv_name":"Uncletopia | Sydney | 2 | All Maps | STV","players":null},{"server_id":395,"name":"Uncletopia | Sydney | 3 | All Maps","name_short":"syd-3","host":"syd-1.au.uncletopia.com","port":27035,"enabled":true,"region":"au","cc":"au","latitude":-33.865143,"longitude":151.2099,"reserved":0,"last_update":"0001-01-01T00:00:00Z","name_a2s":"Uncletopia | Sydney | 3 | All Maps","protocol":17,"map":"pl_upward","folder":"tf","game":"Team Fortress","app_id":440,"player_count":0,"max_players":24,"Bots":0,"server_type":"Dedicated","server_os":"Linux","password":true,"vac":true,"version":"7757534","steam_id":85568392925194467,"keywords":["nocrits","nodmgspread","payload","uncletopia"],"game_id":440,"stv_port":27036,"stv_name":"Uncletopia | Sydney | 3 | All Maps | STV","players":null},{"server_id":396,"name":"Uncletopia | Sydney | 4 | All Maps","name_short":"syd-4","host":"syd-1.au.uncletopia.com","port":27045,"enabled":true,"region":"au","cc":"au","latitude":-33.865143,"longitude":151.2099,"reserved":0,"last_update":"0001-01-01T00:00:00Z","name_a2s":"Uncletopia | Sydney | 4 | All Maps","protocol":17,"map":"koth_lakeside_final","folder":"tf","game":"Team Fortress","app_id":440,"player_count":0,"max_players":24,"Bots":0,"server_type":"Dedicated","server_os":"Linux","password":true,"vac":true,"version":"7757534","steam_id":85568392925397958,"keywords":["cp","nocrits","nodmgspread","uncletopia"],"game_id":440,"stv_port":27046,"stv_name":"Uncletopia | Sydney | 4 | All Maps | STV","players":null},{"server_id":58,"name":"Uncletopia | Sydney | 5 | Stopwatch Beta","name_short":"syd-5","host":"syd-1.au.uncletopia.com","port":27055,"enabled":true,"region":"au","cc":"au","latitude":-33.865143,"longitude":151.2099,"reserved":0,"last_update":"0001-01-01T00:00:00Z","name_a2s":"Uncletopia | Sydney | 5 | Stopwatch Beta","protocol":17,"map":"koth_highpass","folder":"tf","game":"Team Fortress","app_id":440,"player_count":0,"max_players":24,"Bots":0,"server_type":"Dedicated","server_os":"Linux","password":true,"vac":true,"version":"7757534","steam_id":85568392925397959,"keywords":["cp","nocrits","nodmgspread","uncletopia"],"game_id":440,"stv_port":27056,"stv_name":"Uncletopia | Sydney | 5 | Stopwatch Beta | STV","players":null},{"server_id":59,"name":"Uncletopia | Sydney | 6 | Community","name_short":"syd-6","host":"syd-1.au.uncletopia.com","port":27065,"enabled":true,"region":"au","cc":"au","latitude":-33.865143,"longitude":151.2099,"reserved":0,"last_update":"0001-01-01T00:00:00Z","name_a2s":"Uncletopia | Sydney | 6 | Community","protocol":17,"map":"cp_sunshine","folder":"tf","game":"Team Fortress","app_id":440,"player_count":0,"max_players":24,"Bots":0,"server_type":"Dedicated","server_os":"Linux","password":true,"vac":true,"version":"7757534","steam_id":85568392925397960,"keywords":["cp","nocrits","nodmgspread","uncletopia"],"game_id":440,"stv_port":27066,"stv_name":"Uncletopia | Sydney | 6 | Community | STV","players":null},{"server_id":49,"name":"Uncletopia | Warsaw | 1 | All Maps","name_short":"waw-1","host":"waw-1.pl.uncletopia.com","port":27015,"enabled":true,"region":"eu","cc":"pl","latitude":52.2297,"longitude":21.017532,"reserved":0,"last_update":"0001-01-01T00:00:00Z","name_a2s":"","protocol":0,"map":"","folder":"","game":"","app_id":0,"player_count":0,"max_players":0,"Bots":0,"server_type":"","server_os":"","password":false,"vac":false,"version":"","steam_id":0,"keywords":null,"game_id":0,"stv_port":0,"stv_name":"","players":null},{"server_id":50,"name":"Uncletopia | Warsaw | 2 | All Maps","name_short":"waw-2","host":"waw-1.pl.uncletopia.com","port":27025,"enabled":true,"region":"eu","cc":"pl","latitude":52.2297,"longitude":21.017532,"reserved":0,"last_update":"0001-01-01T00:00:00Z","name_a2s":"Uncletopia | Warsaw | 2 | All Maps","protocol":17,"map":"pl_barnblitz","folder":"tf","game":"Team Fortress","app_id":440,"player_count":0,"max_players":24,"Bots":0,"server_type":"Dedicated","server_os":"Linux","password":true,"vac":true,"version":"7757534","steam_id":85568392925397851,"keywords":["nocrits","nodmgspread","payload","uncletopia"],"game_id":440,"stv_port":27026,"stv_name":"Uncletopia | Warsaw | 2 | All Maps | STV","players":null},{"server_id":51,"name":"Uncletopia | Warsaw | 3 | All Maps","name_short":"waw-3","host":"waw-1.pl.uncletopia.com","port":27035,"enabled":true,"region":"eu","cc":"pl","latitude":52.2297,"longitude":21.017532,"reserved":0,"last_update":"0001-01-01T00:00:00Z","name_a2s":"Uncletopia | Warsaw | 3 | All Maps","protocol":17,"map":"pl_pier","folder":"tf","game":"Team Fortress","app_id":440,"player_count":0,"max_players":24,"Bots":0,"server_type":"Dedicated","server_os":"Linux","password":true,"vac":true,"version":"7757534","steam_id":85568392925397852,"keywords":["nocrits","nodmgspread","payload","uncletopia"],"game_id":440,"stv_port":27036,"stv_name":"Uncletopia | Warsaw | 3 | All Maps | STV","players":null},{"server_id":52,"name":"Uncletopia | Warsaw | 4 | All Maps","name_short":"waw-4","host":"waw-1.pl.uncletopia.com","port":27045,"enabled":true,"region":"eu","cc":"pl","latitude":52.2297,"longitude":21.017532,"reserved":0,"last_update":"0001-01-01T00:00:00Z","name_a2s":"Uncletopia | Warsaw | 4 | All Maps","protocol":17,"map":"koth_cascade","folder":"tf","game":"Team Fortress","app_id":440,"player_count":0,"max_players":24,"Bots":0,"server_type":"Dedicated","server_os":"Linux","password":true,"vac":true,"version":"7757534","steam_id":85568392925397853,"keywords":["cp","nocrits","nodmgspread","uncletopia"],"game_id":440,"stv_port":27046,"stv_name":"Uncletopia | Warsaw | 4 | All Maps | STV","players":null},{"server_id":53,"name":"Uncletopia | Warsaw | 5 | Stopwatch Beta","name_short":"waw-5","host":"waw-1.pl.uncletopia.com","port":27055,"enabled":true,"region":"eu","cc":"pl","latitude":52.2297,"longitude":21.017532,"reserved":0,"last_update":"0001-01-01T00:00:00Z","name_a2s":"Uncletopia | Warsaw | 5 | Stopwatch Beta","protocol":17,"map":"pl_barnblitz","folder":"tf","game":"Team Fortress","app_id":440,"player_count":0,"max_players":24,"Bots":0,"server_type":"Dedicated","server_os":"Linux","password":true,"vac":true,"version":"7757534","steam_id":85568392925397854,"keywords":["nocrits","nodmgspread","payload","uncletopia"],"game_id":440,"stv_port":27056,"stv_name":"Uncletopia | Warsaw | 5 | Stopwatch Beta | STV","players":null},{"server_id":54,"name":"Uncletopia | Warsaw | 6 | Community","name_short":"waw-6","host":"waw-1.pl.uncletopia.com","port":27065,"enabled":true,"region":"eu","cc":"pl","latitude":52.2297,"longitude":21.017532,"reserved":0,"last_update":"0001-01-01T00:00:00Z","name_a2s":"Uncletopia | Warsaw | 6 | Community","protocol":17,"map":"workshop/cp_bruhstbowl_b5.ugc2878604990","folder":"tf","game":"Team Fortress","app_id":440,"player_count":0,"max_players":24,"Bots":0,"server_type":"Dedicated","server_os":"Linux","password":true,"vac":true,"version":"7757534","steam_id":85568392925397856,"keywords":["cp","nocrits","nodmgspread","uncletopia"],"game_id":440,"stv_port":27066,"stv_name":"Uncletopia | Warsaw | 6 | Community | STV","players":null}]}