{"status":true,"message":"","result":[{"server_id":9,"name":"Uncletopia | Atlanta | 1 | All Maps","name_short":"atl-1","host":"atl-1.us.uncletopia.com","port":27015,"enabled":true,"region":"us-east","cc":"us","latitude":33.753746,"longitude":-84.38633,"reserved":0,"last_update":"0001-01-01T00:00:00Z","name_a2s":"Uncletopia | Atlanta | 1 | All Maps","protocol":17,"map":"koth_lakeside_final","folder":"tf","game":"Team Fortress","app_id":440,"player_count":24,"max_players":24,"Bots":0,"server_type":"Dedicated","server_os":"Linux","password":true,"vac":true,"version":"7742253","steam_id":85568392924469982,"keywords":["cp","nocrits","nodmgspread","uncletopia"],"game_id":440,"stv_port":27016,"stv_name":"Uncletopia | Atlanta | 1 | All Maps | STV","players":[{"user_id":342,"name":"Snorty","steam_id":76561198114304454,"connected_time":2413000000000,"state":"active","ping":74},{"user_id":327,"name":"MoistWaffle The Real","steam_id":76561198839829504,"connected_time":3480000000000,"state":"active","ping":46},{"user_id":358,"name":"Ceiling Man","steam_id":76561198003959902,"connected_time":1032000000000,"state":"active","ping":59},{"user_id":362,"name":"DFR Wingm4n","steam_id":76561198064127012,"connected_time":726000000000,"state":"active","ping":60},{"user_id":352,"name":"LukeLeal","steam_id":76561198049822995,"connected_time":1543000000000,"state":"active","ping":158},{"user_id":309,"name":"Veilos","steam_id":76561198071897172,"connected_time":4821000000000,"state":"active","ping":77},{"user_id":365,"name":"DRSZRG","steam_id":76561198838757422,"connected_time":613000000000,"state":"active","ping":82},{"user_id":301,"name":"PomsonPug","steam_id":76561198049093575,"connected_time":5385000000000,"state":"active","ping":79},{"user_id":363,"name":"‚ô°Alyx‚ô°","steam_id":76561198024303978,"connected_time":719000000000,"state":"active","ping":59},{"user_id":370,"name":"squid game","steam_id":76561199248960166,"connected_time":188000000000,"state":"active","ping":102},{"user_id":290,"name":"Crescent","steam_id":76561198095124633,"connected_time":6286000000000,"state":"active","ping":46},{"user_id":347,"name":"fi_ji","steam_id":76561198126087725,"connected_time":1967000000000,"state":"active","ping":63},{"user_id":355,"name":"DO NOT call me BART SIMPSON!!","steam_id":76561198069113375,"connected_time":1497000000000,"state":"active","ping":87},{"user_id":350,"name":"rachel","steam_id":76561198052588144,"connected_time":1577000000000,"state":"active","ping":74},{"user_id":305,"name":"DrStarBucksCoffee","steam_id":76561198037372470,"connected_time":5293000000000,"state":"active","ping":85},{"user_id":343,"name":"PancreazOverdoz","steam_id":76561199234377456,"connected_time":2339000000000,"state":"active","ping":82},{"user_id":323,"name":"punkly","steam_id":76561198129831492,"connected_time":3766000000000,"state":"active","ping":65},{"user_id":356,"name":"BotchyAlarm8","steam_id":76561198092682129,"connected_time":1113000000000,"state":"active","ping":67},{"user_id":368,"name":"i \u003c3 poptarts #saveTF2","steam_id":76561199057354397,"connected_time":234000000000,"state":"active","ping":67},{"user_id":369,"name":"J3SUS","steam_id":76561198368965383,"connected_time":234000000000,"state":"active","ping":83},{"user_id":366,"name":"god approaches","steam_id":76561198081617990,"connected_time":290000000000,"state":"active","ping":113},{"user_id":247,"name":"Wilhelmktx","steam_id":76561198158102295,"connected_time":8426000000000,"state":"active","ping":66},{"user_id":351,"name":"legalizme223","steam_id":76561198051698391,"connected_time":1577000000000,"state":"active","ping":78},{"user_id":271,"name":"Razz","steam_id":76561198158027533,"connected_time":7014000000000,"state":"active","ping":76}]},{"server_id":400,"name":"Uncletopia | Atlanta | 3 | Stopwatch Beta","name_short":"atl-3","host":"atl-1.us.uncletopia.com","port":27035,"enabled":true,"region":"us-east","cc":"us","latitude":33.753746,"longitude":-84.38633,"reserved":0,"last_update":"0001-01-01T00:00:00Z","name_a2s":"Uncletopia | Atlanta | 3 | Stopwatch Beta","protocol":17,"map":"pl_pier","folder":"tf","game":"Team Fortress","app_id":440,"player_count":1,"max_players":24,"Bots":0,"server_type":"Dedicated","server_os":"Linux","password":true,"vac":true,"version":"7742253","steam_id":85568392924515187,"keywords":["nocrits","nodmgspread","payload","uncletopia"],"game_id":440,"stv_port":27036,"stv_name":"Uncletopia | Atlanta | 3 | Stopwatch Beta | STV","players":[{"user_id":13,"name":"gunk","steam_id":76561199402698985,"connected_time":254000000000,"state":"spawning","ping":121}]},{"server_id":401,"name":"Uncletopia | Atlanta | 4 | No Payload","name_short":"atl-4","host":"atl-1.us.uncletopia.com","port":27045,"enabled":true,"region":"us-east","cc":"us","latitude":33.753746,"longitude":-84.38633,"reserved":0,"last_update":"0001-01-01T00:00:00Z","name_a2s":"Uncletopia | Atlanta | 4 | No Payload","protocol":17,"map":"pl_pier","folder":"tf","game":"Team Fortress","app_id":440,"player_count":0,"max_players":24,"Bots":0,"server_type":"Dedicated","server_os":"Linux","password":true,"vac":true,"version":"7723704","steam_id":85568392924515188,"keywords":["nocrits","nodmgspread","payload","uncletopia"],"game_id":440,"stv_port":27046,"stv_name":"Uncletopia | Atlanta | 4 | No Payload | STV","players":null},{"server_id":2,"name":"Uncletopia | Chicago | 1 | All Maps","name_short":"chi-1","host":"chi-1.us.uncletopia.com","port":27015,"enabled":true,"region":"us-central","cc":"us","latitude":41.881832,"longitude":-87.62318,"reserved":0,"last_update":"0001-01-01T00:00:00Z","name_a2s":"Uncletopia | Chicago | 1 | All Maps","protocol":17,"map":"cp_altitude","folder":"tf","game":"Team Fortress","app_id":440,"player_count":24,"max_players":24,"Bots":0,"server_type":"Dedicated","server_os":"Linux","password":true,"vac":true,"version":"7742253","steam_id":85568392924469984,"keywords":["cp","nocrits","nodmgspread","uncletopia"],"game_id":440,"stv_port":27016,"stv_name":"Uncletopia | Chicago | 1 | All Maps | STV","players":[{"user_id":362,"name":"ch","steam_id":76561198012566405,"connected_time":768000000000,"state":"active","ping":64},{"user_id":363,"name":"FunGi","steam_id":76561198881418662,"connected_time":753000000000,"state":"active","ping":80},{"user_id":359,"name":"Snom","steam_id":76561198333827920,"connected_time":786000000000,"state":"active","ping":89},{"user_id":357,"name":"‚ô• Femboy‚ô•Ventily ‚ô•","steam_id":76561198157260335,"connected_time":1098000000000,"state":"active","ping":57},{"user_id":360,"name":"T.w¬≤ | Sliced Bread","steam_id":76561198128489595,"connected_time":785000000000,"state":"active","ping":79},{"user_id":371,"name":"Fudgely","steam_id":76561198039425862,"connected_time":466000000000,"state":"active","ping":65},{"user_id":346,"name":"-œÄ- BakaD","steam_id":76561197960559169,"connected_time":1789000000000,"state":"active","ping":54},{"user_id":236,"name":"the deadliest pyroshark","steam_id":76561198374227766,"connected_time":10343000000000,"state":"active","ping":68},{"user_id":331,"name":"jan kili","steam_id":76561198289894834,"connected_time":2908000000000,"state":"active","ping":66},{"user_id":309,"name":"Slavaskyanovamirakevchei","steam_id":76561198141218864,"connected_time":4227000000000,"state":"active","ping":76},{"user_id":367,"name":"mouselifter45","steam_id":76561198272354852,"connected_time":734000000000,"state":"active","ping":33},{"user_id":373,"name":"thundermuffin","steam_id":76561198067770965,"connected_time":101000000000,"state":"active","ping":51},{"user_id":344,"name":"Mixomin","steam_id":76561198295061570,"connected_time":1805000000000,"state":"active","ping":64},{"user_id":317,"name":"Gingoguy","steam_id":76561198088931297,"connected_time":3876000000000,"state":"active","ping":55},{"user_id":347,"name":"THRILLHO","steam_id":76561198371663047,"connected_time":1763000000000,"state":"active","ping":66},{"user_id":365,"name":"estrogenfan","steam_id":76561198356871016,"connected_time":744000000000,"state":"active","ping":83},{"user_id":340,"name":"Furry Saul Goodman","steam_id":76561198069580305,"connected_time":2337000000000,"state":"active","ping":58},{"user_id":372,"name":"Jose.2007","steam_id":76561199110079270,"connected_time":456000000000,"state":"active","ping":73},{"user_id":368,"name":"garfield","steam_id":76561198114119308,"connected_time":731000000000,"state":"active","ping":75},{"user_id":320,"name":"Thiccums","steam_id":76561198291586739,"connected_time":3867000000000,"state":"active","ping":78},{"user_id":297,"name":"Z4lTte","steam_id":76561198283258068,"connected_time":4983000000000,"state":"active","ping":71},{"user_id":355,"name":"vyx","steam_id":76561198037205391,"connected_time":1288000000000,"state":"active","ping":62},{"user_id":369,"name":"Sink","steam_id":76561198192420249,"connected_time":722000000000,"state":"active","ping":77},{"user_id":356,"name":"dP | I'm in a Wookie Suit","steam_id":76561198083307644,"connected_time":1178000000000,"state":"active","ping":104}]},{"server_id":106,"name":"Uncletopia | Chicago | 2 | All Maps","name_short":"chi-2","host":"chi-1.us.uncletopia.com","port":27025,"enabled":true,"region":"us-central","cc":"us","latitude":41.881832,"longitude":-87.62318,"reserved":0,"last_update":"0001-01-01T00:00:00Z","name_a2s":"Uncletopia | Chicago | 2 | All Maps","protocol":17,"map":"cp_dustbowl","folder":"tf","game":"Team Fortress","app_id":440,"player_count":23,"max_players":24,"Bots":0,"server_type":"Dedicated","server_os":"Linux","password":true,"vac":true,"version":"7742253","steam_id":85568392924469985,"keywords":["cp","nocrits","nodmgspread","uncletopia"],"game_id":440,"stv_port":27026,"stv_name":"Uncletopia | Chicago | 2 | All Maps | STV","players":[{"user_id":195,"name":"tortoise","steam_id":76561198161809306,"connected_time":18000000000,"state":"active","ping":54},{"user_id":101,"name":"JustSomeInternetGuy","steam_id":76561199066037843,"connected_time":6957000000000,"state":"active","ping":65},{"user_id":179,"name":"2luck_charm2","steam_id":76561199239710666,"connected_time":1172000000000,"state":"active","ping":103},{"user_id":193,"name":"Zenyaru","steam_id":76561199128779995,"connected_time":210000000000,"state":"active","ping":103},{"user_id":166,"name":"Depresso Amber","steam_id":76561198074209737,"connected_time":1807000000000,"state":"active","ping":60},{"user_id":160,"name":"pencilneck","steam_id":76561198865971290,"connected_time":2691000000000,"state":"active","ping":85},{"user_id":178,"name":"CAROLINA BBQ","steam_id":76561198061859304,"connected_time":1245000000000,"state":"active","ping":64},{"user_id":167,"name":"Ice","steam_id":76561198045076794,"connected_time":1781000000000,"state":"active","ping":56},{"user_id":171,"name":"Fallbourn","steam_id":76561197994851732,"connected_time":1660000000000,"state":"active","ping":57},{"user_id":107,"name":"Oh, it's Zach","steam_id":76561198103309672,"connected_time":6683000000000,"state":"active","ping":50},{"user_id":141,"name":"hoboholden","steam_id":76561198799370303,"connected_time":5180000000000,"state":"active","ping":110},{"user_id":142,"name":"BreadBug","steam_id":76561198797355574,"connected_time":5176000000000,"state":"active","ping":59},{"user_id":182,"name":"Byte9291","steam_id":76561198044313374,"connected_time":1124000000000,"state":"active","ping":90},{"user_id":157,"name":"Do Moose go Moo?","steam_id":76561198073550620,"connected_time":3162000000000,"state":"active","ping":59},{"user_id":189,"name":"Anononomous Dumbo Octopus","steam_id":76561198252522394,"connected_time":279000000000,"state":"active","ping":51},{"user_id":168,"name":"She's giving you a WUTVILLE??","steam_id":76561198172792271,"connected_time":1770000000000,"state":"active","ping":82},{"user_id":143,"name":"Nolan","steam_id":76561198169648081,"connected_time":4829000000000,"state":"active","ping":74},{"user_id":183,"name":"the rhode island toe sniffer","steam_id":76561199134895220,"connected_time":1109000000000,"state":"active","ping":67},{"user_id":149,"name":"Sailor Jupiter","steam_id":76561198125094648,"connected_time":3875000000000,"state":"active","ping":64},{"user_id":176,"name":"ALF","steam_id":76561198052756507,"connected_time":1340000000000,"state":"active","ping":61},{"user_id":119,"name":"System","steam_id":76561198148087137,"connected_time":6275000000000,"state":"active","ping":80},{"user_id":172,"name":"Censing Auto, The Challenger","steam_id":76561198060926681,"connected_time":1608000000000,"state":"active","ping":51},{"user_id":187,"name":"randomperson88","steam_id":76561199228822173,"connected_time":628000000000,"state":"active","ping":45}]},{"server_id":402,"name":"Uncletopia | Chicago | 3 | All Maps","name_short":"chi-3","host":"chi-1.us.uncletopia.com","port":27035,"enabled":true,"region":"us-central","cc":"us","latitude":41.881832,"longitude":-87.62318,"reserved":0,"last_update":"0001-01-01T00:00:00Z","name_a2s":"Uncletopia | Chicago | 3 | All Maps","protocol":17,"map":"cp_dustbowl","folder":"tf","game":"Team Fortress","app_id":440,"player_count":24,"max_players":24,"Bots":0,"server_type":"Dedicated","server_os":"Linux","password":true,"vac":true,"version":"7742253","steam_id":85568392924515191,"keywords":["cp","nocrits","nodmgspread","uncletopia"],"game_id":440,"stv_port":27036,"stv_name":"Uncletopia | Chicago | 3 | All Maps | STV","players":[{"user_id":153,"name":"RyanDCB [Real]","steam_id":76561198040138739,"connected_time":3017000000000,"state":"active","ping":55},{"user_id":179,"name":"Random Person","steam_id":76561198990531385,"connected_time":93000000000,"state":"active","ping":75},{"user_id":121,"name":"Hylic","steam_id":76561199051314589,"connected_time":5498000000000,"state":"active","ping":65},{"user_id":165,"name":"Kelpy G","steam_id":76561198105330587,"connected_time":1710000000000,"state":"active","ping":72},{"user_id":154,"name":"***","steam_id":76561198160976692,"connected_time":2995000000000,"state":"active","ping":74},{"user_id":127,"name":"For Jack","steam_id":76561198322674283,"connected_time":5254000000000,"state":"active","ping":69},{"user_id":156,"name":"The Sinister Potion","steam_id":76561198131280715,"connected_time":2984000000000,"state":"active","ping":95},{"user_id":169,"name":"B U L B U S 4K","steam_id":76561198095103255,"connected_time":1260000000000,"state":"active","ping":82},{"user_id":164,"name":"Bread Baker","steam_id":76561198185335103,"connected_time":2000000000000,"state":"active","ping":60},{"user_id":151,"name":"TomatoChair","steam_id":76561199083959877,"connected_time":3077000000000,"state":"active","ping":86},{"user_id":152,"name":"footoftheday","steam_id":76561198052712449,"connected_time":3068000000000,"state":"active","ping":64},{"user_id":180,"name":"a crazy hobo","steam_id":76561198289650060,"connected_time":90000000000,"state":"active","ping":83},{"user_id":171,"name":"HappySmiles1010","steam_id":76561199202300463,"connected_time":1238000000000,"state":"active","ping":85},{"user_id":172,"name":"Cretin32","steam_id":76561198986265728,"connected_time":1195000000000,"state":"active","ping":93},{"user_id":182,"name":"Splnter","steam_id":76561198874186629,"connected_time":34000000000,"state":"active","ping":66},{"user_id":173,"name":"Caretnose","steam_id":76561198021762583,"connected_time":1161000000000,"state":"active","ping":45},{"user_id":166,"name":"hauntaholic","steam_id":76561198095051652,"connected_time":1341000000000,"state":"active","ping":66},{"user_id":145,"name":"Bonk","steam_id":76561198116945752,"connected_time":3522000000000,"state":"active","ping":63},{"user_id":163,"name":"The Fortress From Team Fortress","steam_id":76561198081422503,"connected_time":2033000000000,"state":"active","ping":72},{"user_id":178,"name":"The Goose","steam_id":76561199006093549,"connected_time":570000000000,"state":"active","ping":60},{"user_id":175,"name":"Clownfish","steam_id":76561197991178595,"connected_time":1105000000000,"state":"active","ping":106},{"user_id":158,"name":"FiveHoursLater...","steam_id":76561198092608339,"connected_time":2964000000000,"state":"active","ping":85},{"user_id":131,"name":"Super Noob","steam_id":76561199179611350,"connected_time":5217000000000,"state":"active","ping":62},{"user_id":177,"name":"summerof69","steam_id":76561198069049410,"connected_time":981000000000,"state":"active","ping":49}]},{"server_id":403,"name":"Uncletopia | Chicago | 4 | All Maps","name_short":"chi-4","host":"chi-1.us.uncletopia.com","port":27045,"enabled":true,"region":"us-central","cc":"us","latitude":41.881832,"longitude":-87.62318,"reserved":0,"last_update":"0001-01-01T00:00:00Z","name_a2s":"Uncletopia | Chicago | 4 | All Maps","protocol":17,"map":"pl_pier","folder":"tf","game":"Team Fortress","app_id":440,"player_count":7,"max_players":24,"Bots":0,"server_type":"Dedicated","server_os":"Linux","password":true,"vac":true,"version":"7742253","steam_id":85568392924515193,"keywords":["nocrits","nodmgspread","payload","uncletopia"],"game_id":440,"stv_port":27046,"stv_name":"Uncletopia | Chicago | 4 | All Maps | STV","players":[{"user_id":28,"name":"Kit kyat (new mouse)","steam_id":76561198235786296,"connected_time":1816000000000,"state":"active","ping":59},{"user_id":29,"name":"zpoxthedark","steam_id":76561198199549510,"connected_time":1656000000000,"state":"active","ping":64},{"user_id":31,"name":"j4miecl4rk","steam_id":76561198404312721,"connected_time":352000000000,"state":"active","ping":55},{"user_id":32,"name":"11 INCH TGIRL SCHLONG","steam_id":76561198122059018,"connected_time":295000000000,"state":"active","ping":60},{"user_id":33,"name":"pluto965","steam_id":76561198122743085,"connected_time":280000000000,"state":"active","ping":71},{"user_id":34,"name":"Alexthegreat","steam_id":76561197996796222,"connected_time":249000000000,"state":"active","ping":61},{"user_id":35,"name":"extinct111","steam_id":76561199013696367,"connected_time":216000000000,"state":"active","ping":57}]},{"server_id":36,"name":"Uncletopia | Chicago | 5 | All Maps","name_short":"chi-5","host":"chi-2.us.uncletopia.com","port":27015,"enabled":true,"region":"us-central","cc":"us","latitude":41.881832,"longitude":-87.62318,"reserved":0,"last_update":"0001-01-01T00:00:00Z","name_a2s":"Uncletopia | Chicago | 5 | All Maps","protocol":17,"map":"koth_viaduct","folder":"tf","game":"Team Fortress","app_id":440,"player_count":21,"max_players":24,"Bots":0,"server_type":"Dedicated","server_os":"Linux","password":true,"vac":true,"version":"7742253","steam_id":85568392924866362,"keywords":["cp","nocrits","nodmgspread","uncletopia"],"game_id":440,"stv_port":27016,"stv_name":"Uncletopia | Chicago | 5 | All Maps | STV","players":[{"user_id":6,"name":"daemon","steam_id":76561198001541433,"connected_time":2164000000000,"state":"active","ping":60},{"user_id":8,"name":"--_Cook_--","steam_id":76561198080855748,"connected_time":2139000000000,"state":"active","ping":77},{"user_id":52,"name":"block","steam_id":76561199167598156,"connected_time":112000000000,"state":"active","ping":68},{"user_id":12,"name":"C papi","steam_id":76561198027779564,"connected_time":2038000000000,"state":"active","ping":48},{"user_id":13,"name":"KingCreeper08","steam_id":76561198353154907,"connected_time":2034000000000,"state":"active","ping":107},{"user_id":14,"name":"Blue Collar","steam_id":76561198354781722,"connected_time":2029000000000,"state":"active","ping":86},{"user_id":37,"name":"BigOrca54","steam_id":76561198181360271,"connected_time":964000000000,"state":"active","ping":53},{"user_id":34,"name":"moms laptop","steam_id":76561198288482730,"connected_time":1153000000000,"state":"active","ping":102},{"user_id":38,"name":"FoW Scout (will mark you)","steam_id":76561198053046161,"connected_time":951000000000,"state":"active","ping":74},{"user_id":39,"name":"1 gram of cock","steam_id":76561199365887836,"connected_time":945000000000,"state":"active","ping":157},{"user_id":27,"name":"I Rush ‚Åß‚ÅßRussians","steam_id":76561198119454013,"connected_time":1398000000000,"state":"active","ping":65},{"user_id":47,"name":"Abomination","steam_id":76561198167974713,"connected_time":747000000000,"state":"active","ping":64},{"user_id":24,"name":"Syrix","steam_id":76561198017328672,"connected_time":1460000000000,"state":"active","ping":63},{"user_id":25,"name":"Delahaunt√®","steam_id":76561198117148323,"connected_time":1453000000000,"state":"active","ping":52},{"user_id":51,"name":"RyInc","steam_id":76561198874261643,"connected_time":311000000000,"state":"active","ping":55},{"user_id":28,"name":"Kaluka","steam_id":76561198036861445,"connected_time":1390000000000,"state":"active","ping":68},{"user_id":42,"name":"Zicky Nee","steam_id":76561198042601111,"connected_time":831000000000,"state":"active","ping":213},{"user_id":30,"name":"Mikoo","steam_id":76561198260292699,"connected_time":1341000000000,"state":"active","ping":66},{"user_id":43,"name":"Banana Patrick","steam_id":76561198258067237,"connected_time":827000000000,"state":"active","ping":63},{"user_id":49,"name":"Coupon","steam_id":76561198111947598,"connected_time":422000000000,"state":"active","ping":89},{"user_id":48,"name":"Pi Guy","steam_id":76561199071784224,"connected_time":718000000000,"state":"active","ping":63}]},{"server_id":37,"name":"Uncletopia | Chicago | 6 | All Maps","name_short":"chi-6","host":"chi-2.us.uncletopia.com","port":27025,"enabled":true,"region":"us-central","cc":"us","latitude":41.881832,"longitude":-87.62318,"reserved":0,"last_update":"0001-01-01T00:00:00Z","name_a2s":"Uncletopia | Chicago | 6 | All Maps","protocol":17,"map":"pl_pier","folder":"tf","game":"Team Fortress","app_id":440,"player_count":24,"max_players":24,"Bots":0,"server_type":"Dedicated","server_os":"Linux","password":true,"vac":true,"version":"7742253","steam_id":85568392924866363,"keywords":["nocrits","nodmgspread","payload","uncletopia"],"game_id":440,"stv_port":27026,"stv_name":"Uncletopia | Chicago | 6 | All Maps | STV","players":[{"user_id":5,"name":"Lucon","steam_id":76561198067147724,"connected_time":4844000000000,"state":"active","ping":63},{"user_id":74,"name":"6t26j","steam_id":76561198278282836,"connected_time":717000000000,"state":"active","ping":58},{"user_id":58,"name":"bobbyreinman2009","steam_id":76561198804763186,"connected_time":1763000000000,"state":"active","ping":61},{"user_id":75,"name":"TrashCanGaming","steam_id":76561199150746424,"connected_time":703000000000,"state":"active","ping":52},{"user_id":87,"name":"Errrmmett","steam_id":76561198041314051,"connected_time":540000000000,"state":"active","ping":59},{"user_id":70,"name":"Metna ‚òÅ","steam_id":76561198092381079,"connected_time":791000000000,"state":"active","ping":60},{"user_id":91,"name":"GibWilly","steam_id":76561199072518408,"connected_time":424000000000,"state":"active","ping":51},{"user_id":71,"name":"Chuckled","steam_id":76561198217425919,"connected_time":784000000000,"state":"active","ping":73},{"user_id":18,"name":"Dark_Eagle","steam_id":76561198397908108,"connected_time":3968000000000,"state":"active","ping":75},{"user_id":73,"name":"Mr. Stockington","steam_id":76561198091354032,"connected_time":753000000000,"state":"active","ping":92},{"user_id":93,"name":":)","steam_id":76561198093921290,"connected_time":87000000000,"state":"active","ping":57},{"user_id":77,"name":"moneyspeaks21","steam_id":76561198189429665,"connected_time":687000000000,"state":"active","ping":75},{"user_id":78,"name":"viper","steam_id":76561198839942937,"connected_time":668000000000,"state":"active","ping":80},{"user_id":25,"name":"Tuxedo Terrorist","steam_id":76561198153510094,"connected_time":3693000000000,"state":"active","ping":52},{"user_id":50,"name":"sork","steam_id":76561198082446459,"connected_time":2587000000000,"state":"active","ping":72},{"user_id":92,"name":"poiuytrewqwqwqwqwqwqwqwqwqwqwqw","steam_id":76561199105253001,"connected_time":332000000000,"state":"active","ping":67},{"user_id":86,"name":"rudy","steam_id":76561198088712799,"connected_time":582000000000,"state":"active","ping":70},{"user_id":62,"name":"‚ô¶SpaceCatPro‚ô¶","steam_id":76561199243795978,"connected_time":1271000000000,"state":"active","ping":79},{"user_id":80,"name":"ankh","steam_id":76561199121935667,"connected_time":657000000000,"state":"active","ping":71},{"user_id":95,"name":"Smite","steam_id":76561197999845696,"connected_time":4000000000,"state":"spawning","ping":58},{"user_id":82,"name":"Robyn Goodfellowe","steam_id":76561198074719241,"connected_time":646000000000,"state":"active","ping":60},{"user_id":84,"name":"Danny Darrow","steam_id":76561198883736130,"connected_time":644000000000,"state":"active","ping":108},{"user_id":43,"name":"A Cuppa Cat","steam_id":76561198401288612,"connected_time":3068000000000,"state":"active","ping":96},{"user_id":90,"name":"eis","steam_id":76561198830293087,"connected_time":472000000000,"state":"active","ping":45}]},{"server_id":38,"name":"Uncletopia | Chicago | 7 | Stopwatch Beta","name_short":"chi-7","host":"chi-2.us.uncletopia.com","port":27035,"enabled":true,"region":"us-central","cc":"us","latitude":41.881832,"longitude":-87.62318,"reserved":0,"last_update":"0001-01-01T00:00:00Z","name_a2s":"Uncletopia | Chicago | 7 | Stopwatch Beta","protocol":17,"map":"koth_lakeside_final","folder":"tf","game":"Team Fortress","app_id":440,"player_count":0,"max_players":24,"Bots":0,"server_type":"Dedicated","server_os":"Linux","password":true,"vac":true,"version":"7742253","steam_id":85568392924866364,"keywords":["cp","nocrits","nodmgspread","uncletopia"],"game_id":440,"stv_port":27036,"stv_name":"Uncletopia | Chicago | 7 | Stopwatch Beta | STV","players":null},{"server_id":39,"name":"Uncletopia | Chicago | 8 | Community","name_short":"chi-8","host":"chi-2.us.uncletopia.com","port":27045,"enabled":true,"region":"us-central","cc":"us","latitude":41.881832,"longitude":-87.62318,"reserved":0,"last_update":"0001-01-01T00:00:00Z","name_a2s":"Uncletopia | Chicago | 8 | Community","protocol":17,"map":"koth_lakeside_final","folder":"tf","game":"Team Fortress","app_id":440,"player_count":0,"max_players":24,"Bots":0,"server_type":"Dedicated","server_os":"Linux","password":true,"vac":true,"version":"7742253","steam_id":85568392924866365,"keywords":["cp","nocrits","nodmgspread","uncletopia"],"game_id":440,"stv_port":27046,"stv_name":"Uncletopia | Chicago | 8 | Community | STV","players":null},{"server_id":8,"name":"Uncletopia | Dallas | 1 | All Maps","name_short":"dal-1","host":"dal-1.us.uncletopia.com","port":27015,"enabled":true,"region":"us-central","cc":"us","latitude":32.779167,"longitude":-96.80889,"reserved":0,"last_update":"0001-01-01T00:00:00Z","name_a2s":"Uncletopia | Dallas | 1 | All Maps","protocol":17,"map":"cp_dustbowl","folder":"tf","game":"Team Fortress","app_id":440,"player_count":24,"max_players":24,"Bots":0,"server_type":"Dedicated","server_os":"Linux","password":true,"vac":true,"version":"7742253","steam_id":85568392924469986,"keywords":["cp","nocrits","nodmgspread","uncletopia"],"game_id":440,"stv_port":27016,"stv_name":"Uncletopia | Dallas | 1 | All Maps | STV","players":[{"user_id":140,"name":"Derblitz","steam_id":76561198040953176,"connected_time":2531000000000,"state":"active","ping":81},{"user_id":167,"name":"Soldier Impact","steam_id":76561198157004224,"connected_time":884000000000,"state":"active","ping":77},{"user_id":168,"name":"thebestperson1010","steam_id":76561199103241008,"connected_time":884000000000,"state":"active","ping":53},{"user_id":159,"name":"Frost","steam_id":76561198272014381,"connected_time":1119000000000,"state":"active","ping":82},{"user_id":147,"name":"Kenku","steam_id":76561199086762926,"connected_time":2213000000000,"state":"active","ping":86},{"user_id":160,"name":"Fat Cat Burglar","steam_id":76561198021790932,"connected_time":1111000000000,"state":"active","ping":39},{"user_id":149,"name":"Muffim","steam_id":76561198056704533,"connected_time":1846000000000,"state":"active","ping":65},{"user_id":116,"name":"Moonflower ‚ú¶","steam_id":76561198191782483,"connected_time":6040000000000,"state":"active","ping":56},{"user_id":142,"name":"The Prankster‚Ñ¢","steam_id":76561199123285878,"connected_time":2315000000000,"state":"active","ping":86},{"user_id":150,"name":"Felinity Black Lives Matter","steam_id":76561197967253119,"connected_time":1810000000000,"state":"active","ping":63},{"user_id":85,"name":"Rat Smacker","steam_id":76561199090197628,"connected_time":7595000000000,"state":"active","ping":59},{"user_id":155,"name":"poogestisi","steam_id":76561198262572343,"connected_time":1629000000000,"state":"active","ping":71},{"user_id":163,"name":"danny_dorito","steam_id":76561198288202783,"connected_time":1039000000000,"state":"active","ping":75},{"user_id":111,"name":"Elena Manetta","steam_id":76561197998344054,"connected_time":6223000000000,"state":"active","ping":75},{"user_id":119,"name":"‚òÜNebula-Belt‚òÜ","steam_id":76561198151250806,"connected_time":5216000000000,"state":"active","ping":106},{"user_id":164,"name":"CSchnappi","steam_id":76561198131999968,"connected_time":1035000000000,"state":"active","ping":41},{"user_id":165,"name":"Octobella Enthusiast","steam_id":76561198199266047,"connected_time":1027000000000,"state":"active","ping":72},{"user_id":97,"name":"Sergeant-Z","steam_id":76561198220204121,"connected_time":7106000000000,"state":"active","ping":128},{"user_id":166,"name":"Echo","steam_id":76561198355713484,"connected_time":1024000000000,"state":"active","ping":100},{"user_id":139,"name":"Jello","steam_id":76561198890633732,"connected_time":2943000000000,"state":"active","ping":69},{"user_id":125,"name":"Dillon","steam_id":76561198191469611,"connected_time":5101000000000,"state":"active","ping":103},{"user_id":113,"name":"catface","steam_id":76561198096347625,"connected_time":6189000000000,"state":"active","ping":88},{"user_id":137,"name":"KittyCatMeowMeow","steam_id":76561198211632819,"connected_time":3318000000000,"state":"active","ping":58},{"user_id":146,"name":"RedTheFoxisWow","steam_id":76561198827275380,"connected_time":2271000000000,"state":"active","ping":66}]},{"server_id":108,"name":"Uncletopia | Dallas | 2 | All Maps","name_short":"dal-2","host":"dal-1.us.uncletopia.com","port":27025,"enabled":true,"region":"us-central","cc":"us","latitude":32.779167,"longitude":-96.80889,"reserved":0,"last_update":"0001-01-01T00:00:00Z","name_a2s":"Uncletopia | Dallas | 2 | All Maps","protocol":17,"map":"cp_dustbowl","folder":"tf","game":"Team Fortress","app_id":440,"player_count":1,"max_players":24,"Bots":0,"server_type":"Dedicated","server_os":"Linux","password":true,"vac":true,"version":"7742253","steam_id":85568392924469988,"keywords":["cp","nocrits","nodmgspread","uncletopia"],"game_id":440,"stv_port":27026,"stv_name":"Uncletopia | Dallas | 2 | All Maps | STV","players":[{"user_id":38,"name":"Red Heavy The Sandwich Slayer","steam_id":76561199187226776,"connected_time":203000000000,"state":"active","ping":47}]},{"server_id":5,"name":"Uncletopia | Frankfurt | 1 | All Maps","name_short":"frk-1","host":"frk-1.de.uncletopia.com","port":27015,"enabled":true,"region":"eu","cc":"de","latitude":50.110924,"longitude":8.682127,"reserved":0,"last_update":"0001-01-01T00:00:00Z","name_a2s":"Uncletopia | Frankfurt | 1 | All Maps","protocol":17,"map":"pl_swiftwater_final1","folder":"tf","game":"Team Fortress","app_id":440,"player_count":24,"max_players":24,"Bots":0,"server_type":"Dedicated","server_os":"Linux","password":true,"vac":true,"version":"7742253","steam_id":85568392924469989,"keywords":["nocrits","nodmgspread","payload","uncletopia"],"game_id":440,"stv_port":27016,"stv_name":"Uncletopia | Frankfurt | 1 | All Maps | STV","players":[{"user_id":759,"name":"Yessirskiii","steam_id":76561198179324075,"connected_time":512000000000,"state":"active","ping":70},{"user_id":752,"name":"AiRBiscuiT","steam_id":76561198348655114,"connected_time":1095000000000,"state":"active","ping":61},{"user_id":736,"name":"3 Netherite incident","steam_id":76561199082027723,"connected_time":2254000000000,"state":"active","ping":55},{"user_id":744,"name":"NiKoRo","steam_id":76561197963686614,"connected_time":1698000000000,"state":"active","ping":82},{"user_id":678,"name":"|20BB)\u003eMach","steam_id":76561198952487564,"connected_time":7658000000000,"state":"active","ping":77},{"user_id":748,"name":"dreskar","steam_id":76561198190877153,"connected_time":1343000000000,"state":"active","ping":57},{"user_id":760,"name":"Le Chevalier Pingouin","steam_id":76561198221355000,"connected_time":509000000000,"state":"active","ping":53},{"user_id":757,"name":"Ben Doverr","steam_id":76561198034264020,"connected_time":848000000000,"state":"active","ping":117},{"user_id":719,"name":"Ducky[WADZ]üê§","steam_id":76561198060341245,"connected_time":4024000000000,"state":"active","ping":55},{"user_id":739,"name":"D4n","steam_id":76561198947987691,"connected_time":2140000000000,"state":"active","ping":48},{"user_id":751,"name":"Enforcer02","steam_id":76561197966045944,"connected_time":1110000000000,"state":"active","ping":50},{"user_id":754,"name":"yurkur","steam_id":76561198407108497,"connected_time":972000000000,"state":"active","ping":47},{"user_id":750,"name":"Kremete","steam_id":76561198047984096,"connected_time":1170000000000,"state":"active","ping":69},{"user_id":741,"name":"MR.CRAB","steam_id":76561198329833659,"connected_time":1903000000000,"state":"active","ping":75},{"user_id":603,"name":"Rudebwoyyy","steam_id":76561199387956486,"connected_time":12255000000000,"state":"active","ping":59},{"user_id":761,"name":"Dolphin2011","steam_id":76561197997323419,"connected_time":483000000000,"state":"active","ping":87},{"user_id":758,"name":"Luke","steam_id":76561197993517025,"connected_time":690000000000,"state":"active","ping":69},{"user_id":742,"name":"breadlikeme.","steam_id":76561198133532980,"connected_time":1903000000000,"state":"active","ping":60},{"user_id":762,"name":"cat","steam_id":76561199403426930,"connected_time":330000000000,"state":"active","ping":58},{"user_id":746,"name":"weSt","steam_id":76561198000913325,"connected_time":1417000000000,"state":"active","ping":63},{"user_id":756,"name":"Myths You Forgot","steam_id":76561198104896547,"connected_time":953000000000,"state":"active","ping":75},{"user_id":686,"name":"Whirlwind","steam_id":76561198942024930,"connected_time":7467000000000,"state":"active","ping":104},{"user_id":747,"name":"üòà COCKDESTROYER üòà","steam_id":76561198042846999,"connected_time":1417000000000,"state":"active","ping":64},{"user_id":647,"name":"LarsInABox","steam_id":76561198028329262,"connected_time":9869000000000,"state":"active","ping":74}]},{"server_id":110,"name":"Uncletopia | Frankfurt | 2 | All Maps","name_short":"frk-2","host":"frk-1.de.uncletopia.com","port":27025,"enabled":true,"region":"eu","cc":"de","latitude":50.110924,"longitude":8.682127,"reserved":0,"last_update":"0001-01-01T00:00:00Z","name_a2s":"Uncletopia | Frankfurt | 2 | All Maps","protocol":17,"map":"pl_swiftwater_final1","folder":"tf","game":"Team Fortress","app_id":440,"player_count":24,"max_players":24,"Bots":0,"server_type":"Dedicated","server_os":"Linux","password":true,"vac":true,"version":"7742253","steam_id":85568392924469990,"keywords":["nocrits","nodmgspread","payload","uncletopia"],"game_id":440,"stv_port":27026,"stv_name":"Uncletopia | Frankfurt | 2 | All Maps | STV","players":[{"user_id":673,"name":"Seb, Comrade","steam_id":76561198040279587,"connected_time":875000000000,"state":"active","ping":80},{"user_id":650,"name":"Pruff","steam_id":76561198377084417,"connected_time":2340000000000,"state":"active","ping":61},{"user_id":620,"name":"Kenny","steam_id":76561198107911141,"connected_time":4285000000000,"state":"active","ping":56},{"user_id":520,"name":"ivanmixo","steam_id":76561198160213989,"connected_time":10462000000000,"state":"active","ping":60},{"user_id":682,"name":"cockwater","steam_id":76561198209101861,"connected_time":208000000000,"state":"active","ping":73},{"user_id":657,"name":"_zipfile","steam_id":76561198066133808,"connected_time":1837000000000,"state":"active","ping":74},{"user_id":676,"name":"chunked out of your bean","steam_id":76561198148074472,"connected_time":837000000000,"state":"active","ping":35},{"user_id":612,"name":"glyph","steam_id":76561197980736364,"connected_time":5115000000000,"state":"active","ping":73},{"user_id":652,"name":"Burrito","steam_id":76561198023919089,"connected_time":2076000000000,"state":"active","ping":80},{"user_id":677,"name":"El Gato Volador","steam_id":76561198021296882,"connected_time":836000000000,"state":"active","ping":77},{"user_id":678,"name":"WHUSSKEY","steam_id":76561198137827441,"connected_time":795000000000,"state":"active","ping":55},{"user_id":681,"name":"‚ùÖ‚úÆnurse‚úÆ‚ùÖ lft 6s","steam_id":76561198204505424,"connected_time":467000000000,"state":"active","ping":87},{"user_id":653,"name":"jeff","steam_id":76561198025815509,"connected_time":1981000000000,"state":"active","ping":56},{"user_id":628,"name":"Talent","steam_id":76561198153880354,"connected_time":3821000000000,"state":"active","ping":61},{"user_id":658,"name":"Joseph Greenman","steam_id":76561198211569383,"connected_time":1794000000000,"state":"active","ping":73},{"user_id":632,"name":"Yos","steam_id":76561199056318258,"connected_time":3741000000000,"state":"active","ping":76},{"user_id":633,"name":"o_o","steam_id":76561198113045011,"connected_time":3735000000000,"state":"active","ping":90},{"user_id":662,"name":"yuh","steam_id":76561199005555839,"connected_time":1625000000000,"state":"active","ping":65},{"user_id":660,"name":"cl","steam_id":76561199436640904,"connected_time":1746000000000,"state":"active","ping":64},{"user_id":679,"name":"Crocodile DZ","steam_id":76561198145132844,"connected_time":790000000000,"state":"active","ping":106},{"user_id":661,"name":"silenk","steam_id":76561198367689055,"connected_time":1656000000000,"state":"active","ping":67},{"user_id":670,"name":"many thanks","steam_id":76561198089003514,"connected_time":1164000000000,"state":"active","ping":45},{"user_id":671,"name":"Loud Pack","steam_id":76561198122181176,"connected_time":1144000000000,"state":"active","ping":94},{"user_id":647,"name":"Lennox","steam_id":76561198069063554,"connected_time":2378000000000,"state":"active","ping":45}]},{"server_id":308,"name":"Uncletopia | Frankfurt | 3 | All Maps","name_short":"frk-3","host":"frk-1.de.uncletopia.com","port":27035,"enabled":true,"region":"eu","cc":"de","latitude":50.110924,"longitude":8.682127,"reserved":0,"last_update":"0001-01-01T00:00:00Z","name_a2s":"Uncletopia | Frankfurt | 3 | All Maps","protocol":17,"map":"ctf_doublecross_snowy","folder":"tf","game":"Team Fortress","app_id":440,"player_count":24,"max_players":24,"Bots":0,"server_type":"Dedicated","server_os":"Linux","password":true,"vac":true,"version":"7742253","steam_id":85568392924504274,"keywords":["ctf","nocrits","nodmgspread","uncletopia"],"game_id":440,"stv_port":27036,"stv_name":"Uncletopia | Frankfurt | 3 | All Maps | STV","players":[{"user_id":609,"name":"ikc159","steam_id":76561198020559026,"connected_time":438000000000,"state":"active","ping":59},{"user_id":527,"name":"gatt","steam_id":76561198130597877,"connected_time":5272000000000,"state":"active","ping":62},{"user_id":613,"name":"Loading","steam_id":76561198201981190,"connected_time":33000000000,"state":"spawning","ping":69},{"user_id":612,"name":"Eck","steam_id":76561198170101474,"connected_time":127000000000,"state":"active","ping":74},{"user_id":598,"name":"Myknakryu","steam_id":76561198041782084,"connected_time":913000000000,"state":"active","ping":60},{"user_id":575,"name":"Wallster","steam_id":76561198329647787,"connected_time":2529000000000,"state":"active","ping":79},{"user_id":599,"name":"Smog","steam_id":76561198102562006,"connected_time":877000000000,"state":"active","ping":63},{"user_id":560,"name":"nairolf","steam_id":76561198007055352,"connected_time":3108000000000,"state":"active","ping":45},{"user_id":573,"name":"Pootis","steam_id":76561198215703496,"connected_time":2554000000000,"state":"active","ping":52},{"user_id":574,"name":"super idolÁöÑÁ¨ëÂÆπÈÉΩÊ≤°‰Ω†ÁöÑ","steam_id":76561198103181033,"connected_time":2552000000000,"state":"active","ping":64},{"user_id":567,"name":"Ale1199","steam_id":76561198994871986,"connected_time":2875000000000,"state":"active","ping":73},{"user_id":601,"name":"manKe","steam_id":76561198008564860,"connected_time":852000000000,"state":"active","ping":60},{"user_id":591,"name":"John Ross","steam_id":76561198034560808,"connected_time":1405000000000,"state":"active","ping":45},{"user_id":608,"name":"Party in the wall house","steam_id":76561199002798794,"connected_time":472000000000,"state":"active","ping":85},{"user_id":610,"name":"Adopted?","steam_id":76561198118667043,"connected_time":387000000000,"state":"active","ping":62},{"user_id":604,"name":"You should killbind NOW","steam_id":76561198064795519,"connected_time":640000000000,"state":"active","ping":54},{"user_id":594,"name":"Domestic Terrorist","steam_id":76561197996082636,"connected_time":1325000000000,"state":"active","ping":89},{"user_id":559,"name":"UnkillableDemonKing","steam_id":76561198050369473,"connected_time":3293000000000,"state":"active","ping":61},{"user_id":605,"name":"Pinkchup","steam_id":76561198106802803,"connected_time":610000000000,"state":"active","ping":77},{"user_id":606,"name":"Minimi","steam_id":76561198873850443,"connected_time":606000000000,"state":"active","ping":51},{"user_id":607,"name":"Zonts","steam_id":76561198850176432,"connected_time":600000000000,"state":"active","ping":77},{"user_id":581,"name":"soil.dirt.earth","steam_id":76561198014377623,"connected_time":2286000000000,"state":"active","ping":72},{"user_id":526,"name":"Dr.Nefario","steam_id":76561198874586020,"connected_time":5504000000000,"state":"active","ping":66},{"user_id":541,"name":"Truck-Sama's Victim","steam_id":76561198826861582,"connected_time":4212000000000,"state":"active","ping":80}]},{"server_id":309,"name":"Uncletopia | Frankfurt | 4 | All Maps","name_short":"frk-4","host":"frk-1.de.uncletopia.com","port":27045,"enabled":true,"region":"eu","cc":"de","latitude":50.110924,"longitude":8.682127,"reserved":0,"last_update":"0001-01-01T00:00:00Z","name_a2s":"Uncletopia | Frankfurt | 4 | All Maps","protocol":17,"map":"pl_swiftwater_final1","folder":"tf","game":"Team Fortress","app_id":440,"player_count":24,"max_players":24,"Bots":0,"server_type":"Dedicated","server_os":"Linux","password":true,"vac":true,"version":"7742253","steam_id":85568392924504275,"keywords":["nocrits","nodmgspread","payload","uncletopia"],"game_id":440,"stv_port":27046,"stv_name":"Uncletopia | Frankfurt | 4 | All Maps | STV","players":[{"user_id":650,"name":"Alexei","steam_id":76561197987169026,"connected_time":929000000000,"state":"active","ping":55},{"user_id":620,"name":"timothytrombone456","steam_id":76561197995676953,"connected_time":2917000000000,"state":"active","ping":45},{"user_id":640,"name":"PaperPlay","steam_id":76561198046838964,"connected_time":1537000000000,"state":"active","ping":112},{"user_id":656,"name":"f0x","steam_id":76561198072921704,"connected_time":856000000000,"state":"active","ping":63},{"user_id":651,"name":"SPONGE","steam_id":76561198040933472,"connected_time":927000000000,"state":"active","ping":60},{"user_id":652,"name":"Echo of Abyss","steam_id":76561198981841782,"connected_time":913000000000,"state":"active","ping":80},{"user_id":657,"name":"GURA","steam_id":76561198261941940,"connected_time":852000000000,"state":"active","ping":62},{"user_id":668,"name":"Trollface [·¥ô-Œº]","steam_id":76561198418538887,"connected_time":143000000000,"state":"active","ping":94},{"user_id":647,"name":"Frank","steam_id":76561198086672774,"connected_time":1062000000000,"state":"active","ping":57},{"user_id":624,"name":"tone","steam_id":76561197975301462,"connected_time":2871000000000,"state":"active","ping":86},{"user_id":654,"name":"Broccoli","steam_id":76561198006251462,"connected_time":891000000000,"state":"active","ping":56},{"user_id":670,"name":"Captain Haddock","steam_id":76561198176139366,"connected_time":11000000000,"state":"spawning","ping":60},{"user_id":667,"name":"BananaDispenser","steam_id":76561198870616933,"connected_time":589000000000,"state":"active","ping":75},{"user_id":644,"name":"Br4inP0w3r","steam_id":76561198133592621,"connected_time":1441000000000,"state":"active","ping":87},{"user_id":663,"name":"Tails8521","steam_id":76561198051747164,"connected_time":751000000000,"state":"active","ping":60},{"user_id":660,"name":"20BB Raxor","steam_id":76561198239927434,"connected_time":819000000000,"state":"active","ping":84},{"user_id":661,"name":"cream gravy","steam_id":76561198973069177,"connected_time":782000000000,"state":"active","ping":50},{"user_id":662,"name":"KingDumm79","steam_id":76561199242337520,"connected_time":782000000000,"state":"active","ping":44},{"user_id":669,"name":"Mankor","steam_id":76561198020439322,"connected_time":90000000000,"state":"active","ping":45},{"user_id":645,"name":"pumpkin spice go.ggez.ro","steam_id":76561198449957490,"connected_time":1348000000000,"state":"active","ping":66},{"user_id":665,"name":"Ruben Zo","steam_id":76561198063855616,"connected_time":744000000000,"state":"active","ping":70},{"user_id":666,"name":"78","steam_id":76561198208328357,"connected_time":743000000000,"state":"active","ping":75},{"user_id":632,"name":"homeinvasion$","steam_id":76561199111905021,"connected_time":2122000000000,"state":"active","ping":113},{"user_id":626,"name":"Windows Vista Cruiser","steam_id":76561198064102233,"connected_time":2864000000000,"state":"active","ping":66}]},{"server_id":310,"name":"Uncletopia | Frankfurt | 5 | All Maps","name_short":"frk-5","host":"frk-1.de.uncletopia.com","port":27055,"enabled":true,"region":"eu","cc":"de","latitude":50.110924,"longitude":8.682127,"reserved":0,"last_update":"0001-01-01T00:00:00Z","name_a2s":"Uncletopia | Frankfurt | 5 | All Maps","protocol":17,"map":"pl_barnblitz","folder":"tf","game":"Team Fortress","app_id":440,"player_count":24,"max_players":24,"Bots":0,"server_type":"Dedicated","server_os":"Linux","password":true,"vac":true,"version":"7742253","steam_id":85568392924504277,"keywords":["nocrits","nodmgspread","payload","uncletopia"],"game_id":440,"stv_port":27056,"stv_name":"Uncletopia | Frankfurt | 5 | All Maps | STV","players":[{"user_id":579,"name":"porridge","steam_id":76561198044585737,"connected_time":409000000000,"state":"active","ping":60},{"user_id":582,"name":"risco1bolota","steam_id":76561198323074603,"connected_time":326000000000,"state":"active","ping":85},{"user_id":578,"name":"O=(‚Äò-‚ÄôQ)","steam_id":76561198069685870,"connected_time":483000000000,"state":"active","ping":76},{"user_id":567,"name":"scantron","steam_id":76561199103959197,"connected_time":1159000000000,"state":"active","ping":107},{"user_id":559,"name":"Shiba","steam_id":76561198045215838,"connected_time":1689000000000,"state":"active","ping":79},{"user_id":560,"name":"Chambersite (can't chat)","steam_id":76561198197022399,"connected_time":1669000000000,"state":"active","ping":61},{"user_id":561,"name":"Hollow","steam_id":76561198315485935,"connected_time":1663000000000,"state":"active","ping":60},{"user_id":546,"name":"subway vergil","steam_id":76561199110064166,"connected_time":2796000000000,"state":"active","ping":110},{"user_id":534,"name":"yummy cheesecake","steam_id":76561198808819694,"connected_time":3731000000000,"state":"active","ping":53},{"user_id":562,"name":"Makima","steam_id":76561198083867904,"connected_time":1661000000000,"state":"active","ping":60},{"user_id":576,"name":"simn","steam_id":76561198159182269,"connected_time":676000000000,"state":"active","ping":51},{"user_id":531,"name":"rolling_tim","steam_id":76561198373668332,"connected_time":3952000000000,"state":"active","ping":54},{"user_id":583,"name":"MrMartin","steam_id":76561198399954507,"connected_time":307000000000,"state":"active","ping":90},{"user_id":584,"name":"LxZurk","steam_id":76561198114054978,"connected_time":125000000000,"state":"active","ping":60},{"user_id":557,"name":"Carrot","steam_id":76561198119340863,"connected_time":1974000000000,"state":"active","ping":55},{"user_id":570,"name":"dairy","steam_id":76561198117033273,"connected_time":1104000000000,"state":"active","ping":77},{"user_id":571,"name":"John Daly","steam_id":76561197993849325,"connected_time":1015000000000,"state":"active","ping":78},{"user_id":549,"name":"Malphite","steam_id":76561198073313660,"connected_time":2739000000000,"state":"active","ping":64},{"user_id":504,"name":"where is my egg?","steam_id":76561198172542535,"connected_time":5867000000000,"state":"active","ping":100},{"user_id":550,"name":"Jesus","steam_id":76561198119288049,"connected_time":2729000000000,"state":"active","ping":63},{"user_id":496,"name":"DanteFromDmc5","steam_id":76561198390314734,"connected_time":6170000000000,"state":"active","ping":70},{"user_id":538,"name":"It hurts when i pee (real)","steam_id":76561198139404261,"connected_time":3542000000000,"state":"active","ping":61},{"user_id":581,"name":"goblin boi üë∫","steam_id":76561198065987093,"connected_time":393000000000,"state":"active","ping":52},{"user_id":574,"name":"Zelmor","steam_id":76561197997708311,"connected_time":845000000000,"state":"active","ping":51}]},{"server_id":311,"name":"Uncletopia | Frankfurt | 6 | All Maps","name_short":"frk-6","host":"frk-1.de.uncletopia.com","port":27065,"enabled":true,"region":"eu","cc":"de","latitude":50.110924,"longitude":8.682127,"reserved":0,"last_update":"0001-01-01T00:00:00Z","name_a2s":"Uncletopia | Frankfurt | 6 | All Maps","protocol":17,"map":"pl_frontier_final","folder":"tf","game":"Team Fortress","app_id":440,"player_count":4,"max_players":24,"Bots":0,"server_type":"Dedicated","server_os":"Linux","password":true,"vac":true,"version":"7742253","steam_id":85568392924504278,"keywords":["nocrits","nodmgspread","payload","uncletopia"],"game_id":440,"stv_port":27066,"stv_name":"Uncletopia | Frankfurt | 6 | All Maps | STV","players":[{"user_id":225,"name":"Marec0002","steam_id":76561198117359113,"connected_time":31000000000,"state":"active","ping":38},{"user_id":226,"name":"Secundus","steam_id":76561199094034744,"connected_time":0,"state":"spawning","ping":19},{"user_id":205,"name":"cereals","steam_id":76561198058656179,"connected_time":2310000000000,"state":"active","ping":59},{"user_id":213,"name":"TheFox.tf","steam_id":76561197996851702,"connected_time":2021000000000,"state":"active","ping":65}]},{"server_id":23,"name":"Uncletopia | Frankfurt | 7 | Stopwatch Beta","name_short":"frk-7","host":"frk-1.de.uncletopia.com","port":27075,"enabled":true,"region":"eu","cc":"de","latitude":50.110924,"longitude":8.682127,"reserved":0,"last_update":"0001-01-01T00:00:00Z","name_a2s":"Uncletopia | Frankfurt | 7 | Stopwatch Beta","protocol":17,"map":"workshop/pl_badwater_pro_v12.ugc2142942074","folder":"tf","game":"Team Fortress","app_id":440,"player_count":0,"max_players":24,"Bots":0,"server_type":"Dedicated","server_os":"Linux","password":true,"vac":true,"version":"7742253","steam_id":85568392924742827,"keywords":["nocrits","nodmgspread","payload","uncletopia"],"game_id":440,"stv_port":27076,"stv_name":"Uncletopia | Frankfurt | 7 | Stopwatch Beta | STV","players":null},{"server_id":24,"name":"Uncletopia | Frankfurt | 8 | Community","name_short":"frk-8","host":"frk-1.de.uncletopia.com","port":27085,"enabled":true,"region":"eu","cc":"de","latitude":50.110924,"longitude":8.682127,"reserved":0,"last_update":"0001-01-01T00:00:00Z","name_a2s":"Uncletopia | Frankfurt | 8 | Community","protocol":17,"map":"workshop/cp_reckoner_rc6.ugc674719999","folder":"tf","game":"Team Fortress","app_id":440,"player_count":0,"max_players":24,"Bots":0,"server_type":"Dedicated","server_os":"Linux","password":true,"vac":true,"version":"7742253","steam_id":85568392924742828,"keywords":["cp","nocrits","nodmgspread","uncletopia"],"game_id":440,"stv_port":27086,"stv_name":"Uncletopia | Frankfurt | 8 | Community | STV","players":null},{"server_id":202,"name":"Uncletopia | Hong Kong | 1 | All Maps","name_short":"hgk-1","host":"hgk-1.hk.uncletopia.com","port":27015,"enabled":true,"region":"asia","cc":"hk","latitude":22.302711,"longitude":114.177216,"reserved":0,"last_update":"0001-01-01T00:00:00Z","name_a2s":"Uncletopia | Hong Kong | 1 | All Maps","protocol":17,"map":"pl_badwater","folder":"tf","game":"Team Fortress","app_id":440,"player_count":0,"max_players":24,"Bots":0,"server_type":"Dedicated","server_os":"Linux","password":true,"vac":true,"version":"7742253","steam_id":85568392924494504,"keywords":["nocrits","nodmgspread","payload","uncletopia"],"game_id":440,"stv_port":27016,"stv_name":"Uncletopia | Hong Kong | 1 | All Maps | STV","players":null},{"server_id":1,"name":"Uncletopia | Los Angeles | 1 | All Maps","name_short":"lax-1","host":"lax-1.us.uncletopia.com","port":27015,"enabled":true,"region":"us-west","cc":"us","latitude":33.94279,"longitude":-118.41004,"reserved":0,"last_update":"0001-01-01T00:00:00Z","name_a2s":"Uncletopia | Los Angeles | 1 | All Maps","protocol":17,"map":"pl_barnblitz","folder":"tf","game":"Team Fortress","app_id":440,"player_count":24,"max_players":24,"Bots":0,"server_type":"Dedicated","server_os":"Linux","password":true,"vac":true,"version":"7742253","steam_id":85568392924469991,"keywords":["nocrits","nodmgspread","payload","uncletopia"],"game_id":440,"stv_port":27016,"stv_name":"Uncletopia | Los Angeles | 1 | All Maps | STV","players":[{"user_id":62,"name":"DejectedKiwi","steam_id":76561198115055574,"connected_time":98000000000,"state":"active","ping":70},{"user_id":59,"name":"The Squid Gamer‚Ñ¢","steam_id":76561198340621517,"connected_time":316000000000,"state":"active","ping":72},{"user_id":36,"name":"Prime","steam_id":76561198218218705,"connected_time":1967000000000,"state":"active","ping":72},{"user_id":64,"name":"Meat Popsicle","steam_id":76561197974158687,"connected_time":36000000000,"state":"active","ping":50},{"user_id":53,"name":"Fungus","steam_id":76561198390297486,"connected_time":920000000000,"state":"active","ping":42},{"user_id":55,"name":"N0_J0K3","steam_id":76561198287102197,"connected_time":590000000000,"state":"active","ping":78},{"user_id":19,"name":"Bigby","steam_id":76561199056842761,"connected_time":2624000000000,"state":"active","ping":54},{"user_id":14,"name":"jungus","steam_id":76561198129862008,"connected_time":3161000000000,"state":"active","ping":46},{"user_id":16,"name":"festivized autism girl","steam_id":76561198008908085,"connected_time":3007000000000,"state":"active","ping":35},{"user_id":48,"name":"TeCon","steam_id":76561198049127236,"connected_time":1324000000000,"state":"active","ping":58},{"user_id":18,"name":"ERRAfan72","steam_id":76561198025747866,"connected_time":2736000000000,"state":"active","ping":74},{"user_id":61,"name":"stepho","steam_id":76561199132035586,"connected_time":269000000000,"state":"active","ping":120},{"user_id":40,"name":"Harold","steam_id":76561198057317770,"connected_time":1933000000000,"state":"active","ping":46},{"user_id":63,"name":"SpookieTheSkeleton","steam_id":76561198191112263,"connected_time":77000000000,"state":"active","ping":103},{"user_id":24,"name":"bansheerubber","steam_id":76561198042009362,"connected_time":2514000000000,"state":"active","ping":56},{"user_id":25,"name":"Deno! Í∞ÑÎ∂Ä","steam_id":76561198041113335,"connected_time":2497000000000,"state":"active","ping":78},{"user_id":41,"name":"Back with the milk","steam_id":76561199020105501,"connected_time":1924000000000,"state":"active","ping":110},{"user_id":42,"name":"meow","steam_id":76561198298140571,"connected_time":1894000000000,"state":"active","ping":61},{"user_id":65,"name":"kbharcher","steam_id":76561198200138614,"connected_time":27000000000,"state":"spawning","ping":133},{"user_id":57,"name":"PrinceGrotle","steam_id":76561198206131603,"connected_time":470000000000,"state":"active","ping":121},{"user_id":58,"name":"Cake","steam_id":76561198318604761,"connected_time":424000000000,"state":"active","ping":96},{"user_id":66,"name":"The Lonely Croc","steam_id":76561198123241396,"connected_time":13000000000,"state":"spawning","ping":86},{"user_id":39,"name":"ToastyNuts","steam_id":76561198064465418,"connected_time":1949000000000,"state":"active","ping":86},{"user_id":49,"name":"Mysteryred12","steam_id":76561199206772814,"connected_time":1274000000000,"state":"active","ping":93}]},{"server_id":112,"name":"Uncletopia | Los Angeles | 2 | All Maps","name_short":"lax-2","host":"lax-1.us.uncletopia.com","port":27025,"enabled":true,"region":"us-west","cc":"us","latitude":33.94279,"longitude":-118.41004,"reserved":0,"last_update":"0001-01-01T00:00:00Z","name_a2s":"Uncletopia | Los Angeles | 2 | All Maps","protocol":17,"map":"cp_snakewater_final1","folder":"tf","game":"Team Fortress","app_id":440,"player_count":0,"max_players":24,"Bots":0,"server_type":"Dedicated","server_os":"Linux","password":true,"vac":true,"version":"7742253","steam_id":85568392924469992,"keywords":["cp","nocrits","nodmgspread","uncletopia"],"game_id":440,"stv_port":27026,"stv_name":"Uncletopia | Los Angeles | 2 | All Maps | STV","players":null},{"server_id":324,"name":"Uncletopia | Los Angeles | 3 | All Maps","name_short":"lax-3","host":"lax-1.us.uncletopia.com","port":27035,"enabled":true,"region":"us-west","cc":"us","latitude":33.94279,"longitude":-118.41004,"reserved":0,"last_update":"0001-01-01T00:00:00Z","name_a2s":"Uncletopia | Los Angeles | 3 | All Maps","protocol":17,"map":"cp_mountainlab","folder":"tf","game":"Team Fortress","app_id":440,"player_count":0,"max_players":24,"Bots":0,"server_type":"Dedicated","server_os":"Linux","password":true,"vac":true,"version":"7742253","steam_id":85568392924510198,"keywords":["cp","nocrits","nodmgspread","uncletopia"],"game_id":440,"stv_port":27036,"stv_name":"Uncletopia | Los Angeles | 3 | All Maps | STV","players":null},{"server_id":25,"name":"Uncletopia | Los Angeles | 4 | Stopwatch Beta","name_short":"lax-4","host":"lax-1.us.uncletopia.com","port":27045,"enabled":true,"region":"us-west","cc":"us","latitude":33.94279,"longitude":-118.41004,"reserved":0,"last_update":"0001-01-01T00:00:00Z","name_a2s":"Uncletopia | Los Angeles | 4 | Stopwatch Beta","protocol":17,"map":"workshop/koth_clearcut_b15.ugc2107050255","folder":"tf","game":"Team Fortress","app_id":440,"player_count":0,"max_players":24,"Bots":0,"server_type":"Dedicated","server_os":"Linux","password":true,"vac":true,"version":"7742253","steam_id":85568392924510199,"keywords":["cp","nocrits","nodmgspread","uncletopia"],"game_id":440,"stv_port":27046,"stv_name":"Uncletopia | Los Angeles | 4 | Stopwatch Beta | STV","players":null},{"server_id":11,"name":"Uncletopia | London | 1 | All Maps","name_short":"lon-1","host":"lon-1.uk.uncletopia.com","port":27015,"enabled":true,"region":"eu","cc":"gb","latitude":51.509865,"longitude":-0.118092,"reserved":0,"last_update":"0001-01-01T00:00:00Z","name_a2s":"Uncletopia | London | 1 | All Maps","protocol":17,"map":"pl_frontier_final","folder":"tf","game":"Team Fortress","app_id":440,"player_count":23,"max_players":24,"Bots":0,"server_type":"Dedicated","server_os":"Linux","password":true,"vac":true,"version":"7742253","steam_id":85568392924367362,"keywords":["nocrits","nodmgspread","payload","uncletopia"],"game_id":440,"stv_port":27016,"stv_name":"Uncletopia | London | 1 | All Maps | STV","players":[{"user_id":784,"name":"The cost of living in the UK","steam_id":76561199000520747,"connected_time":465000000000,"state":"active","ping":46},{"user_id":790,"name":"Chief Quityourbitchin","steam_id":76561198860065033,"connected_time":107000000000,"state":"active","ping":46},{"user_id":788,"name":"Hotgamerdad","steam_id":76561198085940613,"connected_time":203000000000,"state":"active","ping":57},{"user_id":756,"name":"SPACEDOG//TRASHDOG","steam_id":76561199005845405,"connected_time":2083000000000,"state":"active","ping":45},{"user_id":786,"name":"Dirty Joe","steam_id":76561198142418870,"connected_time":401000000000,"state":"active","ping":46},{"user_id":779,"name":"Coac","steam_id":76561198085265740,"connected_time":1176000000000,"state":"active","ping":69},{"user_id":752,"name":"Sgreff","steam_id":76561198036304365,"connected_time":2225000000000,"state":"active","ping":44},{"user_id":792,"name":"Kruthal","steam_id":76561198245726582,"connected_time":70000000000,"state":"active","ping":75},{"user_id":785,"name":"Joxaren","steam_id":76561198049407893,"connected_time":463000000000,"state":"active","ping":53},{"user_id":694,"name":"KPhii","steam_id":76561198970587061,"connected_time":6640000000000,"state":"active","ping":53},{"user_id":698,"name":"Son Goku","steam_id":76561199383437138,"connected_time":6570000000000,"state":"active","ping":119},{"user_id":761,"name":"Posho","steam_id":76561198062396436,"connected_time":1974000000000,"state":"active","ping":44},{"user_id":771,"name":"try meditation","steam_id":76561198190690201,"connected_time":1391000000000,"state":"active","ping":64},{"user_id":791,"name":"pAftAq","steam_id":76561198359966356,"connected_time":106000000000,"state":"active","ping":90},{"user_id":749,"name":"dec","steam_id":76561198009660168,"connected_time":2673000000000,"state":"active","ping":48},{"user_id":787,"name":"Zoran Snajper","steam_id":76561198312564061,"connected_time":330000000000,"state":"active","ping":75},{"user_id":793,"name":"snowi","steam_id":76561198006502679,"connected_time":69000000000,"state":"active","ping":49},{"user_id":733,"name":"sigma female","steam_id":76561198298576765,"connected_time":3530000000000,"state":"active","ping":61},{"user_id":789,"name":"Dale ‚ù§","steam_id":76561197995189004,"connected_time":109000000000,"state":"active","ping":61},{"user_id":794,"name":"jovi_","steam_id":76561198449280552,"connected_time":66000000000,"state":"active","ping":53},{"user_id":783,"name":"Snort Vaulter","steam_id":76561198151757381,"connected_time":688000000000,"state":"active","ping":49},{"user_id":770,"name":"Fred","steam_id":76561198107137362,"connected_time":1458000000000,"state":"active","ping":51},{"user_id":735,"name":"stonebum","steam_id":76561198057004606,"connected_time":3490000000000,"state":"active","ping":60}]},{"server_id":114,"name":"Uncletopia | London | 2 | All Maps","name_short":"lon-2","host":"lon-1.uk.uncletopia.com","port":27025,"enabled":true,"region":"eu","cc":"gb","latitude":51.509865,"longitude":-0.118092,"reserved":0,"last_update":"0001-01-01T00:00:00Z","name_a2s":"Uncletopia | London | 2 | All Maps","protocol":17,"map":"pl_swiftwater_final1","folder":"tf","game":"Team Fortress","app_id":440,"player_count":24,"max_players":24,"Bots":0,"server_type":"Dedicated","server_os":"Linux","password":true,"vac":true,"version":"7742253","steam_id":85568392924470941,"keywords":["nocrits","nodmgspread","payload","uncletopia"],"game_id":440,"stv_port":27026,"stv_name":"Uncletopia | London | 2 | All Maps | STV","players":[{"user_id":762,"name":"Benzo Fury","steam_id":76561198025259336,"connected_time":1555000000000,"state":"active","ping":38},{"user_id":790,"name":"Scipionemiliano","steam_id":76561198027646559,"connected_time":128000000000,"state":"active","ping":97},{"user_id":791,"name":"Jevgenij","steam_id":76561198214848887,"connected_time":126000000000,"state":"active","ping":75},{"user_id":795,"name":"what can swim? a little stone","steam_id":76561198123131045,"connected_time":78000000000,"state":"active","ping":75},{"user_id":690,"name":"Jaffa_King7","steam_id":76561199061854803,"connected_time":4148000000000,"state":"active","ping":78},{"user_id":776,"name":"dripstein","steam_id":76561198059598696,"connected_time":1176000000000,"state":"active","ping":69},{"user_id":794,"name":"GazerBazer","steam_id":76561198879107565,"connected_time":100000000000,"state":"active","ping":39},{"user_id":701,"name":"Kosher Twink","steam_id":76561198397024973,"connected_time":3789000000000,"state":"active","ping":41},{"user_id":741,"name":"HanhiGaming","steam_id":76561198877007477,"connected_time":2583000000000,"state":"active","ping":93},{"user_id":757,"name":"Mushroom :-D","steam_id":76561198097786860,"connected_time":2023000000000,"state":"active","ping":83},{"user_id":796,"name":"Antidepresantas","steam_id":76561198039489413,"connected_time":38000000000,"state":"active","ping":77},{"user_id":771,"name":"Teecho","steam_id":76561197995269610,"connected_time":1382000000000,"state":"active","ping":50},{"user_id":755,"name":"zdX","steam_id":76561198163735277,"connected_time":2063000000000,"state":"active","ping":62},{"user_id":792,"name":"IKARUS","steam_id":76561198850898422,"connected_time":124000000000,"state":"active","ping":76},{"user_id":763,"name":"Permzilla","steam_id":76561198009407651,"connected_time":1543000000000,"state":"active","ping":45},{"user_id":793,"name":"Burbie","steam_id":76561198046069449,"connected_time":119000000000,"state":"active","ping":55},{"user_id":760,"name":"Gnarville","steam_id":76561198006373329,"connected_time":1606000000000,"state":"active","ping":48},{"user_id":759,"name":"bombo112","steam_id":76561198059743551,"connected_time":1730000000000,"state":"active","ping":73},{"user_id":797,"name":"‚òú(Ôæü„ÉÆÔæü‚òú) Lux","steam_id":76561198098008231,"connected_time":34000000000,"state":"active","ping":63},{"user_id":784,"name":"Mac","steam_id":76561198001371660,"connected_time":704000000000,"state":"active","ping":60},{"user_id":766,"name":"Thalash","steam_id":76561198064052251,"connected_time":1493000000000,"state":"active","ping":60},{"user_id":767,"name":"Baron","steam_id":76561198021901783,"connected_time":1493000000000,"state":"active","ping":58},{"user_id":768,"name":"Not John","steam_id":76561197984763237,"connected_time":1492000000000,"state":"active","ping":45},{"user_id":769,"name":"‚òú(Ôæü„ÉÆÔæü‚òú) fribs","steam_id":76561198000461999,"connected_time":1469000000000,"state":"active","ping":54}]},{"server_id":320,"name":"Uncletopia | London | 3 | All Maps","name_short":"lon-3","host":"lon-1.uk.uncletopia.com","port":27035,"enabled":true,"region":"eu","cc":"gb","latitude":51.509865,"longitude":-0.118092,"reserved":0,"last_update":"0001-01-01T00:00:00Z","name_a2s":"Uncletopia | London | 3 | All Maps","protocol":17,"map":"koth_lakeside_final","folder":"tf","game":"Team Fortress","app_id":440,"player_count":0,"max_players":24,"Bots":0,"server_type":"Dedicated","server_os":"Linux","password":true,"vac":true,"version":"7742253","steam_id":85568392924510192,"keywords":["cp","nocrits","nodmgspread","uncletopia"],"game_id":440,"stv_port":27036,"stv_name":"Uncletopia | London | 3 | All Maps | STV","players":null},{"server_id":321,"name":"Uncletopia | London | 4 | All Maps","name_short":"lon-4","host":"lon-1.uk.uncletopia.com","port":27045,"enabled":true,"region":"eu","cc":"gb","latitude":51.509865,"longitude":-0.118092,"reserved":0,"last_update":"0001-01-01T00:00:00Z","name_a2s":"Uncletopia | London | 4 | All Maps","protocol":17,"map":"koth_nucleus","folder":"tf","game":"Team Fortress","app_id":440,"player_count":24,"max_players":24,"Bots":0,"server_type":"Dedicated","server_os":"Linux","password":true,"vac":true,"version":"7742253","steam_id":85568392924510193,"keywords":["cp","nocrits","nodmgspread","uncletopia"],"game_id":440,"stv_port":27046,"stv_name":"Uncletopia | London | 4 | All Maps | STV","players":[{"user_id":318,"name":"scharque","steam_id":76561198071227039,"connected_time":1044000000000,"state":"active","ping":61},{"user_id":325,"name":"Cirox","steam_id":76561198383142404,"connected_time":907000000000,"state":"active","ping":85},{"user_id":319,"name":"fat man jerry","steam_id":76561198881097722,"connected_time":1010000000000,"state":"active","ping":53},{"user_id":314,"name":"nosville22 #HLŒªP","steam_id":76561198118640721,"connected_time":1255000000000,"state":"active","ping":96},{"user_id":253,"name":"Yolkolai","steam_id":76561198143696927,"connected_time":4822000000000,"state":"active","ping":49},{"user_id":328,"name":"brokenphilip","steam_id":76561198080960604,"connected_time":355000000000,"state":"active","ping":74},{"user_id":246,"name":"[Q]","steam_id":76561198018729683,"connected_time":5262000000000,"state":"active","ping":45},{"user_id":317,"name":"joe","steam_id":76561198026484403,"connected_time":1116000000000,"state":"active","ping":60},{"user_id":296,"name":"Flex Finster","steam_id":76561198061632224,"connected_time":2147000000000,"state":"active","ping":58},{"user_id":330,"name":"mq","steam_id":76561198091888948,"connected_time":299000000000,"state":"active","ping":61},{"user_id":312,"name":"csnipery","steam_id":76561199435280050,"connected_time":1468000000000,"state":"active","ping":69},{"user_id":326,"name":"–©–µ—Ä–±–∞–∫–æ–≤","steam_id":76561198037302094,"connected_time":770000000000,"state":"active","ping":95},{"user_id":321,"name":"tete","steam_id":76561198045222850,"connected_time":956000000000,"state":"active","ping":70},{"user_id":255,"name":"Bungalow Jones","steam_id":76561198089895031,"connected_time":4811000000000,"state":"active","ping":59},{"user_id":292,"name":"Trioud","steam_id":76561198093992054,"connected_time":2493000000000,"state":"active","ping":52},{"user_id":322,"name":"Fargo","steam_id":76561198801474941,"connected_time":936000000000,"state":"active","ping":66},{"user_id":304,"name":"Lux","steam_id":76561198060417740,"connected_time":1993000000000,"state":"active","ping":46},{"user_id":305,"name":"decriminalise goblins","steam_id":76561198048257605,"connected_time":1981000000000,"state":"active","ping":60},{"user_id":323,"name":"Harpenden, Harpenden, Harpenden","steam_id":76561198118138546,"connected_time":934000000000,"state":"active","ping":43},{"user_id":306,"name":"Tortoise Guy","steam_id":76561199047825610,"connected_time":1975000000000,"state":"active","ping":79},{"user_id":308,"name":"Bilaterial Newt","steam_id":76561198074655679,"connected_time":1947000000000,"state":"active","ping":87},{"user_id":324,"name":"latch LF FEMBOY","steam_id":76561198064878900,"connected_time":931000000000,"state":"active","ping":75},{"user_id":313,"name":"Ponyra","steam_id":76561198111336853,"connected_time":1425000000000,"state":"active","ping":67},{"user_id":332,"name":"Carl's Marx","steam_id":76561198059700045,"connected_time":286000000000,"state":"active","ping":56}]},{"server_id":21,"name":"Uncletopia | London | 5 | All Maps","name_short":"lon-5","host":"lon-1.uk.uncletopia.com","port":27055,"enabled":true,"region":"eu","cc":"gb","latitude":51.509865,"longitude":-0.118092,"reserved":0,"last_update":"0001-01-01T00:00:00Z","name_a2s":"Uncletopia | London | 5 | All Maps","protocol":17,"map":"pl_badwater","folder":"tf","game":"Team Fortress","app_id":440,"player_count":0,"max_players":24,"Bots":0,"server_type":"Dedicated","server_os":"Linux","password":true,"vac":true,"version":"7742253","steam_id":85568392924742829,"keywords":["nocrits","nodmgspread","payload","uncletopia"],"game_id":440,"stv_port":27056,"stv_name":"Uncletopia | London | 5 | All Maps | STV","players":null},{"server_id":22,"name":"Uncletopia | London | 6 | All Maps","name_short":"lon-6","host":"lon-1.uk.uncletopia.com","port":27065,"enabled":true,"region":"eu","cc":"gb","latitude":51.509865,"longitude":-0.118092,"reserved":0,"last_update":"0001-01-01T00:00:00Z","name_a2s":"Uncletopia | London | 6 | All Maps","protocol":17,"map":"pl_barnblitz","folder":"tf","game":"Team Fortress","app_id":440,"player_count":24,"max_players":24,"Bots":0,"server_type":"Dedicated","server_os":"Linux","password":true,"vac":true,"version":"7742253","steam_id":85568392924742830,"keywords":["nocrits","nodmgspread","payload","uncletopia"],"game_id":440,"stv_port":27066,"stv_name":"Uncletopia | London | 6 | All Maps | STV","players":[{"user_id":418,"name":"Nickbro101","steam_id":76561198044271692,"connected_time":1908000000000,"state":"active","ping":49},{"user_id":408,"name":"AwterSix","steam_id":76561198042561678,"connected_time":2250000000000,"state":"active","ping":56},{"user_id":454,"name":"rajAs","steam_id":76561198035928111,"connected_time":416000000000,"state":"active","ping":83},{"user_id":411,"name":"Arturias","steam_id":76561198188720263,"connected_time":1950000000000,"state":"active","ping":46},{"user_id":447,"name":"Crayfry","steam_id":76561198146525237,"connected_time":758000000000,"state":"active","ping":134},{"user_id":452,"name":"Swayer","steam_id":76561198056192460,"connected_time":615000000000,"state":"active","ping":58},{"user_id":422,"name":"Gekko [HUN]","steam_id":76561198869884227,"connected_time":1536000000000,"state":"active","ping":67},{"user_id":416,"name":"strangely","steam_id":76561198030697131,"connected_time":1928000000000,"state":"active","ping":44},{"user_id":432,"name":"b ull","steam_id":76561199233979726,"connected_time":1023000000000,"state":"active","ping":87},{"user_id":417,"name":"Mario3ghj","steam_id":76561198069804561,"connected_time":1923000000000,"state":"active","ping":95},{"user_id":439,"name":"Bingus","steam_id":76561198075427172,"connected_time":890000000000,"state":"active","ping":42},{"user_id":421,"name":"Quartermistress","steam_id":76561198140199123,"connected_time":1737000000000,"state":"active","ping":35},{"user_id":423,"name":"Keizer420","steam_id":76561198354567661,"connected_time":1436000000000,"state":"active","ping":39},{"user_id":433,"name":"Mata_FM11","steam_id":76561198044824504,"connected_time":1013000000000,"state":"active","ping":68},{"user_id":436,"name":"Chen","steam_id":76561198440363619,"connected_time":951000000000,"state":"active","ping":55},{"user_id":440,"name":"ELON MUSK","steam_id":76561198132788284,"connected_time":877000000000,"state":"active","ping":50},{"user_id":441,"name":"RoJoCal","steam_id":76561198084029937,"connected_time":870000000000,"state":"active","ping":63},{"user_id":429,"name":"Activating the Barrier","steam_id":76561198174510235,"connected_time":1205000000000,"state":"active","ping":51},{"user_id":456,"name":"stun","steam_id":76561198276681691,"connected_time":356000000000,"state":"active","ping":45},{"user_id":443,"name":"Jinjo","steam_id":76561198835209457,"connected_time":853000000000,"state":"active","ping":66},{"user_id":448,"name":"{ST} Oxythemoron","steam_id":76561198060089965,"connected_time":755000000000,"state":"active","ping":157},{"user_id":444,"name":"Oak","steam_id":76561198067315672,"connected_time":830000000000,"state":"active","ping":48},{"user_id":445,"name":"ttv.twitch.tv/watchLive","steam_id":76561198047359132,"connected_time":827000000000,"state":"active","ping":72},{"user_id":450,"name":"Sneaky boi","steam_id":76561199195985387,"connected_time":727000000000,"state":"active","ping":88}]},{"server_id":40,"name":"Uncletopia | London | 7 | No Payload","name_short":"lon-7","host":"lon-1.uk.uncletopia.com","port":27075,"enabled":true,"region":"eu","cc":"gb","latitude":51.509865,"longitude":-0.118092,"reserved":0,"last_update":"0001-01-01T00:00:00Z","name_a2s":"Uncletopia | London | 7 | No Payload","protocol":17,"map":"koth_harvest_final","folder":"tf","game":"Team Fortress","app_id":440,"player_count":5,"max_players":24,"Bots":0,"server_type":"Dedicated","server_os":"Linux","password":true,"vac":true,"version":"7742253","steam_id":85568392924964314,"keywords":["cp","nocrits","nodmgspread","uncletopia"],"game_id":440,"stv_port":27076,"stv_name":"Uncletopia | London | 7 | No Payload | STV","players":[{"user_id":170,"name":"repeter","steam_id":76561199142721155,"connected_time":102000000000,"state":"active","ping":71},{"user_id":168,"name":"OUTLAWl_","steam_id":76561198071667744,"connected_time":657000000000,"state":"active","ping":61},{"user_id":164,"name":"Rolloden","steam_id":76561198069414404,"connected_time":1363000000000,"state":"active","ping":70},{"user_id":122,"name":"Lil Big","steam_id":76561198138426317,"connected_time":5022000000000,"state":"active","ping":58},{"user_id":161,"name":"St√ºmpy","steam_id":76561198255904077,"connected_time":2027000000000,"state":"active","ping":62}]},{"server_id":41,"name":"Uncletopia | London | 8 | Community","name_short":"lon-8","host":"lon-1.uk.uncletopia.com","port":27085,"enabled":true,"region":"eu","cc":"gb","latitude":51.509865,"longitude":-0.118092,"reserved":0,"last_update":"0001-01-01T00:00:00Z","name_a2s":"Uncletopia | London | 8 | Community","protocol":17,"map":"workshop/koth_ashville_final.ugc2130459942","folder":"tf","game":"Team Fortress","app_id":440,"player_count":1,"max_players":24,"Bots":0,"server_type":"Dedicated","server_os":"Linux","password":true,"vac":true,"version":"7742253","steam_id":85568392924964315,"keywords":["cp","nocrits","nodmgspread","uncletopia"],"game_id":440,"stv_port":27086,"stv_name":"Uncletopia | London | 8 | Community | STV","players":[{"user_id":15,"name":"iamalpharius","steam_id":76561199122885239,"connected_time":77000000000,"state":"spawning","ping":205}]},{"server_id":300,"name":"Uncletopia | Montr√©al | 1 | All Maps","name_short":"mtl-1","host":"mtl-1.ca.uncletopia.com","port":27015,"enabled":true,"region":"us-east","cc":"ca","latitude":45.50889,"longitude":-73.56167,"reserved":0,"last_update":"0001-01-01T00:00:00Z","name_a2s":"Uncletopia | Montr√©al | 1 | All Maps","protocol":17,"map":"pl_badwater","folder":"tf","game":"Team Fortress","app_id":440,"player_count":1,"max_players":24,"Bots":0,"server_type":"Dedicated","server_os":"Linux","password":true,"vac":true,"version":"7742253","steam_id":85568392924500087,"keywords":["nocrits","nodmgspread","payload","uncletopia"],"game_id":440,"stv_port":27016,"stv_name":"Uncletopia | Montr√©al | 1 | All Maps | STV","players":[{"user_id":8,"name":"Theboxiboi","steam_id":76561199219006583,"connected_time":9000000000,"state":"spawning","ping":98}]},{"server_id":301,"name":"Uncletopia | Montr√©al | 2 | All Maps","name_short":"mtl-2","host":"mtl-1.ca.uncletopia.com","port":27025,"enabled":true,"region":"us-east","cc":"ca","latitude":45.50889,"longitude":-73.56167,"reserved":0,"last_update":"0001-01-01T00:00:00Z","name_a2s":"Uncletopia | Montr√©al | 2 | All Maps","protocol":17,"map":"koth_highpass","folder":"tf","game":"Team Fortress","app_id":440,"player_count":0,"max_players":24,"Bots":0,"server_type":"Dedicated","server_os":"Linux","password":true,"vac":true,"version":"7742253","steam_id":85568392924500088,"keywords":["cp","nocrits","nodmgspread","uncletopia"],"game_id":440,"stv_port":27026,"stv_name":"Uncletopia | Montr√©al | 2 | All Maps | STV","players":null},{"server_id":302,"name":"Uncletopia | Montr√©al | 3 | All Maps","name_short":"mtl-3","host":"mtl-1.ca.uncletopia.com","port":27035,"enabled":true,"region":"us-east","cc":"ca","latitude":45.50889,"longitude":-73.56167,"reserved":0,"last_update":"0001-01-01T00:00:00Z","name_a2s":"Uncletopia | Montr√©al | 3 | All Maps","protocol":17,"map":"cp_mountainlab","folder":"tf","game":"Team Fortress","app_id":440,"player_count":0,"max_players":24,"Bots":0,"server_type":"Dedicated","server_os":"Linux","password":true,"vac":true,"version":"7742253","steam_id":85568392924500089,"keywords":["cp","nocrits","nodmgspread","uncletopia"],"game_id":440,"stv_port":27036,"stv_name":"Uncletopia | Montr√©al | 3 | All Maps | STV","players":null},{"server_id":303,"name":"Uncletopia | Montr√©al | 4 | No Payload","name_short":"mtl-4","host":"mtl-1.ca.uncletopia.com","port":27045,"enabled":true,"region":"us-east","cc":"ca","latitude":45.50889,"longitude":-73.56167,"reserved":0,"last_update":"0001-01-01T00:00:00Z","name_a2s":"Uncletopia | Montr√©al | 4 | No Payload","protocol":17,"map":"plr_bananabay","folder":"tf","game":"Team Fortress","app_id":440,"player_count":0,"max_players":24,"Bots":0,"server_type":"Dedicated","server_os":"Linux","password":true,"vac":true,"version":"7742253","steam_id":85568392924500090,"keywords":["nocrits","nodmgspread","payload","uncletopia"],"game_id":440,"stv_port":27046,"stv_name":"Uncletopia | Montr√©al | 4 | No Payload | STV","players":null},{"server_id":13,"name":"Uncletopia | New York City | 1 | All Maps","name_short":"nyc-1","host":"nyc-1.us.uncletopia.com","port":27015,"enabled":true,"region":"us-east","cc":"us","latitude":40.73061,"longitude":-73.93524,"reserved":0,"last_update":"0001-01-01T00:00:00Z","name_a2s":"Uncletopia | New York City | 1 | All Maps","protocol":17,"map":"cp_dustbowl","folder":"tf","game":"Team Fortress","app_id":440,"player_count":24,"max_players":24,"Bots":0,"server_type":"Dedicated","server_os":"Linux","password":true,"vac":true,"version":"7742253","steam_id":85568392924469993,"keywords":["cp","nocrits","nodmgspread","uncletopia"],"game_id":440,"stv_port":27016,"stv_name":"Uncletopia | New York City | 1 | All Maps | STV","players":[{"user_id":425,"name":"urmotherisafinewoman","steam_id":76561198284326069,"connected_time":1921000000000,"state":"active","ping":54},{"user_id":327,"name":"Kasane","steam_id":76561198209006780,"connected_time":8669000000000,"state":"active","ping":75},{"user_id":446,"name":"that fat croc from donkey kong","steam_id":76561198159172495,"connected_time":562000000000,"state":"active","ping":128},{"user_id":349,"name":"A Puppy","steam_id":76561198828184456,"connected_time":6408000000000,"state":"active","ping":46},{"user_id":447,"name":"kametro4","steam_id":76561198835430429,"connected_time":546000000000,"state":"active","ping":100},{"user_id":456,"name":"Kopl","steam_id":76561198345737885,"connected_time":55000000000,"state":"active","ping":120},{"user_id":418,"name":"Hamee333","steam_id":76561199388127663,"connected_time":2760000000000,"state":"active","ping":62},{"user_id":444,"name":"–ì–¥–µ –º–æ—Ä–µ?","steam_id":76561197979625544,"connected_time":985000000000,"state":"active","ping":148},{"user_id":438,"name":"silentpieceofbacon","steam_id":76561198869323351,"connected_time":1362000000000,"state":"active","ping":85},{"user_id":439,"name":"coojo2323","steam_id":76561199065442132,"connected_time":1345000000000,"state":"active","ping":63},{"user_id":448,"name":"Catcow","steam_id":76561198025329176,"connected_time":528000000000,"state":"active","ping":72},{"user_id":416,"name":"Aerox","steam_id":76561198871081935,"connected_time":3019000000000,"state":"active","ping":64},{"user_id":452,"name":"‚ô•Phocae‚ô•","steam_id":76561199317584594,"connected_time":344000000000,"state":"active","ping":57},{"user_id":440,"name":"Lots0","steam_id":76561198043143145,"connected_time":1341000000000,"state":"active","ping":110},{"user_id":455,"name":"Bee_Pirate","steam_id":76561199000599111,"connected_time":192000000000,"state":"active","ping":60},{"user_id":309,"name":"Mad Cow‚Äª","steam_id":76561198132498594,"connected_time":10452000000000,"state":"active","ping":68},{"user_id":433,"name":"nhbiker","steam_id":76561198081277675,"connected_time":1652000000000,"state":"active","ping":45},{"user_id":412,"name":"McAspie","steam_id":76561198079700167,"connected_time":3394000000000,"state":"active","ping":86},{"user_id":430,"name":"idontknow2018","steam_id":76561198886524996,"connected_time":1720000000000,"state":"active","ping":64},{"user_id":431,"name":"Bip","steam_id":76561199022962204,"connected_time":1708000000000,"state":"active","ping":80},{"user_id":432,"name":"erwebomio","steam_id":76561198071152924,"connected_time":1667000000000,"state":"active","ping":106},{"user_id":434,"name":"The Power","steam_id":76561198060566884,"connected_time":1642000000000,"state":"active","ping":134},{"user_id":417,"name":"Brown_Dream","steam_id":76561198975766145,"connected_time":2824000000000,"state":"active","ping":74},{"user_id":419,"name":"Bait","steam_id":76561198336489647,"connected_time":2547000000000,"state":"active","ping":70}]},{"server_id":14,"name":"Uncletopia | New York City | 2 | All Maps","name_short":"nyc-2","host":"nyc-1.us.uncletopia.com","port":27025,"enabled":true,"region":"us-east","cc":"us","latitude":40.73061,"longitude":-73.93524,"reserved":0,"last_update":"0001-01-01T00:00:00Z","name_a2s":"Uncletopia | New York City | 2 | All Maps","protocol":17,"map":"plr_pipeline","folder":"tf","game":"Team Fortress","app_id":440,"player_count":24,"max_players":24,"Bots":0,"server_type":"Dedicated","server_os":"Linux","password":true,"vac":true,"version":"7742253","steam_id":85568392924469994,"keywords":["nocrits","nodmgspread","payload","uncletopia"],"game_id":440,"stv_port":27026,"stv_name":"Uncletopia | New York City | 2 | All Maps | STV","players":[{"user_id":443,"name":"Pheny","steam_id":76561198169289662,"connected_time":281000000000,"state":"active","ping":86},{"user_id":440,"name":"Anyar","steam_id":76561198160174097,"connected_time":300000000000,"state":"active","ping":89},{"user_id":446,"name":"Lews Therin Telamon","steam_id":76561198121209226,"connected_time":238000000000,"state":"active","ping":66},{"user_id":416,"name":"santas.secret.sauce","steam_id":76561198042464635,"connected_time":2624000000000,"state":"active","ping":91},{"user_id":447,"name":"Moon And Star","steam_id":76561198084449092,"connected_time":194000000000,"state":"active","ping":73},{"user_id":406,"name":"babe","steam_id":76561199057373810,"connected_time":3087000000000,"state":"active","ping":45},{"user_id":407,"name":"WX-78","steam_id":76561199117263527,"connected_time":3080000000000,"state":"active","ping":57},{"user_id":442,"name":"Samsiel","steam_id":76561198094134951,"connected_time":290000000000,"state":"active","ping":92},{"user_id":444,"name":"Heretic","steam_id":76561198058904839,"connected_time":279000000000,"state":"active","ping":58},{"user_id":415,"name":"bloafyt","steam_id":76561199160422863,"connected_time":2741000000000,"state":"active","ping":114},{"user_id":434,"name":"Chef The Machine","steam_id":76561198310658990,"connected_time":718000000000,"state":"active","ping":75},{"user_id":448,"name":"Redkiller","steam_id":76561199453655288,"connected_time":180000000000,"state":"active","ping":75},{"user_id":445,"name":"Two-Teste Tommy","steam_id":76561198064308936,"connected_time":260000000000,"state":"active","ping":60},{"user_id":409,"name":"Polpetta777","steam_id":76561198044331477,"connected_time":3000000000000,"state":"active","ping":44},{"user_id":398,"name":"UWBW","steam_id":76561198007524241,"connected_time":3293000000000,"state":"active","ping":80},{"user_id":450,"name":"Kito","steam_id":76561198394383213,"connected_time":140000000000,"state":"active","ping":91},{"user_id":451,"name":"klup","steam_id":76561198040334555,"connected_time":86000000000,"state":"active","ping":57},{"user_id":420,"name":"Subborbital","steam_id":76561198360416189,"connected_time":2357000000000,"state":"active","ping":49},{"user_id":452,"name":"Shipmunk","steam_id":76561198063062670,"connected_time":71000000000,"state":"active","ping":47},{"user_id":438,"name":"Moo Guy","steam_id":76561198114598079,"connected_time":496000000000,"state":"active","ping":76},{"user_id":436,"name":"Only One Jhakobi","steam_id":76561197993641141,"connected_time":552000000000,"state":"active","ping":70},{"user_id":435,"name":"Kamakura","steam_id":76561198871892477,"connected_time":620000000000,"state":"active","ping":98},{"user_id":453,"name":"scrapheap","steam_id":76561198202407087,"connected_time":56000000000,"state":"active","ping":72},{"user_id":429,"name":"vastrobotmax","steam_id":76561198417110724,"connected_time":1220000000000,"state":"active","ping":65}]},{"server_id":15,"name":"Uncletopia | New York City | 3 | Stopwatch Beta","name_short":"nyc-3","host":"nyc-1.us.uncletopia.com","port":27035,"enabled":true,"region":"us-east","cc":"us","latitude":40.73061,"longitude":-73.93524,"reserved":0,"last_update":"0001-01-01T00:00:00Z","name_a2s":"Uncletopia | New York City | 3 | Stopwatch Beta","protocol":17,"map":"workshop/pl_badwater_pro_v12.ugc2142942074","folder":"tf","game":"Team Fortress","app_id":440,"player_count":0,"max_players":24,"Bots":0,"server_type":"Dedicated","server_os":"Linux","password":true,"vac":true,"version":"7742253","steam_id":85568392924742820,"keywords":["nocrits","nodmgspread","payload","uncletopia"],"game_id":440,"stv_port":27036,"stv_name":"Uncletopia | New York City | 3 | Stopwatch Beta | STV","players":null},{"server_id":16,"name":"Uncletopia | New York City | 4 | Community","name_short":"nyc-4","host":"nyc-1.us.uncletopia.com","port":27045,"enabled":true,"region":"us-east","cc":"us","latitude":40.73061,"longitude":-73.93524,"reserved":0,"last_update":"0001-01-01T00:00:00Z","name_a2s":"Uncletopia | New York City | 4 | Community","protocol":17,"map":"workshop/koth_ramjam_rc1.ugc459778887","folder":"tf","game":"Team Fortress","app_id":440,"player_count":0,"max_players":24,"Bots":0,"server_type":"Dedicated","server_os":"Linux","password":true,"vac":true,"version":"7742253","steam_id":85568392924742821,"keywords":["cp","nocrits","nodmgspread","uncletopia"],"game_id":440,"stv_port":27046,"stv_name":"Uncletopia | New York City | 4 | Community | STV","players":null},{"server_id":142,"name":"Uncletopia | S√£o Paulo | 1 | All Maps","name_short":"sao-1","host":"sao-1.br.uncletopia.com","port":27015,"enabled":true,"region":"sa","cc":"br","latitude":-23.533773,"longitude":-46.62529,"reserved":0,"last_update":"0001-01-01T00:00:00Z","name_a2s":"Uncletopia | S√£o Paulo | 1 | All Maps","protocol":17,"map":"koth_viaduct","folder":"tf","game":"Team Fortress","app_id":440,"player_count":0,"max_players":24,"Bots":0,"server_type":"Dedicated","server_os":"Linux","password":true,"vac":true,"version":"7742253","steam_id":85568392924469996,"keywords":["cp","nocrits","nodmgspread","uncletopia"],"game_id":440,"stv_port":27016,"stv_name":"Uncletopia | S√£o Paulo | 1 | All Maps | STV","players":null},{"server_id":143,"name":"Uncletopia | S√£o Paulo | 2 | All Maps","name_short":"sao-2","host":"sao-2.br.uncletopia.com","port":27015,"enabled":true,"region":"sa","cc":"br","latitude":-23.533773,"longitude":-46.62529,"reserved":0,"last_update":"0001-01-01T00:00:00Z","name_a2s":"Uncletopia | S√£o Paulo | 2 | All Maps","protocol":17,"map":"pl_frontier_final","folder":"tf","game":"Team Fortress","app_id":440,"player_count":0,"max_players":24,"Bots":0,"server_type":"Dedicated","server_os":"Linux","password":true,"vac":true,"version":"7742253","steam_id":85568392924485349,"keywords":["nocrits","nodmgspread","payload","uncletopia"],"game_id":440,"stv_port":27016,"stv_name":"Uncletopia | S√£o Paulo | 2 | All Maps | STV","players":null},{"server_id":7,"name":"Uncletopia | Seattle | 1 | All Maps","name_short":"sea-1","host":"sea-1.us.uncletopia.com","port":27015,"enabled":true,"region":"us-west","cc":"us","latitude":47.608013,"longitude":-122.33517,"reserved":0,"last_update":"0001-01-01T00:00:00Z","name_a2s":"Uncletopia | Seattle | 1 | All Maps","protocol":17,"map":"pl_snowycoast","folder":"tf","game":"Team Fortress","app_id":440,"player_count":11,"max_players":24,"Bots":0,"server_type":"Dedicated","server_os":"Linux","password":true,"vac":true,"version":"7742253","steam_id":85568392924469997,"keywords":["nocrits","nodmgspread","payload","uncletopia"],"game_id":440,"stv_port":27016,"stv_name":"Uncletopia | Seattle | 1 | All Maps | STV","players":[{"user_id":360,"name":"bodie._.","steam_id":76561198079474904,"connected_time":2141000000000,"state":"active","ping":89},{"user_id":361,"name":"The Pepsi¬Æ Superbowl¬Æ!","steam_id":76561198080828981,"connected_time":2141000000000,"state":"active","ping":62},{"user_id":384,"name":"robobingus3002","steam_id":76561199135217441,"connected_time":76000000000,"state":"active","ping":117},{"user_id":381,"name":"mub","steam_id":76561197961943948,"connected_time":508000000000,"state":"active","ping":44},{"user_id":355,"name":"strawberry","steam_id":76561198101926397,"connected_time":3230000000000,"state":"active","ping":94},{"user_id":385,"name":"trashboat","steam_id":76561199067882406,"connected_time":17000000000,"state":"active","ping":79},{"user_id":356,"name":"JesterJasper","steam_id":76561198025338925,"connected_time":3229000000000,"state":"active","ping":32},{"user_id":337,"name":"Julien","steam_id":76561199389584938,"connected_time":4137000000000,"state":"active","ping":42},{"user_id":378,"name":"MR.meeseeks","steam_id":76561198294943420,"connected_time":1190000000000,"state":"active","ping":67},{"user_id":379,"name":"Arenovas","steam_id":76561198042341811,"connected_time":1181000000000,"state":"active","ping":75},{"user_id":323,"name":"Fh","steam_id":76561198000903511,"connected_time":5178000000000,"state":"active","ping":62}]},{"server_id":119,"name":"Uncletopia | Seattle | 2 | All Maps","name_short":"sea-2","host":"sea-1.us.uncletopia.com","port":27025,"enabled":true,"region":"us-west","cc":"us","latitude":47.608013,"longitude":-122.33517,"reserved":0,"last_update":"0001-01-01T00:00:00Z","name_a2s":"Uncletopia | Seattle | 2 | All Maps","protocol":17,"map":"pl_swiftwater_final1","folder":"tf","game":"Team Fortress","app_id":440,"player_count":24,"max_players":24,"Bots":0,"server_type":"Dedicated","server_os":"Linux","password":true,"vac":true,"version":"7742253","steam_id":85568392924469998,"keywords":["nocrits","nodmgspread","payload","uncletopia"],"game_id":440,"stv_port":27026,"stv_name":"Uncletopia | Seattle | 2 | All Maps | STV","players":[{"user_id":178,"name":"Scampy","steam_id":76561198001506924,"connected_time":3379000000000,"state":"active","ping":60},{"user_id":211,"name":"FakeBot","steam_id":76561197961193303,"connected_time":641000000000,"state":"active","ping":87},{"user_id":202,"name":"Borro","steam_id":76561198331225476,"connected_time":1418000000000,"state":"active","ping":69},{"user_id":209,"name":"2007jwhite","steam_id":76561198312583829,"connected_time":690000000000,"state":"active","ping":45},{"user_id":216,"name":"Quantify45","steam_id":76561198044400135,"connected_time":516000000000,"state":"active","ping":89},{"user_id":186,"name":"Fermenting Kiwi","steam_id":76561198253303497,"connected_time":2807000000000,"state":"active","ping":80},{"user_id":208,"name":"plat","steam_id":76561198974178569,"connected_time":754000000000,"state":"active","ping":46},{"user_id":210,"name":"chester","steam_id":76561198952172376,"connected_time":674000000000,"state":"active","ping":116},{"user_id":212,"name":"Lovely Boy","steam_id":76561198970212462,"connected_time":603000000000,"state":"active","ping":83},{"user_id":175,"name":"Zenire","steam_id":76561199087298510,"connected_time":3475000000000,"state":"active","ping":55},{"user_id":227,"name":"North Central Positronics Rep","steam_id":76561198133718360,"connected_time":132000000000,"state":"active","ping":118},{"user_id":215,"name":"Big99bboy","steam_id":76561199083203532,"connected_time":527000000000,"state":"active","ping":81},{"user_id":217,"name":"aon135","steam_id":76561197966931637,"connected_time":490000000000,"state":"active","ping":56},{"user_id":218,"name":"nappyzappy","steam_id":76561198095118953,"connected_time":467000000000,"state":"active","ping":57},{"user_id":228,"name":"Hottplate","steam_id":76561198051694727,"connected_time":104000000000,"state":"active","ping":61},{"user_id":177,"name":"Cloaker","steam_id":76561199129136800,"connected_time":3451000000000,"state":"active","ping":54},{"user_id":223,"name":"MaryJanee","steam_id":76561198072200952,"connected_time":395000000000,"state":"active","ping":101},{"user_id":226,"name":"BEASTxGODx420","steam_id":76561198184814466,"connected_time":283000000000,"state":"active","ping":45},{"user_id":224,"name":"Summon Ketamine Ape","steam_id":76561198143132686,"connected_time":380000000000,"state":"active","ping":73},{"user_id":165,"name":"Lily Thorn","steam_id":76561198305488625,"connected_time":4311000000000,"state":"active","ping":64},{"user_id":201,"name":"Coffeemelon","steam_id":76561198285891257,"connected_time":1800000000000,"state":"active","ping":72},{"user_id":190,"name":"riri ·óú·¥ó·óú","steam_id":76561198055462404,"connected_time":2556000000000,"state":"active","ping":70},{"user_id":185,"name":"Dabois","steam_id":76561199147193419,"connected_time":2893000000000,"state":"active","ping":91},{"user_id":225,"name":"jj874181","steam_id":76561199455124144,"connected_time":367000000000,"state":"active","ping":89}]},{"server_id":406,"name":"Uncletopia | Seattle | 3 | Stopwatch Beta","name_short":"sea-3","host":"sea-1.us.uncletopia.com","port":27035,"enabled":true,"region":"us-west","cc":"us","latitude":47.608013,"longitude":-122.33517,"reserved":0,"last_update":"0001-01-01T00:00:00Z","name_a2s":"Uncletopia | Seattle | 3 | Stopwatch Beta","protocol":17,"map":"cp_altitude","folder":"tf","game":"Team Fortress","app_id":440,"player_count":0,"max_players":24,"Bots":0,"server_type":"Dedicated","server_os":"Linux","password":true,"vac":true,"version":"7742253","steam_id":85568392924515217,"keywords":["cp","nocrits","nodmgspread","uncletopia"],"game_id":440,"stv_port":27036,"stv_name":"Uncletopia | Seattle | 3 | Stopwatch Beta | STV","players":null},{"server_id":17,"name":"Uncletopia | San Francisco | 1 | All Maps","name_short":"sfo-1","host":"sfo-1.us.uncletopia.com","port":27015,"enabled":true,"region":"us-west","cc":"us","latitude":37.77397,"longitude":-122.4313,"reserved":0,"last_update":"0001-01-01T00:00:00Z","name_a2s":"Uncletopia | San Francisco | 1 | All Maps","protocol":17,"map":"koth_highpass","folder":"tf","game":"Team Fortress","app_id":440,"player_count":0,"max_players":24,"Bots":0,"server_type":"Dedicated","server_os":"Linux","password":true,"vac":true,"version":"7742253","steam_id":85568392924469999,"keywords":["cp","nocrits","nodmgspread","uncletopia"],"game_id":440,"stv_port":27016,"stv_name":"Uncletopia | San Francisco | 1 | All Maps | STV","players":null},{"server_id":18,"name":"Uncletopia | San Francisco | 2 | All Maps","name_short":"sfo-2","host":"sfo-1.us.uncletopia.com","port":27025,"enabled":true,"region":"us-west","cc":"us","latitude":37.77397,"longitude":-122.4313,"reserved":0,"last_update":"0001-01-01T00:00:00Z","name_a2s":"Uncletopia | San Francisco | 2 | All Maps","protocol":17,"map":"cp_altitude","folder":"tf","game":"Team Fortress","app_id":440,"player_count":0,"max_players":24,"Bots":0,"server_type":"Dedicated","server_os":"Linux","password":true,"vac":true,"version":"7742253","steam_id":85568392924470000,"keywords":["cp","nocrits","nodmgspread","uncletopia"],"game_id":440,"stv_port":27026,"stv_name":"Uncletopia | San Francisco | 2 | All Maps | STV","players":null},{"server_id":19,"name":"Uncletopia | San Francisco | 3 | Stopwatch Beta","name_short":"sfo-3","host":"sfo-1.us.uncletopia.com","port":27035,"enabled":true,"region":"us-west","cc":"us","latitude":37.77397,"longitude":-122.4313,"reserved":0,"last_update":"0001-01-01T00:00:00Z","name_a2s":"Uncletopia | San Francisco | 3 | Stopwatch Beta","protocol":17,"map":"cp_snakewater_final1","folder":"tf","game":"Team Fortress","app_id":440,"player_count":0,"max_players":24,"Bots":0,"server_type":"Dedicated","server_os":"Linux","password":true,"vac":true,"version":"7742253","steam_id":85568392924742824,"keywords":["cp","nocrits","nodmgspread","uncletopia"],"game_id":440,"stv_port":27036,"stv_name":"Uncletopia | San Francisco | 3 | Stopwatch Beta | STV","players":null},{"server_id":20,"name":"Uncletopia | San Francisco | 4 | Community","name_short":"sfo-4","host":"sfo-1.us.uncletopia.com","port":27045,"enabled":true,"region":"us-west","cc":"us","latitude":37.77397,"longitude":-122.4313,"reserved":0,"last_update":"0001-01-01T00:00:00Z","name_a2s":"Uncletopia | San Francisco | 4 | Community","protocol":17,"map":"workshop/rd_asteroid_redux_b1.ugc2154902912","folder":"tf","game":"Team Fortress","app_id":440,"player_count":0,"max_players":24,"Bots":0,"server_type":"Dedicated","server_os":"Linux","password":true,"vac":true,"version":"7742253","steam_id":85568392924742826,"keywords":["beta","nocrits","nodmgspread","rd","uncletopia"],"game_id":440,"stv_port":27046,"stv_name":"Uncletopia | San Francisco | 4 | Community | STV","players":null},{"server_id":141,"name":"Uncletopia | Sydney | 1 | All Maps","name_short":"syd-1","host":"syd-1.au.uncletopia.com","port":27015,"enabled":true,"region":"au","cc":"au","latitude":-33.865143,"longitude":151.2099,"reserved":0,"last_update":"0001-01-01T00:00:00Z","name_a2s":"Uncletopia | Sydney | 1 | All Maps","protocol":17,"map":"pl_badwater","folder":"tf","game":"Team Fortress","app_id":440,"player_count":16,"max_players":24,"Bots":0,"server_type":"Dedicated","server_os":"Linux","password":true,"vac":true,"version":"7742253","steam_id":85568392924470001,"keywords":["nocrits","nodmgspread","payload","uncletopia"],"game_id":440,"stv_port":27016,"stv_name":"Uncletopia | Sydney | 1 | All Maps | STV","players":[{"user_id":5,"name":"Jontohil2","steam_id":76561198114091810,"connected_time":2323000000000,"state":"active","ping":625},{"user_id":6,"name":"Megaboomlord","steam_id":76561198375065539,"connected_time":2288000000000,"state":"active","ping":163},{"user_id":22,"name":"kylestyle13","steam_id":76561198979490241,"connected_time":722000000000,"state":"active","ping":270},{"user_id":8,"name":"OFFICIALcraigbishop","steam_id":76561198836003115,"connected_time":2266000000000,"state":"active","ping":63},{"user_id":23,"name":"Dr. Anime07","steam_id":76561199285435663,"connected_time":614000000000,"state":"active","ping":324},{"user_id":31,"name":"I'm sorry :(","steam_id":76561199257116847,"connected_time":62000000000,"state":"active","ping":52},{"user_id":20,"name":"jimmy mushrooms","steam_id":76561199057568663,"connected_time":772000000000,"state":"active","ping":53},{"user_id":13,"name":"Bagel","steam_id":76561199031854720,"connected_time":2070000000000,"state":"active","ping":63},{"user_id":17,"name":"Contract Grinder","steam_id":76561199017211623,"connected_time":1068000000000,"state":"active","ping":72},{"user_id":19,"name":"nameless","steam_id":76561197993014364,"connected_time":903000000000,"state":"active","ping":270},{"user_id":24,"name":"zeaphg","steam_id":76561199014878539,"connected_time":570000000000,"state":"active","ping":58},{"user_id":25,"name":"idahs","steam_id":76561198073097952,"connected_time":482000000000,"state":"active","ping":75},{"user_id":26,"name":"frogmouth07","steam_id":76561199038681860,"connected_time":471000000000,"state":"active","ping":53},{"user_id":28,"name":"trash","steam_id":76561198110764631,"connected_time":336000000000,"state":"active","ping":51},{"user_id":29,"name":"ChemiFox","steam_id":76561198283276031,"connected_time":204000000000,"state":"active","ping":64},{"user_id":30,"name":"Red Rage","steam_id":76561197972301006,"connected_time":179000000000,"state":"active","ping":64}]},{"server_id":123,"name":"Uncletopia | Sydney | 2 | All Maps","name_short":"syd-2","host":"syd-1.au.uncletopia.com","port":27025,"enabled":true,"region":"au","cc":"au","latitude":-33.865143,"longitude":151.2099,"reserved":0,"last_update":"0001-01-01T00:00:00Z","name_a2s":"Uncletopia | Sydney | 2 | All Maps","protocol":17,"map":"pl_pier","folder":"tf","game":"Team Fortress","app_id":440,"player_count":0,"max_players":24,"Bots":0,"server_type":"Dedicated","server_os":"Linux","password":true,"vac":true,"version":"7742253","steam_id":85568392924470002,"keywords":["nocrits","nodmgspread","payload","uncletopia"],"game_id":440,"stv_port":27026,"stv_name":"Uncletopia | Sydney | 2 | All Maps | STV","players":null},{"server_id":395,"name":"Uncletopia | Sydney | 3 | All Maps","name_short":"syd-3","host":"syd-1.au.uncletopia.com","port":27035,"enabled":true,"region":"au","cc":"au","latitude":-33.865143,"longitude":151.2099,"reserved":0,"last_update":"0001-01-01T00:00:00Z","name_a2s":"Uncletopia | Sydney | 3 | All Maps","protocol":17,"map":"koth_viaduct","folder":"tf","game":"Team Fortress","app_id":440,"player_count":0,"max_players":24,"Bots":0,"server_type":"Dedicated","server_os":"Linux","password":true,"vac":true,"version":"7742253","steam_id":85568392925194467,"keywords":["cp","nocrits","nodmgspread","uncletopia"],"game_id":440,"stv_port":27036,"stv_name":"Uncletopia | Sydney | 3 | All Maps | STV","players":null},{"server_id":396,"name":"Uncletopia | Sydney | 4 | All Maps","name_short":"syd-4","host":"syd-1.au.uncletopia.com","port":27045,"enabled":true,"region":"au","cc":"au","latitude":-33.865143,"longitude":151.2099,"reserved":0,"last_update":"0001-01-01T00:00:00Z","name_a2s":"Uncletopia | Sydney | 4 | All Maps","protocol":17,"map":"pl_frontier_final","folder":"tf","game":"Team Fortress","app_id":440,"player_count":0,"max_players":24,"Bots":0,"server_type":"Dedicated","server_os":"Linux","password":true,"vac":true,"version":"7742253","steam_id":85568392925397958,"keywords":["nocrits","nodmgspread","payload","uncletopia"],"game_id":440,"stv_port":27046,"stv_name":"Uncletopia | Sydney | 4 | All Maps | STV","players":null},{"server_id":58,"name":"Uncletopia | Sydney | 5 | Stopwatch Beta","name_short":"syd-5","host":"syd-1.au.uncletopia.com","port":27055,"enabled":true,"region":"au","cc":"au","latitude":-33.865143,"longitude":151.2099,"reserved":0,"last_update":"0001-01-01T00:00:00Z","name_a2s":"Uncletopia | Sydney | 5 | Stopwatch Beta","protocol":17,"map":"cp_sunshine","folder":"tf","game":"Team Fortress","app_id":440,"player_count":0,"max_players":24,"Bots":0,"server_type":"Dedicated","server_os":"Linux","password":true,"vac":true,"version":"7742253","steam_id":85568392925397959,"keywords":["cp","nocrits","nodmgspread","uncletopia"],"game_id":440,"stv_port":27056,"stv_name":"Uncletopia | Sydney | 5 | Stopwatch Beta | STV","players":null},{"server_id":59,"name":"Uncletopia | Sydney | 6 | Community","name_short":"syd-6","host":"syd-1.au.uncletopia.com","port":27065,"enabled":true,"region":"au","cc":"au","latitude":-33.865143,"longitude":151.2099,"reserved":0,"last_update":"0001-01-01T00:00:00Z","name_a2s":"Uncletopia | Sydney | 6 | Community","protocol":17,"map":"cp_dustbowl","folder":"tf","game":"Team Fortress","app_id":440,"player_count":0,"max_players":24,"Bots":0,"server_type":"Dedicated","server_os":"Linux","password":true,"vac":true,"version":"7742253","steam_id":85568392925397960,"keywords":["cp","nocrits","nodmgspread","uncletopia"],"game_id":440,"stv_port":27066,"stv_name":"Uncletopia | Sydney | 6 | Community | STV","players":null},{"server_id":49,"name":"Uncletopia | Warsaw | 1 | All Maps","name_short":"waw-1","host":"waw-1.pl.uncletopia.com","port":27015,"enabled":true,"region":"eu","cc":"pl","latitude":52.2297,"longitude":21.017532,"reserved":0,"last_update":"0001-01-01T00:00:00Z","name_a2s":"","protocol":0,"map":"","folder":"","game":"","app_id":0,"player_count":0,"max_players":0,"Bots":0,"server_type":"","server_os":"","password":false,"vac":false,"version":"","steam_id":0,"keywords":null,"game_id":0,"stv_port":0,"stv_name":"","players":null},{"server_id":50,"name":"Uncletopia | Warsaw | 2 | All Maps","name_short":"waw-2","host":"waw-1.pl.uncletopia.com","port":27025,"enabled":true,"region":"eu","cc":"pl","latitude":52.2297,"longitude":21.017532,"reserved":0,"last_update":"0001-01-01T00:00:00Z","name_a2s":"Uncletopia | Warsaw | 2 | All Maps","protocol":17,"map":"pl_badwater","folder":"tf","game":"Team Fortress","app_id":440,"player_count":19,"max_players":24,"Bots":0,"server_type":"Dedicated","server_os":"Linux","password":true,"vac":true,"version":"7742253","steam_id":85568392925397851,"keywords":["nocrits","nodmgspread","payload","uncletopia"],"game_id":440,"stv_port":27026,"stv_name":"Uncletopia | Warsaw | 2 | All Maps | STV","players":[{"user_id":322,"name":"Nameless_Mann","steam_id":76561198015543601,"connected_time":1376000000000,"state":"active","ping":36},{"user_id":331,"name":"meriones","steam_id":76561198034234373,"connected_time":737000000000,"state":"active","ping":73},{"user_id":319,"name":"splarvis","steam_id":76561198007792525,"connected_time":1609000000000,"state":"active","ping":67},{"user_id":323,"name":"Dzan50","steam_id":76561198059758591,"connected_time":1362000000000,"state":"active","ping":93},{"user_id":265,"name":"Syd","steam_id":76561198020515027,"connected_time":4627000000000,"state":"active","ping":60},{"user_id":334,"name":"Fischer And Chips","steam_id":76561198062318115,"connected_time":377000000000,"state":"active","ping":170},{"user_id":310,"name":"Fart of Doom","steam_id":76561198042593027,"connected_time":1929000000000,"state":"active","ping":97},{"user_id":266,"name":"SigniFire_","steam_id":76561199226683960,"connected_time":4622000000000,"state":"active","ping":89},{"user_id":305,"name":"Zzziiighghmuund","steam_id":76561198798167787,"connected_time":2255000000000,"state":"active","ping":89},{"user_id":338,"name":"FLOU","steam_id":76561198056171993,"connected_time":231000000000,"state":"active","ping":183},{"user_id":333,"name":"Megalodon 2023","steam_id":76561199051644595,"connected_time":464000000000,"state":"active","ping":142},{"user_id":324,"name":"quak","steam_id":76561198053928976,"connected_time":1346000000000,"state":"active","ping":59},{"user_id":335,"name":"0","steam_id":76561198267909207,"connected_time":363000000000,"state":"active","ping":71},{"user_id":329,"name":"Fengerros","steam_id":76561199008363999,"connected_time":1223000000000,"state":"active","ping":51},{"user_id":224,"name":"the joy of recycling","steam_id":76561198138509827,"connected_time":8288000000000,"state":"active","ping":89},{"user_id":332,"name":"„ÄåSpud Wrench„Äç","steam_id":76561198089615706,"connected_time":693000000000,"state":"active","ping":179},{"user_id":315,"name":"good to be back","steam_id":76561199391850406,"connected_time":1824000000000,"state":"active","ping":60},{"user_id":339,"name":"Peter","steam_id":76561198120327435,"connected_time":110000000000,"state":"active","ping":37},{"user_id":226,"name":"htraB","steam_id":76561198043122677,"connected_time":8240000000000,"state":"active","ping":66}]},{"server_id":51,"name":"Uncletopia | Warsaw | 3 | All Maps","name_short":"waw-3","host":"waw-1.pl.uncletopia.com","port":27035,"enabled":true,"region":"eu","cc":"pl","latitude":52.2297,"longitude":21.017532,"reserved":0,"last_update":"0001-01-01T00:00:00Z","name_a2s":"Uncletopia | Warsaw | 3 | All Maps","protocol":17,"map":"ctf_2fort","folder":"tf","game":"Team Fortress","app_id":440,"player_count":0,"max_players":24,"Bots":0,"server_type":"Dedicated","server_os":"Linux","password":true,"vac":true,"version":"7742253","steam_id":85568392925397852,"keywords":["ctf","nocrits","nodmgspread","uncletopia"],"game_id":440,"stv_port":27036,"stv_name":"Uncletopia | Warsaw | 3 | All Maps | STV","players":null},{"server_id":52,"name":"Uncletopia | Warsaw | 4 | All Maps","name_short":"waw-4","host":"waw-1.pl.uncletopia.com","port":27045,"enabled":true,"region":"eu","cc":"pl","latitude":52.2297,"longitude":21.017532,"reserved":0,"last_update":"0001-01-01T00:00:00Z","name_a2s":"Uncletopia | Warsaw | 4 | All Maps","protocol":17,"map":"cp_altitude","folder":"tf","game":"Team Fortress","app_id":440,"player_count":0,"max_players":24,"Bots":0,"server_type":"Dedicated","server_os":"Linux","password":true,"vac":true,"version":"7742253","steam_id":85568392925397853,"keywords":["cp","nocrits","nodmgspread","uncletopia"],"game_id":440,"stv_port":27046,"stv_name":"Uncletopia | Warsaw | 4 | All Maps | STV","players":null},{"server_id":53,"name":"Uncletopia | Warsaw | 5 | Stopwatch Beta","name_short":"waw-5","host":"waw-1.pl.uncletopia.com","port":27055,"enabled":true,"region":"eu","cc":"pl","latitude":52.2297,"longitude":21.017532,"reserved":0,"last_update":"0001-01-01T00:00:00Z","name_a2s":"Uncletopia | Warsaw | 5 | Stopwatch Beta","protocol":17,"map":"workshop/koth_ramjam_rc1.ugc459778887","folder":"tf","game":"Team Fortress","app_id":440,"player_count":0,"max_players":24,"Bots":0,"server_type":"Dedicated","server_os":"Linux","password":true,"vac":true,"version":"7742253","steam_id":85568392925397854,"keywords":["cp","nocrits","nodmgspread","uncletopia"],"game_id":440,"stv_port":27056,"stv_name":"Uncletopia | Warsaw | 5 | Stopwatch Beta | STV","players":null},{"server_id":54,"name":"Uncletopia | Warsaw | 6 | Community","name_short":"waw-6","host":"waw-1.pl.uncletopia.com","port":27065,"enabled":true,"region":"eu","cc":"pl","latitude":52.2297,"longitude":21.017532,"reserved":0,"last_update":"0001-01-01T00:00:00Z","name_a2s":"Uncletopia | Warsaw | 6 | Community","protocol":17,"map":"koth_highpass","folder":"tf","game":"Team Fortress","app_id":440,"player_count":0,"max_players":24,"Bots":0,"server_type":"Dedicated","server_os":"Linux","password":true,"vac":true,"version":"7742253","steam_id":85568392925397856,"keywords":["cp","nocrits","nodmgspread","uncletopia"],"game_id":440,"stv_port":27066,"stv_name":"Uncletopia | Warsaw | 6 | Community | STV","players":null}]}