{"status":true,"message":"","result":[{"server_id":9,"name":"Uncletopia | Atlanta | 1 | All Maps","name_short":"atl-1","host":"atl-1.us.uncletopia.com","port":27015,"enabled":true,"region":"us-east","cc":"us","latitude":33.753746,"longitude":-84.38633,"reserved":0,"last_update":"0001-01-01T00:00:00Z","name_a2s":"Uncletopia | Atlanta | 1 | All Maps","protocol":17,"map":"cp_well","folder":"tf","game":"Team Fortress","app_id":440,"player_count":25,"max_players":24,"Bots":0,"server_type":"Dedicated","server_os":"Linux","password":true,"vac":true,"version":"7742253","steam_id":85568392924469982,"keywords":["cp","nocrits","nodmgspread","uncletopia"],"game_id":440,"stv_port":27016,"stv_name":"Uncletopia | Atlanta | 1 | All Maps | STV","players":[{"user_id":190,"name":"Kuddly Kay (She/Her)","steam_id":76561198353432576,"connected_time":3824000000000,"state":"active","ping":52},{"user_id":193,"name":"average gibbon call enjoyer","steam_id":76561198103376881,"connected_time":3722000000000,"state":"active","ping":58},{"user_id":207,"name":"scrapheap","steam_id":76561198202407087,"connected_time":1413000000000,"state":"active","ping":77},{"user_id":151,"name":"Mr. Cheesey","steam_id":76561198153462183,"connected_time":5817000000000,"state":"active","ping":73},{"user_id":217,"name":"forklift circumcised","steam_id":76561198278756087,"connected_time":826000000000,"state":"active","ping":70},{"user_id":205,"name":"Rappitor","steam_id":76561198105613110,"connected_time":1427000000000,"state":"active","ping":72},{"user_id":197,"name":"Wick","steam_id":76561198090764386,"connected_time":3185000000000,"state":"active","ping":67},{"user_id":208,"name":"stink","steam_id":76561198099318923,"connected_time":1413000000000,"state":"active","ping":76},{"user_id":210,"name":"soda pop","steam_id":76561199403530076,"connected_time":1369000000000,"state":"active","ping":107},{"user_id":212,"name":"tanmantincan","steam_id":76561198105044427,"connected_time":1348000000000,"state":"active","ping":86},{"user_id":186,"name":"Mirari","steam_id":76561198126889358,"connected_time":4003000000000,"state":"active","ping":79},{"user_id":194,"name":"drdonutman","steam_id":76561197998488821,"connected_time":3548000000000,"state":"active","ping":56},{"user_id":219,"name":"Titan Tezwa","steam_id":76561198030320618,"connected_time":800000000000,"state":"active","ping":80},{"user_id":224,"name":"SneakySneak","steam_id":76561198064847921,"connected_time":16000000000,"state":"spawning","ping":121},{"user_id":213,"name":"4ling","steam_id":76561197994398381,"connected_time":1329000000000,"state":"active","ping":76},{"user_id":204,"name":"DogComrade","steam_id":76561199056013933,"connected_time":1431000000000,"state":"active","ping":107},{"user_id":195,"name":"abomination","steam_id":76561198167974713,"connected_time":3442000000000,"state":"active","ping":57},{"user_id":192,"name":"coms","steam_id":76561198359456881,"connected_time":3781000000000,"state":"active","ping":61},{"user_id":222,"name":"TwentyFive","steam_id":76561198334910862,"connected_time":748000000000,"state":"active","ping":84},{"user_id":214,"name":"hokupoku","steam_id":76561198312834406,"connected_time":1321000000000,"state":"active","ping":68},{"user_id":206,"name":"funny squid!!!!","steam_id":76561198024264744,"connected_time":1426000000000,"state":"active","ping":59},{"user_id":152,"name":"--_Cook_--","steam_id":76561198080855748,"connected_time":5785000000000,"state":"active","ping":61},{"user_id":202,"name":"ElMaN \\ (ඞ) /","steam_id":76561198801769113,"connected_time":2078000000000,"state":"active","ping":117},{"user_id":157,"name":"hi","steam_id":76561199441787165,"connected_time":5562000000000,"state":"active","ping":81},{"user_id":225,"name":"drukqs","steam_id":76561198253172399,"connected_time":16000000000,"state":"spawning","ping":71}]},{"server_id":400,"name":"Uncletopia | Atlanta | 3 | Stopwatch Beta","name_short":"atl-3","host":"atl-1.us.uncletopia.com","port":27035,"enabled":true,"region":"us-east","cc":"us","latitude":33.753746,"longitude":-84.38633,"reserved":0,"last_update":"0001-01-01T00:00:00Z","name_a2s":"Uncletopia | Atlanta | 3 | Stopwatch Beta","protocol":17,"map":"workshop/cp_process_f11.ugc2302948105","folder":"tf","game":"Team Fortress","app_id":440,"player_count":0,"max_players":24,"Bots":0,"server_type":"Dedicated","server_os":"Linux","password":true,"vac":true,"version":"7742253","steam_id":85568392924515187,"keywords":["cp","nocrits","nodmgspread","uncletopia"],"game_id":440,"stv_port":27036,"stv_name":"Uncletopia | Atlanta | 3 | Stopwatch Beta | STV","players":null},{"server_id":401,"name":"Uncletopia | Atlanta | 4 | No Payload","name_short":"atl-4","host":"atl-1.us.uncletopia.com","port":27045,"enabled":true,"region":"us-east","cc":"us","latitude":33.753746,"longitude":-84.38633,"reserved":0,"last_update":"0001-01-01T00:00:00Z","name_a2s":"Uncletopia | Atlanta | 4 | No Payload","protocol":17,"map":"pl_pier","folder":"tf","game":"Team Fortress","app_id":440,"player_count":0,"max_players":24,"Bots":0,"server_type":"Dedicated","server_os":"Linux","password":true,"vac":true,"version":"7723704","steam_id":85568392924515188,"keywords":["nocrits","nodmgspread","payload","uncletopia"],"game_id":440,"stv_port":27046,"stv_name":"Uncletopia | Atlanta | 4 | No Payload | STV","players":null},{"server_id":2,"name":"Uncletopia | Chicago | 1 | All Maps","name_short":"chi-1","host":"chi-1.us.uncletopia.com","port":27015,"enabled":true,"region":"us-central","cc":"us","latitude":41.881832,"longitude":-87.62318,"reserved":0,"last_update":"0001-01-01T00:00:00Z","name_a2s":"Uncletopia | Chicago | 1 | All Maps","protocol":17,"map":"pl_thundermountain","folder":"tf","game":"Team Fortress","app_id":440,"player_count":24,"max_players":24,"Bots":0,"server_type":"Dedicated","server_os":"Linux","password":true,"vac":true,"version":"7742253","steam_id":85568392924469984,"keywords":["nocrits","nodmgspread","payload","uncletopia"],"game_id":440,"stv_port":27016,"stv_name":"Uncletopia | Chicago | 1 | All Maps | STV","players":[{"user_id":172,"name":"tstrutz11","steam_id":76561198060287373,"connected_time":2213000000000,"state":"active","ping":110},{"user_id":146,"name":"Milk Lord","steam_id":76561198058937862,"connected_time":4265000000000,"state":"active","ping":69},{"user_id":139,"name":"dr peppah chug!","steam_id":76561198068835693,"connected_time":4619000000000,"state":"active","ping":88},{"user_id":161,"name":"Crab12","steam_id":76561198398818373,"connected_time":3325000000000,"state":"active","ping":94},{"user_id":162,"name":"rajas","steam_id":76561198049099910,"connected_time":3293000000000,"state":"active","ping":45},{"user_id":180,"name":"no","steam_id":76561198248853140,"connected_time":1188000000000,"state":"active","ping":48},{"user_id":165,"name":"ch","steam_id":76561198012566405,"connected_time":3126000000000,"state":"active","ping":70},{"user_id":189,"name":"Mailman","steam_id":76561198090675970,"connected_time":263000000000,"state":"active","ping":51},{"user_id":169,"name":"three three","steam_id":76561198177354155,"connected_time":2256000000000,"state":"active","ping":54},{"user_id":187,"name":"Lunartik","steam_id":76561199004827382,"connected_time":664000000000,"state":"active","ping":62},{"user_id":133,"name":"Oreo","steam_id":76561198356985610,"connected_time":5248000000000,"state":"active","ping":97},{"user_id":150,"name":"Tealim","steam_id":76561198330085713,"connected_time":4156000000000,"state":"active","ping":87},{"user_id":181,"name":"Mixomin","steam_id":76561198295061570,"connected_time":1171000000000,"state":"active","ping":60},{"user_id":51,"name":"YungKeet","steam_id":76561198293854963,"connected_time":11130000000000,"state":"active","ping":85},{"user_id":173,"name":"Mammoth Tank","steam_id":76561198065124689,"connected_time":2209000000000,"state":"active","ping":87},{"user_id":163,"name":"Kiddo0","steam_id":76561198359596849,"connected_time":3290000000000,"state":"active","ping":70},{"user_id":153,"name":"Inherentchaos","steam_id":76561198050443296,"connected_time":3984000000000,"state":"active","ping":61},{"user_id":188,"name":"kametro4","steam_id":76561198835430429,"connected_time":625000000000,"state":"active","ping":80},{"user_id":186,"name":"stop","steam_id":76561198268686419,"connected_time":912000000000,"state":"active","ping":62},{"user_id":185,"name":"{ST} chunkyMerchant","steam_id":76561198318701494,"connected_time":1034000000000,"state":"active","ping":63},{"user_id":183,"name":"Gordon From White Castle (real)","steam_id":76561198364172677,"connected_time":1153000000000,"state":"active","ping":76},{"user_id":167,"name":"ApertureCity","steam_id":76561198004153607,"connected_time":2904000000000,"state":"active","ping":79},{"user_id":184,"name":"Civilian","steam_id":76561198153573947,"connected_time":1078000000000,"state":"active","ping":78},{"user_id":78,"name":"SuperJagops","steam_id":76561198034689716,"connected_time":9173000000000,"state":"active","ping":62}]},{"server_id":106,"name":"Uncletopia | Chicago | 2 | All Maps","name_short":"chi-2","host":"chi-1.us.uncletopia.com","port":27025,"enabled":true,"region":"us-central","cc":"us","latitude":41.881832,"longitude":-87.62318,"reserved":0,"last_update":"0001-01-01T00:00:00Z","name_a2s":"Uncletopia | Chicago | 2 | All Maps","protocol":17,"map":"koth_cascade","folder":"tf","game":"Team Fortress","app_id":440,"player_count":24,"max_players":24,"Bots":0,"server_type":"Dedicated","server_os":"Linux","password":true,"vac":true,"version":"7742253","steam_id":85568392924469985,"keywords":["cp","nocrits","nodmgspread","uncletopia"],"game_id":440,"stv_port":27026,"stv_name":"Uncletopia | Chicago | 2 | All Maps | STV","players":[{"user_id":44,"name":"SlippyPunk","steam_id":76561198048551455,"connected_time":148000000000,"state":"active","ping":53},{"user_id":13,"name":"dwwojcik","steam_id":76561198084403136,"connected_time":1530000000000,"state":"active","ping":45},{"user_id":11,"name":"bad demoknight","steam_id":76561199195784827,"connected_time":1737000000000,"state":"active","ping":90},{"user_id":14,"name":"Zelumie","steam_id":76561198147335801,"connected_time":1182000000000,"state":"active","ping":60},{"user_id":20,"name":"The Sophons","steam_id":76561199386992993,"connected_time":1071000000000,"state":"active","ping":121},{"user_id":21,"name":"Cuttle's Fish","steam_id":76561198280483257,"connected_time":1039000000000,"state":"active","ping":60},{"user_id":17,"name":"darkHeart :3","steam_id":76561198184071579,"connected_time":1142000000000,"state":"active","ping":41},{"user_id":39,"name":"Freezing0K","steam_id":76561198142170847,"connected_time":738000000000,"state":"active","ping":91},{"user_id":42,"name":"rats in ruin","steam_id":76561199062024437,"connected_time":473000000000,"state":"active","ping":55},{"user_id":29,"name":"Loading... (On YT)","steam_id":76561198401488466,"connected_time":1006000000000,"state":"active","ping":60},{"user_id":23,"name":"Phat_nibba29","steam_id":76561198165661855,"connected_time":1034000000000,"state":"active","ping":87},{"user_id":24,"name":"They could be starlings","steam_id":76561198441020995,"connected_time":1029000000000,"state":"active","ping":105},{"user_id":25,"name":"Castar","steam_id":76561198090558038,"connected_time":1027000000000,"state":"active","ping":61},{"user_id":43,"name":"BetoelAff es","steam_id":76561198377842585,"connected_time":462000000000,"state":"active","ping":121},{"user_id":41,"name":"Feared Gamer","steam_id":76561198350127514,"connected_time":481000000000,"state":"active","ping":66},{"user_id":28,"name":"Pisser12434","steam_id":76561198835144780,"connected_time":1010000000000,"state":"active","ping":71},{"user_id":30,"name":"Cursed Dog","steam_id":76561198090785078,"connected_time":1006000000000,"state":"active","ping":95},{"user_id":31,"name":"Shame","steam_id":76561198100490994,"connected_time":998000000000,"state":"active","ping":81},{"user_id":32,"name":"４０ ＦＰＳ","steam_id":76561198272394965,"connected_time":976000000000,"state":"active","ping":143},{"user_id":33,"name":"starfungus","steam_id":76561198158312789,"connected_time":953000000000,"state":"active","ping":75},{"user_id":34,"name":"Hylic","steam_id":76561199051314589,"connected_time":929000000000,"state":"active","ping":65},{"user_id":35,"name":"Alpharius","steam_id":76561197996284353,"connected_time":905000000000,"state":"active","ping":117},{"user_id":36,"name":"Colin102004","steam_id":76561198202384334,"connected_time":885000000000,"state":"active","ping":61},{"user_id":37,"name":"Grimbo","steam_id":76561198826767537,"connected_time":879000000000,"state":"active","ping":59}]},{"server_id":402,"name":"Uncletopia | Chicago | 3 | All Maps","name_short":"chi-3","host":"chi-1.us.uncletopia.com","port":27035,"enabled":true,"region":"us-central","cc":"us","latitude":41.881832,"longitude":-87.62318,"reserved":0,"last_update":"0001-01-01T00:00:00Z","name_a2s":"Uncletopia | Chicago | 3 | All Maps","protocol":17,"map":"pl_snowycoast","folder":"tf","game":"Team Fortress","app_id":440,"player_count":24,"max_players":24,"Bots":0,"server_type":"Dedicated","server_os":"Linux","password":true,"vac":true,"version":"7742253","steam_id":85568392924515191,"keywords":["nocrits","nodmgspread","payload","uncletopia"],"game_id":440,"stv_port":27036,"stv_name":"Uncletopia | Chicago | 3 | All Maps | STV","players":[{"user_id":213,"name":"Warpy","steam_id":76561198055852599,"connected_time":70000000000,"state":"active","ping":80},{"user_id":174,"name":"[slug]","steam_id":76561197989592178,"connected_time":2989000000000,"state":"active","ping":64},{"user_id":134,"name":"Generic Engie Main","steam_id":76561199165644515,"connected_time":5235000000000,"state":"active","ping":68},{"user_id":172,"name":"Casual Costanza","steam_id":76561198024409325,"connected_time":3182000000000,"state":"active","ping":60},{"user_id":199,"name":"shrimperino","steam_id":76561198367735460,"connected_time":834000000000,"state":"active","ping":75},{"user_id":202,"name":"Syrix","steam_id":76561198017328672,"connected_time":800000000000,"state":"active","ping":67},{"user_id":211,"name":"Maniaa","steam_id":76561198257140802,"connected_time":394000000000,"state":"active","ping":69},{"user_id":196,"name":"Dennis Reynolds","steam_id":76561197960371259,"connected_time":1118000000000,"state":"active","ping":74},{"user_id":188,"name":"The Minister of Party City","steam_id":76561199219790713,"connected_time":2107000000000,"state":"active","ping":53},{"user_id":200,"name":"Mr. Tickle","steam_id":76561198126684647,"connected_time":831000000000,"state":"active","ping":60},{"user_id":152,"name":"matchstick","steam_id":76561198190100027,"connected_time":4543000000000,"state":"active","ping":63},{"user_id":171,"name":"hej","steam_id":76561197996366940,"connected_time":3353000000000,"state":"active","ping":61},{"user_id":185,"name":"Goon Event #3349 (5hrs 22mins)","steam_id":76561198062410522,"connected_time":2180000000000,"state":"active","ping":58},{"user_id":201,"name":"hashmap","steam_id":76561198043794014,"connected_time":821000000000,"state":"active","ping":51},{"user_id":203,"name":"rrrrrroel","steam_id":76561198320799755,"connected_time":768000000000,"state":"active","ping":72},{"user_id":182,"name":"kermitcreeper(ZAZA)","steam_id":76561199222829972,"connected_time":2328000000000,"state":"active","ping":56},{"user_id":191,"name":"Swshbcklr","steam_id":76561197969421355,"connected_time":1603000000000,"state":"active","ping":60},{"user_id":210,"name":"Grimm","steam_id":76561197987193828,"connected_time":621000000000,"state":"active","ping":62},{"user_id":175,"name":"Karma","steam_id":76561198030565234,"connected_time":2964000000000,"state":"active","ping":68},{"user_id":193,"name":"send dudes","steam_id":76561198084277762,"connected_time":1469000000000,"state":"active","ping":60},{"user_id":164,"name":"Snake Handler","steam_id":76561198027198306,"connected_time":4216000000000,"state":"active","ping":59},{"user_id":212,"name":"Dude Named Bob","steam_id":76561198310448093,"connected_time":208000000000,"state":"active","ping":47},{"user_id":165,"name":"Dovid65","steam_id":76561199277530814,"connected_time":4172000000000,"state":"active","ping":202},{"user_id":195,"name":"Enderneer","steam_id":76561198012136653,"connected_time":1226000000000,"state":"active","ping":60}]},{"server_id":403,"name":"Uncletopia | Chicago | 4 | All Maps","name_short":"chi-4","host":"chi-1.us.uncletopia.com","port":27045,"enabled":true,"region":"us-central","cc":"us","latitude":41.881832,"longitude":-87.62318,"reserved":0,"last_update":"0001-01-01T00:00:00Z","name_a2s":"Uncletopia | Chicago | 4 | All Maps","protocol":17,"map":"cp_sunshine","folder":"tf","game":"Team Fortress","app_id":440,"player_count":20,"max_players":24,"Bots":0,"server_type":"Dedicated","server_os":"Linux","password":true,"vac":true,"version":"7742253","steam_id":85568392924515193,"keywords":["cp","nocrits","nodmgspread","uncletopia"],"game_id":440,"stv_port":27046,"stv_name":"Uncletopia | Chicago | 4 | All Maps | STV","players":[{"user_id":121,"name":"Yukon Cornelius","steam_id":76561198261512781,"connected_time":120000000000,"state":"active","ping":76},{"user_id":112,"name":"『Jax$』","steam_id":76561198025717379,"connected_time":742000000000,"state":"active","ping":74},{"user_id":116,"name":"Mike Ehrmantraut","steam_id":76561198082446459,"connected_time":158000000000,"state":"active","ping":66},{"user_id":119,"name":"The Hoagie Hero","steam_id":76561198057569298,"connected_time":143000000000,"state":"active","ping":76},{"user_id":122,"name":"e","steam_id":76561198131245396,"connected_time":99000000000,"state":"active","ping":63},{"user_id":120,"name":"floppy muppet","steam_id":76561198003076261,"connected_time":142000000000,"state":"active","ping":80},{"user_id":106,"name":"a1ex","steam_id":76561198341411993,"connected_time":1410000000000,"state":"active","ping":62},{"user_id":123,"name":"SMALL CUTE HORSES IN YOUR AREA","steam_id":76561198005892986,"connected_time":98000000000,"state":"active","ping":61},{"user_id":70,"name":"Dream3r \u003c3","steam_id":76561198354685242,"connected_time":3708000000000,"state":"active","ping":61},{"user_id":114,"name":"Goober","steam_id":76561198988863807,"connected_time":579000000000,"state":"active","ping":76},{"user_id":91,"name":"On The Bright Side...","steam_id":76561198168785883,"connected_time":2257000000000,"state":"active","ping":45},{"user_id":124,"name":"Live","steam_id":76561198003194656,"connected_time":74000000000,"state":"active","ping":57},{"user_id":125,"name":"sansa musa","steam_id":76561198163723555,"connected_time":37000000000,"state":"active","ping":69},{"user_id":113,"name":"evil domy","steam_id":76561198156084643,"connected_time":599000000000,"state":"active","ping":80},{"user_id":126,"name":"htraB","steam_id":76561198043122677,"connected_time":17000000000,"state":"spawning","ping":148},{"user_id":115,"name":"Cruisin'","steam_id":76561199245457119,"connected_time":336000000000,"state":"active","ping":82},{"user_id":127,"name":"JoānKisaragiⱽ⁰","steam_id":76561199370650064,"connected_time":3000000000,"state":"spawning","ping":164},{"user_id":99,"name":"FunGi","steam_id":76561198881418662,"connected_time":1919000000000,"state":"active","ping":74},{"user_id":102,"name":"giant_dork","steam_id":76561199105606956,"connected_time":1695000000000,"state":"active","ping":73},{"user_id":111,"name":"Soy Sauce","steam_id":76561199182351023,"connected_time":1118000000000,"state":"active","ping":63}]},{"server_id":36,"name":"Uncletopia | Chicago | 5 | All Maps","name_short":"chi-5","host":"chi-2.us.uncletopia.com","port":27015,"enabled":true,"region":"us-central","cc":"us","latitude":41.881832,"longitude":-87.62318,"reserved":0,"last_update":"0001-01-01T00:00:00Z","name_a2s":"Uncletopia | Chicago | 5 | All Maps","protocol":17,"map":"pl_barnblitz","folder":"tf","game":"Team Fortress","app_id":440,"player_count":0,"max_players":24,"Bots":0,"server_type":"Dedicated","server_os":"Linux","password":true,"vac":true,"version":"7742253","steam_id":85568392924866362,"keywords":["nocrits","nodmgspread","payload","uncletopia"],"game_id":440,"stv_port":27016,"stv_name":"Uncletopia | Chicago | 5 | All Maps | STV","players":null},{"server_id":37,"name":"Uncletopia | Chicago | 6 | All Maps","name_short":"chi-6","host":"chi-2.us.uncletopia.com","port":27025,"enabled":true,"region":"us-central","cc":"us","latitude":41.881832,"longitude":-87.62318,"reserved":0,"last_update":"0001-01-01T00:00:00Z","name_a2s":"Uncletopia | Chicago | 6 | All Maps","protocol":17,"map":"koth_lakeside_final","folder":"tf","game":"Team Fortress","app_id":440,"player_count":0,"max_players":24,"Bots":0,"server_type":"Dedicated","server_os":"Linux","password":true,"vac":true,"version":"7742253","steam_id":85568392924866363,"keywords":["cp","nocrits","nodmgspread","uncletopia"],"game_id":440,"stv_port":27026,"stv_name":"Uncletopia | Chicago | 6 | All Maps | STV","players":null},{"server_id":38,"name":"Uncletopia | Chicago | 7 | Stopwatch Beta","name_short":"chi-7","host":"chi-2.us.uncletopia.com","port":27035,"enabled":true,"region":"us-central","cc":"us","latitude":41.881832,"longitude":-87.62318,"reserved":0,"last_update":"0001-01-01T00:00:00Z","name_a2s":"Uncletopia | Chicago | 7 | Stopwatch Beta","protocol":17,"map":"workshop/koth_ashville_final.ugc2130459942","folder":"tf","game":"Team Fortress","app_id":440,"player_count":24,"max_players":24,"Bots":0,"server_type":"Dedicated","server_os":"Linux","password":true,"vac":true,"version":"7742253","steam_id":85568392924866364,"keywords":["cp","nocrits","nodmgspread","uncletopia"],"game_id":440,"stv_port":27036,"stv_name":"Uncletopia | Chicago | 7 | Stopwatch Beta | STV","players":[{"user_id":87,"name":"GuyGoom","steam_id":76561198254522178,"connected_time":372000000000,"state":"active","ping":60},{"user_id":50,"name":"valz","steam_id":76561198263040660,"connected_time":1974000000000,"state":"active","ping":49},{"user_id":22,"name":"Nespreco","steam_id":76561198252035336,"connected_time":3045000000000,"state":"active","ping":83},{"user_id":82,"name":"Wan Shi Tong","steam_id":76561198076441225,"connected_time":709000000000,"state":"active","ping":68},{"user_id":86,"name":"crumbles","steam_id":76561198168707036,"connected_time":400000000000,"state":"active","ping":101},{"user_id":51,"name":"Pablo.fortnite.2009@hotmail.com","steam_id":76561198855376206,"connected_time":1867000000000,"state":"active","ping":60},{"user_id":74,"name":"Plant","steam_id":76561198892328663,"connected_time":819000000000,"state":"active","ping":95},{"user_id":24,"name":"vinny6","steam_id":76561198386735728,"connected_time":2922000000000,"state":"active","ping":67},{"user_id":66,"name":"hooley","steam_id":76561198041923067,"connected_time":1006000000000,"state":"active","ping":64},{"user_id":71,"name":"Borro","steam_id":76561198331225476,"connected_time":851000000000,"state":"active","ping":76},{"user_id":67,"name":"SrJuliusIV","steam_id":76561198341803148,"connected_time":1005000000000,"state":"active","ping":119},{"user_id":58,"name":"flareonjake10","steam_id":76561199230534912,"connected_time":1599000000000,"state":"active","ping":60},{"user_id":62,"name":"M4 Sherman","steam_id":76561198126990820,"connected_time":1180000000000,"state":"active","ping":82},{"user_id":60,"name":"Jimbabwe","steam_id":76561198065373807,"connected_time":1555000000000,"state":"active","ping":74},{"user_id":84,"name":"Erchius","steam_id":76561198256892300,"connected_time":505000000000,"state":"active","ping":68},{"user_id":90,"name":"cool beans","steam_id":76561198321591685,"connected_time":28000000000,"state":"spawning","ping":239},{"user_id":69,"name":"Mom","steam_id":76561198207936000,"connected_time":945000000000,"state":"active","ping":103},{"user_id":80,"name":"Foxtrod","steam_id":76561198127520295,"connected_time":760000000000,"state":"active","ping":78},{"user_id":89,"name":"AOkScrump","steam_id":76561198996230924,"connected_time":363000000000,"state":"active","ping":66},{"user_id":76,"name":"Chicken but","steam_id":76561198257872736,"connected_time":806000000000,"state":"active","ping":60},{"user_id":77,"name":"skeemo","steam_id":76561198127513257,"connected_time":800000000000,"state":"active","ping":80},{"user_id":78,"name":"armor_quest555","steam_id":76561198103930149,"connected_time":787000000000,"state":"active","ping":163},{"user_id":79,"name":"i \u003c3 gators","steam_id":76561198114450606,"connected_time":785000000000,"state":"active","ping":137},{"user_id":85,"name":"war rabbit","steam_id":76561198253560879,"connected_time":490000000000,"state":"active","ping":73}]},{"server_id":39,"name":"Uncletopia | Chicago | 8 | Community","name_short":"chi-8","host":"chi-2.us.uncletopia.com","port":27045,"enabled":true,"region":"us-central","cc":"us","latitude":41.881832,"longitude":-87.62318,"reserved":0,"last_update":"0001-01-01T00:00:00Z","name_a2s":"Uncletopia | Chicago | 8 | Community","protocol":17,"map":"koth_lakeside_final","folder":"tf","game":"Team Fortress","app_id":440,"player_count":0,"max_players":24,"Bots":0,"server_type":"Dedicated","server_os":"Linux","password":true,"vac":true,"version":"7742253","steam_id":85568392924866365,"keywords":["cp","nocrits","nodmgspread","uncletopia"],"game_id":440,"stv_port":27046,"stv_name":"Uncletopia | Chicago | 8 | Community | STV","players":null},{"server_id":8,"name":"Uncletopia | Dallas | 1 | All Maps","name_short":"dal-1","host":"dal-1.us.uncletopia.com","port":27015,"enabled":true,"region":"us-central","cc":"us","latitude":32.779167,"longitude":-96.80889,"reserved":0,"last_update":"0001-01-01T00:00:00Z","name_a2s":"Uncletopia | Dallas | 1 | All Maps","protocol":17,"map":"pl_badwater","folder":"tf","game":"Team Fortress","app_id":440,"player_count":24,"max_players":24,"Bots":0,"server_type":"Dedicated","server_os":"Linux","password":true,"vac":true,"version":"7742253","steam_id":85568392924469986,"keywords":["nocrits","nodmgspread","payload","uncletopia"],"game_id":440,"stv_port":27016,"stv_name":"Uncletopia | Dallas | 1 | All Maps | STV","players":[{"user_id":289,"name":"Mr.Momo","steam_id":76561199013406551,"connected_time":413000000000,"state":"active","ping":106},{"user_id":241,"name":"Krow","steam_id":76561198010392099,"connected_time":5354000000000,"state":"active","ping":54},{"user_id":274,"name":"Yimi","steam_id":76561198097984345,"connected_time":1550000000000,"state":"active","ping":69},{"user_id":224,"name":"synth lizard bitch","steam_id":76561198100176997,"connected_time":6112000000000,"state":"active","ping":90},{"user_id":270,"name":"robobingus3002","steam_id":76561199135217441,"connected_time":2235000000000,"state":"active","ping":75},{"user_id":268,"name":"Anononomous Dumbo Octopus","steam_id":76561198252522394,"connected_time":2554000000000,"state":"active","ping":52},{"user_id":293,"name":"LAzar M0Nke","steam_id":76561199083035892,"connected_time":340000000000,"state":"active","ping":80},{"user_id":281,"name":"bruh","steam_id":76561198044118234,"connected_time":1178000000000,"state":"active","ping":83},{"user_id":235,"name":"[LINUX] F2P=S*(M/B)+H || Spy!","steam_id":76561198093538786,"connected_time":5748000000000,"state":"active","ping":46},{"user_id":250,"name":"Dr. Bobo","steam_id":76561198271696761,"connected_time":4798000000000,"state":"active","ping":63},{"user_id":294,"name":"Number 1 Ken Marino fan","steam_id":76561199215811448,"connected_time":305000000000,"state":"active","ping":97},{"user_id":288,"name":"sulfie","steam_id":76561198072040570,"connected_time":595000000000,"state":"active","ping":40},{"user_id":247,"name":"Pixler544","steam_id":76561198240575132,"connected_time":5252000000000,"state":"active","ping":64},{"user_id":272,"name":"bigboimarven","steam_id":76561198844778810,"connected_time":1703000000000,"state":"active","ping":58},{"user_id":292,"name":"THIRDPIERCE","steam_id":76561198405366314,"connected_time":363000000000,"state":"active","ping":62},{"user_id":267,"name":"Soupcan","steam_id":76561198012807915,"connected_time":2576000000000,"state":"active","ping":61},{"user_id":143,"name":"Red","steam_id":76561197998285162,"connected_time":12564000000000,"state":"active","ping":85},{"user_id":261,"name":"Foomfa","steam_id":76561198007033616,"connected_time":3164000000000,"state":"active","ping":56},{"user_id":285,"name":"Derply","steam_id":76561198871211642,"connected_time":884000000000,"state":"active","ping":104},{"user_id":240,"name":"Lolxdloldx","steam_id":76561198136887125,"connected_time":5402000000000,"state":"active","ping":74},{"user_id":269,"name":"Sugar Rush","steam_id":76561198094620058,"connected_time":2521000000000,"state":"active","ping":46},{"user_id":283,"name":"Star-Lord","steam_id":76561198035908175,"connected_time":1040000000000,"state":"active","ping":95},{"user_id":248,"name":"Pepsi-Man","steam_id":76561198052061790,"connected_time":5246000000000,"state":"active","ping":87},{"user_id":265,"name":"Pacogomez.2005","steam_id":76561198960183175,"connected_time":2786000000000,"state":"active","ping":139}]},{"server_id":108,"name":"Uncletopia | Dallas | 2 | All Maps","name_short":"dal-2","host":"dal-1.us.uncletopia.com","port":27025,"enabled":true,"region":"us-central","cc":"us","latitude":32.779167,"longitude":-96.80889,"reserved":0,"last_update":"0001-01-01T00:00:00Z","name_a2s":"Uncletopia | Dallas | 2 | All Maps","protocol":17,"map":"koth_viaduct","folder":"tf","game":"Team Fortress","app_id":440,"player_count":2,"max_players":24,"Bots":0,"server_type":"Dedicated","server_os":"Linux","password":true,"vac":true,"version":"7742253","steam_id":85568392924469988,"keywords":["cp","nocrits","nodmgspread","uncletopia"],"game_id":440,"stv_port":27026,"stv_name":"Uncletopia | Dallas | 2 | All Maps | STV","players":[{"user_id":6,"name":"TVmeem","steam_id":76561198384879041,"connected_time":858000000000,"state":"active","ping":61},{"user_id":9,"name":"Sammy","steam_id":76561199027981643,"connected_time":71000000000,"state":"active","ping":56}]},{"server_id":5,"name":"Uncletopia | Frankfurt | 1 | All Maps","name_short":"frk-1","host":"frk-1.de.uncletopia.com","port":27015,"enabled":true,"region":"eu","cc":"de","latitude":50.110924,"longitude":8.682127,"reserved":0,"last_update":"0001-01-01T00:00:00Z","name_a2s":"Uncletopia | Frankfurt | 1 | All Maps","protocol":17,"map":"ctf_2fort","folder":"tf","game":"Team Fortress","app_id":440,"player_count":0,"max_players":24,"Bots":0,"server_type":"Dedicated","server_os":"Linux","password":true,"vac":true,"version":"7742253","steam_id":85568392924469989,"keywords":["ctf","nocrits","nodmgspread","uncletopia"],"game_id":440,"stv_port":27016,"stv_name":"Uncletopia | Frankfurt | 1 | All Maps | STV","players":null},{"server_id":110,"name":"Uncletopia | Frankfurt | 2 | All Maps","name_short":"frk-2","host":"frk-1.de.uncletopia.com","port":27025,"enabled":true,"region":"eu","cc":"de","latitude":50.110924,"longitude":8.682127,"reserved":0,"last_update":"0001-01-01T00:00:00Z","name_a2s":"Uncletopia | Frankfurt | 2 | All Maps","protocol":17,"map":"koth_suijin","folder":"tf","game":"Team Fortress","app_id":440,"player_count":16,"max_players":24,"Bots":0,"server_type":"Dedicated","server_os":"Linux","password":true,"vac":true,"version":"7742253","steam_id":85568392924469990,"keywords":["cp","nocrits","nodmgspread","uncletopia"],"game_id":440,"stv_port":27026,"stv_name":"Uncletopia | Frankfurt | 2 | All Maps | STV","players":[{"user_id":243,"name":"engineergaming","steam_id":76561199423207269,"connected_time":8364000000000,"state":"active","ping":63},{"user_id":375,"name":"svepitos","steam_id":76561198287351235,"connected_time":467000000000,"state":"active","ping":60},{"user_id":377,"name":"weed dispenser","steam_id":76561199090859842,"connected_time":363000000000,"state":"active","ping":128},{"user_id":378,"name":"Nakano","steam_id":76561198866569125,"connected_time":316000000000,"state":"active","ping":72},{"user_id":374,"name":"Mr. Dick™","steam_id":76561198047309044,"connected_time":584000000000,"state":"active","ping":135},{"user_id":371,"name":"dusty","steam_id":76561199011977567,"connected_time":698000000000,"state":"active","ping":48},{"user_id":383,"name":"Vitamin Weee","steam_id":76561199183937747,"connected_time":152000000000,"state":"active","ping":70},{"user_id":376,"name":"Datenegassie","steam_id":76561198089417032,"connected_time":457000000000,"state":"active","ping":62},{"user_id":385,"name":"lyudmilakh","steam_id":76561198362779878,"connected_time":80000000000,"state":"active","ping":73},{"user_id":373,"name":"[Insert Oneshot refrence]","steam_id":76561198951206047,"connected_time":596000000000,"state":"active","ping":75},{"user_id":379,"name":"Alfred","steam_id":76561198097740064,"connected_time":295000000000,"state":"active","ping":61},{"user_id":381,"name":"R3inis","steam_id":76561199030393569,"connected_time":187000000000,"state":"active","ping":77},{"user_id":382,"name":"Gothouk","steam_id":76561198084629668,"connected_time":181000000000,"state":"active","ping":102},{"user_id":386,"name":"CreativePlayer","steam_id":76561198041457527,"connected_time":39000000000,"state":"active","ping":91},{"user_id":387,"name":"System","steam_id":76561199442503973,"connected_time":36000000000,"state":"active","ping":48},{"user_id":354,"name":"ELITEsnusarn 2","steam_id":76561198098552338,"connected_time":1549000000000,"state":"active","ping":73}]},{"server_id":308,"name":"Uncletopia | Frankfurt | 3 | All Maps","name_short":"frk-3","host":"frk-1.de.uncletopia.com","port":27035,"enabled":true,"region":"eu","cc":"de","latitude":50.110924,"longitude":8.682127,"reserved":0,"last_update":"0001-01-01T00:00:00Z","name_a2s":"Uncletopia | Frankfurt | 3 | All Maps","protocol":17,"map":"koth_cascade","folder":"tf","game":"Team Fortress","app_id":440,"player_count":0,"max_players":24,"Bots":0,"server_type":"Dedicated","server_os":"Linux","password":true,"vac":true,"version":"7742253","steam_id":85568392924504274,"keywords":["cp","nocrits","nodmgspread","uncletopia"],"game_id":440,"stv_port":27036,"stv_name":"Uncletopia | Frankfurt | 3 | All Maps | STV","players":null},{"server_id":309,"name":"Uncletopia | Frankfurt | 4 | All Maps","name_short":"frk-4","host":"frk-1.de.uncletopia.com","port":27045,"enabled":true,"region":"eu","cc":"de","latitude":50.110924,"longitude":8.682127,"reserved":0,"last_update":"0001-01-01T00:00:00Z","name_a2s":"Uncletopia | Frankfurt | 4 | All Maps","protocol":17,"map":"pl_snowycoast","folder":"tf","game":"Team Fortress","app_id":440,"player_count":24,"max_players":24,"Bots":0,"server_type":"Dedicated","server_os":"Linux","password":true,"vac":true,"version":"7742253","steam_id":85568392924504275,"keywords":["nocrits","nodmgspread","payload","uncletopia"],"game_id":440,"stv_port":27046,"stv_name":"Uncletopia | Frankfurt | 4 | All Maps | STV","players":[{"user_id":205,"name":"JohaTG","steam_id":76561198804468284,"connected_time":2650000000000,"state":"active","ping":59},{"user_id":215,"name":"R!not","steam_id":76561197986328786,"connected_time":2092000000000,"state":"active","ping":47},{"user_id":251,"name":"Explosive-Legend #savetf2","steam_id":76561199126827973,"connected_time":607000000000,"state":"active","ping":124},{"user_id":200,"name":"Landsknecht","steam_id":76561199293036742,"connected_time":2957000000000,"state":"active","ping":56},{"user_id":252,"name":"Котлета Бога","steam_id":76561198014808352,"connected_time":574000000000,"state":"active","ping":64},{"user_id":245,"name":"Yessirskiii","steam_id":76561198179324075,"connected_time":994000000000,"state":"active","ping":73},{"user_id":232,"name":"NiNYÃ","steam_id":76561197995685294,"connected_time":1523000000000,"state":"active","ping":55},{"user_id":206,"name":"CarbonPan","steam_id":76561198072169983,"connected_time":2629000000000,"state":"active","ping":109},{"user_id":241,"name":"New Years Gang","steam_id":76561198041708820,"connected_time":1288000000000,"state":"active","ping":66},{"user_id":258,"name":"flange","steam_id":76561198040182692,"connected_time":8000000000,"state":"spawning","ping":59},{"user_id":233,"name":"I want my dog back","steam_id":76561198318748304,"connected_time":1507000000000,"state":"active","ping":119},{"user_id":253,"name":"Stupid","steam_id":76561198127348089,"connected_time":496000000000,"state":"active","ping":139},{"user_id":236,"name":"a2ndkid02","steam_id":76561199368878842,"connected_time":1472000000000,"state":"active","ping":153},{"user_id":254,"name":"kadma","steam_id":76561198190600121,"connected_time":477000000000,"state":"active","ping":56},{"user_id":213,"name":"zasvicuful","steam_id":76561198186803294,"connected_time":2153000000000,"state":"active","ping":77},{"user_id":214,"name":"onku","steam_id":76561199230709660,"connected_time":2143000000000,"state":"active","ping":47},{"user_id":256,"name":"Sneaky boi","steam_id":76561199195985387,"connected_time":245000000000,"state":"active","ping":90},{"user_id":217,"name":"Christopher","steam_id":76561198108482463,"connected_time":2042000000000,"state":"active","ping":67},{"user_id":246,"name":"kawi","steam_id":76561198237588932,"connected_time":960000000000,"state":"active","ping":60},{"user_id":239,"name":"Mankor","steam_id":76561198020439322,"connected_time":1331000000000,"state":"active","ping":45},{"user_id":257,"name":"rmz.ssj","steam_id":76561198329613930,"connected_time":165000000000,"state":"active","ping":60},{"user_id":228,"name":"Tort","steam_id":76561198329646769,"connected_time":1835000000000,"state":"active","ping":64},{"user_id":229,"name":"Sidewall Girts","steam_id":76561198092234302,"connected_time":1809000000000,"state":"active","ping":67},{"user_id":244,"name":"Momiuss","steam_id":76561198131070045,"connected_time":1247000000000,"state":"active","ping":99}]},{"server_id":310,"name":"Uncletopia | Frankfurt | 5 | All Maps","name_short":"frk-5","host":"frk-1.de.uncletopia.com","port":27055,"enabled":true,"region":"eu","cc":"de","latitude":50.110924,"longitude":8.682127,"reserved":0,"last_update":"0001-01-01T00:00:00Z","name_a2s":"Uncletopia | Frankfurt | 5 | All Maps","protocol":17,"map":"pl_frontier_final","folder":"tf","game":"Team Fortress","app_id":440,"player_count":24,"max_players":24,"Bots":0,"server_type":"Dedicated","server_os":"Linux","password":true,"vac":true,"version":"7742253","steam_id":85568392924504277,"keywords":["nocrits","nodmgspread","payload","uncletopia"],"game_id":440,"stv_port":27056,"stv_name":"Uncletopia | Frankfurt | 5 | All Maps | STV","players":[{"user_id":485,"name":"noodles19","steam_id":76561198965900071,"connected_time":1172000000000,"state":"active","ping":84},{"user_id":508,"name":"Floppa The Slav","steam_id":76561199388080503,"connected_time":328000000000,"state":"active","ping":55},{"user_id":493,"name":"Fart of Doom","steam_id":76561198042593027,"connected_time":960000000000,"state":"active","ping":85},{"user_id":483,"name":"Dr.Sees [F2P]","steam_id":76561199219233587,"connected_time":1190000000000,"state":"active","ping":85},{"user_id":458,"name":"God´s Cock","steam_id":76561198058947923,"connected_time":2638000000000,"state":"active","ping":58},{"user_id":486,"name":"Anvy","steam_id":76561198330437261,"connected_time":1161000000000,"state":"active","ping":92},{"user_id":500,"name":"Dill Killem","steam_id":76561199071571354,"connected_time":781000000000,"state":"active","ping":58},{"user_id":487,"name":"PanPatrik","steam_id":76561198293331527,"connected_time":1127000000000,"state":"active","ping":53},{"user_id":495,"name":"Leslie","steam_id":76561198216933981,"connected_time":905000000000,"state":"active","ping":62},{"user_id":513,"name":"redzach","steam_id":76561198444094359,"connected_time":190000000000,"state":"active","ping":150},{"user_id":491,"name":"Sítheach","steam_id":76561198138915310,"connected_time":1010000000000,"state":"active","ping":75},{"user_id":509,"name":"__‾_","steam_id":76561198056895683,"connected_time":296000000000,"state":"active","ping":60},{"user_id":464,"name":"Astra Planeti","steam_id":76561198408384232,"connected_time":2208000000000,"state":"active","ping":90},{"user_id":467,"name":"historicalpoultry","steam_id":76561198148422688,"connected_time":1976000000000,"state":"active","ping":44},{"user_id":494,"name":"walking sentry","steam_id":76561199225363633,"connected_time":956000000000,"state":"active","ping":61},{"user_id":471,"name":"Jacket","steam_id":76561198355798604,"connected_time":1621000000000,"state":"active","ping":93},{"user_id":496,"name":"Anti_Dragon","steam_id":76561198969060607,"connected_time":888000000000,"state":"active","ping":98},{"user_id":477,"name":"Blo","steam_id":76561198161651469,"connected_time":1503000000000,"state":"active","ping":57},{"user_id":512,"name":"Magica","steam_id":76561198965200359,"connected_time":199000000000,"state":"active","ping":73},{"user_id":497,"name":"♥ Cirno ♥","steam_id":76561198834982738,"connected_time":883000000000,"state":"active","ping":69},{"user_id":498,"name":"Wade Wilson's Spoilt C4","steam_id":76561198013884709,"connected_time":869000000000,"state":"active","ping":100},{"user_id":481,"name":"Nummi","steam_id":76561198980901935,"connected_time":1203000000000,"state":"active","ping":87},{"user_id":501,"name":"stonebum","steam_id":76561198057004606,"connected_time":741000000000,"state":"active","ping":59},{"user_id":511,"name":"Gasssley","steam_id":76561198856417853,"connected_time":250000000000,"state":"active","ping":63}]},{"server_id":311,"name":"Uncletopia | Frankfurt | 6 | All Maps","name_short":"frk-6","host":"frk-1.de.uncletopia.com","port":27065,"enabled":true,"region":"eu","cc":"de","latitude":50.110924,"longitude":8.682127,"reserved":0,"last_update":"0001-01-01T00:00:00Z","name_a2s":"Uncletopia | Frankfurt | 6 | All Maps","protocol":17,"map":"pl_borneo","folder":"tf","game":"Team Fortress","app_id":440,"player_count":24,"max_players":24,"Bots":0,"server_type":"Dedicated","server_os":"Linux","password":true,"vac":true,"version":"7742253","steam_id":85568392924504278,"keywords":["nocrits","nodmgspread","payload","uncletopia"],"game_id":440,"stv_port":27066,"stv_name":"Uncletopia | Frankfurt | 6 | All Maps | STV","players":[{"user_id":273,"name":"Zero (Orbital Gear Mastermind)","steam_id":76561198017416816,"connected_time":616000000000,"state":"active","ping":60},{"user_id":236,"name":"Hetmanych","steam_id":76561198870926865,"connected_time":3694000000000,"state":"active","ping":50},{"user_id":234,"name":"Инспектор Атас","steam_id":76561199175688390,"connected_time":3723000000000,"state":"active","ping":75},{"user_id":267,"name":"Totally Something","steam_id":76561198916824935,"connected_time":1553000000000,"state":"active","ping":67},{"user_id":275,"name":"Perämiehenä","steam_id":76561197968945306,"connected_time":548000000000,"state":"active","ping":72},{"user_id":110,"name":"YeetusFeetus","steam_id":76561199043598948,"connected_time":12014000000000,"state":"active","ping":113},{"user_id":280,"name":"-gunripp0r^be / Obelix^","steam_id":76561197999306879,"connected_time":206000000000,"state":"active","ping":78},{"user_id":252,"name":"UNO, The Ubisoft Original (2023","steam_id":76561198846784757,"connected_time":2594000000000,"state":"active","ping":66},{"user_id":255,"name":"Ape","steam_id":76561198322703872,"connected_time":2167000000000,"state":"active","ping":54},{"user_id":260,"name":"G6 sherlock","steam_id":76561198802967796,"connected_time":1920000000000,"state":"active","ping":120},{"user_id":253,"name":"Dimethaltryptamine","steam_id":76561198043841068,"connected_time":2392000000000,"state":"active","ping":160},{"user_id":274,"name":"funny spy","steam_id":76561198267612598,"connected_time":612000000000,"state":"active","ping":90},{"user_id":261,"name":"BuhByeFalecia","steam_id":76561198364710587,"connected_time":1807000000000,"state":"active","ping":180},{"user_id":278,"name":"def","steam_id":76561198857396812,"connected_time":439000000000,"state":"active","ping":47},{"user_id":262,"name":"JohnarasGamer1","steam_id":76561198365929872,"connected_time":1801000000000,"state":"active","ping":71},{"user_id":80,"name":"Mr. Mundy","steam_id":76561198132008918,"connected_time":13982000000000,"state":"active","ping":82},{"user_id":263,"name":"SpilledMilk","steam_id":76561198174123971,"connected_time":1799000000000,"state":"active","ping":50},{"user_id":270,"name":"Echo of Abyss","steam_id":76561198981841782,"connected_time":791000000000,"state":"active","ping":84},{"user_id":31,"name":"Hexagon","steam_id":76561198151205758,"connected_time":16896000000000,"state":"active","ping":58},{"user_id":276,"name":"Spajro","steam_id":76561198257383813,"connected_time":540000000000,"state":"active","ping":54},{"user_id":279,"name":"paradise punch lemonade","steam_id":76561198058012525,"connected_time":293000000000,"state":"active","ping":73},{"user_id":224,"name":"Coac","steam_id":76561198085265740,"connected_time":4770000000000,"state":"active","ping":61},{"user_id":186,"name":"Fran","steam_id":76561199070516960,"connected_time":7469000000000,"state":"active","ping":63},{"user_id":277,"name":"Dolcelatte","steam_id":76561198038501770,"connected_time":485000000000,"state":"active","ping":59}]},{"server_id":23,"name":"Uncletopia | Frankfurt | 7 | Stopwatch Beta","name_short":"frk-7","host":"frk-1.de.uncletopia.com","port":27075,"enabled":true,"region":"eu","cc":"de","latitude":50.110924,"longitude":8.682127,"reserved":0,"last_update":"0001-01-01T00:00:00Z","name_a2s":"Uncletopia | Frankfurt | 7 | Stopwatch Beta","protocol":17,"map":"workshop/pl_summercoast_rc8e.ugc1761528829","folder":"tf","game":"Team Fortress","app_id":440,"player_count":0,"max_players":24,"Bots":0,"server_type":"Dedicated","server_os":"Linux","password":true,"vac":true,"version":"7742253","steam_id":85568392924742827,"keywords":["nocrits","nodmgspread","payload","uncletopia"],"game_id":440,"stv_port":27076,"stv_name":"Uncletopia | Frankfurt | 7 | Stopwatch Beta | STV","players":null},{"server_id":24,"name":"Uncletopia | Frankfurt | 8 | Community","name_short":"frk-8","host":"frk-1.de.uncletopia.com","port":27085,"enabled":true,"region":"eu","cc":"de","latitude":50.110924,"longitude":8.682127,"reserved":0,"last_update":"0001-01-01T00:00:00Z","name_a2s":"Uncletopia | Frankfurt | 8 | Community","protocol":17,"map":"workshop/koth_synthetic_rc6a.ugc1549817316","folder":"tf","game":"Team Fortress","app_id":440,"player_count":0,"max_players":24,"Bots":0,"server_type":"Dedicated","server_os":"Linux","password":true,"vac":true,"version":"7742253","steam_id":85568392924742828,"keywords":["cp","nocrits","nodmgspread","uncletopia"],"game_id":440,"stv_port":27086,"stv_name":"Uncletopia | Frankfurt | 8 | Community | STV","players":null},{"server_id":202,"name":"Uncletopia | Hong Kong | 1 | All Maps","name_short":"hgk-1","host":"hgk-1.hk.uncletopia.com","port":27015,"enabled":true,"region":"asia","cc":"hk","latitude":22.302711,"longitude":114.177216,"reserved":0,"last_update":"0001-01-01T00:00:00Z","name_a2s":"Uncletopia | Hong Kong | 1 | All Maps","protocol":17,"map":"koth_harvest_final","folder":"tf","game":"Team Fortress","app_id":440,"player_count":12,"max_players":24,"Bots":0,"server_type":"Dedicated","server_os":"Linux","password":true,"vac":true,"version":"7742253","steam_id":85568392924494504,"keywords":["cp","nocrits","nodmgspread","uncletopia"],"game_id":440,"stv_port":27016,"stv_name":"Uncletopia | Hong Kong | 1 | All Maps | STV","players":[{"user_id":901,"name":"᲼᲼᲼᲼᲼᲼","steam_id":76561198157618957,"connected_time":166000000000,"state":"active","ping":86},{"user_id":870,"name":"Kroma","steam_id":76561198440429955,"connected_time":5451000000000,"state":"active","ping":77},{"user_id":872,"name":"pink","steam_id":76561199160972366,"connected_time":5275000000000,"state":"active","ping":84},{"user_id":902,"name":"gambling addict","steam_id":76561198991880534,"connected_time":133000000000,"state":"active","ping":258},{"user_id":864,"name":"v1.","steam_id":76561198037571054,"connected_time":5867000000000,"state":"active","ping":33},{"user_id":887,"name":"PinkIsNotBad","steam_id":76561199115774419,"connected_time":3120000000000,"state":"active","ping":95},{"user_id":888,"name":"the dingler man","steam_id":76561199099203623,"connected_time":2988000000000,"state":"active","ping":242},{"user_id":717,"name":"没有冰淇淋哈哈","steam_id":76561199158327323,"connected_time":15704000000000,"state":"active","ping":77},{"user_id":898,"name":"Room","steam_id":76561199174579733,"connected_time":587000000000,"state":"active","ping":267},{"user_id":899,"name":"engieDEER","steam_id":76561199366178362,"connected_time":491000000000,"state":"active","ping":232},{"user_id":851,"name":"good goth girl","steam_id":76561198118989010,"connected_time":6468000000000,"state":"active","ping":58},{"user_id":863,"name":"juan233","steam_id":76561198867566247,"connected_time":5935000000000,"state":"active","ping":90}]},{"server_id":1,"name":"Uncletopia | Los Angeles | 1 | All Maps","name_short":"lax-1","host":"lax-1.us.uncletopia.com","port":27015,"enabled":true,"region":"us-west","cc":"us","latitude":33.94279,"longitude":-118.41004,"reserved":0,"last_update":"0001-01-01T00:00:00Z","name_a2s":"Uncletopia | Los Angeles | 1 | All Maps","protocol":17,"map":"cp_mountainlab","folder":"tf","game":"Team Fortress","app_id":440,"player_count":0,"max_players":24,"Bots":0,"server_type":"Dedicated","server_os":"Linux","password":true,"vac":true,"version":"7742253","steam_id":85568392924469991,"keywords":["cp","nocrits","nodmgspread","uncletopia"],"game_id":440,"stv_port":27016,"stv_name":"Uncletopia | Los Angeles | 1 | All Maps | STV","players":null},{"server_id":112,"name":"Uncletopia | Los Angeles | 2 | All Maps","name_short":"lax-2","host":"lax-1.us.uncletopia.com","port":27025,"enabled":true,"region":"us-west","cc":"us","latitude":33.94279,"longitude":-118.41004,"reserved":0,"last_update":"0001-01-01T00:00:00Z","name_a2s":"Uncletopia | Los Angeles | 2 | All Maps","protocol":17,"map":"pl_swiftwater_final1","folder":"tf","game":"Team Fortress","app_id":440,"player_count":0,"max_players":24,"Bots":0,"server_type":"Dedicated","server_os":"Linux","password":true,"vac":true,"version":"7742253","steam_id":85568392924469992,"keywords":["nocrits","nodmgspread","payload","uncletopia"],"game_id":440,"stv_port":27026,"stv_name":"Uncletopia | Los Angeles | 2 | All Maps | STV","players":null},{"server_id":324,"name":"Uncletopia | Los Angeles | 3 | All Maps","name_short":"lax-3","host":"lax-1.us.uncletopia.com","port":27035,"enabled":true,"region":"us-west","cc":"us","latitude":33.94279,"longitude":-118.41004,"reserved":0,"last_update":"0001-01-01T00:00:00Z","name_a2s":"Uncletopia | Los Angeles | 3 | All Maps","protocol":17,"map":"cp_snakewater_final1","folder":"tf","game":"Team Fortress","app_id":440,"player_count":0,"max_players":24,"Bots":0,"server_type":"Dedicated","server_os":"Linux","password":true,"vac":true,"version":"7742253","steam_id":85568392924510198,"keywords":["cp","nocrits","nodmgspread","uncletopia"],"game_id":440,"stv_port":27036,"stv_name":"Uncletopia | Los Angeles | 3 | All Maps | STV","players":null},{"server_id":25,"name":"Uncletopia | Los Angeles | 4 | Stopwatch Beta","name_short":"lax-4","host":"lax-1.us.uncletopia.com","port":27045,"enabled":true,"region":"us-west","cc":"us","latitude":33.94279,"longitude":-118.41004,"reserved":0,"last_update":"0001-01-01T00:00:00Z","name_a2s":"Uncletopia | Los Angeles | 4 | Stopwatch Beta","protocol":17,"map":"cp_snakewater_final1","folder":"tf","game":"Team Fortress","app_id":440,"player_count":0,"max_players":24,"Bots":0,"server_type":"Dedicated","server_os":"Linux","password":true,"vac":true,"version":"7742253","steam_id":85568392924510199,"keywords":["cp","nocrits","nodmgspread","uncletopia"],"game_id":440,"stv_port":27046,"stv_name":"Uncletopia | Los Angeles | 4 | Stopwatch Beta | STV","players":null},{"server_id":11,"name":"Uncletopia | London | 1 | All Maps","name_short":"lon-1","host":"lon-1.uk.uncletopia.com","port":27015,"enabled":true,"region":"eu","cc":"gb","latitude":51.509865,"longitude":-0.118092,"reserved":0,"last_update":"0001-01-01T00:00:00Z","name_a2s":"Uncletopia | London | 1 | All Maps","protocol":17,"map":"pl_pier","folder":"tf","game":"Team Fortress","app_id":440,"player_count":24,"max_players":24,"Bots":0,"server_type":"Dedicated","server_os":"Linux","password":true,"vac":true,"version":"7742253","steam_id":85568392924367362,"keywords":["nocrits","nodmgspread","payload","uncletopia"],"game_id":440,"stv_port":27016,"stv_name":"Uncletopia | London | 1 | All Maps | STV","players":[{"user_id":385,"name":"Dodoshka","steam_id":76561198093464840,"connected_time":964000000000,"state":"active","ping":100},{"user_id":352,"name":"Dieu-Sama","steam_id":76561198002075862,"connected_time":2618000000000,"state":"active","ping":60},{"user_id":353,"name":"chris_papaya","steam_id":76561199435569981,"connected_time":2530000000000,"state":"active","ping":166},{"user_id":395,"name":"vissa","steam_id":76561198150680224,"connected_time":714000000000,"state":"active","ping":98},{"user_id":302,"name":"sv_MrGibbs","steam_id":76561198114071972,"connected_time":5143000000000,"state":"active","ping":43},{"user_id":372,"name":"Mono","steam_id":76561198114569493,"connected_time":1307000000000,"state":"active","ping":40},{"user_id":358,"name":"mountaindrill","steam_id":76561198864327475,"connected_time":2349000000000,"state":"active","ping":60},{"user_id":325,"name":"Tasukeru","steam_id":76561198011909704,"connected_time":3994000000000,"state":"active","ping":51},{"user_id":374,"name":"jijiklidrop","steam_id":76561198042328253,"connected_time":1236000000000,"state":"active","ping":66},{"user_id":370,"name":"Posho","steam_id":76561198062396436,"connected_time":1537000000000,"state":"active","ping":40},{"user_id":399,"name":"JOHN GAMING (based)","steam_id":76561199085822219,"connected_time":206000000000,"state":"active","ping":76},{"user_id":386,"name":"jaMie","steam_id":76561198170148783,"connected_time":960000000000,"state":"active","ping":44},{"user_id":400,"name":"MarioThePlumber","steam_id":76561198314229530,"connected_time":31000000000,"state":"spawning","ping":90},{"user_id":311,"name":"Takk","steam_id":76561198320276918,"connected_time":4813000000000,"state":"active","ping":66},{"user_id":329,"name":"Soph","steam_id":76561198131688853,"connected_time":3908000000000,"state":"active","ping":54},{"user_id":360,"name":"Tafrum","steam_id":76561198053868147,"connected_time":1995000000000,"state":"active","ping":87},{"user_id":335,"name":"CRAKA","steam_id":76561199376917441,"connected_time":3402000000000,"state":"active","ping":68},{"user_id":366,"name":"dec","steam_id":76561198009660168,"connected_time":1839000000000,"state":"active","ping":46},{"user_id":369,"name":"Morgulan","steam_id":76561198046564543,"connected_time":1756000000000,"state":"active","ping":67},{"user_id":314,"name":"🅽🅴🅷","steam_id":76561198852532006,"connected_time":4773000000000,"state":"active","ping":71},{"user_id":317,"name":"𝐅𝐮𝐬𝐡𝐢𝐢","steam_id":76561198972356174,"connected_time":4726000000000,"state":"active","ping":96},{"user_id":387,"name":"Astelea","steam_id":76561199121544181,"connected_time":943000000000,"state":"active","ping":59},{"user_id":384,"name":"ttv.twitch.tv/watchLive","steam_id":76561198047359132,"connected_time":985000000000,"state":"active","ping":74},{"user_id":397,"name":"British Disapproval","steam_id":76561198001375260,"connected_time":232000000000,"state":"active","ping":52}]},{"server_id":114,"name":"Uncletopia | London | 2 | All Maps","name_short":"lon-2","host":"lon-1.uk.uncletopia.com","port":27025,"enabled":true,"region":"eu","cc":"gb","latitude":51.509865,"longitude":-0.118092,"reserved":0,"last_update":"0001-01-01T00:00:00Z","name_a2s":"Uncletopia | London | 2 | All Maps","protocol":17,"map":"cp_snakewater_final1","folder":"tf","game":"Team Fortress","app_id":440,"player_count":0,"max_players":24,"Bots":0,"server_type":"Dedicated","server_os":"Linux","password":true,"vac":true,"version":"7742253","steam_id":85568392924470941,"keywords":["cp","nocrits","nodmgspread","uncletopia"],"game_id":440,"stv_port":27026,"stv_name":"Uncletopia | London | 2 | All Maps | STV","players":null},{"server_id":320,"name":"Uncletopia | London | 3 | All Maps","name_short":"lon-3","host":"lon-1.uk.uncletopia.com","port":27035,"enabled":true,"region":"eu","cc":"gb","latitude":51.509865,"longitude":-0.118092,"reserved":0,"last_update":"0001-01-01T00:00:00Z","name_a2s":"Uncletopia | London | 3 | All Maps","protocol":17,"map":"cp_process_final","folder":"tf","game":"Team Fortress","app_id":440,"player_count":24,"max_players":24,"Bots":0,"server_type":"Dedicated","server_os":"Linux","password":true,"vac":true,"version":"7742253","steam_id":85568392924510192,"keywords":["cp","nocrits","nodmgspread","uncletopia"],"game_id":440,"stv_port":27036,"stv_name":"Uncletopia | London | 3 | All Maps | STV","players":[{"user_id":365,"name":"Katır","steam_id":76561199466420909,"connected_time":2238000000000,"state":"active","ping":87},{"user_id":395,"name":"thepoltroon294","steam_id":76561198236015392,"connected_time":244000000000,"state":"active","ping":116},{"user_id":396,"name":"Insanitybomb","steam_id":76561198048707708,"connected_time":114000000000,"state":"active","ping":76},{"user_id":351,"name":"StabbyKnife","steam_id":76561198094010004,"connected_time":2951000000000,"state":"active","ping":86},{"user_id":390,"name":"nemśs","steam_id":76561198134203031,"connected_time":376000000000,"state":"active","ping":67},{"user_id":352,"name":"quadr","steam_id":76561198871716755,"connected_time":2917000000000,"state":"active","ping":95},{"user_id":353,"name":"Don Quixote","steam_id":76561197999454313,"connected_time":2916000000000,"state":"active","ping":75},{"user_id":360,"name":"Bromoneto","steam_id":76561198876695014,"connected_time":2709000000000,"state":"active","ping":97},{"user_id":397,"name":"Sin","steam_id":76561198975489819,"connected_time":60000000000,"state":"active","ping":55},{"user_id":251,"name":"kaT","steam_id":76561198879664338,"connected_time":9456000000000,"state":"active","ping":67},{"user_id":372,"name":"drain chain","steam_id":76561198106652575,"connected_time":1606000000000,"state":"active","ping":49},{"user_id":386,"name":"EatAtJojos","steam_id":76561199228871811,"connected_time":730000000000,"state":"active","ping":79},{"user_id":384,"name":"dude m8","steam_id":76561198155649280,"connected_time":752000000000,"state":"active","ping":63},{"user_id":348,"name":"margera","steam_id":76561198043601838,"connected_time":3207000000000,"state":"active","ping":60},{"user_id":392,"name":"WinsomeYapper9","steam_id":76561199275285546,"connected_time":345000000000,"state":"active","ping":93},{"user_id":310,"name":"Borat","steam_id":76561198122226417,"connected_time":6498000000000,"state":"active","ping":43},{"user_id":347,"name":"my m*rge","steam_id":76561198106049954,"connected_time":3303000000000,"state":"active","ping":71},{"user_id":393,"name":"fister","steam_id":76561199273619268,"connected_time":342000000000,"state":"active","ping":64},{"user_id":380,"name":"TheBeardedM1G","steam_id":76561198040208946,"connected_time":976000000000,"state":"active","ping":45},{"user_id":299,"name":"frosty","steam_id":76561198094560834,"connected_time":7102000000000,"state":"active","ping":50},{"user_id":394,"name":"Lessoz","steam_id":76561199211572036,"connected_time":334000000000,"state":"active","ping":87},{"user_id":381,"name":"D-boi","steam_id":76561199001837576,"connected_time":881000000000,"state":"active","ping":56},{"user_id":385,"name":"steinar","steam_id":76561198441857153,"connected_time":747000000000,"state":"active","ping":83},{"user_id":333,"name":"PWizard","steam_id":76561198026458489,"connected_time":4834000000000,"state":"active","ping":69}]},{"server_id":321,"name":"Uncletopia | London | 4 | All Maps","name_short":"lon-4","host":"lon-1.uk.uncletopia.com","port":27045,"enabled":true,"region":"eu","cc":"gb","latitude":51.509865,"longitude":-0.118092,"reserved":0,"last_update":"0001-01-01T00:00:00Z","name_a2s":"Uncletopia | London | 4 | All Maps","protocol":17,"map":"koth_highpass","folder":"tf","game":"Team Fortress","app_id":440,"player_count":0,"max_players":24,"Bots":0,"server_type":"Dedicated","server_os":"Linux","password":true,"vac":true,"version":"7742253","steam_id":85568392924510193,"keywords":["cp","nocrits","nodmgspread","uncletopia"],"game_id":440,"stv_port":27046,"stv_name":"Uncletopia | London | 4 | All Maps | STV","players":null},{"server_id":21,"name":"Uncletopia | London | 5 | All Maps","name_short":"lon-5","host":"lon-1.uk.uncletopia.com","port":27055,"enabled":true,"region":"eu","cc":"gb","latitude":51.509865,"longitude":-0.118092,"reserved":0,"last_update":"0001-01-01T00:00:00Z","name_a2s":"Uncletopia | London | 5 | All Maps","protocol":17,"map":"koth_suijin","folder":"tf","game":"Team Fortress","app_id":440,"player_count":20,"max_players":24,"Bots":0,"server_type":"Dedicated","server_os":"Linux","password":true,"vac":true,"version":"7742253","steam_id":85568392924742829,"keywords":["cp","nocrits","nodmgspread","uncletopia"],"game_id":440,"stv_port":27056,"stv_name":"Uncletopia | London | 5 | All Maps | STV","players":[{"user_id":282,"name":"Daoloth, Render of the Veils","steam_id":76561198115106008,"connected_time":1111000000000,"state":"connecting","ping":66},{"user_id":232,"name":"Emxx52","steam_id":76561198059374194,"connected_time":3951000000000,"state":"connecting","ping":100},{"user_id":270,"name":"Ash","steam_id":76561199120063753,"connected_time":1904000000000,"state":"connecting","ping":151},{"user_id":266,"name":"Lunar","steam_id":76561199077495290,"connected_time":2127000000000,"state":"spawning","ping":81},{"user_id":268,"name":"Hkitchen","steam_id":76561198194779526,"connected_time":2083000000000,"state":"connecting","ping":42},{"user_id":290,"name":"LoboPaciente","steam_id":76561198088870962,"connected_time":28000000000,"state":"connecting","ping":58},{"user_id":277,"name":"When Life gives you Lemons","steam_id":76561198318290663,"connected_time":1446000000000,"state":"connecting","ping":72},{"user_id":226,"name":"mesoni","steam_id":76561199141290973,"connected_time":4223000000000,"state":"connecting","ping":104},{"user_id":236,"name":"Dr. Funkenstein","steam_id":76561197977816210,"connected_time":3882000000000,"state":"connecting","ping":66},{"user_id":141,"name":"s8nschoice","steam_id":76561198176658659,"connected_time":9793000000000,"state":"connecting","ping":127},{"user_id":273,"name":"Bagels","steam_id":76561198389646406,"connected_time":1724000000000,"state":"connecting","ping":48},{"user_id":274,"name":"ran is running","steam_id":76561199443185667,"connected_time":1705000000000,"state":"connecting","ping":152},{"user_id":287,"name":"Donuts","steam_id":76561198209147332,"connected_time":422000000000,"state":"connecting","ping":190},{"user_id":289,"name":"Spoodie","steam_id":76561198981267180,"connected_time":294000000000,"state":"connecting","ping":89},{"user_id":208,"name":"TheGuyWho'sHereForNoReason","steam_id":76561198851507736,"connected_time":5089000000000,"state":"connecting","ping":188},{"user_id":286,"name":"Welder","steam_id":76561198355300561,"connected_time":716000000000,"state":"connecting","ping":83},{"user_id":247,"name":"d00bie","steam_id":76561198025295218,"connected_time":3074000000000,"state":"connecting","ping":88},{"user_id":292,"name":"Raven","steam_id":76561198087296188,"connected_time":22000000000,"state":"connecting","ping":214}]},{"server_id":22,"name":"Uncletopia | London | 6 | All Maps","name_short":"lon-6","host":"lon-1.uk.uncletopia.com","port":27065,"enabled":true,"region":"eu","cc":"gb","latitude":51.509865,"longitude":-0.118092,"reserved":0,"last_update":"0001-01-01T00:00:00Z","name_a2s":"Uncletopia | London | 6 | All Maps","protocol":17,"map":"koth_highpass","folder":"tf","game":"Team Fortress","app_id":440,"player_count":0,"max_players":24,"Bots":0,"server_type":"Dedicated","server_os":"Linux","password":true,"vac":true,"version":"7742253","steam_id":85568392924742830,"keywords":["cp","nocrits","nodmgspread","uncletopia"],"game_id":440,"stv_port":27066,"stv_name":"Uncletopia | London | 6 | All Maps | STV","players":null},{"server_id":40,"name":"Uncletopia | London | 7 | No Payload","name_short":"lon-7","host":"lon-1.uk.uncletopia.com","port":27075,"enabled":true,"region":"eu","cc":"gb","latitude":51.509865,"longitude":-0.118092,"reserved":0,"last_update":"0001-01-01T00:00:00Z","name_a2s":"Uncletopia | London | 7 | No Payload","protocol":17,"map":"koth_viaduct","folder":"tf","game":"Team Fortress","app_id":440,"player_count":0,"max_players":24,"Bots":0,"server_type":"Dedicated","server_os":"Linux","password":true,"vac":true,"version":"7742253","steam_id":85568392924964314,"keywords":["cp","nocrits","nodmgspread","uncletopia"],"game_id":440,"stv_port":27076,"stv_name":"Uncletopia | London | 7 | No Payload | STV","players":null},{"server_id":41,"name":"Uncletopia | London | 8 | Community","name_short":"lon-8","host":"lon-1.uk.uncletopia.com","port":27085,"enabled":true,"region":"eu","cc":"gb","latitude":51.509865,"longitude":-0.118092,"reserved":0,"last_update":"0001-01-01T00:00:00Z","name_a2s":"Uncletopia | London | 8 | Community","protocol":17,"map":"cp_altitude","folder":"tf","game":"Team Fortress","app_id":440,"player_count":0,"max_players":24,"Bots":0,"server_type":"Dedicated","server_os":"Linux","password":true,"vac":true,"version":"7742253","steam_id":85568392924964315,"keywords":["cp","nocrits","nodmgspread","uncletopia"],"game_id":440,"stv_port":27086,"stv_name":"Uncletopia | London | 8 | Community | STV","players":null},{"server_id":300,"name":"Uncletopia | Montréal | 1 | All Maps","name_short":"mtl-1","host":"mtl-1.ca.uncletopia.com","port":27015,"enabled":true,"region":"us-east","cc":"ca","latitude":45.50889,"longitude":-73.56167,"reserved":0,"last_update":"0001-01-01T00:00:00Z","name_a2s":"Uncletopia | Montréal | 1 | All Maps","protocol":17,"map":"pl_barnblitz","folder":"tf","game":"Team Fortress","app_id":440,"player_count":0,"max_players":24,"Bots":0,"server_type":"Dedicated","server_os":"Linux","password":true,"vac":true,"version":"7742253","steam_id":85568392924500087,"keywords":["nocrits","nodmgspread","payload","uncletopia"],"game_id":440,"stv_port":27016,"stv_name":"Uncletopia | Montréal | 1 | All Maps | STV","players":null},{"server_id":301,"name":"Uncletopia | Montréal | 2 | All Maps","name_short":"mtl-2","host":"mtl-1.ca.uncletopia.com","port":27025,"enabled":true,"region":"us-east","cc":"ca","latitude":45.50889,"longitude":-73.56167,"reserved":0,"last_update":"0001-01-01T00:00:00Z","name_a2s":"Uncletopia | Montréal | 2 | All Maps","protocol":17,"map":"koth_highpass","folder":"tf","game":"Team Fortress","app_id":440,"player_count":0,"max_players":24,"Bots":0,"server_type":"Dedicated","server_os":"Linux","password":true,"vac":true,"version":"7742253","steam_id":85568392924500088,"keywords":["cp","nocrits","nodmgspread","uncletopia"],"game_id":440,"stv_port":27026,"stv_name":"Uncletopia | Montréal | 2 | All Maps | STV","players":null},{"server_id":302,"name":"Uncletopia | Montréal | 3 | All Maps","name_short":"mtl-3","host":"mtl-1.ca.uncletopia.com","port":27035,"enabled":true,"region":"us-east","cc":"ca","latitude":45.50889,"longitude":-73.56167,"reserved":0,"last_update":"0001-01-01T00:00:00Z","name_a2s":"Uncletopia | Montréal | 3 | All Maps","protocol":17,"map":"cp_snakewater_final1","folder":"tf","game":"Team Fortress","app_id":440,"player_count":0,"max_players":24,"Bots":0,"server_type":"Dedicated","server_os":"Linux","password":true,"vac":true,"version":"7742253","steam_id":85568392924500089,"keywords":["cp","nocrits","nodmgspread","uncletopia"],"game_id":440,"stv_port":27036,"stv_name":"Uncletopia | Montréal | 3 | All Maps | STV","players":null},{"server_id":303,"name":"Uncletopia | Montréal | 4 | No Payload","name_short":"mtl-4","host":"mtl-1.ca.uncletopia.com","port":27045,"enabled":true,"region":"us-east","cc":"ca","latitude":45.50889,"longitude":-73.56167,"reserved":0,"last_update":"0001-01-01T00:00:00Z","name_a2s":"Uncletopia | Montréal | 4 | No Payload","protocol":17,"map":"cp_snakewater_final1","folder":"tf","game":"Team Fortress","app_id":440,"player_count":0,"max_players":24,"Bots":0,"server_type":"Dedicated","server_os":"Linux","password":true,"vac":true,"version":"7742253","steam_id":85568392924500090,"keywords":["cp","nocrits","nodmgspread","uncletopia"],"game_id":440,"stv_port":27046,"stv_name":"Uncletopia | Montréal | 4 | No Payload | STV","players":null},{"server_id":13,"name":"Uncletopia | New York City | 1 | All Maps","name_short":"nyc-1","host":"nyc-1.us.uncletopia.com","port":27015,"enabled":true,"region":"us-east","cc":"us","latitude":40.73061,"longitude":-73.93524,"reserved":0,"last_update":"0001-01-01T00:00:00Z","name_a2s":"Uncletopia | New York City | 1 | All Maps","protocol":17,"map":"pl_pier","folder":"tf","game":"Team Fortress","app_id":440,"player_count":24,"max_players":24,"Bots":0,"server_type":"Dedicated","server_os":"Linux","password":true,"vac":true,"version":"7742253","steam_id":85568392924469993,"keywords":["nocrits","nodmgspread","payload","uncletopia"],"game_id":440,"stv_port":27016,"stv_name":"Uncletopia | New York City | 1 | All Maps | STV","players":[{"user_id":57,"name":"Marshall","steam_id":76561198035229542,"connected_time":424000000000,"state":"active","ping":63},{"user_id":13,"name":"Samus","steam_id":76561198121933439,"connected_time":3255000000000,"state":"active","ping":50},{"user_id":49,"name":"MitcheyHD","steam_id":76561198066489645,"connected_time":855000000000,"state":"active","ping":66},{"user_id":53,"name":"thundermuffin","steam_id":76561198067770965,"connected_time":449000000000,"state":"active","ping":52},{"user_id":20,"name":"Dr. Enforcicle (real)","steam_id":76561198964471859,"connected_time":2097000000000,"state":"active","ping":57},{"user_id":54,"name":"Hermit not Kermit","steam_id":76561198106182525,"connected_time":446000000000,"state":"active","ping":115},{"user_id":22,"name":"Saristan","steam_id":76561198093346048,"connected_time":2027000000000,"state":"active","ping":59},{"user_id":61,"name":"Golumpus","steam_id":76561198053549635,"connected_time":21000000000,"state":"spawning","ping":88},{"user_id":24,"name":"Bunny Eater","steam_id":76561198029563721,"connected_time":1927000000000,"state":"active","ping":56},{"user_id":25,"name":"Melon","steam_id":76561198203952392,"connected_time":1838000000000,"state":"active","ping":57},{"user_id":58,"name":"AverageGloop","steam_id":76561198243395378,"connected_time":411000000000,"state":"active","ping":44},{"user_id":50,"name":"-W3E- grim10465","steam_id":76561198045698581,"connected_time":834000000000,"state":"active","ping":30},{"user_id":55,"name":"catboy phroliax","steam_id":76561198207075529,"connected_time":445000000000,"state":"active","ping":88},{"user_id":51,"name":"Mr. Sun","steam_id":76561198081338822,"connected_time":829000000000,"state":"active","ping":79},{"user_id":30,"name":"Zenix","steam_id":76561198261817732,"connected_time":1687000000000,"state":"active","ping":124},{"user_id":31,"name":"groond","steam_id":76561198309426720,"connected_time":1676000000000,"state":"active","ping":72},{"user_id":32,"name":"moodi catgirl","steam_id":76561198124028045,"connected_time":1655000000000,"state":"active","ping":51},{"user_id":33,"name":"Spiral Mountain","steam_id":76561198058683715,"connected_time":1629000000000,"state":"active","ping":73},{"user_id":62,"name":"b4rry","steam_id":76561198365887154,"connected_time":3000000000,"state":"spawning","ping":55},{"user_id":36,"name":"Pakidude","steam_id":76561198142093134,"connected_time":1527000000000,"state":"active","ping":54},{"user_id":37,"name":"bur","steam_id":76561198004231658,"connected_time":1462000000000,"state":"active","ping":65},{"user_id":60,"name":"Psychosis","steam_id":76561198078659070,"connected_time":124000000000,"state":"active","ping":63},{"user_id":59,"name":"Dawn","steam_id":76561198799217130,"connected_time":403000000000,"state":"active","ping":135},{"user_id":41,"name":"antivirus.exe","steam_id":76561198152067633,"connected_time":1372000000000,"state":"active","ping":70}]},{"server_id":14,"name":"Uncletopia | New York City | 2 | All Maps","name_short":"nyc-2","host":"nyc-1.us.uncletopia.com","port":27025,"enabled":true,"region":"us-east","cc":"us","latitude":40.73061,"longitude":-73.93524,"reserved":0,"last_update":"0001-01-01T00:00:00Z","name_a2s":"Uncletopia | New York City | 2 | All Maps","protocol":17,"map":"pl_borneo","folder":"tf","game":"Team Fortress","app_id":440,"player_count":0,"max_players":24,"Bots":0,"server_type":"Dedicated","server_os":"Linux","password":true,"vac":true,"version":"7742253","steam_id":85568392924469994,"keywords":["nocrits","nodmgspread","payload","uncletopia"],"game_id":440,"stv_port":27026,"stv_name":"Uncletopia | New York City | 2 | All Maps | STV","players":null},{"server_id":15,"name":"Uncletopia | New York City | 3 | Stopwatch Beta","name_short":"nyc-3","host":"nyc-1.us.uncletopia.com","port":27035,"enabled":true,"region":"us-east","cc":"us","latitude":40.73061,"longitude":-73.93524,"reserved":0,"last_update":"0001-01-01T00:00:00Z","name_a2s":"Uncletopia | New York City | 3 | Stopwatch Beta","protocol":17,"map":"pl_pier","folder":"tf","game":"Team Fortress","app_id":440,"player_count":0,"max_players":24,"Bots":0,"server_type":"Dedicated","server_os":"Linux","password":true,"vac":true,"version":"7742253","steam_id":85568392924742820,"keywords":["nocrits","nodmgspread","payload","uncletopia"],"game_id":440,"stv_port":27036,"stv_name":"Uncletopia | New York City | 3 | Stopwatch Beta | STV","players":null},{"server_id":16,"name":"Uncletopia | New York City | 4 | Community","name_short":"nyc-4","host":"nyc-1.us.uncletopia.com","port":27045,"enabled":true,"region":"us-east","cc":"us","latitude":40.73061,"longitude":-73.93524,"reserved":0,"last_update":"0001-01-01T00:00:00Z","name_a2s":"Uncletopia | New York City | 4 | Community","protocol":17,"map":"koth_viaduct","folder":"tf","game":"Team Fortress","app_id":440,"player_count":0,"max_players":24,"Bots":0,"server_type":"Dedicated","server_os":"Linux","password":true,"vac":true,"version":"7742253","steam_id":85568392924742821,"keywords":["cp","nocrits","nodmgspread","uncletopia"],"game_id":440,"stv_port":27046,"stv_name":"Uncletopia | New York City | 4 | Community | STV","players":null},{"server_id":142,"name":"Uncletopia | São Paulo | 1 | All Maps","name_short":"sao-1","host":"sao-1.br.uncletopia.com","port":27015,"enabled":true,"region":"sa","cc":"br","latitude":-23.533773,"longitude":-46.62529,"reserved":0,"last_update":"0001-01-01T00:00:00Z","name_a2s":"Uncletopia | São Paulo | 1 | All Maps","protocol":17,"map":"koth_viaduct","folder":"tf","game":"Team Fortress","app_id":440,"player_count":0,"max_players":24,"Bots":0,"server_type":"Dedicated","server_os":"Linux","password":true,"vac":true,"version":"7742253","steam_id":85568392924469996,"keywords":["cp","nocrits","nodmgspread","uncletopia"],"game_id":440,"stv_port":27016,"stv_name":"Uncletopia | São Paulo | 1 | All Maps | STV","players":null},{"server_id":143,"name":"Uncletopia | São Paulo | 2 | All Maps","name_short":"sao-2","host":"sao-2.br.uncletopia.com","port":27015,"enabled":true,"region":"sa","cc":"br","latitude":-23.533773,"longitude":-46.62529,"reserved":0,"last_update":"0001-01-01T00:00:00Z","name_a2s":"Uncletopia | São Paulo | 2 | All Maps","protocol":17,"map":"koth_viaduct","folder":"tf","game":"Team Fortress","app_id":440,"player_count":6,"max_players":24,"Bots":0,"server_type":"Dedicated","server_os":"Linux","password":true,"vac":true,"version":"7742253","steam_id":85568392924485349,"keywords":["cp","nocrits","nodmgspread","uncletopia"],"game_id":440,"stv_port":27016,"stv_name":"Uncletopia | São Paulo | 2 | All Maps | STV","players":[{"user_id":13,"name":"carlosalobog17","steam_id":76561199412962152,"connected_time":1011000000000,"state":"active","ping":101},{"user_id":15,"name":"flamingo","steam_id":76561198854099251,"connected_time":495000000000,"state":"active","ping":66},{"user_id":16,"name":"Spy blw.tf","steam_id":76561199436145358,"connected_time":295000000000,"state":"active","ping":69},{"user_id":12,"name":"Pocket Slut","steam_id":76561199273735517,"connected_time":1501000000000,"state":"active","ping":44},{"user_id":14,"name":"algumber","steam_id":76561199429426012,"connected_time":978000000000,"state":"active","ping":60},{"user_id":17,"name":"Migue9093","steam_id":76561199197255079,"connected_time":214000000000,"state":"active","ping":53}]},{"server_id":7,"name":"Uncletopia | Seattle | 1 | All Maps","name_short":"sea-1","host":"sea-1.us.uncletopia.com","port":27015,"enabled":true,"region":"us-west","cc":"us","latitude":47.608013,"longitude":-122.33517,"reserved":0,"last_update":"0001-01-01T00:00:00Z","name_a2s":"Uncletopia | Seattle | 1 | All Maps","protocol":17,"map":"cp_snakewater_final1","folder":"tf","game":"Team Fortress","app_id":440,"player_count":0,"max_players":24,"Bots":0,"server_type":"Dedicated","server_os":"Linux","password":true,"vac":true,"version":"7742253","steam_id":85568392924469997,"keywords":["cp","nocrits","nodmgspread","uncletopia"],"game_id":440,"stv_port":27016,"stv_name":"Uncletopia | Seattle | 1 | All Maps | STV","players":null},{"server_id":119,"name":"Uncletopia | Seattle | 2 | All Maps","name_short":"sea-2","host":"sea-1.us.uncletopia.com","port":27025,"enabled":true,"region":"us-west","cc":"us","latitude":47.608013,"longitude":-122.33517,"reserved":0,"last_update":"0001-01-01T00:00:00Z","name_a2s":"Uncletopia | Seattle | 2 | All Maps","protocol":17,"map":"pl_borneo","folder":"tf","game":"Team Fortress","app_id":440,"player_count":24,"max_players":24,"Bots":0,"server_type":"Dedicated","server_os":"Linux","password":true,"vac":true,"version":"7742253","steam_id":85568392924469998,"keywords":["nocrits","nodmgspread","payload","uncletopia"],"game_id":440,"stv_port":27026,"stv_name":"Uncletopia | Seattle | 2 | All Maps | STV","players":[{"user_id":124,"name":"Sweets","steam_id":76561198998446307,"connected_time":2860000000000,"state":"active","ping":60},{"user_id":140,"name":"mari_","steam_id":76561198137855741,"connected_time":981000000000,"state":"active","ping":91},{"user_id":152,"name":"Obamacare","steam_id":76561198018894553,"connected_time":220000000000,"state":"active","ping":112},{"user_id":151,"name":"TYPICAL HUMAN","steam_id":76561198060914982,"connected_time":257000000000,"state":"active","ping":75},{"user_id":10,"name":"❤Dumpster Cat❤","steam_id":76561199200969139,"connected_time":9806000000000,"state":"active","ping":62},{"user_id":109,"name":"HanakoToast","steam_id":76561198045233131,"connected_time":3933000000000,"state":"active","ping":85},{"user_id":131,"name":"BobBallin","steam_id":76561198355299724,"connected_time":1814000000000,"state":"active","ping":64},{"user_id":82,"name":"SearingGustav #tG","steam_id":76561198040560786,"connected_time":5559000000000,"state":"active","ping":60},{"user_id":99,"name":"muddy","steam_id":76561198035015260,"connected_time":4703000000000,"state":"active","ping":74},{"user_id":103,"name":"hoOmIN","steam_id":76561198334947079,"connected_time":4454000000000,"state":"active","ping":67},{"user_id":143,"name":"Buttsteak123","steam_id":76561198166558900,"connected_time":668000000000,"state":"active","ping":90},{"user_id":144,"name":"Roblox Tf2","steam_id":76561198850218156,"connected_time":659000000000,"state":"active","ping":110},{"user_id":80,"name":"Dapeople","steam_id":76561197987101008,"connected_time":5753000000000,"state":"active","ping":50},{"user_id":121,"name":"Luca","steam_id":76561198125087140,"connected_time":3016000000000,"state":"active","ping":45},{"user_id":150,"name":"radicalPolio","steam_id":76561197961561855,"connected_time":380000000000,"state":"active","ping":96},{"user_id":132,"name":"General Fisticuffs","steam_id":76561198255721392,"connected_time":1803000000000,"state":"active","ping":100},{"user_id":146,"name":"far1ne","steam_id":76561198418853168,"connected_time":627000000000,"state":"active","ping":108},{"user_id":147,"name":"Μαrrz","steam_id":76561198079498985,"connected_time":609000000000,"state":"active","ping":97},{"user_id":154,"name":"MeatBeater","steam_id":76561198346410032,"connected_time":138000000000,"state":"active","ping":85},{"user_id":155,"name":"Dargoos","steam_id":76561198366212046,"connected_time":33000000000,"state":"spawning","ping":61},{"user_id":111,"name":"Rusty","steam_id":76561198055585129,"connected_time":3884000000000,"state":"active","ping":47},{"user_id":126,"name":"Squid121","steam_id":76561198038832034,"connected_time":2780000000000,"state":"active","ping":49},{"user_id":148,"name":"[Bandit]","steam_id":76561197986919852,"connected_time":609000000000,"state":"active","ping":47},{"user_id":149,"name":"lunii","steam_id":76561198406252824,"connected_time":463000000000,"state":"active","ping":58}]},{"server_id":406,"name":"Uncletopia | Seattle | 3 | Stopwatch Beta","name_short":"sea-3","host":"sea-1.us.uncletopia.com","port":27035,"enabled":true,"region":"us-west","cc":"us","latitude":47.608013,"longitude":-122.33517,"reserved":0,"last_update":"0001-01-01T00:00:00Z","name_a2s":"Uncletopia | Seattle | 3 | Stopwatch Beta","protocol":17,"map":"cp_altitude","folder":"tf","game":"Team Fortress","app_id":440,"player_count":0,"max_players":24,"Bots":0,"server_type":"Dedicated","server_os":"Linux","password":true,"vac":true,"version":"7742253","steam_id":85568392924515217,"keywords":["cp","nocrits","nodmgspread","uncletopia"],"game_id":440,"stv_port":27036,"stv_name":"Uncletopia | Seattle | 3 | Stopwatch Beta | STV","players":null},{"server_id":17,"name":"Uncletopia | San Francisco | 1 | All Maps","name_short":"sfo-1","host":"sfo-1.us.uncletopia.com","port":27015,"enabled":true,"region":"us-west","cc":"us","latitude":37.77397,"longitude":-122.4313,"reserved":0,"last_update":"0001-01-01T00:00:00Z","name_a2s":"Uncletopia | San Francisco | 1 | All Maps","protocol":17,"map":"cp_mountainlab","folder":"tf","game":"Team Fortress","app_id":440,"player_count":0,"max_players":24,"Bots":0,"server_type":"Dedicated","server_os":"Linux","password":true,"vac":true,"version":"7742253","steam_id":85568392924469999,"keywords":["cp","nocrits","nodmgspread","uncletopia"],"game_id":440,"stv_port":27016,"stv_name":"Uncletopia | San Francisco | 1 | All Maps | STV","players":null},{"server_id":18,"name":"Uncletopia | San Francisco | 2 | All Maps","name_short":"sfo-2","host":"sfo-1.us.uncletopia.com","port":27025,"enabled":true,"region":"us-west","cc":"us","latitude":37.77397,"longitude":-122.4313,"reserved":0,"last_update":"0001-01-01T00:00:00Z","name_a2s":"Uncletopia | San Francisco | 2 | All Maps","protocol":17,"map":"cp_altitude","folder":"tf","game":"Team Fortress","app_id":440,"player_count":0,"max_players":24,"Bots":0,"server_type":"Dedicated","server_os":"Linux","password":true,"vac":true,"version":"7742253","steam_id":85568392924470000,"keywords":["cp","nocrits","nodmgspread","uncletopia"],"game_id":440,"stv_port":27026,"stv_name":"Uncletopia | San Francisco | 2 | All Maps | STV","players":null},{"server_id":19,"name":"Uncletopia | San Francisco | 3 | Stopwatch Beta","name_short":"sfo-3","host":"sfo-1.us.uncletopia.com","port":27035,"enabled":true,"region":"us-west","cc":"us","latitude":37.77397,"longitude":-122.4313,"reserved":0,"last_update":"0001-01-01T00:00:00Z","name_a2s":"Uncletopia | San Francisco | 3 | Stopwatch Beta","protocol":17,"map":"cp_sunshine","folder":"tf","game":"Team Fortress","app_id":440,"player_count":0,"max_players":24,"Bots":0,"server_type":"Dedicated","server_os":"Linux","password":true,"vac":true,"version":"7742253","steam_id":85568392924742824,"keywords":["cp","nocrits","nodmgspread","uncletopia"],"game_id":440,"stv_port":27036,"stv_name":"Uncletopia | San Francisco | 3 | Stopwatch Beta | STV","players":null},{"server_id":20,"name":"Uncletopia | San Francisco | 4 | Community","name_short":"sfo-4","host":"sfo-1.us.uncletopia.com","port":27045,"enabled":true,"region":"us-west","cc":"us","latitude":37.77397,"longitude":-122.4313,"reserved":0,"last_update":"0001-01-01T00:00:00Z","name_a2s":"Uncletopia | San Francisco | 4 | Community","protocol":17,"map":"cp_dustbowl","folder":"tf","game":"Team Fortress","app_id":440,"player_count":0,"max_players":24,"Bots":0,"server_type":"Dedicated","server_os":"Linux","password":true,"vac":true,"version":"7742253","steam_id":85568392924742826,"keywords":["cp","nocrits","nodmgspread","uncletopia"],"game_id":440,"stv_port":27046,"stv_name":"Uncletopia | San Francisco | 4 | Community | STV","players":null},{"server_id":141,"name":"Uncletopia | Sydney | 1 | All Maps","name_short":"syd-1","host":"syd-1.au.uncletopia.com","port":27015,"enabled":true,"region":"au","cc":"au","latitude":-33.865143,"longitude":151.2099,"reserved":0,"last_update":"0001-01-01T00:00:00Z","name_a2s":"Uncletopia | Sydney | 1 | All Maps","protocol":17,"map":"koth_viaduct","folder":"tf","game":"Team Fortress","app_id":440,"player_count":0,"max_players":24,"Bots":0,"server_type":"Dedicated","server_os":"Linux","password":true,"vac":true,"version":"7742253","steam_id":85568392924470001,"keywords":["cp","nocrits","nodmgspread","uncletopia"],"game_id":440,"stv_port":27016,"stv_name":"Uncletopia | Sydney | 1 | All Maps | STV","players":null},{"server_id":123,"name":"Uncletopia | Sydney | 2 | All Maps","name_short":"syd-2","host":"syd-1.au.uncletopia.com","port":27025,"enabled":true,"region":"au","cc":"au","latitude":-33.865143,"longitude":151.2099,"reserved":0,"last_update":"0001-01-01T00:00:00Z","name_a2s":"Uncletopia | Sydney | 2 | All Maps","protocol":17,"map":"koth_lakeside_final","folder":"tf","game":"Team Fortress","app_id":440,"player_count":0,"max_players":24,"Bots":0,"server_type":"Dedicated","server_os":"Linux","password":true,"vac":true,"version":"7742253","steam_id":85568392924470002,"keywords":["cp","nocrits","nodmgspread","uncletopia"],"game_id":440,"stv_port":27026,"stv_name":"Uncletopia | Sydney | 2 | All Maps | STV","players":null},{"server_id":395,"name":"Uncletopia | Sydney | 3 | All Maps","name_short":"syd-3","host":"syd-1.au.uncletopia.com","port":27035,"enabled":true,"region":"au","cc":"au","latitude":-33.865143,"longitude":151.2099,"reserved":0,"last_update":"0001-01-01T00:00:00Z","name_a2s":"Uncletopia | Sydney | 3 | All Maps","protocol":17,"map":"koth_viaduct","folder":"tf","game":"Team Fortress","app_id":440,"player_count":0,"max_players":24,"Bots":0,"server_type":"Dedicated","server_os":"Linux","password":true,"vac":true,"version":"7742253","steam_id":85568392925194467,"keywords":["cp","nocrits","nodmgspread","uncletopia"],"game_id":440,"stv_port":27036,"stv_name":"Uncletopia | Sydney | 3 | All Maps | STV","players":null},{"server_id":396,"name":"Uncletopia | Sydney | 4 | All Maps","name_short":"syd-4","host":"syd-1.au.uncletopia.com","port":27045,"enabled":true,"region":"au","cc":"au","latitude":-33.865143,"longitude":151.2099,"reserved":0,"last_update":"0001-01-01T00:00:00Z","name_a2s":"Uncletopia | Sydney | 4 | All Maps","protocol":17,"map":"pl_borneo","folder":"tf","game":"Team Fortress","app_id":440,"player_count":0,"max_players":24,"Bots":0,"server_type":"Dedicated","server_os":"Linux","password":true,"vac":true,"version":"7742253","steam_id":85568392925397958,"keywords":["nocrits","nodmgspread","payload","uncletopia"],"game_id":440,"stv_port":27046,"stv_name":"Uncletopia | Sydney | 4 | All Maps | STV","players":null},{"server_id":58,"name":"Uncletopia | Sydney | 5 | Stopwatch Beta","name_short":"syd-5","host":"syd-1.au.uncletopia.com","port":27055,"enabled":true,"region":"au","cc":"au","latitude":-33.865143,"longitude":151.2099,"reserved":0,"last_update":"0001-01-01T00:00:00Z","name_a2s":"Uncletopia | Sydney | 5 | Stopwatch Beta","protocol":17,"map":"workshop/pl_badwater_pro_v12.ugc2142942074","folder":"tf","game":"Team Fortress","app_id":440,"player_count":0,"max_players":24,"Bots":0,"server_type":"Dedicated","server_os":"Linux","password":true,"vac":true,"version":"7742253","steam_id":85568392925397959,"keywords":["nocrits","nodmgspread","payload","uncletopia"],"game_id":440,"stv_port":27056,"stv_name":"Uncletopia | Sydney | 5 | Stopwatch Beta | STV","players":null},{"server_id":59,"name":"Uncletopia | Sydney | 6 | Community","name_short":"syd-6","host":"syd-1.au.uncletopia.com","port":27065,"enabled":true,"region":"au","cc":"au","latitude":-33.865143,"longitude":151.2099,"reserved":0,"last_update":"0001-01-01T00:00:00Z","name_a2s":"Uncletopia | Sydney | 6 | Community","protocol":17,"map":"workshop/koth_ashville_final.ugc2130459942","folder":"tf","game":"Team Fortress","app_id":440,"player_count":0,"max_players":24,"Bots":0,"server_type":"Dedicated","server_os":"Linux","password":true,"vac":true,"version":"7742253","steam_id":85568392925397960,"keywords":["cp","nocrits","nodmgspread","uncletopia"],"game_id":440,"stv_port":27066,"stv_name":"Uncletopia | Sydney | 6 | Community | STV","players":null},{"server_id":49,"name":"Uncletopia | Warsaw | 1 | All Maps","name_short":"waw-1","host":"waw-1.pl.uncletopia.com","port":27015,"enabled":true,"region":"eu","cc":"pl","latitude":52.2297,"longitude":21.017532,"reserved":0,"last_update":"0001-01-01T00:00:00Z","name_a2s":"","protocol":0,"map":"","folder":"","game":"","app_id":0,"player_count":0,"max_players":0,"Bots":0,"server_type":"","server_os":"","password":false,"vac":false,"version":"","steam_id":0,"keywords":null,"game_id":0,"stv_port":0,"stv_name":"","players":null},{"server_id":50,"name":"Uncletopia | Warsaw | 2 | All Maps","name_short":"waw-2","host":"waw-1.pl.uncletopia.com","port":27025,"enabled":true,"region":"eu","cc":"pl","latitude":52.2297,"longitude":21.017532,"reserved":0,"last_update":"0001-01-01T00:00:00Z","name_a2s":"Uncletopia | Warsaw | 2 | All Maps","protocol":17,"map":"koth_highpass","folder":"tf","game":"Team Fortress","app_id":440,"player_count":0,"max_players":24,"Bots":0,"server_type":"Dedicated","server_os":"Linux","password":true,"vac":true,"version":"7742253","steam_id":85568392925397851,"keywords":["cp","nocrits","nodmgspread","uncletopia"],"game_id":440,"stv_port":27026,"stv_name":"Uncletopia | Warsaw | 2 | All Maps | STV","players":null},{"server_id":51,"name":"Uncletopia | Warsaw | 3 | All Maps","name_short":"waw-3","host":"waw-1.pl.uncletopia.com","port":27035,"enabled":true,"region":"eu","cc":"pl","latitude":52.2297,"longitude":21.017532,"reserved":0,"last_update":"0001-01-01T00:00:00Z","name_a2s":"Uncletopia | Warsaw | 3 | All Maps","protocol":17,"map":"koth_harvest_final","folder":"tf","game":"Team Fortress","app_id":440,"player_count":0,"max_players":24,"Bots":0,"server_type":"Dedicated","server_os":"Linux","password":true,"vac":true,"version":"7742253","steam_id":85568392925397852,"keywords":["cp","nocrits","nodmgspread","uncletopia"],"game_id":440,"stv_port":27036,"stv_name":"Uncletopia | Warsaw | 3 | All Maps | STV","players":null},{"server_id":52,"name":"Uncletopia | Warsaw | 4 | All Maps","name_short":"waw-4","host":"waw-1.pl.uncletopia.com","port":27045,"enabled":true,"region":"eu","cc":"pl","latitude":52.2297,"longitude":21.017532,"reserved":0,"last_update":"0001-01-01T00:00:00Z","name_a2s":"Uncletopia | Warsaw | 4 | All Maps","protocol":17,"map":"pl_snowycoast","folder":"tf","game":"Team Fortress","app_id":440,"player_count":0,"max_players":24,"Bots":0,"server_type":"Dedicated","server_os":"Linux","password":true,"vac":true,"version":"7742253","steam_id":85568392925397853,"keywords":["nocrits","nodmgspread","payload","uncletopia"],"game_id":440,"stv_port":27046,"stv_name":"Uncletopia | Warsaw | 4 | All Maps | STV","players":null},{"server_id":53,"name":"Uncletopia | Warsaw | 5 | Stopwatch Beta","name_short":"waw-5","host":"waw-1.pl.uncletopia.com","port":27055,"enabled":true,"region":"eu","cc":"pl","latitude":52.2297,"longitude":21.017532,"reserved":0,"last_update":"0001-01-01T00:00:00Z","name_a2s":"Uncletopia | Warsaw | 5 | Stopwatch Beta","protocol":17,"map":"pl_swiftwater_final1","folder":"tf","game":"Team Fortress","app_id":440,"player_count":0,"max_players":24,"Bots":0,"server_type":"Dedicated","server_os":"Linux","password":true,"vac":true,"version":"7742253","steam_id":85568392925397854,"keywords":["nocrits","nodmgspread","payload","uncletopia"],"game_id":440,"stv_port":27056,"stv_name":"Uncletopia | Warsaw | 5 | Stopwatch Beta | STV","players":null},{"server_id":54,"name":"Uncletopia | Warsaw | 6 | Community","name_short":"waw-6","host":"waw-1.pl.uncletopia.com","port":27065,"enabled":true,"region":"eu","cc":"pl","latitude":52.2297,"longitude":21.017532,"reserved":0,"last_update":"0001-01-01T00:00:00Z","name_a2s":"Uncletopia | Warsaw | 6 | Community","protocol":17,"map":"workshop/koth_slaughter_rc1.ugc1712845210","folder":"tf","game":"Team Fortress","app_id":440,"player_count":0,"max_players":24,"Bots":0,"server_type":"Dedicated","server_os":"Linux","password":true,"vac":true,"version":"7742253","steam_id":85568392925397856,"keywords":["cp","nocrits","nodmgspread","uncletopia"],"game_id":440,"stv_port":27066,"stv_name":"Uncletopia | Warsaw | 6 | Community | STV","players":null}]}