{"status":true,"message":"","result":[{"server_id":9,"name":"Uncletopia | Atlanta | 1 | All Maps","name_short":"atl-1","host":"atl-1.us.uncletopia.com","port":27015,"enabled":true,"region":"us-east","cc":"us","latitude":33.753746,"longitude":-84.38633,"reserved":0,"last_update":"0001-01-01T00:00:00Z","name_a2s":"Uncletopia | Atlanta | 1 | All Maps","protocol":17,"map":"koth_lakeside_final","folder":"tf","game":"Team Fortress","app_id":440,"player_count":0,"max_players":24,"Bots":0,"server_type":"Dedicated","server_os":"Linux","password":true,"vac":true,"version":"7708610","steam_id":85568392924469982,"keywords":["cp","nocrits","nodmgspread","uncletopia"],"game_id":440,"stv_port":27016,"stv_name":"Uncletopia | Atlanta | 1 | All Maps | STV","players":null},{"server_id":400,"name":"Uncletopia | Atlanta | 3 | All Maps","name_short":"atl-3","host":"atl-1.us.uncletopia.com","port":27035,"enabled":true,"region":"us-east","cc":"us","latitude":33.753746,"longitude":-84.38633,"reserved":0,"last_update":"0001-01-01T00:00:00Z","name_a2s":"Uncletopia | Atlanta | 3 | All Maps","protocol":17,"map":"cp_altitude","folder":"tf","game":"Team Fortress","app_id":440,"player_count":0,"max_players":24,"Bots":0,"server_type":"Dedicated","server_os":"Linux","password":true,"vac":true,"version":"7708610","steam_id":85568392924515187,"keywords":["cp","nocrits","nodmgspread","uncletopia"],"game_id":440,"stv_port":27036,"stv_name":"Uncletopia | Atlanta | 3 | All Maps | STV","players":null},{"server_id":401,"name":"Uncletopia | Atlanta | 4 | No Payload","name_short":"atl-4","host":"atl-1.us.uncletopia.com","port":27045,"enabled":true,"region":"us-east","cc":"us","latitude":33.753746,"longitude":-84.38633,"reserved":0,"last_update":"0001-01-01T00:00:00Z","name_a2s":"Uncletopia | Atlanta | 4 | No Payload","protocol":17,"map":"koth_cascade","folder":"tf","game":"Team Fortress","app_id":440,"player_count":0,"max_players":24,"Bots":0,"server_type":"Dedicated","server_os":"Linux","password":true,"vac":true,"version":"7708610","steam_id":85568392924515188,"keywords":["cp","nocrits","nodmgspread","uncletopia"],"game_id":440,"stv_port":27046,"stv_name":"Uncletopia | Atlanta | 4 | No Payload | STV","players":null},{"server_id":2,"name":"Uncletopia | Chicago | 1 | All Maps","name_short":"chi-1","host":"chi-1.us.uncletopia.com","port":27015,"enabled":true,"region":"us-central","cc":"us","latitude":41.881832,"longitude":-87.62318,"reserved":0,"last_update":"0001-01-01T00:00:00Z","name_a2s":"Uncletopia | Chicago | 1 | All Maps","protocol":17,"map":"pl_upward","folder":"tf","game":"Team Fortress","app_id":440,"player_count":24,"max_players":24,"Bots":0,"server_type":"Dedicated","server_os":"Linux","password":true,"vac":true,"version":"7708610","steam_id":85568392924469984,"keywords":["nocrits","nodmgspread","payload","uncletopia"],"game_id":440,"stv_port":27016,"stv_name":"Uncletopia | Chicago | 1 | All Maps | STV","players":[{"user_id":134,"name":"Dot.","steam_id":76561198149463984,"connected_time":111000000000,"state":"active","ping":48},{"user_id":126,"name":"Squid121","steam_id":76561198038832034,"connected_time":711000000000,"state":"active","ping":92},{"user_id":132,"name":"Bogey","steam_id":76561198096227944,"connected_time":563000000000,"state":"active","ping":68},{"user_id":82,"name":"DavidB","steam_id":76561198045916255,"connected_time":3785000000000,"state":"active","ping":66},{"user_id":96,"name":"CampMaster49","steam_id":76561198353096926,"connected_time":2843000000000,"state":"active","ping":182},{"user_id":102,"name":"Kronky","steam_id":76561198004401730,"connected_time":2224000000000,"state":"active","ping":60},{"user_id":135,"name":"Lost (14)","steam_id":76561198093713427,"connected_time":109000000000,"state":"active","ping":61},{"user_id":100,"name":"Gribbith","steam_id":76561198067836309,"connected_time":2381000000000,"state":"active","ping":67},{"user_id":136,"name":"_Pai","steam_id":76561198108196753,"connected_time":109000000000,"state":"active","ping":97},{"user_id":103,"name":"dismissy","steam_id":76561198073904781,"connected_time":2208000000000,"state":"active","ping":150},{"user_id":104,"name":"bobby bill jones :)","steam_id":76561199442367267,"connected_time":2139000000000,"state":"active","ping":92},{"user_id":127,"name":"mexfrag.4 life","steam_id":76561198175961598,"connected_time":708000000000,"state":"active","ping":117},{"user_id":128,"name":" ï„Å£‚Ä¢·¥•‚Ä¢ î„Å£","steam_id":76561198010392559,"connected_time":703000000000,"state":"active","ping":95},{"user_id":108,"name":"Hannah \u003c3","steam_id":76561199412168016,"connected_time":1983000000000,"state":"active","ping":88},{"user_id":137,"name":"Javar Lamarvajar","steam_id":76561197996865358,"connected_time":94000000000,"state":"active","ping":75},{"user_id":124,"name":"cyborgor","steam_id":76561198040782513,"connected_time":992000000000,"state":"active","ping":90},{"user_id":112,"name":"L. Ron Hoyabembe","steam_id":76561198037786766,"connected_time":1803000000000,"state":"active","ping":92},{"user_id":114,"name":"leonardo doujinshi","steam_id":76561198025810326,"connected_time":1696000000000,"state":"active","ping":60},{"user_id":113,"name":"SlightlyToasty","steam_id":76561198934455279,"connected_time":1776000000000,"state":"active","ping":129},{"user_id":125,"name":"Pie","steam_id":76561198002480476,"connected_time":852000000000,"state":"active","ping":65},{"user_id":129,"name":"kametro4","steam_id":76561198835430429,"connected_time":696000000000,"state":"active","ping":104},{"user_id":133,"name":"chicken grease","steam_id":76561198075758026,"connected_time":513000000000,"state":"active","ping":90},{"user_id":123,"name":"L. Ron Thuggard","steam_id":76561198048992536,"connected_time":1123000000000,"state":"active","ping":75},{"user_id":122,"name":"Devinish","steam_id":76561198024927243,"connected_time":1219000000000,"state":"active","ping":88}]},{"server_id":106,"name":"Uncletopia | Chicago | 2 | All Maps","name_short":"chi-2","host":"chi-1.us.uncletopia.com","port":27025,"enabled":true,"region":"us-central","cc":"us","latitude":41.881832,"longitude":-87.62318,"reserved":0,"last_update":"0001-01-01T00:00:00Z","name_a2s":"Uncletopia | Chicago | 2 | All Maps","protocol":17,"map":"pl_borneo","folder":"tf","game":"Team Fortress","app_id":440,"player_count":0,"max_players":24,"Bots":0,"server_type":"Dedicated","server_os":"Linux","password":true,"vac":true,"version":"7708610","steam_id":85568392924469985,"keywords":["nocrits","nodmgspread","payload","uncletopia"],"game_id":440,"stv_port":27026,"stv_name":"Uncletopia | Chicago | 2 | All Maps | STV","players":null},{"server_id":402,"name":"Uncletopia | Chicago | 3 | All Maps","name_short":"chi-3","host":"chi-1.us.uncletopia.com","port":27035,"enabled":true,"region":"us-central","cc":"us","latitude":41.881832,"longitude":-87.62318,"reserved":0,"last_update":"0001-01-01T00:00:00Z","name_a2s":"Uncletopia | Chicago | 3 | All Maps","protocol":17,"map":"koth_cascade","folder":"tf","game":"Team Fortress","app_id":440,"player_count":0,"max_players":24,"Bots":0,"server_type":"Dedicated","server_os":"Linux","password":true,"vac":true,"version":"7708610","steam_id":85568392924515191,"keywords":["cp","nocrits","nodmgspread","uncletopia"],"game_id":440,"stv_port":27036,"stv_name":"Uncletopia | Chicago | 3 | All Maps | STV","players":null},{"server_id":403,"name":"Uncletopia | Chicago | 4 | All Maps","name_short":"chi-4","host":"chi-1.us.uncletopia.com","port":27045,"enabled":true,"region":"us-central","cc":"us","latitude":41.881832,"longitude":-87.62318,"reserved":0,"last_update":"0001-01-01T00:00:00Z","name_a2s":"Uncletopia | Chicago | 4 | All Maps","protocol":17,"map":"pl_borneo","folder":"tf","game":"Team Fortress","app_id":440,"player_count":0,"max_players":24,"Bots":0,"server_type":"Dedicated","server_os":"Linux","password":true,"vac":true,"version":"7708610","steam_id":85568392924515193,"keywords":["nocrits","nodmgspread","payload","uncletopia"],"game_id":440,"stv_port":27046,"stv_name":"Uncletopia | Chicago | 4 | All Maps | STV","players":null},{"server_id":36,"name":"Uncletopia | Chicago | 5 | All Maps","name_short":"chi-5","host":"chi-2.us.uncletopia.com","port":27015,"enabled":true,"region":"us-central","cc":"us","latitude":41.881832,"longitude":-87.62318,"reserved":0,"last_update":"0001-01-01T00:00:00Z","name_a2s":"Uncletopia | Chicago | 5 | All Maps","protocol":17,"map":"pl_swiftwater_final1","folder":"tf","game":"Team Fortress","app_id":440,"player_count":0,"max_players":24,"Bots":0,"server_type":"Dedicated","server_os":"Linux","password":true,"vac":true,"version":"7708610","steam_id":85568392924866362,"keywords":["nocrits","nodmgspread","payload","uncletopia"],"game_id":440,"stv_port":27016,"stv_name":"Uncletopia | Chicago | 5 | All Maps | STV","players":null},{"server_id":37,"name":"Uncletopia | Chicago | 6 | All Maps","name_short":"chi-6","host":"chi-2.us.uncletopia.com","port":27025,"enabled":true,"region":"us-central","cc":"us","latitude":41.881832,"longitude":-87.62318,"reserved":0,"last_update":"0001-01-01T00:00:00Z","name_a2s":"Uncletopia | Chicago | 6 | All Maps","protocol":17,"map":"pl_swiftwater_final1","folder":"tf","game":"Team Fortress","app_id":440,"player_count":0,"max_players":24,"Bots":0,"server_type":"Dedicated","server_os":"Linux","password":true,"vac":true,"version":"7708610","steam_id":85568392924866363,"keywords":["nocrits","nodmgspread","payload","uncletopia"],"game_id":440,"stv_port":27026,"stv_name":"Uncletopia | Chicago | 6 | All Maps | STV","players":null},{"server_id":38,"name":"Uncletopia | Chicago | 7 | No Payload","name_short":"chi-7","host":"chi-2.us.uncletopia.com","port":27035,"enabled":true,"region":"us-central","cc":"us","latitude":41.881832,"longitude":-87.62318,"reserved":0,"last_update":"0001-01-01T00:00:00Z","name_a2s":"Uncletopia | Chicago | 7 | No Payload","protocol":17,"map":"koth_highpass","folder":"tf","game":"Team Fortress","app_id":440,"player_count":0,"max_players":24,"Bots":0,"server_type":"Dedicated","server_os":"Linux","password":true,"vac":true,"version":"7708610","steam_id":85568392924866364,"keywords":["cp","nocrits","nodmgspread","uncletopia"],"game_id":440,"stv_port":27036,"stv_name":"Uncletopia | Chicago | 7 | No Payload | STV","players":null},{"server_id":39,"name":"Uncletopia | Chicago | 8 | Community","name_short":"chi-8","host":"chi-2.us.uncletopia.com","port":27045,"enabled":true,"region":"us-central","cc":"us","latitude":41.881832,"longitude":-87.62318,"reserved":0,"last_update":"0001-01-01T00:00:00Z","name_a2s":"Uncletopia | Chicago | 8 | Community","protocol":17,"map":"koth_cascade","folder":"tf","game":"Team Fortress","app_id":440,"player_count":0,"max_players":24,"Bots":0,"server_type":"Dedicated","server_os":"Linux","password":true,"vac":true,"version":"7708610","steam_id":85568392924866365,"keywords":["cp","nocrits","nodmgspread","uncletopia"],"game_id":440,"stv_port":27046,"stv_name":"Uncletopia | Chicago | 8 | Community | STV","players":null},{"server_id":8,"name":"Uncletopia | Dallas | 1 | All Maps","name_short":"dal-1","host":"dal-1.us.uncletopia.com","port":27015,"enabled":true,"region":"us-central","cc":"us","latitude":32.779167,"longitude":-96.80889,"reserved":0,"last_update":"0001-01-01T00:00:00Z","name_a2s":"Uncletopia | Dallas | 1 | All Maps","protocol":17,"map":"cp_dustbowl","folder":"tf","game":"Team Fortress","app_id":440,"player_count":0,"max_players":24,"Bots":0,"server_type":"Dedicated","server_os":"Linux","password":true,"vac":true,"version":"7708610","steam_id":85568392924469986,"keywords":["cp","nocrits","nodmgspread","uncletopia"],"game_id":440,"stv_port":27016,"stv_name":"Uncletopia | Dallas | 1 | All Maps | STV","players":null},{"server_id":108,"name":"Uncletopia | Dallas | 2 | All Maps","name_short":"dal-2","host":"dal-1.us.uncletopia.com","port":27025,"enabled":true,"region":"us-central","cc":"us","latitude":32.779167,"longitude":-96.80889,"reserved":0,"last_update":"0001-01-01T00:00:00Z","name_a2s":"Uncletopia | Dallas | 2 | All Maps","protocol":17,"map":"koth_highpass","folder":"tf","game":"Team Fortress","app_id":440,"player_count":0,"max_players":24,"Bots":0,"server_type":"Dedicated","server_os":"Linux","password":true,"vac":true,"version":"7708610","steam_id":85568392924469988,"keywords":["cp","nocrits","nodmgspread","uncletopia"],"game_id":440,"stv_port":27026,"stv_name":"Uncletopia | Dallas | 2 | All Maps | STV","players":null},{"server_id":5,"name":"Uncletopia | Frankfurt | 1 | All Maps","name_short":"frk-1","host":"frk-1.de.uncletopia.com","port":27015,"enabled":true,"region":"eu","cc":"de","latitude":50.110924,"longitude":8.682127,"reserved":0,"last_update":"0001-01-01T00:00:00Z","name_a2s":"Uncletopia | Frankfurt | 1 | All Maps","protocol":17,"map":"pl_borneo","folder":"tf","game":"Team Fortress","app_id":440,"player_count":24,"max_players":24,"Bots":0,"server_type":"Dedicated","server_os":"Linux","password":true,"vac":true,"version":"7708610","steam_id":85568392924469989,"keywords":["nocrits","nodmgspread","payload","uncletopia"],"game_id":440,"stv_port":27016,"stv_name":"Uncletopia | Frankfurt | 1 | All Maps | STV","players":[{"user_id":105,"name":"snazyyy","steam_id":76561198143529110,"connected_time":415000000000,"state":"active","ping":47},{"user_id":92,"name":"Bulyto","steam_id":76561198043205202,"connected_time":1066000000000,"state":"active","ping":64},{"user_id":99,"name":"Mogwai","steam_id":76561198078832314,"connected_time":776000000000,"state":"active","ping":75},{"user_id":66,"name":"gungon","steam_id":76561199232442508,"connected_time":3464000000000,"state":"active","ping":74},{"user_id":97,"name":"Brothu","steam_id":76561198095120859,"connected_time":855000000000,"state":"active","ping":61},{"user_id":96,"name":"43291842381","steam_id":76561198038160325,"connected_time":863000000000,"state":"active","ping":86},{"user_id":108,"name":"Cardbrige","steam_id":76561198294453886,"connected_time":23000000000,"state":"spawning","ping":59},{"user_id":91,"name":"sylphid","steam_id":76561198043601838,"connected_time":1346000000000,"state":"active","ping":60},{"user_id":61,"name":"ÈªíÁöáÂ∏ù / black emperor","steam_id":76561198980729208,"connected_time":3830000000000,"state":"active","ping":53},{"user_id":76,"name":"Mr.Schnittlauch","steam_id":76561198295868113,"connected_time":2767000000000,"state":"active","ping":54},{"user_id":102,"name":"goblin boi üë∫","steam_id":76561198065987093,"connected_time":548000000000,"state":"active","ping":50},{"user_id":64,"name":"tete","steam_id":76561198045222850,"connected_time":3513000000000,"state":"active","ping":78},{"user_id":69,"name":"Jingleboob's Elf","steam_id":76561198067204908,"connected_time":3192000000000,"state":"active","ping":69},{"user_id":19,"name":"magras","steam_id":76561198972671525,"connected_time":5669000000000,"state":"active","ping":103},{"user_id":70,"name":"Solid","steam_id":76561198357049292,"connected_time":3148000000000,"state":"active","ping":82},{"user_id":87,"name":"Common polish hood dweller","steam_id":76561198126524735,"connected_time":2057000000000,"state":"active","ping":73},{"user_id":106,"name":"Yuval","steam_id":76561198241802390,"connected_time":406000000000,"state":"active","ping":98},{"user_id":98,"name":"partizan","steam_id":76561198440837262,"connected_time":841000000000,"state":"active","ping":66},{"user_id":101,"name":"lugi","steam_id":76561199020785925,"connected_time":657000000000,"state":"active","ping":73},{"user_id":88,"name":"Ixsus\u003c3","steam_id":76561198094756869,"connected_time":2056000000000,"state":"active","ping":59},{"user_id":103,"name":"PWizard","steam_id":76561198026458489,"connected_time":546000000000,"state":"active","ping":83},{"user_id":31,"name":"Mayor Wank from Wanker Town","steam_id":76561197998253588,"connected_time":5267000000000,"state":"active","ping":45},{"user_id":32,"name":"where is my egg?","steam_id":76561198172542535,"connected_time":5259000000000,"state":"active","ping":64},{"user_id":78,"name":"Polish Gym Rat","steam_id":76561198126398022,"connected_time":2763000000000,"state":"active","ping":75}]},{"server_id":110,"name":"Uncletopia | Frankfurt | 2 | All Maps","name_short":"frk-2","host":"frk-1.de.uncletopia.com","port":27025,"enabled":true,"region":"eu","cc":"de","latitude":50.110924,"longitude":8.682127,"reserved":0,"last_update":"0001-01-01T00:00:00Z","name_a2s":"Uncletopia | Frankfurt | 2 | All Maps","protocol":17,"map":"koth_highpass","folder":"tf","game":"Team Fortress","app_id":440,"player_count":24,"max_players":24,"Bots":0,"server_type":"Dedicated","server_os":"Linux","password":true,"vac":true,"version":"7708610","steam_id":85568392924469990,"keywords":["cp","nocrits","nodmgspread","uncletopia"],"game_id":440,"stv_port":27026,"stv_name":"Uncletopia | Frankfurt | 2 | All Maps | STV","players":[{"user_id":33,"name":"Kriegor25","steam_id":76561199271271101,"connected_time":1842000000000,"state":"active","ping":49},{"user_id":45,"name":"phobos","steam_id":76561198838277022,"connected_time":987000000000,"state":"active","ping":64},{"user_id":43,"name":"Shawty","steam_id":76561198256704286,"connected_time":1147000000000,"state":"active","ping":55},{"user_id":58,"name":"Badrock 1","steam_id":76561198368513115,"connected_time":323000000000,"state":"active","ping":108},{"user_id":7,"name":"Idon'tknowhowtorocketjump","steam_id":76561199402987346,"connected_time":2696000000000,"state":"active","ping":233},{"user_id":48,"name":"Trash Bandicoot","steam_id":76561198127596400,"connected_time":726000000000,"state":"active","ping":59},{"user_id":51,"name":"red square","steam_id":76561198295305088,"connected_time":583000000000,"state":"active","ping":51},{"user_id":11,"name":"Û†Ä°Û†Ä°Û†Ä°Û†Ä°","steam_id":76561198882254503,"connected_time":2647000000000,"state":"active","ping":62},{"user_id":50,"name":"snoowbrigade","steam_id":76561197989507394,"connected_time":667000000000,"state":"active","ping":75},{"user_id":63,"name":"xAlhimikx","steam_id":76561198965191846,"connected_time":68000000000,"state":"active","ping":91},{"user_id":16,"name":"Meladoom2","steam_id":76561198086845387,"connected_time":2279000000000,"state":"active","ping":87},{"user_id":64,"name":"NojusKojos","steam_id":76561199060478662,"connected_time":37000000000,"state":"active","ping":66},{"user_id":18,"name":"Cobb Salads","steam_id":76561197971140507,"connected_time":2268000000000,"state":"active","ping":62},{"user_id":53,"name":"raspberrisung","steam_id":76561198083030373,"connected_time":497000000000,"state":"active","ping":77},{"user_id":29,"name":"Gordon Ramen","steam_id":76561198069865187,"connected_time":1946000000000,"state":"active","ping":81},{"user_id":24,"name":"homestuck on main","steam_id":76561198820197253,"connected_time":2060000000000,"state":"active","ping":69},{"user_id":60,"name":"Guru","steam_id":76561198093853069,"connected_time":217000000000,"state":"active","ping":59},{"user_id":61,"name":"alien","steam_id":76561197968892194,"connected_time":170000000000,"state":"active","ping":56},{"user_id":31,"name":"implyDoods","steam_id":76561198856320759,"connected_time":1896000000000,"state":"active","ping":93},{"user_id":55,"name":"[LR-Looter]MrMurk","steam_id":76561198363380956,"connected_time":485000000000,"state":"active","ping":49},{"user_id":36,"name":"hohoho racoon","steam_id":76561198998193399,"connected_time":1683000000000,"state":"active","ping":82},{"user_id":56,"name":"JoghurtTheKiller","steam_id":76561198063647918,"connected_time":475000000000,"state":"active","ping":45},{"user_id":62,"name":"Bill Clinton Gaming","steam_id":76561199093399286,"connected_time":157000000000,"state":"active","ping":100},{"user_id":40,"name":"The Warframer","steam_id":76561198311282723,"connected_time":1572000000000,"state":"active","ping":71}]},{"server_id":308,"name":"Uncletopia | Frankfurt | 3 | All Maps","name_short":"frk-3","host":"frk-1.de.uncletopia.com","port":27035,"enabled":true,"region":"eu","cc":"de","latitude":50.110924,"longitude":8.682127,"reserved":0,"last_update":"0001-01-01T00:00:00Z","name_a2s":"Uncletopia | Frankfurt | 3 | All Maps","protocol":17,"map":"koth_highpass","folder":"tf","game":"Team Fortress","app_id":440,"player_count":0,"max_players":24,"Bots":0,"server_type":"Dedicated","server_os":"Linux","password":true,"vac":true,"version":"7708610","steam_id":85568392924504274,"keywords":["cp","nocrits","nodmgspread","uncletopia"],"game_id":440,"stv_port":27036,"stv_name":"Uncletopia | Frankfurt | 3 | All Maps | STV","players":null},{"server_id":309,"name":"Uncletopia | Frankfurt | 4 | All Maps","name_short":"frk-4","host":"frk-1.de.uncletopia.com","port":27045,"enabled":true,"region":"eu","cc":"de","latitude":50.110924,"longitude":8.682127,"reserved":0,"last_update":"0001-01-01T00:00:00Z","name_a2s":"Uncletopia | Frankfurt | 4 | All Maps","protocol":17,"map":"pl_upward","folder":"tf","game":"Team Fortress","app_id":440,"player_count":0,"max_players":24,"Bots":0,"server_type":"Dedicated","server_os":"Linux","password":true,"vac":true,"version":"7708610","steam_id":85568392924504275,"keywords":["nocrits","nodmgspread","payload","uncletopia"],"game_id":440,"stv_port":27046,"stv_name":"Uncletopia | Frankfurt | 4 | All Maps | STV","players":null},{"server_id":310,"name":"Uncletopia | Frankfurt | 5 | All Maps","name_short":"frk-5","host":"frk-1.de.uncletopia.com","port":27055,"enabled":true,"region":"eu","cc":"de","latitude":50.110924,"longitude":8.682127,"reserved":0,"last_update":"0001-01-01T00:00:00Z","name_a2s":"Uncletopia | Frankfurt | 5 | All Maps","protocol":17,"map":"cp_mountainlab","folder":"tf","game":"Team Fortress","app_id":440,"player_count":0,"max_players":24,"Bots":0,"server_type":"Dedicated","server_os":"Linux","password":true,"vac":true,"version":"7708610","steam_id":85568392924504277,"keywords":["cp","nocrits","nodmgspread","uncletopia"],"game_id":440,"stv_port":27056,"stv_name":"Uncletopia | Frankfurt | 5 | All Maps | STV","players":null},{"server_id":311,"name":"Uncletopia | Frankfurt | 6 | All Maps","name_short":"frk-6","host":"frk-1.de.uncletopia.com","port":27065,"enabled":true,"region":"eu","cc":"de","latitude":50.110924,"longitude":8.682127,"reserved":0,"last_update":"0001-01-01T00:00:00Z","name_a2s":"Uncletopia | Frankfurt | 6 | All Maps","protocol":17,"map":"pl_barnblitz","folder":"tf","game":"Team Fortress","app_id":440,"player_count":0,"max_players":24,"Bots":0,"server_type":"Dedicated","server_os":"Linux","password":true,"vac":true,"version":"7708610","steam_id":85568392924504278,"keywords":["nocrits","nodmgspread","payload","uncletopia"],"game_id":440,"stv_port":27066,"stv_name":"Uncletopia | Frankfurt | 6 | All Maps | STV","players":null},{"server_id":23,"name":"Uncletopia | Frankfurt | 7 | No Payload","name_short":"frk-7","host":"frk-1.de.uncletopia.com","port":27075,"enabled":true,"region":"eu","cc":"de","latitude":50.110924,"longitude":8.682127,"reserved":0,"last_update":"0001-01-01T00:00:00Z","name_a2s":"Uncletopia | Frankfurt | 7 | No Payload","protocol":17,"map":"koth_viaduct","folder":"tf","game":"Team Fortress","app_id":440,"player_count":0,"max_players":24,"Bots":0,"server_type":"Dedicated","server_os":"Linux","password":true,"vac":true,"version":"7708610","steam_id":85568392924742827,"keywords":["cp","nocrits","nodmgspread","uncletopia"],"game_id":440,"stv_port":27076,"stv_name":"Uncletopia | Frankfurt | 7 | No Payload | STV","players":null},{"server_id":24,"name":"Uncletopia | Frankfurt | 8 | Community","name_short":"frk-8","host":"frk-1.de.uncletopia.com","port":27085,"enabled":true,"region":"eu","cc":"de","latitude":50.110924,"longitude":8.682127,"reserved":0,"last_update":"0001-01-01T00:00:00Z","name_a2s":"Uncletopia | Frankfurt | 8 | Community","protocol":17,"map":"workshop/cp_caldera_rc2.ugc2834196889","folder":"tf","game":"Team Fortress","app_id":440,"player_count":23,"max_players":24,"Bots":0,"server_type":"Dedicated","server_os":"Linux","password":true,"vac":true,"version":"7708610","steam_id":85568392924742828,"keywords":["cp","nocrits","nodmgspread","uncletopia"],"game_id":440,"stv_port":27086,"stv_name":"Uncletopia | Frankfurt | 8 | Community | STV","players":[{"user_id":77,"name":"htraB","steam_id":76561198043122677,"connected_time":572000000000,"state":"active","ping":60},{"user_id":76,"name":"croiX____iwate","steam_id":76561198416061173,"connected_time":800000000000,"state":"active","ping":52},{"user_id":83,"name":"Puff","steam_id":76561199087857920,"connected_time":379000000000,"state":"active","ping":84},{"user_id":6,"name":"BitToBot","steam_id":76561198124080817,"connected_time":5040000000000,"state":"active","ping":51},{"user_id":86,"name":"Pan W","steam_id":76561198384111099,"connected_time":98000000000,"state":"active","ping":61},{"user_id":79,"name":"ZazyLou_","steam_id":76561198411134617,"connected_time":527000000000,"state":"active","ping":61},{"user_id":80,"name":"Tom Foolery","steam_id":76561198358895809,"connected_time":509000000000,"state":"active","ping":64},{"user_id":49,"name":"Fat Pigeon","steam_id":76561198817940142,"connected_time":2709000000000,"state":"active","ping":47},{"user_id":45,"name":"=Xal=","steam_id":76561198052622095,"connected_time":2879000000000,"state":"active","ping":64},{"user_id":17,"name":"Zach #SaveTF2","steam_id":76561198336885684,"connected_time":3812000000000,"state":"active","ping":71},{"user_id":47,"name":"40 fps 120 ms","steam_id":76561199216923710,"connected_time":2812000000000,"state":"active","ping":133},{"user_id":19,"name":"Delab Le Fou","steam_id":76561198846356572,"connected_time":3690000000000,"state":"active","ping":87},{"user_id":53,"name":"I need a Mental Health Kobeni","steam_id":76561198032359132,"connected_time":2135000000000,"state":"active","ping":60},{"user_id":81,"name":"Mr. Die a Lot","steam_id":76561199236549417,"connected_time":455000000000,"state":"active","ping":151},{"user_id":22,"name":"üí™ UL7RA üëå","steam_id":76561198051993563,"connected_time":3557000000000,"state":"active","ping":60},{"user_id":82,"name":"HimpoX","steam_id":76561198043946778,"connected_time":444000000000,"state":"active","ping":102},{"user_id":50,"name":"M2rtRa","steam_id":76561198111036466,"connected_time":2659000000000,"state":"active","ping":71},{"user_id":31,"name":"Milosz52","steam_id":76561199060940204,"connected_time":3376000000000,"state":"active","ping":69},{"user_id":74,"name":"DIDE","steam_id":76561198211013187,"connected_time":1007000000000,"state":"active","ping":57},{"user_id":84,"name":"cow child","steam_id":76561199431003443,"connected_time":373000000000,"state":"active","ping":60},{"user_id":85,"name":"SCooler27","steam_id":76561199200454579,"connected_time":333000000000,"state":"active","ping":77},{"user_id":44,"name":"Sniper","steam_id":76561198414175953,"connected_time":2888000000000,"state":"active","ping":69},{"user_id":69,"name":"freemantel30","steam_id":76561198065669800,"connected_time":1264000000000,"state":"active","ping":49}]},{"server_id":202,"name":"Uncletopia | Hong Kong | 1 | All Maps","name_short":"hgk-1","host":"hgk-1.hk.uncletopia.com","port":27015,"enabled":true,"region":"asia","cc":"hk","latitude":22.302711,"longitude":114.177216,"reserved":0,"last_update":"0001-01-01T00:00:00Z","name_a2s":"Uncletopia | Hong Kong | 1 | All Maps","protocol":17,"map":"pl_borneo","folder":"tf","game":"Team Fortress","app_id":440,"player_count":24,"max_players":24,"Bots":0,"server_type":"Dedicated","server_os":"Linux","password":true,"vac":true,"version":"7708610","steam_id":85568392924494504,"keywords":["nocrits","nodmgspread","payload","uncletopia"],"game_id":440,"stv_port":27016,"stv_name":"Uncletopia | Hong Kong | 1 | All Maps | STV","players":[{"user_id":101,"name":"Rocketmaster","steam_id":76561198291383989,"connected_time":1012000000000,"state":"active","ping":123},{"user_id":93,"name":"Degenerate With Standards!!!!","steam_id":76561199174449723,"connected_time":1941000000000,"state":"active","ping":80},{"user_id":81,"name":"Telekhine","steam_id":76561198387120618,"connected_time":2736000000000,"state":"active","ping":57},{"user_id":68,"name":"Momoxhien","steam_id":76561198414997429,"connected_time":3513000000000,"state":"active","ping":60},{"user_id":7,"name":"AmaiToxic","steam_id":76561199122491157,"connected_time":8191000000000,"state":"active","ping":70},{"user_id":67,"name":"Nose Yogurt","steam_id":76561198877713016,"connected_time":3595000000000,"state":"active","ping":102},{"user_id":82,"name":"unoriginalname42","steam_id":76561199200897735,"connected_time":2678000000000,"state":"active","ping":61},{"user_id":10,"name":"Noyour","steam_id":76561198323259830,"connected_time":8190000000000,"state":"active","ping":117},{"user_id":104,"name":"nick","steam_id":76561198400698408,"connected_time":678000000000,"state":"active","ping":106},{"user_id":102,"name":"piyoko no english","steam_id":76561198088403016,"connected_time":878000000000,"state":"active","ping":145},{"user_id":84,"name":"EXELL is dumb","steam_id":76561199053777677,"connected_time":2573000000000,"state":"active","ping":61},{"user_id":64,"name":"the real is real!!!!!!","steam_id":76561198442507642,"connected_time":4401000000000,"state":"active","ping":78},{"user_id":76,"name":"tiden2000","steam_id":76561198092969425,"connected_time":3170000000000,"state":"active","ping":70},{"user_id":107,"name":"cjjakeypaul","steam_id":76561199126245431,"connected_time":57000000000,"state":"spawning","ping":82},{"user_id":85,"name":"i suck at this game","steam_id":76561199429882426,"connected_time":2552000000000,"state":"active","ping":65},{"user_id":105,"name":"Flox","steam_id":76561199387155373,"connected_time":676000000000,"state":"active","ping":66},{"user_id":79,"name":"niceguy6785","steam_id":76561199442589750,"connected_time":2830000000000,"state":"active","ping":76},{"user_id":95,"name":"screaming sniper","steam_id":76561199085568674,"connected_time":1862000000000,"state":"active","ping":58},{"user_id":103,"name":"Pillboi","steam_id":76561198011172886,"connected_time":695000000000,"state":"active","ping":47},{"user_id":70,"name":"Simoframe","steam_id":76561199111778304,"connected_time":3426000000000,"state":"active","ping":74},{"user_id":100,"name":"r/leroy","steam_id":76561199137927625,"connected_time":1654000000000,"state":"active","ping":111},{"user_id":106,"name":"Diastimikos","steam_id":76561198268214783,"connected_time":361000000000,"state":"active","ping":70},{"user_id":41,"name":"Crippling Depression","steam_id":76561199198723894,"connected_time":6224000000000,"state":"active","ping":92},{"user_id":92,"name":"Jimi Hen-Dicks Excrements","steam_id":76561198826565047,"connected_time":2124000000000,"state":"active","ping":89}]},{"server_id":1,"name":"Uncletopia | Los Angeles | 1 | All Maps","name_short":"lax-1","host":"lax-1.us.uncletopia.com","port":27015,"enabled":true,"region":"us-west","cc":"us","latitude":33.94279,"longitude":-118.41004,"reserved":0,"last_update":"0001-01-01T00:00:00Z","name_a2s":"Uncletopia | Los Angeles | 1 | All Maps","protocol":17,"map":"cp_snakewater_final1","folder":"tf","game":"Team Fortress","app_id":440,"player_count":0,"max_players":24,"Bots":0,"server_type":"Dedicated","server_os":"Linux","password":true,"vac":true,"version":"7708610","steam_id":85568392924469991,"keywords":["cp","nocrits","nodmgspread","uncletopia"],"game_id":440,"stv_port":27016,"stv_name":"Uncletopia | Los Angeles | 1 | All Maps | STV","players":null},{"server_id":112,"name":"Uncletopia | Los Angeles | 2 | All Maps","name_short":"lax-2","host":"lax-1.us.uncletopia.com","port":27025,"enabled":true,"region":"us-west","cc":"us","latitude":33.94279,"longitude":-118.41004,"reserved":0,"last_update":"0001-01-01T00:00:00Z","name_a2s":"Uncletopia | Los Angeles | 2 | All Maps","protocol":17,"map":"cp_snakewater_final1","folder":"tf","game":"Team Fortress","app_id":440,"player_count":0,"max_players":24,"Bots":0,"server_type":"Dedicated","server_os":"Linux","password":true,"vac":true,"version":"7708610","steam_id":85568392924469992,"keywords":["cp","nocrits","nodmgspread","uncletopia"],"game_id":440,"stv_port":27026,"stv_name":"Uncletopia | Los Angeles | 2 | All Maps | STV","players":null},{"server_id":324,"name":"Uncletopia | Los Angeles | 3 | All Maps","name_short":"lax-3","host":"lax-1.us.uncletopia.com","port":27035,"enabled":true,"region":"us-west","cc":"us","latitude":33.94279,"longitude":-118.41004,"reserved":0,"last_update":"0001-01-01T00:00:00Z","name_a2s":"Uncletopia | Los Angeles | 3 | All Maps","protocol":17,"map":"cp_mountainlab","folder":"tf","game":"Team Fortress","app_id":440,"player_count":0,"max_players":24,"Bots":0,"server_type":"Dedicated","server_os":"Linux","password":true,"vac":true,"version":"7708610","steam_id":85568392924510198,"keywords":["cp","nocrits","nodmgspread","uncletopia"],"game_id":440,"stv_port":27036,"stv_name":"Uncletopia | Los Angeles | 3 | All Maps | STV","players":null},{"server_id":25,"name":"Uncletopia | Los Angeles | 4 | No Payload","name_short":"lax-4","host":"lax-1.us.uncletopia.com","port":27045,"enabled":true,"region":"us-west","cc":"us","latitude":33.94279,"longitude":-118.41004,"reserved":0,"last_update":"0001-01-01T00:00:00Z","name_a2s":"Uncletopia | Los Angeles | 4 | No Payload","protocol":17,"map":"koth_suijin","folder":"tf","game":"Team Fortress","app_id":440,"player_count":0,"max_players":24,"Bots":0,"server_type":"Dedicated","server_os":"Linux","password":true,"vac":true,"version":"7708610","steam_id":85568392924510199,"keywords":["cp","nocrits","nodmgspread","uncletopia"],"game_id":440,"stv_port":27046,"stv_name":"Uncletopia | Los Angeles | 4 | No Payload | STV","players":null},{"server_id":11,"name":"Uncletopia | London | 1 | All Maps","name_short":"lon-1","host":"lon-1.uk.uncletopia.com","port":27015,"enabled":true,"region":"eu","cc":"gb","latitude":51.509865,"longitude":-0.118092,"reserved":0,"last_update":"0001-01-01T00:00:00Z","name_a2s":"Uncletopia | London | 1 | All Maps","protocol":17,"map":"pl_upward","folder":"tf","game":"Team Fortress","app_id":440,"player_count":24,"max_players":24,"Bots":0,"server_type":"Dedicated","server_os":"Linux","password":true,"vac":true,"version":"7708610","steam_id":85568392924367362,"keywords":["nocrits","nodmgspread","payload","uncletopia"],"game_id":440,"stv_port":27016,"stv_name":"Uncletopia | London | 1 | All Maps | STV","players":[{"user_id":105,"name":"fl1p","steam_id":76561198148565659,"connected_time":294000000000,"state":"active","ping":65},{"user_id":73,"name":"Fishum","steam_id":76561198148556559,"connected_time":2778000000000,"state":"active","ping":46},{"user_id":107,"name":"no1","steam_id":76561198067524060,"connected_time":259000000000,"state":"active","ping":81},{"user_id":108,"name":"Raptotorus_rex","steam_id":76561198066269912,"connected_time":155000000000,"state":"active","ping":48},{"user_id":52,"name":"dafydd","steam_id":76561198052200325,"connected_time":4058000000000,"state":"active","ping":89},{"user_id":8,"name":"night.s","steam_id":76561198326287823,"connected_time":6574000000000,"state":"active","ping":70},{"user_id":111,"name":"Mankor","steam_id":76561198020439322,"connected_time":130000000000,"state":"active","ping":59},{"user_id":113,"name":"panakid","steam_id":76561198364121077,"connected_time":89000000000,"state":"active","ping":95},{"user_id":89,"name":"Leiws","steam_id":76561198131627183,"connected_time":1301000000000,"state":"active","ping":51},{"user_id":96,"name":"stroyo","steam_id":76561198409592046,"connected_time":833000000000,"state":"active","ping":45},{"user_id":110,"name":"Him","steam_id":76561198086400484,"connected_time":152000000000,"state":"active","ping":62},{"user_id":112,"name":"Nikkis","steam_id":76561198190420055,"connected_time":123000000000,"state":"active","ping":68},{"user_id":91,"name":"pibel","steam_id":76561199139066133,"connected_time":1276000000000,"state":"active","ping":68},{"user_id":114,"name":"Car Gear","steam_id":76561199183213205,"connected_time":59000000000,"state":"active","ping":49},{"user_id":83,"name":"Nova","steam_id":76561198415791639,"connected_time":2156000000000,"state":"active","ping":82},{"user_id":103,"name":"Puzzles","steam_id":76561198137106459,"connected_time":568000000000,"state":"active","ping":49},{"user_id":106,"name":"Chuck Finley","steam_id":76561198027411284,"connected_time":286000000000,"state":"active","ping":153},{"user_id":85,"name":"Gideon","steam_id":76561198045132575,"connected_time":1843000000000,"state":"active","ping":44},{"user_id":95,"name":"L√∂ys√§ Masa","steam_id":76561198343396172,"connected_time":1005000000000,"state":"active","ping":95},{"user_id":115,"name":"The 4th Doctor","steam_id":76561198191516706,"connected_time":59000000000,"state":"active","ping":67},{"user_id":87,"name":"I-I","steam_id":76561198267969436,"connected_time":1721000000000,"state":"active","ping":67},{"user_id":67,"name":"Fred","steam_id":76561198107137362,"connected_time":3172000000000,"state":"active","ping":49},{"user_id":101,"name":"f–∞t c’Ω’∏t","steam_id":76561198845550388,"connected_time":683000000000,"state":"active","ping":132},{"user_id":116,"name":"Totally Spies!","steam_id":76561198343452867,"connected_time":14000000000,"state":"spawning","ping":91}]},{"server_id":114,"name":"Uncletopia | London | 2 | All Maps","name_short":"lon-2","host":"lon-1.uk.uncletopia.com","port":27025,"enabled":true,"region":"eu","cc":"gb","latitude":51.509865,"longitude":-0.118092,"reserved":0,"last_update":"0001-01-01T00:00:00Z","name_a2s":"Uncletopia | London | 2 | All Maps","protocol":17,"map":"pl_frontier_final","folder":"tf","game":"Team Fortress","app_id":440,"player_count":7,"max_players":24,"Bots":0,"server_type":"Dedicated","server_os":"Linux","password":true,"vac":true,"version":"7708610","steam_id":85568392924470941,"keywords":["nocrits","nodmgspread","payload","uncletopia"],"game_id":440,"stv_port":27026,"stv_name":"Uncletopia | London | 2 | All Maps | STV","players":[{"user_id":8,"name":"dudithebudi","steam_id":76561199112076461,"connected_time":1609000000000,"state":"active","ping":46},{"user_id":5,"name":"tori_spring #savetf2","steam_id":76561199375975842,"connected_time":1819000000000,"state":"active","ping":40},{"user_id":9,"name":"The Office","steam_id":76561198109422481,"connected_time":1400000000000,"state":"active","ping":71},{"user_id":12,"name":"Sputnik1","steam_id":76561199059003709,"connected_time":661000000000,"state":"active","ping":121},{"user_id":15,"name":"arnold","steam_id":76561198048763335,"connected_time":350000000000,"state":"active","ping":52},{"user_id":16,"name":"Bread 0f Box","steam_id":76561198165594721,"connected_time":292000000000,"state":"active","ping":51},{"user_id":18,"name":"clems17","steam_id":76561199420685482,"connected_time":195000000000,"state":"active","ping":51}]},{"server_id":320,"name":"Uncletopia | London | 3 | All Maps","name_short":"lon-3","host":"lon-1.uk.uncletopia.com","port":27035,"enabled":true,"region":"eu","cc":"gb","latitude":51.509865,"longitude":-0.118092,"reserved":0,"last_update":"0001-01-01T00:00:00Z","name_a2s":"Uncletopia | London | 3 | All Maps","protocol":17,"map":"pl_pier","folder":"tf","game":"Team Fortress","app_id":440,"player_count":6,"max_players":24,"Bots":0,"server_type":"Dedicated","server_os":"Linux","password":true,"vac":true,"version":"7708610","steam_id":85568392924510192,"keywords":["nocrits","nodmgspread","payload","uncletopia"],"game_id":440,"stv_port":27036,"stv_name":"Uncletopia | London | 3 | All Maps | STV","players":[{"user_id":75,"name":"Domberry","steam_id":76561199346712175,"connected_time":1184000000000,"state":"active","ping":69},{"user_id":86,"name":"Zeusosecmaat","steam_id":76561199182622891,"connected_time":30000000000,"state":"active","ping":369},{"user_id":83,"name":"purplecan","steam_id":76561199208283508,"connected_time":476000000000,"state":"active","ping":73},{"user_id":85,"name":"Bolt Finniken","steam_id":76561198379370948,"connected_time":102000000000,"state":"active","ping":46},{"user_id":61,"name":"kaT","steam_id":76561198879664338,"connected_time":2430000000000,"state":"active","ping":64},{"user_id":41,"name":"Average Tea Enjoyer","steam_id":76561199103785290,"connected_time":3609000000000,"state":"active","ping":96}]},{"server_id":321,"name":"Uncletopia | London | 4 | All Maps","name_short":"lon-4","host":"lon-1.uk.uncletopia.com","port":27045,"enabled":true,"region":"eu","cc":"gb","latitude":51.509865,"longitude":-0.118092,"reserved":0,"last_update":"0001-01-01T00:00:00Z","name_a2s":"Uncletopia | London | 4 | All Maps","protocol":17,"map":"cp_altitude","folder":"tf","game":"Team Fortress","app_id":440,"player_count":0,"max_players":24,"Bots":0,"server_type":"Dedicated","server_os":"Linux","password":true,"vac":true,"version":"7708610","steam_id":85568392924510193,"keywords":["cp","nocrits","nodmgspread","uncletopia"],"game_id":440,"stv_port":27046,"stv_name":"Uncletopia | London | 4 | All Maps | STV","players":null},{"server_id":21,"name":"Uncletopia | London | 5 | All Maps","name_short":"lon-5","host":"lon-1.uk.uncletopia.com","port":27055,"enabled":true,"region":"eu","cc":"gb","latitude":51.509865,"longitude":-0.118092,"reserved":0,"last_update":"0001-01-01T00:00:00Z","name_a2s":"Uncletopia | London | 5 | All Maps","protocol":17,"map":"pl_snowycoast","folder":"tf","game":"Team Fortress","app_id":440,"player_count":0,"max_players":24,"Bots":0,"server_type":"Dedicated","server_os":"Linux","password":true,"vac":true,"version":"7708610","steam_id":85568392924742829,"keywords":["nocrits","nodmgspread","payload","uncletopia"],"game_id":440,"stv_port":27056,"stv_name":"Uncletopia | London | 5 | All Maps | STV","players":null},{"server_id":22,"name":"Uncletopia | London | 6 | All Maps","name_short":"lon-6","host":"lon-1.uk.uncletopia.com","port":27065,"enabled":true,"region":"eu","cc":"gb","latitude":51.509865,"longitude":-0.118092,"reserved":0,"last_update":"0001-01-01T00:00:00Z","name_a2s":"Uncletopia | London | 6 | All Maps","protocol":17,"map":"cp_altitude","folder":"tf","game":"Team Fortress","app_id":440,"player_count":0,"max_players":24,"Bots":0,"server_type":"Dedicated","server_os":"Linux","password":true,"vac":true,"version":"7708610","steam_id":85568392924742830,"keywords":["cp","nocrits","nodmgspread","uncletopia"],"game_id":440,"stv_port":27066,"stv_name":"Uncletopia | London | 6 | All Maps | STV","players":null},{"server_id":40,"name":"Uncletopia | London | 7 | No Payload","name_short":"lon-7","host":"lon-1.uk.uncletopia.com","port":27075,"enabled":true,"region":"eu","cc":"gb","latitude":51.509865,"longitude":-0.118092,"reserved":0,"last_update":"0001-01-01T00:00:00Z","name_a2s":"Uncletopia | London | 7 | No Payload","protocol":17,"map":"koth_lakeside_final","folder":"tf","game":"Team Fortress","app_id":440,"player_count":0,"max_players":24,"Bots":0,"server_type":"Dedicated","server_os":"Linux","password":true,"vac":true,"version":"7708610","steam_id":85568392924964314,"keywords":["cp","nocrits","nodmgspread","uncletopia"],"game_id":440,"stv_port":27076,"stv_name":"Uncletopia | London | 7 | No Payload | STV","players":null},{"server_id":41,"name":"Uncletopia | London | 8 | Community","name_short":"lon-8","host":"lon-1.uk.uncletopia.com","port":27085,"enabled":true,"region":"eu","cc":"gb","latitude":51.509865,"longitude":-0.118092,"reserved":0,"last_update":"0001-01-01T00:00:00Z","name_a2s":"Uncletopia | London | 8 | Community","protocol":17,"map":"koth_highpass","folder":"tf","game":"Team Fortress","app_id":440,"player_count":0,"max_players":24,"Bots":0,"server_type":"Dedicated","server_os":"Linux","password":true,"vac":true,"version":"7708610","steam_id":85568392924964315,"keywords":["cp","nocrits","nodmgspread","uncletopia"],"game_id":440,"stv_port":27086,"stv_name":"Uncletopia | London | 8 | Community | STV","players":null},{"server_id":300,"name":"Uncletopia | Montr√©al | 1 | All Maps","name_short":"mtl-1","host":"mtl-1.ca.uncletopia.com","port":27015,"enabled":true,"region":"us-east","cc":"ca","latitude":45.50889,"longitude":-73.56167,"reserved":0,"last_update":"0001-01-01T00:00:00Z","name_a2s":"Uncletopia | Montr√©al | 1 | All Maps","protocol":17,"map":"pl_barnblitz","folder":"tf","game":"Team Fortress","app_id":440,"player_count":0,"max_players":24,"Bots":0,"server_type":"Dedicated","server_os":"Linux","password":true,"vac":true,"version":"7708610","steam_id":85568392924500087,"keywords":["nocrits","nodmgspread","payload","uncletopia"],"game_id":440,"stv_port":0,"stv_name":"","players":null},{"server_id":301,"name":"Uncletopia | Montr√©al | 2 | All Maps","name_short":"mtl-2","host":"mtl-1.ca.uncletopia.com","port":27025,"enabled":true,"region":"us-east","cc":"ca","latitude":45.50889,"longitude":-73.56167,"reserved":0,"last_update":"0001-01-01T00:00:00Z","name_a2s":"Uncletopia | Montr√©al | 2 | All Maps","protocol":17,"map":"pl_frontier_final","folder":"tf","game":"Team Fortress","app_id":440,"player_count":0,"max_players":24,"Bots":0,"server_type":"Dedicated","server_os":"Linux","password":true,"vac":true,"version":"7708610","steam_id":85568392924500088,"keywords":["nocrits","nodmgspread","payload","uncletopia"],"game_id":440,"stv_port":0,"stv_name":"","players":null},{"server_id":302,"name":"Uncletopia | Montr√©al | 3 | All Maps","name_short":"mtl-3","host":"mtl-1.ca.uncletopia.com","port":27035,"enabled":true,"region":"us-east","cc":"ca","latitude":45.50889,"longitude":-73.56167,"reserved":0,"last_update":"0001-01-01T00:00:00Z","name_a2s":"Uncletopia | Montr√©al | 3 | All Maps","protocol":17,"map":"pl_snowycoast","folder":"tf","game":"Team Fortress","app_id":440,"player_count":0,"max_players":24,"Bots":0,"server_type":"Dedicated","server_os":"Linux","password":true,"vac":true,"version":"7708610","steam_id":85568392924500089,"keywords":["nocrits","nodmgspread","payload","uncletopia"],"game_id":440,"stv_port":0,"stv_name":"","players":null},{"server_id":303,"name":"Uncletopia | Montr√©al | 4 | No Payload","name_short":"mtl-4","host":"mtl-1.ca.uncletopia.com","port":27045,"enabled":true,"region":"us-east","cc":"ca","latitude":45.50889,"longitude":-73.56167,"reserved":0,"last_update":"0001-01-01T00:00:00Z","name_a2s":"Uncletopia | Montr√©al | 4 | No Payload","protocol":17,"map":"pl_frontier_final","folder":"tf","game":"Team Fortress","app_id":440,"player_count":0,"max_players":24,"Bots":0,"server_type":"Dedicated","server_os":"Linux","password":true,"vac":true,"version":"7708610","steam_id":85568392924500090,"keywords":["nocrits","nodmgspread","payload","uncletopia"],"game_id":440,"stv_port":0,"stv_name":"","players":null},{"server_id":13,"name":"Uncletopia | New York City | 1 | All Maps","name_short":"nyc-1","host":"nyc-1.us.uncletopia.com","port":27015,"enabled":true,"region":"us-east","cc":"us","latitude":40.73061,"longitude":-73.93524,"reserved":0,"last_update":"0001-01-01T00:00:00Z","name_a2s":"Uncletopia | New York City | 1 | All Maps","protocol":17,"map":"cp_dustbowl","folder":"tf","game":"Team Fortress","app_id":440,"player_count":0,"max_players":24,"Bots":0,"server_type":"Dedicated","server_os":"Linux","password":true,"vac":true,"version":"7708610","steam_id":85568392924469993,"keywords":["cp","nocrits","nodmgspread","uncletopia"],"game_id":440,"stv_port":27016,"stv_name":"Uncletopia | New York City | 1 | All Maps | STV","players":null},{"server_id":14,"name":"Uncletopia | New York City | 2 | All Maps","name_short":"nyc-2","host":"nyc-1.us.uncletopia.com","port":27025,"enabled":true,"region":"us-east","cc":"us","latitude":40.73061,"longitude":-73.93524,"reserved":0,"last_update":"0001-01-01T00:00:00Z","name_a2s":"Uncletopia | New York City | 2 | All Maps","protocol":17,"map":"koth_cascade","folder":"tf","game":"Team Fortress","app_id":440,"player_count":0,"max_players":24,"Bots":0,"server_type":"Dedicated","server_os":"Linux","password":true,"vac":true,"version":"7708610","steam_id":85568392924469994,"keywords":["cp","nocrits","nodmgspread","uncletopia"],"game_id":440,"stv_port":27026,"stv_name":"Uncletopia | New York City | 2 | All Maps | STV","players":null},{"server_id":15,"name":"Uncletopia | New York City | 3 | All Maps","name_short":"nyc-3","host":"nyc-1.us.uncletopia.com","port":27035,"enabled":true,"region":"us-east","cc":"us","latitude":40.73061,"longitude":-73.93524,"reserved":0,"last_update":"0001-01-01T00:00:00Z","name_a2s":"Uncletopia | New York City | 3 | All Maps","protocol":17,"map":"pl_swiftwater_final1","folder":"tf","game":"Team Fortress","app_id":440,"player_count":0,"max_players":24,"Bots":0,"server_type":"Dedicated","server_os":"Linux","password":true,"vac":true,"version":"7708610","steam_id":85568392924742820,"keywords":["nocrits","nodmgspread","payload","uncletopia"],"game_id":440,"stv_port":27036,"stv_name":"Uncletopia | New York City | 3 | All Maps | STV","players":null},{"server_id":16,"name":"Uncletopia | New York City | 4 | Community","name_short":"nyc-4","host":"nyc-1.us.uncletopia.com","port":27045,"enabled":true,"region":"us-east","cc":"us","latitude":40.73061,"longitude":-73.93524,"reserved":0,"last_update":"0001-01-01T00:00:00Z","name_a2s":"Uncletopia | New York City | 4 | Community","protocol":17,"map":"pl_upward","folder":"tf","game":"Team Fortress","app_id":440,"player_count":0,"max_players":24,"Bots":0,"server_type":"Dedicated","server_os":"Linux","password":true,"vac":true,"version":"7708610","steam_id":85568392924742821,"keywords":["nocrits","nodmgspread","payload","uncletopia"],"game_id":440,"stv_port":27046,"stv_name":"Uncletopia | New York City | 4 | Community | STV","players":null},{"server_id":142,"name":"Uncletopia | S√£o Paulo | 1 | All Maps","name_short":"sao-1","host":"sao-1.br.uncletopia.com","port":27015,"enabled":true,"region":"sa","cc":"br","latitude":-23.533773,"longitude":-46.62529,"reserved":0,"last_update":"0001-01-01T00:00:00Z","name_a2s":"Uncletopia | S√£o Paulo | 1 | All Maps","protocol":17,"map":"cp_process_final","folder":"tf","game":"Team Fortress","app_id":440,"player_count":0,"max_players":24,"Bots":0,"server_type":"Dedicated","server_os":"Linux","password":true,"vac":true,"version":"7708610","steam_id":85568392924469996,"keywords":["cp","nocrits","nodmgspread","uncletopia"],"game_id":440,"stv_port":27016,"stv_name":"Uncletopia | S√£o Paulo | 1 | All Maps | STV","players":null},{"server_id":143,"name":"Uncletopia | S√£o Paulo | 2 | All Maps","name_short":"sao-2","host":"sao-2.br.uncletopia.com","port":27015,"enabled":true,"region":"sa","cc":"br","latitude":-23.533773,"longitude":-46.62529,"reserved":0,"last_update":"0001-01-01T00:00:00Z","name_a2s":"Uncletopia | S√£o Paulo | 2 | All Maps","protocol":17,"map":"cp_altitude","folder":"tf","game":"Team Fortress","app_id":440,"player_count":0,"max_players":24,"Bots":0,"server_type":"Dedicated","server_os":"Linux","password":true,"vac":true,"version":"7708610","steam_id":85568392924485349,"keywords":["cp","nocrits","nodmgspread","uncletopia"],"game_id":440,"stv_port":27016,"stv_name":"Uncletopia | S√£o Paulo | 2 | All Maps | STV","players":null},{"server_id":7,"name":"Uncletopia | Seattle | 1 | All Maps","name_short":"sea-1","host":"sea-1.us.uncletopia.com","port":27015,"enabled":true,"region":"us-west","cc":"us","latitude":47.608013,"longitude":-122.33517,"reserved":0,"last_update":"0001-01-01T00:00:00Z","name_a2s":"Uncletopia | Seattle | 1 | All Maps","protocol":17,"map":"pl_snowycoast","folder":"tf","game":"Team Fortress","app_id":440,"player_count":24,"max_players":24,"Bots":0,"server_type":"Dedicated","server_os":"Linux","password":true,"vac":true,"version":"7708610","steam_id":85568392924469997,"keywords":["nocrits","nodmgspread","payload","uncletopia"],"game_id":440,"stv_port":27016,"stv_name":"Uncletopia | Seattle | 1 | All Maps | STV","players":[{"user_id":208,"name":"Spooky","steam_id":76561198030817605,"connected_time":289000000000,"state":"active","ping":37},{"user_id":112,"name":"Frongus","steam_id":76561197979056451,"connected_time":8877000000000,"state":"active","ping":47},{"user_id":174,"name":"Yammie","steam_id":76561197987304489,"connected_time":4003000000000,"state":"active","ping":46},{"user_id":172,"name":"Wormy Getting Coal","steam_id":76561198054539200,"connected_time":4009000000000,"state":"active","ping":52},{"user_id":140,"name":"pcplace","steam_id":76561198097987387,"connected_time":7004000000000,"state":"active","ping":47},{"user_id":173,"name":"profile name","steam_id":76561198032625036,"connected_time":4009000000000,"state":"active","ping":60},{"user_id":188,"name":"gamer (derogatory)","steam_id":76561198334059206,"connected_time":2316000000000,"state":"active","ping":67},{"user_id":201,"name":"DoctorBlaze","steam_id":76561198399463351,"connected_time":937000000000,"state":"active","ping":102},{"user_id":114,"name":"self sufficient kitten","steam_id":76561197960592612,"connected_time":8855000000000,"state":"active","ping":51},{"user_id":179,"name":"m o ss","steam_id":76561198061341744,"connected_time":3912000000000,"state":"active","ping":45},{"user_id":198,"name":"Bagaboned","steam_id":76561198043761335,"connected_time":1163000000000,"state":"active","ping":50},{"user_id":200,"name":"youtube video","steam_id":76561198329074551,"connected_time":1005000000000,"state":"active","ping":80},{"user_id":180,"name":"octty","steam_id":76561198264728012,"connected_time":3835000000000,"state":"active","ping":55},{"user_id":202,"name":"Communist Killing Candy Cactus\ufffd","steam_id":76561198074980635,"connected_time":901000000000,"state":"active","ping":97},{"user_id":203,"name":"Ehrenmann","steam_id":76561198314947013,"connected_time":801000000000,"state":"active","ping":215},{"user_id":189,"name":"Yugure","steam_id":76561198146200909,"connected_time":2316000000000,"state":"active","ping":77},{"user_id":207,"name":"pasta b0i","steam_id":76561198088131563,"connected_time":427000000000,"state":"active","ping":76},{"user_id":184,"name":"RURU","steam_id":76561198039758987,"connected_time":2521000000000,"state":"active","ping":57},{"user_id":197,"name":"weed lesbian","steam_id":76561197989933601,"connected_time":1620000000000,"state":"active","ping":59},{"user_id":206,"name":"wizorb","steam_id":76561198002172674,"connected_time":452000000000,"state":"active","ping":83},{"user_id":199,"name":"Non-Union Mexican Equivalent","steam_id":76561198013399809,"connected_time":1151000000000,"state":"active","ping":78},{"user_id":168,"name":"PepperNSalt","steam_id":76561198169000533,"connected_time":4060000000000,"state":"active","ping":43},{"user_id":205,"name":"tadsandco","steam_id":76561198037266781,"connected_time":711000000000,"state":"active","ping":75},{"user_id":193,"name":"Ayayahuasca","steam_id":76561199002906056,"connected_time":1903000000000,"state":"active","ping":53}]},{"server_id":119,"name":"Uncletopia | Seattle | 2 | All Maps","name_short":"sea-2","host":"sea-1.us.uncletopia.com","port":27025,"enabled":true,"region":"us-west","cc":"us","latitude":47.608013,"longitude":-122.33517,"reserved":0,"last_update":"0001-01-01T00:00:00Z","name_a2s":"Uncletopia | Seattle | 2 | All Maps","protocol":17,"map":"pl_snowycoast","folder":"tf","game":"Team Fortress","app_id":440,"player_count":0,"max_players":24,"Bots":0,"server_type":"Dedicated","server_os":"Linux","password":true,"vac":true,"version":"7708610","steam_id":85568392924469998,"keywords":["nocrits","nodmgspread","payload","uncletopia"],"game_id":440,"stv_port":27026,"stv_name":"Uncletopia | Seattle | 2 | All Maps | STV","players":null},{"server_id":17,"name":"Uncletopia | San Francisco | 1 | All Maps","name_short":"sfo-1","host":"sfo-1.us.uncletopia.com","port":27015,"enabled":true,"region":"us-west","cc":"us","latitude":37.77397,"longitude":-122.4313,"reserved":0,"last_update":"0001-01-01T00:00:00Z","name_a2s":"Uncletopia | San Francisco | 1 | All Maps","protocol":17,"map":"koth_lakeside_final","folder":"tf","game":"Team Fortress","app_id":440,"player_count":0,"max_players":24,"Bots":0,"server_type":"Dedicated","server_os":"Linux","password":true,"vac":true,"version":"7708610","steam_id":85568392924469999,"keywords":["cp","nocrits","nodmgspread","uncletopia"],"game_id":440,"stv_port":27016,"stv_name":"Uncletopia | San Francisco | 1 | All Maps | STV","players":null},{"server_id":18,"name":"Uncletopia | San Francisco | 2 | All Maps","name_short":"sfo-2","host":"sfo-1.us.uncletopia.com","port":27025,"enabled":true,"region":"us-west","cc":"us","latitude":37.77397,"longitude":-122.4313,"reserved":0,"last_update":"0001-01-01T00:00:00Z","name_a2s":"Uncletopia | San Francisco | 2 | All Maps","protocol":17,"map":"cp_process_final","folder":"tf","game":"Team Fortress","app_id":440,"player_count":0,"max_players":24,"Bots":0,"server_type":"Dedicated","server_os":"Linux","password":true,"vac":true,"version":"7708610","steam_id":85568392924470000,"keywords":["cp","nocrits","nodmgspread","uncletopia"],"game_id":440,"stv_port":27026,"stv_name":"Uncletopia | San Francisco | 2 | All Maps | STV","players":null},{"server_id":19,"name":"Uncletopia | San Francisco | 3 | No Payload","name_short":"sfo-3","host":"sfo-1.us.uncletopia.com","port":27035,"enabled":true,"region":"us-west","cc":"us","latitude":37.77397,"longitude":-122.4313,"reserved":0,"last_update":"0001-01-01T00:00:00Z","name_a2s":"Uncletopia | San Francisco | 3 | No Payload","protocol":17,"map":"cp_mountainlab","folder":"tf","game":"Team Fortress","app_id":440,"player_count":0,"max_players":24,"Bots":0,"server_type":"Dedicated","server_os":"Linux","password":true,"vac":true,"version":"7708610","steam_id":85568392924742824,"keywords":["cp","nocrits","nodmgspread","uncletopia"],"game_id":440,"stv_port":27036,"stv_name":"Uncletopia | San Francisco | 3 | No Payload | STV","players":null},{"server_id":20,"name":"Uncletopia | San Francisco | 4 | Community","name_short":"sfo-4","host":"sfo-1.us.uncletopia.com","port":27045,"enabled":true,"region":"us-west","cc":"us","latitude":37.77397,"longitude":-122.4313,"reserved":0,"last_update":"0001-01-01T00:00:00Z","name_a2s":"Uncletopia | San Francisco | 4 | Community","protocol":17,"map":"cp_altitude","folder":"tf","game":"Team Fortress","app_id":440,"player_count":0,"max_players":24,"Bots":0,"server_type":"Dedicated","server_os":"Linux","password":true,"vac":true,"version":"7708610","steam_id":85568392924742826,"keywords":["cp","nocrits","nodmgspread","uncletopia"],"game_id":440,"stv_port":27046,"stv_name":"Uncletopia | San Francisco | 4 | Community | STV","players":null},{"server_id":141,"name":"Uncletopia | Sydney | 1 | All Maps","name_short":"syd-1","host":"syd-1.au.uncletopia.com","port":27015,"enabled":true,"region":"au","cc":"au","latitude":-33.865143,"longitude":151.2099,"reserved":0,"last_update":"0001-01-01T00:00:00Z","name_a2s":"Uncletopia | Sydney | 1 | All Maps","protocol":17,"map":"pl_snowycoast","folder":"tf","game":"Team Fortress","app_id":440,"player_count":24,"max_players":24,"Bots":0,"server_type":"Dedicated","server_os":"Linux","password":true,"vac":true,"version":"7708610","steam_id":85568392924470001,"keywords":["nocrits","nodmgspread","payload","uncletopia"],"game_id":440,"stv_port":27016,"stv_name":"Uncletopia | Sydney | 1 | All Maps | STV","players":[{"user_id":128,"name":"clueless","steam_id":76561198046239819,"connected_time":1170000000000,"state":"spawning","ping":121},{"user_id":112,"name":"Raypest","steam_id":76561197980678745,"connected_time":1879000000000,"state":"spawning","ping":62},{"user_id":52,"name":"bird","steam_id":76561198258514103,"connected_time":5327000000000,"state":"spawning","ping":46},{"user_id":129,"name":"Breakfast","steam_id":76561197971620881,"connected_time":1119000000000,"state":"spawning","ping":51},{"user_id":102,"name":"SassnCheeky","steam_id":76561197993875592,"connected_time":2636000000000,"state":"spawning","ping":63},{"user_id":120,"name":"Charm","steam_id":76561198028891054,"connected_time":1613000000000,"state":"spawning","ping":63},{"user_id":99,"name":"Soru","steam_id":76561198010844786,"connected_time":2723000000000,"state":"spawning","ping":64},{"user_id":126,"name":"pigeonpumper1991","steam_id":76561197985197292,"connected_time":1256000000000,"state":"spawning","ping":62},{"user_id":124,"name":"Dr. D Snutts","steam_id":76561198049290016,"connected_time":1398000000000,"state":"spawning","ping":61},{"user_id":92,"name":"Mr Asian","steam_id":76561199119648313,"connected_time":2990000000000,"state":"spawning","ping":64},{"user_id":134,"name":"Lapis","steam_id":76561198886296304,"connected_time":241000000000,"state":"spawning","ping":69},{"user_id":133,"name":"Abraham Lincoln","steam_id":76561198095292515,"connected_time":435000000000,"state":"spawning","ping":60},{"user_id":131,"name":"pokermaster22","steam_id":76561198042198744,"connected_time":761000000000,"state":"spawning","ping":49},{"user_id":89,"name":"JokerMain","steam_id":76561198144857794,"connected_time":3283000000000,"state":"spawning","ping":46},{"user_id":114,"name":"Rapscallion","steam_id":76561198063315934,"connected_time":1838000000000,"state":"spawning","ping":47},{"user_id":121,"name":"Space","steam_id":76561198311911966,"connected_time":1447000000000,"state":"spawning","ping":57},{"user_id":53,"name":"NewChris","steam_id":76561198254754182,"connected_time":5309000000000,"state":"spawning","ping":65},{"user_id":115,"name":"penis muncher","steam_id":76561198288259746,"connected_time":1820000000000,"state":"spawning","ping":47},{"user_id":109,"name":"Gordon","steam_id":76561198259384001,"connected_time":2021000000000,"state":"spawning","ping":62},{"user_id":127,"name":"ItsSnakey","steam_id":76561199187623513,"connected_time":1232000000000,"state":"spawning","ping":53},{"user_id":119,"name":"rajjyboi","steam_id":76561198250874216,"connected_time":1738000000000,"state":"spawning","ping":77},{"user_id":106,"name":"Ack!","steam_id":76561198147967798,"connected_time":2333000000000,"state":"spawning","ping":63},{"user_id":60,"name":"twitch.tv/DrTreggles","steam_id":76561198042806226,"connected_time":4829000000000,"state":"spawning","ping":89},{"user_id":136,"name":"Casio on a plastic beach","steam_id":76561199183857371,"connected_time":10000000000,"state":"spawning","ping":55}]},{"server_id":123,"name":"Uncletopia | Sydney | 2 | All Maps","name_short":"syd-2","host":"syd-1.au.uncletopia.com","port":27025,"enabled":true,"region":"au","cc":"au","latitude":-33.865143,"longitude":151.2099,"reserved":0,"last_update":"0001-01-01T00:00:00Z","name_a2s":"Uncletopia | Sydney | 2 | All Maps","protocol":17,"map":"pl_wutville_event","folder":"tf","game":"Team Fortress","app_id":440,"player_count":0,"max_players":24,"Bots":0,"server_type":"Dedicated","server_os":"Linux","password":true,"vac":true,"version":"7708610","steam_id":85568392924470002,"keywords":["nocrits","nodmgspread","payload","uncletopia"],"game_id":440,"stv_port":27026,"stv_name":"Uncletopia | Sydney | 2 | All Maps | STV","players":null},{"server_id":395,"name":"Uncletopia | Sydney | 3 | All Maps","name_short":"syd-3","host":"syd-1.au.uncletopia.com","port":27035,"enabled":true,"region":"au","cc":"au","latitude":-33.865143,"longitude":151.2099,"reserved":0,"last_update":"0001-01-01T00:00:00Z","name_a2s":"Uncletopia | Sydney | 3 | All Maps","protocol":17,"map":"pl_pier","folder":"tf","game":"Team Fortress","app_id":440,"player_count":24,"max_players":24,"Bots":0,"server_type":"Dedicated","server_os":"Linux","password":true,"vac":true,"version":"7708610","steam_id":85568392925194467,"keywords":["nocrits","nodmgspread","payload","uncletopia"],"game_id":440,"stv_port":27036,"stv_name":"Uncletopia | Sydney | 3 | All Maps | STV","players":[{"user_id":7,"name":"the lad#savetf2","steam_id":76561198865537226,"connected_time":4316000000000,"state":"active","ping":82},{"user_id":54,"name":"20BB. jv","steam_id":76561198267475132,"connected_time":1910000000000,"state":"active","ping":57},{"user_id":67,"name":"GBOverload","steam_id":76561198084170693,"connected_time":534000000000,"state":"active","ping":254},{"user_id":79,"name":"fleep","steam_id":76561198417133583,"connected_time":11000000000,"state":"spawning","ping":55},{"user_id":34,"name":"skatebored","steam_id":76561198129299181,"connected_time":3138000000000,"state":"active","ping":68},{"user_id":68,"name":"That_Chimparoncito_Fan","steam_id":76561199216969963,"connected_time":471000000000,"state":"active","ping":258},{"user_id":14,"name":"Jam","steam_id":76561198047515235,"connected_time":3778000000000,"state":"active","ping":60},{"user_id":65,"name":"EpicGuy4227","steam_id":76561198094132328,"connected_time":596000000000,"state":"active","ping":57},{"user_id":69,"name":"electro599","steam_id":76561198058148858,"connected_time":419000000000,"state":"active","ping":60},{"user_id":66,"name":"chinese crd from bilibili wuhan","steam_id":76561198163369325,"connected_time":591000000000,"state":"active","ping":47},{"user_id":70,"name":"SkoKiE","steam_id":76561198283542986,"connected_time":418000000000,"state":"active","ping":61},{"user_id":23,"name":"ThatsAmoori","steam_id":76561198067837522,"connected_time":3414000000000,"state":"active","ping":85},{"user_id":71,"name":"Rizeo","steam_id":76561198147901488,"connected_time":402000000000,"state":"active","ping":62},{"user_id":72,"name":"Homebrand Chronic","steam_id":76561198941549137,"connected_time":367000000000,"state":"active","ping":78},{"user_id":77,"name":"Friends of Tina Kotek","steam_id":76561198257921898,"connected_time":241000000000,"state":"active","ping":250},{"user_id":78,"name":"FreedomSpite","steam_id":76561198152368094,"connected_time":99000000000,"state":"active","ping":44},{"user_id":31,"name":"Big Booty Llama","steam_id":76561198074422721,"connected_time":3183000000000,"state":"active","ping":74},{"user_id":74,"name":"Nugget","steam_id":76561197961747465,"connected_time":354000000000,"state":"active","ping":75},{"user_id":33,"name":"grahhh jumpscare ahh","steam_id":76561198094589768,"connected_time":3145000000000,"state":"active","ping":67},{"user_id":75,"name":"Daisuke Eiko :3","steam_id":76561198303274494,"connected_time":295000000000,"state":"active","ping":143},{"user_id":41,"name":"PULSE. PULSE. 12. 42. TUNA TUNA","steam_id":76561198122031469,"connected_time":2850000000000,"state":"active","ping":63},{"user_id":38,"name":"infinite toast","steam_id":76561198808826338,"connected_time":3028000000000,"state":"active","ping":98},{"user_id":39,"name":"Madison Ivy","steam_id":76561198074674290,"connected_time":3005000000000,"state":"active","ping":64},{"user_id":76,"name":"york","steam_id":76561197996817216,"connected_time":273000000000,"state":"active","ping":48}]},{"server_id":396,"name":"Uncletopia | Sydney | 4 | All Maps","name_short":"syd-4","host":"syd-1.au.uncletopia.com","port":27045,"enabled":true,"region":"au","cc":"au","latitude":-33.865143,"longitude":151.2099,"reserved":0,"last_update":"0001-01-01T00:00:00Z","name_a2s":"Uncletopia | Sydney | 4 | All Maps","protocol":17,"map":"pl_wutville_event","folder":"tf","game":"Team Fortress","app_id":440,"player_count":0,"max_players":24,"Bots":0,"server_type":"Dedicated","server_os":"Linux","password":true,"vac":true,"version":"7708610","steam_id":85568392925397958,"keywords":["nocrits","nodmgspread","payload","uncletopia"],"game_id":440,"stv_port":27046,"stv_name":"Uncletopia | Sydney | 4 | All Maps | STV","players":null},{"server_id":58,"name":"Uncletopia | Sydney | 5 | No Payload","name_short":"syd-5","host":"syd-1.au.uncletopia.com","port":27055,"enabled":true,"region":"au","cc":"au","latitude":-33.865143,"longitude":151.2099,"reserved":0,"last_update":"0001-01-01T00:00:00Z","name_a2s":"Uncletopia | Sydney | 5 | No Payload","protocol":17,"map":"koth_lakeside_final","folder":"tf","game":"Team Fortress","app_id":440,"player_count":1,"max_players":24,"Bots":0,"server_type":"Dedicated","server_os":"Linux","password":true,"vac":true,"version":"7708610","steam_id":85568392925397959,"keywords":["cp","nocrits","nodmgspread","uncletopia"],"game_id":440,"stv_port":27056,"stv_name":"Uncletopia | Sydney | 5 | No Payload | STV","players":[{"user_id":4,"name":"Branko","steam_id":76561199262196710,"connected_time":142000000000,"state":"active","ping":40}]},{"server_id":59,"name":"Uncletopia | Sydney | 6 | Community","name_short":"syd-6","host":"syd-1.au.uncletopia.com","port":27065,"enabled":true,"region":"au","cc":"au","latitude":-33.865143,"longitude":151.2099,"reserved":0,"last_update":"0001-01-01T00:00:00Z","name_a2s":"Uncletopia | Sydney | 6 | Community","protocol":17,"map":"koth_lakeside_final","folder":"tf","game":"Team Fortress","app_id":440,"player_count":0,"max_players":24,"Bots":0,"server_type":"Dedicated","server_os":"Linux","password":true,"vac":true,"version":"7708610","steam_id":85568392925397960,"keywords":["cp","nocrits","nodmgspread","uncletopia"],"game_id":440,"stv_port":27066,"stv_name":"Uncletopia | Sydney | 6 | Community | STV","players":null},{"server_id":49,"name":"Uncletopia | Warsaw | 1 | All Maps","name_short":"waw-1","host":"waw-1.pl.uncletopia.com","port":27015,"enabled":true,"region":"eu","cc":"pl","latitude":52.2297,"longitude":21.017532,"reserved":0,"last_update":"0001-01-01T00:00:00Z","name_a2s":"Uncletopia | Warsaw | 1 | All Maps","protocol":17,"map":"koth_viaduct","folder":"tf","game":"Team Fortress","app_id":440,"player_count":0,"max_players":24,"Bots":0,"server_type":"Dedicated","server_os":"Linux","password":true,"vac":true,"version":"7708610","steam_id":85568392925397850,"keywords":["cp","nocrits","nodmgspread","uncletopia"],"game_id":440,"stv_port":27016,"stv_name":"Uncletopia | Warsaw | 1 | All Maps | STV","players":null},{"server_id":50,"name":"Uncletopia | Warsaw | 2 | All Maps","name_short":"waw-2","host":"waw-1.pl.uncletopia.com","port":27025,"enabled":true,"region":"eu","cc":"pl","latitude":52.2297,"longitude":21.017532,"reserved":0,"last_update":"0001-01-01T00:00:00Z","name_a2s":"Uncletopia | Warsaw | 2 | All Maps","protocol":17,"map":"koth_cascade","folder":"tf","game":"Team Fortress","app_id":440,"player_count":0,"max_players":24,"Bots":0,"server_type":"Dedicated","server_os":"Linux","password":true,"vac":true,"version":"7708610","steam_id":85568392925397851,"keywords":["cp","nocrits","nodmgspread","uncletopia"],"game_id":440,"stv_port":27026,"stv_name":"Uncletopia | Warsaw | 2 | All Maps | STV","players":null},{"server_id":51,"name":"Uncletopia | Warsaw | 3 | All Maps","name_short":"waw-3","host":"waw-1.pl.uncletopia.com","port":27035,"enabled":true,"region":"eu","cc":"pl","latitude":52.2297,"longitude":21.017532,"reserved":0,"last_update":"0001-01-01T00:00:00Z","name_a2s":"Uncletopia | Warsaw | 3 | All Maps","protocol":17,"map":"cp_process_final","folder":"tf","game":"Team Fortress","app_id":440,"player_count":0,"max_players":24,"Bots":0,"server_type":"Dedicated","server_os":"Linux","password":true,"vac":true,"version":"7708610","steam_id":85568392925397852,"keywords":["cp","nocrits","nodmgspread","uncletopia"],"game_id":440,"stv_port":27036,"stv_name":"Uncletopia | Warsaw | 3 | All Maps | STV","players":null},{"server_id":52,"name":"Uncletopia | Warsaw | 4 | All Maps","name_short":"waw-4","host":"waw-1.pl.uncletopia.com","port":27045,"enabled":true,"region":"eu","cc":"pl","latitude":52.2297,"longitude":21.017532,"reserved":0,"last_update":"0001-01-01T00:00:00Z","name_a2s":"Uncletopia | Warsaw | 4 | All Maps","protocol":17,"map":"koth_cascade","folder":"tf","game":"Team Fortress","app_id":440,"player_count":0,"max_players":24,"Bots":0,"server_type":"Dedicated","server_os":"Linux","password":true,"vac":true,"version":"7708610","steam_id":85568392925397853,"keywords":["cp","nocrits","nodmgspread","uncletopia"],"game_id":440,"stv_port":27046,"stv_name":"Uncletopia | Warsaw | 4 | All Maps | STV","players":null},{"server_id":53,"name":"Uncletopia | Warsaw | 5 | No Payload","name_short":"waw-5","host":"waw-1.pl.uncletopia.com","port":27055,"enabled":true,"region":"eu","cc":"pl","latitude":52.2297,"longitude":21.017532,"reserved":0,"last_update":"0001-01-01T00:00:00Z","name_a2s":"Uncletopia | Warsaw | 5 | No Payload","protocol":17,"map":"cp_altitude","folder":"tf","game":"Team Fortress","app_id":440,"player_count":0,"max_players":24,"Bots":0,"server_type":"Dedicated","server_os":"Linux","password":true,"vac":true,"version":"7708610","steam_id":85568392925397854,"keywords":["cp","nocrits","nodmgspread","uncletopia"],"game_id":440,"stv_port":27056,"stv_name":"Uncletopia | Warsaw | 5 | No Payload | STV","players":null},{"server_id":54,"name":"Uncletopia | Warsaw | 6 | Community","name_short":"waw-6","host":"waw-1.pl.uncletopia.com","port":27065,"enabled":true,"region":"eu","cc":"pl","latitude":52.2297,"longitude":21.017532,"reserved":0,"last_update":"0001-01-01T00:00:00Z","name_a2s":"Uncletopia | Warsaw | 6 | Community","protocol":17,"map":"cp_process_final","folder":"tf","game":"Team Fortress","app_id":440,"player_count":0,"max_players":24,"Bots":0,"server_type":"Dedicated","server_os":"Linux","password":true,"vac":true,"version":"7708610","steam_id":85568392925397856,"keywords":["cp","nocrits","nodmgspread","uncletopia"],"game_id":440,"stv_port":27066,"stv_name":"Uncletopia | Warsaw | 6 | Community | STV","players":null}]}