{"status":true,"message":"","result":[{"server_id":9,"name":"Uncletopia | Atlanta | 1 | All Maps","name_short":"atl-1","host":"atl-1.us.uncletopia.com","port":27015,"enabled":true,"region":"us-east","cc":"us","latitude":33.753746,"longitude":-84.38633,"reserved":0,"last_update":"0001-01-01T00:00:00Z","name_a2s":"Uncletopia | Atlanta | 1 | All Maps","protocol":17,"map":"pl_snowycoast","folder":"tf","game":"Team Fortress","app_id":440,"player_count":1,"max_players":24,"Bots":0,"server_type":"Dedicated","server_os":"Linux","password":true,"vac":false,"version":"7742253","steam_id":0,"keywords":["nocrits","nodmgspread","payload","uncletopia"],"game_id":440,"stv_port":27016,"stv_name":"Uncletopia | Atlanta | 1 | All Maps | STV","players":[{"user_id":3,"name":"hi","steam_id":76561199441787165,"connected_time":2000000000,"state":"spawning","ping":76}]},{"server_id":400,"name":"Uncletopia | Atlanta | 3 | Stopwatch Beta","name_short":"atl-3","host":"atl-1.us.uncletopia.com","port":27035,"enabled":true,"region":"us-east","cc":"us","latitude":33.753746,"longitude":-84.38633,"reserved":0,"last_update":"0001-01-01T00:00:00Z","name_a2s":"Uncletopia | Atlanta | 3 | Stopwatch Beta","protocol":17,"map":"cp_metalworks","folder":"tf","game":"Team Fortress","app_id":440,"player_count":15,"max_players":24,"Bots":0,"server_type":"Dedicated","server_os":"Linux","password":true,"vac":true,"version":"7742253","steam_id":85568392924515187,"keywords":["cp","nocrits","nodmgspread","uncletopia"],"game_id":440,"stv_port":27036,"stv_name":"Uncletopia | Atlanta | 3 | Stopwatch Beta | STV","players":[{"user_id":166,"name":"Rawr","steam_id":76561198199946973,"connected_time":304000000000,"state":"active","ping":61},{"user_id":162,"name":"jorjor wells","steam_id":76561199073429082,"connected_time":376000000000,"state":"active","ping":62},{"user_id":168,"name":"Rockgraham101","steam_id":76561198171740458,"connected_time":293000000000,"state":"active","ping":60},{"user_id":163,"name":"James","steam_id":76561198081313916,"connected_time":347000000000,"state":"active","ping":51},{"user_id":47,"name":"Zoombini16","steam_id":76561198324428992,"connected_time":5057000000000,"state":"active","ping":59},{"user_id":167,"name":"MR. MODE","steam_id":76561198046775352,"connected_time":302000000000,"state":"active","ping":104},{"user_id":169,"name":"cheese (?)","steam_id":76561198232500756,"connected_time":180000000000,"state":"active","ping":83},{"user_id":170,"name":"roylando","steam_id":76561198853215040,"connected_time":174000000000,"state":"active","ping":88},{"user_id":171,"name":"Pikapillar","steam_id":76561198343321881,"connected_time":147000000000,"state":"active","ping":88},{"user_id":172,"name":"big sword","steam_id":76561198285264050,"connected_time":104000000000,"state":"active","ping":76},{"user_id":173,"name":"icarly.com","steam_id":76561198157774267,"connected_time":74000000000,"state":"active","ping":98},{"user_id":78,"name":"puppygirl gaming","steam_id":76561198044363630,"connected_time":3391000000000,"state":"active","ping":59},{"user_id":174,"name":"needes0708","steam_id":76561199142075919,"connected_time":71000000000,"state":"active","ping":67},{"user_id":154,"name":"Metal 9","steam_id":76561198178318343,"connected_time":1330000000000,"state":"active","ping":84},{"user_id":111,"name":"Cassini","steam_id":76561198318526294,"connected_time":2753000000000,"state":"active","ping":45}]},{"server_id":401,"name":"Uncletopia | Atlanta | 4 | No Payload","name_short":"atl-4","host":"atl-1.us.uncletopia.com","port":27045,"enabled":true,"region":"us-east","cc":"us","latitude":33.753746,"longitude":-84.38633,"reserved":0,"last_update":"0001-01-01T00:00:00Z","name_a2s":"Uncletopia | Atlanta | 4 | No Payload","protocol":17,"map":"pl_pier","folder":"tf","game":"Team Fortress","app_id":440,"player_count":0,"max_players":24,"Bots":0,"server_type":"Dedicated","server_os":"Linux","password":true,"vac":true,"version":"7723704","steam_id":85568392924515188,"keywords":["nocrits","nodmgspread","payload","uncletopia"],"game_id":440,"stv_port":27046,"stv_name":"Uncletopia | Atlanta | 4 | No Payload | STV","players":null},{"server_id":2,"name":"Uncletopia | Chicago | 1 | All Maps","name_short":"chi-1","host":"chi-1.us.uncletopia.com","port":27015,"enabled":true,"region":"us-central","cc":"us","latitude":41.881832,"longitude":-87.62318,"reserved":0,"last_update":"0001-01-01T00:00:00Z","name_a2s":"Uncletopia | Chicago | 1 | All Maps","protocol":17,"map":"pl_barnblitz","folder":"tf","game":"Team Fortress","app_id":440,"player_count":0,"max_players":24,"Bots":0,"server_type":"Dedicated","server_os":"Linux","password":true,"vac":false,"version":"7742253","steam_id":0,"keywords":["nocrits","nodmgspread","payload","uncletopia"],"game_id":440,"stv_port":27016,"stv_name":"Uncletopia | Chicago | 1 | All Maps | STV","players":null},{"server_id":106,"name":"Uncletopia | Chicago | 2 | All Maps","name_short":"chi-2","host":"chi-1.us.uncletopia.com","port":27025,"enabled":true,"region":"us-central","cc":"us","latitude":41.881832,"longitude":-87.62318,"reserved":0,"last_update":"0001-01-01T00:00:00Z","name_a2s":"Uncletopia | Chicago | 2 | All Maps","protocol":17,"map":"pl_snowycoast","folder":"tf","game":"Team Fortress","app_id":440,"player_count":23,"max_players":24,"Bots":0,"server_type":"Dedicated","server_os":"Linux","password":true,"vac":true,"version":"7742253","steam_id":85568392924469985,"keywords":["nocrits","nodmgspread","payload","uncletopia"],"game_id":440,"stv_port":27026,"stv_name":"Uncletopia | Chicago | 2 | All Maps | STV","players":null},{"server_id":402,"name":"Uncletopia | Chicago | 3 | All Maps","name_short":"chi-3","host":"chi-1.us.uncletopia.com","port":27035,"enabled":true,"region":"us-central","cc":"us","latitude":41.881832,"longitude":-87.62318,"reserved":0,"last_update":"0001-01-01T00:00:00Z","name_a2s":"Uncletopia | Chicago | 3 | All Maps","protocol":17,"map":"koth_viaduct","folder":"tf","game":"Team Fortress","app_id":440,"player_count":24,"max_players":24,"Bots":0,"server_type":"Dedicated","server_os":"Linux","password":true,"vac":true,"version":"7742253","steam_id":85568392924515191,"keywords":["cp","nocrits","nodmgspread","uncletopia"],"game_id":440,"stv_port":27036,"stv_name":"Uncletopia | Chicago | 3 | All Maps | STV","players":null},{"server_id":403,"name":"Uncletopia | Chicago | 4 | All Maps","name_short":"chi-4","host":"chi-1.us.uncletopia.com","port":27045,"enabled":true,"region":"us-central","cc":"us","latitude":41.881832,"longitude":-87.62318,"reserved":0,"last_update":"0001-01-01T00:00:00Z","name_a2s":"Uncletopia | Chicago | 4 | All Maps","protocol":17,"map":"pl_swiftwater_final1","folder":"tf","game":"Team Fortress","app_id":440,"player_count":24,"max_players":24,"Bots":0,"server_type":"Dedicated","server_os":"Linux","password":true,"vac":true,"version":"7742253","steam_id":85568392924515193,"keywords":["nocrits","nodmgspread","payload","uncletopia"],"game_id":440,"stv_port":27046,"stv_name":"Uncletopia | Chicago | 4 | All Maps | STV","players":[{"user_id":325,"name":"OrionKid","steam_id":76561198359094901,"connected_time":1703000000000,"state":"active","ping":78},{"user_id":339,"name":"Spoger296","steam_id":76561198127432955,"connected_time":1266000000000,"state":"active","ping":77},{"user_id":330,"name":"illious","steam_id":76561198169925494,"connected_time":1628000000000,"state":"active","ping":67},{"user_id":324,"name":"TheConchinator","steam_id":76561199388149092,"connected_time":1709000000000,"state":"active","ping":52},{"user_id":326,"name":"Eshie","steam_id":76561197983106498,"connected_time":1687000000000,"state":"active","ping":73},{"user_id":341,"name":"Sevenpickle","steam_id":76561198880608639,"connected_time":1222000000000,"state":"active","ping":77},{"user_id":343,"name":"Planetary","steam_id":76561197989686934,"connected_time":1130000000000,"state":"active","ping":71},{"user_id":329,"name":"cl0useau","steam_id":76561198191050167,"connected_time":1675000000000,"state":"active","ping":78},{"user_id":348,"name":"Cruisin'","steam_id":76561199245457119,"connected_time":816000000000,"state":"active","ping":85},{"user_id":363,"name":"Crazy❀","steam_id":76561198160590966,"connected_time":22000000000,"state":"active","ping":82},{"user_id":334,"name":"LinkFromDaPast","steam_id":76561198211437197,"connected_time":1576000000000,"state":"active","ping":70},{"user_id":345,"name":"KoolBucky","steam_id":76561198147927648,"connected_time":1054000000000,"state":"active","ping":107},{"user_id":346,"name":"GreenField","steam_id":76561198076739426,"connected_time":1051000000000,"state":"active","ping":69},{"user_id":347,"name":"Green Bean Casserole","steam_id":76561199016285746,"connected_time":992000000000,"state":"active","ping":89},{"user_id":349,"name":"Carsen","steam_id":76561198225481404,"connected_time":793000000000,"state":"active","ping":69},{"user_id":355,"name":"Lane","steam_id":76561197965828506,"connected_time":577000000000,"state":"active","ping":32},{"user_id":351,"name":"Txhiggins","steam_id":76561198117531009,"connected_time":717000000000,"state":"active","ping":81},{"user_id":356,"name":"Bas the Fox Commando","steam_id":76561198019488252,"connected_time":565000000000,"state":"active","ping":71},{"user_id":357,"name":"ChebJeb","steam_id":76561198981377081,"connected_time":529000000000,"state":"active","ping":78},{"user_id":354,"name":"Big Tiddy Serperior","steam_id":76561198114808144,"connected_time":655000000000,"state":"active","ping":130},{"user_id":358,"name":"nolife","steam_id":76561198414300607,"connected_time":511000000000,"state":"active","ping":97},{"user_id":359,"name":"Carbon8ed","steam_id":76561198188488341,"connected_time":503000000000,"state":"active","ping":56},{"user_id":362,"name":"Room","steam_id":76561199174579733,"connected_time":275000000000,"state":"active","ping":73},{"user_id":361,"name":"Bobbn","steam_id":76561198876124683,"connected_time":489000000000,"state":"active","ping":63}]},{"server_id":36,"name":"Uncletopia | Chicago | 5 | All Maps","name_short":"chi-5","host":"chi-2.us.uncletopia.com","port":27015,"enabled":true,"region":"us-central","cc":"us","latitude":41.881832,"longitude":-87.62318,"reserved":0,"last_update":"0001-01-01T00:00:00Z","name_a2s":"Uncletopia | Chicago | 5 | All Maps","protocol":17,"map":"pl_upward","folder":"tf","game":"Team Fortress","app_id":440,"player_count":24,"max_players":24,"Bots":0,"server_type":"Dedicated","server_os":"Linux","password":true,"vac":true,"version":"7742253","steam_id":85568392924866362,"keywords":["nocrits","nodmgspread","payload","uncletopia"],"game_id":440,"stv_port":27016,"stv_name":"Uncletopia | Chicago | 5 | All Maps | STV","players":[{"user_id":326,"name":"icecxld⛄","steam_id":76561198079018805,"connected_time":1096000000000,"state":"active","ping":60},{"user_id":327,"name":"esog","steam_id":76561198250069226,"connected_time":1065000000000,"state":"active","ping":64},{"user_id":214,"name":"Merry Matches_","steam_id":76561198048925904,"connected_time":5740000000000,"state":"active","ping":111},{"user_id":323,"name":"i have no items and i must punc","steam_id":76561198167207112,"connected_time":1768000000000,"state":"active","ping":74},{"user_id":334,"name":"bass97","steam_id":76561198849018884,"connected_time":440000000000,"state":"active","ping":66},{"user_id":205,"name":"Infineable","steam_id":76561198358100698,"connected_time":6181000000000,"state":"active","ping":56},{"user_id":275,"name":"Porkchop","steam_id":76561198047654421,"connected_time":2698000000000,"state":"active","ping":86},{"user_id":302,"name":"DukFuq","steam_id":76561199012187689,"connected_time":2108000000000,"state":"active","ping":54},{"user_id":324,"name":"yomommasabitch","steam_id":76561198323217150,"connected_time":1102000000000,"state":"active","ping":60},{"user_id":291,"name":"Furox.","steam_id":76561198103503066,"connected_time":2298000000000,"state":"active","ping":96},{"user_id":325,"name":"TheFlyingTortis","steam_id":76561198071576016,"connected_time":1102000000000,"state":"active","ping":61},{"user_id":227,"name":"Ford Truck Gaming","steam_id":76561199042674833,"connected_time":4943000000000,"state":"active","ping":79},{"user_id":328,"name":"Riske","steam_id":76561198115840568,"connected_time":1062000000000,"state":"active","ping":70},{"user_id":247,"name":"Elias","steam_id":76561198031295139,"connected_time":4042000000000,"state":"active","ping":97},{"user_id":215,"name":"honked off the bobo","steam_id":76561198123287268,"connected_time":5735000000000,"state":"active","ping":45},{"user_id":333,"name":"Exotic","steam_id":76561198094518524,"connected_time":813000000000,"state":"active","ping":40},{"user_id":229,"name":"Money Collector","steam_id":76561198046249467,"connected_time":4860000000000,"state":"active","ping":55},{"user_id":259,"name":"Branos","steam_id":76561198396414319,"connected_time":3092000000000,"state":"active","ping":102},{"user_id":332,"name":"negativity","steam_id":76561199173085825,"connected_time":845000000000,"state":"active","ping":71},{"user_id":330,"name":"Lots0","steam_id":76561198043143145,"connected_time":901000000000,"state":"active","ping":78},{"user_id":299,"name":"Frongus","steam_id":76561197979056451,"connected_time":2240000000000,"state":"active","ping":97},{"user_id":276,"name":"Fumohuxi Viriphyto","steam_id":76561198369395636,"connected_time":2684000000000,"state":"active","ping":89},{"user_id":250,"name":"nucket","steam_id":76561198028658527,"connected_time":3996000000000,"state":"active","ping":107},{"user_id":267,"name":"Stapler","steam_id":76561198099295077,"connected_time":2893000000000,"state":"active","ping":102}]},{"server_id":37,"name":"Uncletopia | Chicago | 6 | All Maps","name_short":"chi-6","host":"chi-2.us.uncletopia.com","port":27025,"enabled":true,"region":"us-central","cc":"us","latitude":41.881832,"longitude":-87.62318,"reserved":0,"last_update":"0001-01-01T00:00:00Z","name_a2s":"Uncletopia | Chicago | 6 | All Maps","protocol":17,"map":"pl_upward","folder":"tf","game":"Team Fortress","app_id":440,"player_count":24,"max_players":24,"Bots":0,"server_type":"Dedicated","server_os":"Linux","password":true,"vac":true,"version":"7742253","steam_id":85568392924866363,"keywords":["nocrits","nodmgspread","payload","uncletopia"],"game_id":440,"stv_port":27026,"stv_name":"Uncletopia | Chicago | 6 | All Maps | STV","players":[{"user_id":327,"name":"Gugomo","steam_id":76561198121428316,"connected_time":443000000000,"state":"active","ping":90},{"user_id":324,"name":"thomasdee725","steam_id":76561199189526173,"connected_time":594000000000,"state":"active","ping":76},{"user_id":298,"name":"JesterJasper","steam_id":76561198025338925,"connected_time":1699000000000,"state":"active","ping":92},{"user_id":275,"name":"Lilac Lulamoon","steam_id":76561198111402757,"connected_time":4309000000000,"state":"active","ping":61},{"user_id":312,"name":"You´re shit.","steam_id":76561198254030118,"connected_time":990000000000,"state":"active","ping":160},{"user_id":268,"name":"Esue Ijae","steam_id":76561199268519057,"connected_time":4874000000000,"state":"active","ping":85},{"user_id":250,"name":"Tako","steam_id":76561199264073138,"connected_time":5659000000000,"state":"active","ping":76},{"user_id":285,"name":"surrender to the void","steam_id":76561198055494039,"connected_time":2892000000000,"state":"active","ping":69},{"user_id":299,"name":"strawberry","steam_id":76561198101926397,"connected_time":1695000000000,"state":"active","ping":53},{"user_id":328,"name":"I.C.","steam_id":76561198049256017,"connected_time":439000000000,"state":"active","ping":79},{"user_id":313,"name":"Nuen","steam_id":76561198936096111,"connected_time":957000000000,"state":"active","ping":58},{"user_id":292,"name":"Average Krunker Player","steam_id":76561199049488718,"connected_time":2123000000000,"state":"active","ping":84},{"user_id":294,"name":"MadeIn2005","steam_id":76561198186929317,"connected_time":1821000000000,"state":"active","ping":94},{"user_id":320,"name":"SWISS!","steam_id":76561198271971252,"connected_time":620000000000,"state":"active","ping":75},{"user_id":330,"name":"Pancreas Enjoyer","steam_id":76561199438598904,"connected_time":319000000000,"state":"active","ping":89},{"user_id":276,"name":"JaegerB4","steam_id":76561199225138429,"connected_time":4230000000000,"state":"active","ping":66},{"user_id":300,"name":"Len","steam_id":76561199141913673,"connected_time":1675000000000,"state":"active","ping":90},{"user_id":331,"name":"frozenwasanokmovie","steam_id":76561198157407952,"connected_time":85000000000,"state":"active","ping":108},{"user_id":316,"name":"ax","steam_id":76561198025011611,"connected_time":937000000000,"state":"active","ping":61},{"user_id":315,"name":"Cleric","steam_id":76561198045887994,"connected_time":938000000000,"state":"active","ping":48},{"user_id":325,"name":"CobKnocker Gaming","steam_id":76561198073559617,"connected_time":584000000000,"state":"active","ping":64},{"user_id":326,"name":"galunga","steam_id":76561198027184320,"connected_time":531000000000,"state":"active","ping":74},{"user_id":317,"name":"That Guy","steam_id":76561197997444126,"connected_time":928000000000,"state":"active","ping":90},{"user_id":318,"name":"MiG-21bis","steam_id":76561198236109724,"connected_time":900000000000,"state":"active","ping":62}]},{"server_id":38,"name":"Uncletopia | Chicago | 7 | Stopwatch Beta","name_short":"chi-7","host":"chi-2.us.uncletopia.com","port":27035,"enabled":true,"region":"us-central","cc":"us","latitude":41.881832,"longitude":-87.62318,"reserved":0,"last_update":"0001-01-01T00:00:00Z","name_a2s":"Uncletopia | Chicago | 7 | Stopwatch Beta","protocol":17,"map":"workshop/koth_bagel_rc5.ugc2514036946","folder":"tf","game":"Team Fortress","app_id":440,"player_count":0,"max_players":24,"Bots":0,"server_type":"Dedicated","server_os":"Linux","password":true,"vac":true,"version":"7742253","steam_id":85568392924866364,"keywords":["cp","nocrits","nodmgspread","uncletopia"],"game_id":440,"stv_port":27036,"stv_name":"Uncletopia | Chicago | 7 | Stopwatch Beta | STV","players":null},{"server_id":39,"name":"Uncletopia | Chicago | 8 | Community","name_short":"chi-8","host":"chi-2.us.uncletopia.com","port":27045,"enabled":true,"region":"us-central","cc":"us","latitude":41.881832,"longitude":-87.62318,"reserved":0,"last_update":"0001-01-01T00:00:00Z","name_a2s":"Uncletopia | Chicago | 8 | Community","protocol":17,"map":"workshop/cp_logjam_rc12.ugc454812035","folder":"tf","game":"Team Fortress","app_id":440,"player_count":0,"max_players":24,"Bots":0,"server_type":"Dedicated","server_os":"Linux","password":true,"vac":true,"version":"7742253","steam_id":85568392924866365,"keywords":["cp","nocrits","nodmgspread","uncletopia"],"game_id":440,"stv_port":27046,"stv_name":"Uncletopia | Chicago | 8 | Community | STV","players":null},{"server_id":8,"name":"Uncletopia | Dallas | 1 | All Maps","name_short":"dal-1","host":"dal-1.us.uncletopia.com","port":27015,"enabled":true,"region":"us-central","cc":"us","latitude":32.779167,"longitude":-96.80889,"reserved":0,"last_update":"0001-01-01T00:00:00Z","name_a2s":"Uncletopia | Dallas | 1 | All Maps","protocol":17,"map":"cp_mountainlab","folder":"tf","game":"Team Fortress","app_id":440,"player_count":23,"max_players":24,"Bots":0,"server_type":"Dedicated","server_os":"Linux","password":true,"vac":true,"version":"7742253","steam_id":85568392924469986,"keywords":["nocrits","nodmgspread","payload","uncletopia"],"game_id":440,"stv_port":27016,"stv_name":"Uncletopia | Dallas | 1 | All Maps | STV","players":[{"user_id":3,"name":"Yukihana","steam_id":76561198348354629,"connected_time":0,"state":"spawning","ping":0}]},{"server_id":108,"name":"Uncletopia | Dallas | 2 | All Maps","name_short":"dal-2","host":"dal-1.us.uncletopia.com","port":27025,"enabled":true,"region":"us-central","cc":"us","latitude":32.779167,"longitude":-96.80889,"reserved":0,"last_update":"0001-01-01T00:00:00Z","name_a2s":"Uncletopia | Dallas | 2 | All Maps","protocol":17,"map":"cp_process_final","folder":"tf","game":"Team Fortress","app_id":440,"player_count":17,"max_players":24,"Bots":0,"server_type":"Dedicated","server_os":"Linux","password":true,"vac":true,"version":"7742253","steam_id":85568392924469988,"keywords":["nocrits","nodmgspread","payload","uncletopia"],"game_id":440,"stv_port":27026,"stv_name":"Uncletopia | Dallas | 2 | All Maps | STV","players":null},{"server_id":5,"name":"Uncletopia | Frankfurt | 1 | All Maps","name_short":"frk-1","host":"frk-1.de.uncletopia.com","port":27015,"enabled":true,"region":"eu","cc":"de","latitude":50.110924,"longitude":8.682127,"reserved":0,"last_update":"0001-01-01T00:00:00Z","name_a2s":"Uncletopia | Frankfurt | 1 | All Maps","protocol":17,"map":"pl_borneo","folder":"tf","game":"Team Fortress","app_id":440,"player_count":0,"max_players":24,"Bots":0,"server_type":"Dedicated","server_os":"Linux","password":true,"vac":false,"version":"7742253","steam_id":0,"keywords":["nocrits","nodmgspread","payload","uncletopia"],"game_id":440,"stv_port":27016,"stv_name":"Uncletopia | Frankfurt | 1 | All Maps | STV","players":null},{"server_id":110,"name":"Uncletopia | Frankfurt | 2 | All Maps","name_short":"frk-2","host":"frk-1.de.uncletopia.com","port":27025,"enabled":true,"region":"eu","cc":"de","latitude":50.110924,"longitude":8.682127,"reserved":0,"last_update":"0001-01-01T00:00:00Z","name_a2s":"Uncletopia | Frankfurt | 2 | All Maps","protocol":17,"map":"pl_swiftwater_final1","folder":"tf","game":"Team Fortress","app_id":440,"player_count":0,"max_players":24,"Bots":0,"server_type":"Dedicated","server_os":"Linux","password":true,"vac":true,"version":"7742253","steam_id":85568392924469990,"keywords":["nocrits","nodmgspread","payload","uncletopia"],"game_id":440,"stv_port":27026,"stv_name":"Uncletopia | Frankfurt | 2 | All Maps | STV","players":null},{"server_id":308,"name":"Uncletopia | Frankfurt | 3 | All Maps","name_short":"frk-3","host":"frk-1.de.uncletopia.com","port":27035,"enabled":true,"region":"eu","cc":"de","latitude":50.110924,"longitude":8.682127,"reserved":0,"last_update":"0001-01-01T00:00:00Z","name_a2s":"Uncletopia | Frankfurt | 3 | All Maps","protocol":17,"map":"pl_borneo","folder":"tf","game":"Team Fortress","app_id":440,"player_count":0,"max_players":24,"Bots":0,"server_type":"Dedicated","server_os":"Linux","password":true,"vac":true,"version":"7742253","steam_id":85568392924504274,"keywords":["nocrits","nodmgspread","payload","uncletopia"],"game_id":440,"stv_port":27036,"stv_name":"Uncletopia | Frankfurt | 3 | All Maps | STV","players":null},{"server_id":309,"name":"Uncletopia | Frankfurt | 4 | All Maps","name_short":"frk-4","host":"frk-1.de.uncletopia.com","port":27045,"enabled":true,"region":"eu","cc":"de","latitude":50.110924,"longitude":8.682127,"reserved":0,"last_update":"0001-01-01T00:00:00Z","name_a2s":"Uncletopia | Frankfurt | 4 | All Maps","protocol":17,"map":"koth_lakeside_final","folder":"tf","game":"Team Fortress","app_id":440,"player_count":0,"max_players":24,"Bots":0,"server_type":"Dedicated","server_os":"Linux","password":true,"vac":true,"version":"7742253","steam_id":85568392924504275,"keywords":["cp","nocrits","nodmgspread","uncletopia"],"game_id":440,"stv_port":27046,"stv_name":"Uncletopia | Frankfurt | 4 | All Maps | STV","players":null},{"server_id":310,"name":"Uncletopia | Frankfurt | 5 | All Maps","name_short":"frk-5","host":"frk-1.de.uncletopia.com","port":27055,"enabled":true,"region":"eu","cc":"de","latitude":50.110924,"longitude":8.682127,"reserved":0,"last_update":"0001-01-01T00:00:00Z","name_a2s":"Uncletopia | Frankfurt | 5 | All Maps","protocol":17,"map":"cp_dustbowl","folder":"tf","game":"Team Fortress","app_id":440,"player_count":0,"max_players":24,"Bots":0,"server_type":"Dedicated","server_os":"Linux","password":true,"vac":true,"version":"7742253","steam_id":85568392924504277,"keywords":["cp","nocrits","nodmgspread","uncletopia"],"game_id":440,"stv_port":27056,"stv_name":"Uncletopia | Frankfurt | 5 | All Maps | STV","players":null},{"server_id":311,"name":"Uncletopia | Frankfurt | 6 | All Maps","name_short":"frk-6","host":"frk-1.de.uncletopia.com","port":27065,"enabled":true,"region":"eu","cc":"de","latitude":50.110924,"longitude":8.682127,"reserved":0,"last_update":"0001-01-01T00:00:00Z","name_a2s":"Uncletopia | Frankfurt | 6 | All Maps","protocol":17,"map":"koth_viaduct","folder":"tf","game":"Team Fortress","app_id":440,"player_count":0,"max_players":24,"Bots":0,"server_type":"Dedicated","server_os":"Linux","password":true,"vac":true,"version":"7742253","steam_id":85568392924504278,"keywords":["cp","nocrits","nodmgspread","uncletopia"],"game_id":440,"stv_port":27066,"stv_name":"Uncletopia | Frankfurt | 6 | All Maps | STV","players":null},{"server_id":23,"name":"Uncletopia | Frankfurt | 7 | Stopwatch Beta","name_short":"frk-7","host":"frk-1.de.uncletopia.com","port":27075,"enabled":true,"region":"eu","cc":"de","latitude":50.110924,"longitude":8.682127,"reserved":0,"last_update":"0001-01-01T00:00:00Z","name_a2s":"Uncletopia | Frankfurt | 7 | Stopwatch Beta","protocol":17,"map":"koth_lakeside_final","folder":"tf","game":"Team Fortress","app_id":440,"player_count":0,"max_players":24,"Bots":0,"server_type":"Dedicated","server_os":"Linux","password":true,"vac":true,"version":"7742253","steam_id":85568392924742827,"keywords":["cp","nocrits","nodmgspread","uncletopia"],"game_id":440,"stv_port":27076,"stv_name":"Uncletopia | Frankfurt | 7 | Stopwatch Beta | STV","players":null},{"server_id":24,"name":"Uncletopia | Frankfurt | 8 | Community","name_short":"frk-8","host":"frk-1.de.uncletopia.com","port":27085,"enabled":true,"region":"eu","cc":"de","latitude":50.110924,"longitude":8.682127,"reserved":0,"last_update":"0001-01-01T00:00:00Z","name_a2s":"Uncletopia | Frankfurt | 8 | Community","protocol":17,"map":"workshop/koth_slaughter_rc1.ugc1712845210","folder":"tf","game":"Team Fortress","app_id":440,"player_count":0,"max_players":24,"Bots":0,"server_type":"Dedicated","server_os":"Linux","password":true,"vac":true,"version":"7742253","steam_id":85568392924742828,"keywords":["cp","nocrits","nodmgspread","uncletopia"],"game_id":440,"stv_port":27086,"stv_name":"Uncletopia | Frankfurt | 8 | Community | STV","players":null},{"server_id":202,"name":"Uncletopia | Hong Kong | 1 | All Maps","name_short":"hgk-1","host":"hgk-1.hk.uncletopia.com","port":27015,"enabled":true,"region":"asia","cc":"hk","latitude":22.302711,"longitude":114.177216,"reserved":0,"last_update":"0001-01-01T00:00:00Z","name_a2s":"Uncletopia | Hong Kong | 1 | All Maps","protocol":17,"map":"pl_upward","folder":"tf","game":"Team Fortress","app_id":440,"player_count":23,"max_players":24,"Bots":0,"server_type":"Dedicated","server_os":"Linux","password":true,"vac":true,"version":"7742253","steam_id":85568392924494504,"keywords":["nocrits","nodmgspread","payload","uncletopia"],"game_id":440,"stv_port":27016,"stv_name":"Uncletopia | Hong Kong | 1 | All Maps | STV","players":[{"user_id":111,"name":"Degenerate With Standards","steam_id":76561199174449723,"connected_time":998000000000,"state":"active","ping":86},{"user_id":13,"name":"3wfFbdrjEze5d2G","steam_id":76561198435900451,"connected_time":6702000000000,"state":"active","ping":69},{"user_id":28,"name":"薄荷猫轰轰","steam_id":76561198094558846,"connected_time":5208000000000,"state":"active","ping":47},{"user_id":61,"name":"Beef Wellington","steam_id":76561197995635241,"connected_time":2480000000000,"state":"active","ping":110},{"user_id":62,"name":"non_4","steam_id":76561198283054036,"connected_time":2173000000000,"state":"active","ping":74},{"user_id":121,"name":"Crit-A-Cola Fan","steam_id":76561198836956034,"connected_time":526000000000,"state":"active","ping":80},{"user_id":140,"name":"Prod.NXSTVL","steam_id":76561198964234253,"connected_time":42000000000,"state":"active","ping":69},{"user_id":58,"name":"lillalune","steam_id":76561198230213828,"connected_time":2821000000000,"state":"active","ping":62},{"user_id":43,"name":"BAKABAZOOKA","steam_id":76561198061628689,"connected_time":3398000000000,"state":"active","ping":51},{"user_id":118,"name":"Steve","steam_id":76561198429235506,"connected_time":729000000000,"state":"active","ping":77},{"user_id":36,"name":"PLAYDOE","steam_id":76561199238874794,"connected_time":4151000000000,"state":"active","ping":74},{"user_id":37,"name":"Degenerate and Deranged","steam_id":76561198403808601,"connected_time":4089000000000,"state":"active","ping":80},{"user_id":114,"name":"XxChildPreDaTORxX","steam_id":76561198320532821,"connected_time":847000000000,"state":"active","ping":78},{"user_id":40,"name":"Milk❤ (most loved guy in ut)","steam_id":76561198163911560,"connected_time":3856000000000,"state":"active","ping":115},{"user_id":126,"name":"sinyeon","steam_id":76561198125363469,"connected_time":390000000000,"state":"active","ping":84},{"user_id":128,"name":"raguspchennai","steam_id":76561199153121364,"connected_time":329000000000,"state":"active","ping":111},{"user_id":136,"name":"ѕησωу-єνєιє","steam_id":76561198334099003,"connected_time":209000000000,"state":"active","ping":143},{"user_id":47,"name":"Nephew Nate","steam_id":76561199137872034,"connected_time":3282000000000,"state":"active","ping":97},{"user_id":65,"name":"unoriginalname42","steam_id":76561199200897735,"connected_time":2013000000000,"state":"active","ping":82},{"user_id":119,"name":"Wakiiiz","steam_id":76561198850134590,"connected_time":714000000000,"state":"active","ping":61},{"user_id":53,"name":"brizzard","steam_id":76561198048438653,"connected_time":2952000000000,"state":"active","ping":51},{"user_id":97,"name":"Windmill","steam_id":76561199230997986,"connected_time":1190000000000,"state":"active","ping":73},{"user_id":106,"name":"JayJ","steam_id":76561198324008555,"connected_time":1085000000000,"state":"active","ping":73}]},{"server_id":1,"name":"Uncletopia | Los Angeles | 1 | All Maps","name_short":"lax-1","host":"lax-1.us.uncletopia.com","port":27015,"enabled":true,"region":"us-west","cc":"us","latitude":33.94279,"longitude":-118.41004,"reserved":0,"last_update":"0001-01-01T00:00:00Z","name_a2s":"Uncletopia | Los Angeles | 1 | All Maps","protocol":17,"map":"plr_hightower","folder":"tf","game":"Team Fortress","app_id":440,"player_count":24,"max_players":24,"Bots":0,"server_type":"Dedicated","server_os":"Linux","password":true,"vac":true,"version":"7742253","steam_id":85568392924469991,"keywords":["nocrits","nodmgspread","payload","uncletopia"],"game_id":440,"stv_port":27016,"stv_name":"Uncletopia | Los Angeles | 1 | All Maps | STV","players":[{"user_id":299,"name":"pencil champion","steam_id":76561198871758639,"connected_time":436000000000,"state":"active","ping":126},{"user_id":276,"name":"I love icecream","steam_id":76561199196017432,"connected_time":1200000000000,"state":"active","ping":56},{"user_id":271,"name":"Spectre","steam_id":76561198025652246,"connected_time":1677000000000,"state":"active","ping":89},{"user_id":285,"name":"kbgolden","steam_id":76561198153190510,"connected_time":857000000000,"state":"active","ping":60},{"user_id":302,"name":"flipcoin","steam_id":76561198041168780,"connected_time":163000000000,"state":"active","ping":194},{"user_id":272,"name":"Jimbobumbag","steam_id":76561198037179391,"connected_time":1673000000000,"state":"active","ping":68},{"user_id":262,"name":"Schnitz","steam_id":76561198265484253,"connected_time":2612000000000,"state":"active","ping":55},{"user_id":279,"name":"BasedGod","steam_id":76561198061177973,"connected_time":1011000000000,"state":"active","ping":58},{"user_id":273,"name":"Muad'dibMcFly (Lon)","steam_id":76561197990183357,"connected_time":1497000000000,"state":"active","ping":69},{"user_id":298,"name":"Bergmann MP18","steam_id":76561198218417512,"connected_time":485000000000,"state":"active","ping":44},{"user_id":251,"name":"Micah","steam_id":76561198006837982,"connected_time":3202000000000,"state":"active","ping":95},{"user_id":282,"name":"c49aa4","steam_id":76561199099537250,"connected_time":879000000000,"state":"active","ping":47},{"user_id":245,"name":"Kylar","steam_id":76561198196979431,"connected_time":3434000000000,"state":"active","ping":47},{"user_id":146,"name":"Genius Meme","steam_id":76561198162911254,"connected_time":12311000000000,"state":"active","ping":85},{"user_id":246,"name":"Sky","steam_id":76561198838397667,"connected_time":3398000000000,"state":"active","ping":104},{"user_id":147,"name":"NGsterson","steam_id":76561198162108154,"connected_time":12307000000000,"state":"active","ping":64},{"user_id":258,"name":"Seriously Bruh","steam_id":76561198070408485,"connected_time":3035000000000,"state":"active","ping":93},{"user_id":247,"name":"fulices","steam_id":76561198420163702,"connected_time":3385000000000,"state":"active","ping":42},{"user_id":301,"name":"victordead121","steam_id":76561199180843121,"connected_time":396000000000,"state":"active","ping":64},{"user_id":286,"name":"saltyJeff","steam_id":76561198058563645,"connected_time":855000000000,"state":"active","ping":48},{"user_id":293,"name":"pathways","steam_id":76561198054832333,"connected_time":645000000000,"state":"active","ping":115},{"user_id":287,"name":"perc 10","steam_id":76561198116471653,"connected_time":844000000000,"state":"active","ping":162},{"user_id":300,"name":"Shineyhiney","steam_id":76561198065777695,"connected_time":417000000000,"state":"active","ping":121},{"user_id":265,"name":"StrikcZ 父","steam_id":76561198976507691,"connected_time":2586000000000,"state":"active","ping":43}]},{"server_id":112,"name":"Uncletopia | Los Angeles | 2 | All Maps","name_short":"lax-2","host":"lax-1.us.uncletopia.com","port":27025,"enabled":true,"region":"us-west","cc":"us","latitude":33.94279,"longitude":-118.41004,"reserved":0,"last_update":"0001-01-01T00:00:00Z","name_a2s":"Uncletopia | Los Angeles | 2 | All Maps","protocol":17,"map":"cp_altitude","folder":"tf","game":"Team Fortress","app_id":440,"player_count":25,"max_players":24,"Bots":0,"server_type":"Dedicated","server_os":"Linux","password":true,"vac":true,"version":"7742253","steam_id":85568392924469992,"keywords":["cp","nocrits","nodmgspread","uncletopia"],"game_id":440,"stv_port":27026,"stv_name":"Uncletopia | Los Angeles | 2 | All Maps | STV","players":[{"user_id":44,"name":"FueledByLazyness","steam_id":76561198214329600,"connected_time":4592000000000,"state":"active","ping":116},{"user_id":167,"name":"SoupDelivery","steam_id":76561198064906818,"connected_time":1154000000000,"state":"active","ping":71},{"user_id":173,"name":"nick jr.","steam_id":76561198888992952,"connected_time":668000000000,"state":"active","ping":111},{"user_id":184,"name":"The Population of Sweden","steam_id":76561198202201644,"connected_time":262000000000,"state":"active","ping":65},{"user_id":185,"name":"Aclexu","steam_id":76561198927090219,"connected_time":247000000000,"state":"active","ping":45},{"user_id":79,"name":"master_minion","steam_id":76561198170693990,"connected_time":3353000000000,"state":"active","ping":56},{"user_id":145,"name":"Dmon","steam_id":76561198032702087,"connected_time":1779000000000,"state":"active","ping":56},{"user_id":45,"name":"IDrinkCoffee","steam_id":76561198196987279,"connected_time":4576000000000,"state":"active","ping":75},{"user_id":46,"name":"Tohru Adachi","steam_id":76561198302118756,"connected_time":4572000000000,"state":"active","ping":53},{"user_id":186,"name":"Logan601 #savetf2","steam_id":76561198263116731,"connected_time":157000000000,"state":"active","ping":53},{"user_id":47,"name":"Mr.Pan","steam_id":76561198069030613,"connected_time":4508000000000,"state":"active","ping":81},{"user_id":162,"name":"the cats name is misty","steam_id":76561198366828434,"connected_time":1448000000000,"state":"active","ping":103},{"user_id":160,"name":"Protoshake","steam_id":76561198840276176,"connected_time":1595000000000,"state":"active","ping":74},{"user_id":50,"name":"zip it gungus","steam_id":76561198077272494,"connected_time":4495000000000,"state":"active","ping":97},{"user_id":121,"name":"MarshallMellows","steam_id":76561198231561020,"connected_time":2162000000000,"state":"active","ping":60},{"user_id":179,"name":"member","steam_id":76561198049238840,"connected_time":438000000000,"state":"active","ping":75},{"user_id":161,"name":"Wind Fucker","steam_id":76561198275362375,"connected_time":1529000000000,"state":"active","ping":57},{"user_id":80,"name":"Cute Gatito","steam_id":76561198351147780,"connected_time":3325000000000,"state":"active","ping":54},{"user_id":192,"name":"the mind goblin","steam_id":76561198238592900,"connected_time":6000000000,"state":"spawning","ping":111},{"user_id":155,"name":"Shark Merchant","steam_id":76561198065037140,"connected_time":1667000000000,"state":"active","ping":90},{"user_id":193,"name":"Froglord","steam_id":76561197995374569,"connected_time":3000000000,"state":"spawning","ping":52},{"user_id":62,"name":"Addy \u003c3","steam_id":76561198045819723,"connected_time":4091000000000,"state":"active","ping":125},{"user_id":165,"name":"anger","steam_id":76561198866873854,"connected_time":1330000000000,"state":"active","ping":58},{"user_id":103,"name":"a chicken","steam_id":76561198313121580,"connected_time":2576000000000,"state":"active","ping":45},{"user_id":172,"name":"Jutsu","steam_id":76561198058671945,"connected_time":940000000000,"state":"active","ping":103}]},{"server_id":324,"name":"Uncletopia | Los Angeles | 3 | All Maps","name_short":"lax-3","host":"lax-1.us.uncletopia.com","port":27035,"enabled":true,"region":"us-west","cc":"us","latitude":33.94279,"longitude":-118.41004,"reserved":0,"last_update":"0001-01-01T00:00:00Z","name_a2s":"Uncletopia | Los Angeles | 3 | All Maps","protocol":17,"map":"koth_highpass","folder":"tf","game":"Team Fortress","app_id":440,"player_count":0,"max_players":24,"Bots":0,"server_type":"Dedicated","server_os":"Linux","password":true,"vac":true,"version":"7742253","steam_id":85568392924510198,"keywords":["cp","nocrits","nodmgspread","uncletopia"],"game_id":440,"stv_port":27036,"stv_name":"Uncletopia | Los Angeles | 3 | All Maps | STV","players":null},{"server_id":25,"name":"Uncletopia | Los Angeles | 4 | Stopwatch Beta","name_short":"lax-4","host":"lax-1.us.uncletopia.com","port":27045,"enabled":true,"region":"us-west","cc":"us","latitude":33.94279,"longitude":-118.41004,"reserved":0,"last_update":"0001-01-01T00:00:00Z","name_a2s":"Uncletopia | Los Angeles | 4 | Stopwatch Beta","protocol":17,"map":"cp_process_final","folder":"tf","game":"Team Fortress","app_id":440,"player_count":0,"max_players":24,"Bots":0,"server_type":"Dedicated","server_os":"Linux","password":true,"vac":true,"version":"7742253","steam_id":85568392924510199,"keywords":["cp","nocrits","nodmgspread","uncletopia"],"game_id":440,"stv_port":27046,"stv_name":"Uncletopia | Los Angeles | 4 | Stopwatch Beta | STV","players":null},{"server_id":11,"name":"Uncletopia | London | 1 | All Maps","name_short":"lon-1","host":"lon-1.uk.uncletopia.com","port":27015,"enabled":true,"region":"eu","cc":"gb","latitude":51.509865,"longitude":-0.118092,"reserved":0,"last_update":"0001-01-01T00:00:00Z","name_a2s":"Uncletopia | London | 1 | All Maps","protocol":17,"map":"cp_altitude","folder":"tf","game":"Team Fortress","app_id":440,"player_count":0,"max_players":24,"Bots":0,"server_type":"Dedicated","server_os":"Linux","password":true,"vac":false,"version":"7742253","steam_id":0,"keywords":["cp","nocrits","nodmgspread","uncletopia"],"game_id":440,"stv_port":27016,"stv_name":"Uncletopia | London | 1 | All Maps | STV","players":null},{"server_id":114,"name":"Uncletopia | London | 2 | All Maps","name_short":"lon-2","host":"lon-1.uk.uncletopia.com","port":27025,"enabled":true,"region":"eu","cc":"gb","latitude":51.509865,"longitude":-0.118092,"reserved":0,"last_update":"0001-01-01T00:00:00Z","name_a2s":"Uncletopia | London | 2 | All Maps","protocol":17,"map":"pl_swiftwater_final1","folder":"tf","game":"Team Fortress","app_id":440,"player_count":0,"max_players":24,"Bots":0,"server_type":"Dedicated","server_os":"Linux","password":true,"vac":true,"version":"7742253","steam_id":85568392924470941,"keywords":["cp","nocrits","nodmgspread","uncletopia"],"game_id":440,"stv_port":27026,"stv_name":"Uncletopia | London | 2 | All Maps | STV","players":null},{"server_id":320,"name":"Uncletopia | London | 3 | All Maps","name_short":"lon-3","host":"lon-1.uk.uncletopia.com","port":27035,"enabled":true,"region":"eu","cc":"gb","latitude":51.509865,"longitude":-0.118092,"reserved":0,"last_update":"0001-01-01T00:00:00Z","name_a2s":"Uncletopia | London | 3 | All Maps","protocol":17,"map":"pl_swiftwater_final1","folder":"tf","game":"Team Fortress","app_id":440,"player_count":0,"max_players":24,"Bots":0,"server_type":"Dedicated","server_os":"Linux","password":true,"vac":true,"version":"7742253","steam_id":85568392924510192,"keywords":["nocrits","nodmgspread","payload","uncletopia"],"game_id":440,"stv_port":27036,"stv_name":"Uncletopia | London | 3 | All Maps | STV","players":null},{"server_id":321,"name":"Uncletopia | London | 4 | All Maps","name_short":"lon-4","host":"lon-1.uk.uncletopia.com","port":27045,"enabled":true,"region":"eu","cc":"gb","latitude":51.509865,"longitude":-0.118092,"reserved":0,"last_update":"0001-01-01T00:00:00Z","name_a2s":"Uncletopia | London | 4 | All Maps","protocol":17,"map":"pl_borneo","folder":"tf","game":"Team Fortress","app_id":440,"player_count":24,"max_players":24,"Bots":0,"server_type":"Dedicated","server_os":"Linux","password":true,"vac":true,"version":"7742253","steam_id":85568392924510193,"keywords":["nocrits","nodmgspread","payload","uncletopia"],"game_id":440,"stv_port":27046,"stv_name":"Uncletopia | London | 4 | All Maps | STV","players":[{"user_id":899,"name":"[CC]Nyafka","steam_id":76561198289878090,"connected_time":1463000000000,"state":"active","ping":134},{"user_id":871,"name":"R A S M U S","steam_id":76561198279799226,"connected_time":3825000000000,"state":"active","ping":67},{"user_id":794,"name":"Luigi Gaming (real and official","steam_id":76561198082502910,"connected_time":9911000000000,"state":"active","ping":62},{"user_id":886,"name":"gory","steam_id":76561199127523368,"connected_time":2664000000000,"state":"active","ping":46},{"user_id":872,"name":"Julez","steam_id":76561198045505082,"connected_time":3824000000000,"state":"active","ping":74},{"user_id":910,"name":"Peepster","steam_id":76561198297854733,"connected_time":467000000000,"state":"active","ping":152},{"user_id":889,"name":"Mulenmul","steam_id":76561199039796992,"connected_time":2430000000000,"state":"active","ping":54},{"user_id":809,"name":"Borat","steam_id":76561198122226417,"connected_time":9063000000000,"state":"active","ping":44},{"user_id":490,"name":"Grey","steam_id":76561198187190267,"connected_time":33152000000000,"state":"active","ping":46},{"user_id":876,"name":"The Minister of Party City","steam_id":76561199219790713,"connected_time":3659000000000,"state":"active","ping":142},{"user_id":904,"name":"Chilchang Billing","steam_id":76561197993300020,"connected_time":1181000000000,"state":"active","ping":75},{"user_id":893,"name":"Lazulura","steam_id":76561198103569919,"connected_time":1856000000000,"state":"active","ping":79},{"user_id":906,"name":"vi","steam_id":76561198303147966,"connected_time":1088000000000,"state":"active","ping":34},{"user_id":900,"name":"Groose","steam_id":76561198261094295,"connected_time":1437000000000,"state":"active","ping":67},{"user_id":835,"name":"Tsuruko","steam_id":76561198063618114,"connected_time":6239000000000,"state":"active","ping":74},{"user_id":907,"name":"K.V. #RemoveRandomCrits","steam_id":76561197994832993,"connected_time":1024000000000,"state":"active","ping":82},{"user_id":836,"name":"Mafour","steam_id":76561197994581337,"connected_time":6235000000000,"state":"active","ping":90},{"user_id":908,"name":"concussion gaming","steam_id":76561198425494530,"connected_time":994000000000,"state":"active","ping":113},{"user_id":913,"name":"ZeritoPower","steam_id":76561198215274576,"connected_time":308000000000,"state":"active","ping":138},{"user_id":894,"name":"SuperBob103","steam_id":76561199175360012,"connected_time":1698000000000,"state":"active","ping":49},{"user_id":887,"name":"hushhx","steam_id":76561198216200092,"connected_time":2511000000000,"state":"active","ping":52},{"user_id":863,"name":"Deva Path","steam_id":76561198085763542,"connected_time":4586000000000,"state":"active","ping":81},{"user_id":912,"name":"SacAlaVista","steam_id":76561198076481725,"connected_time":394000000000,"state":"active","ping":79},{"user_id":903,"name":"TaiDni","steam_id":76561198087750392,"connected_time":1352000000000,"state":"active","ping":55}]},{"server_id":21,"name":"Uncletopia | London | 5 | All Maps","name_short":"lon-5","host":"lon-1.uk.uncletopia.com","port":27055,"enabled":true,"region":"eu","cc":"gb","latitude":51.509865,"longitude":-0.118092,"reserved":0,"last_update":"0001-01-01T00:00:00Z","name_a2s":"Uncletopia | London | 5 | All Maps","protocol":17,"map":"koth_cascade","folder":"tf","game":"Team Fortress","app_id":440,"player_count":0,"max_players":24,"Bots":0,"server_type":"Dedicated","server_os":"Linux","password":true,"vac":true,"version":"7742253","steam_id":85568392924742829,"keywords":["cp","nocrits","nodmgspread","uncletopia"],"game_id":440,"stv_port":27056,"stv_name":"Uncletopia | London | 5 | All Maps | STV","players":null},{"server_id":22,"name":"Uncletopia | London | 6 | All Maps","name_short":"lon-6","host":"lon-1.uk.uncletopia.com","port":27065,"enabled":true,"region":"eu","cc":"gb","latitude":51.509865,"longitude":-0.118092,"reserved":0,"last_update":"0001-01-01T00:00:00Z","name_a2s":"Uncletopia | London | 6 | All Maps","protocol":17,"map":"koth_highpass","folder":"tf","game":"Team Fortress","app_id":440,"player_count":0,"max_players":24,"Bots":0,"server_type":"Dedicated","server_os":"Linux","password":true,"vac":true,"version":"7742253","steam_id":85568392924742830,"keywords":["cp","nocrits","nodmgspread","uncletopia"],"game_id":440,"stv_port":27066,"stv_name":"Uncletopia | London | 6 | All Maps | STV","players":null},{"server_id":40,"name":"Uncletopia | London | 7 | No Payload","name_short":"lon-7","host":"lon-1.uk.uncletopia.com","port":27075,"enabled":true,"region":"eu","cc":"gb","latitude":51.509865,"longitude":-0.118092,"reserved":0,"last_update":"0001-01-01T00:00:00Z","name_a2s":"Uncletopia | London | 7 | No Payload","protocol":17,"map":"plr_hightower","folder":"tf","game":"Team Fortress","app_id":440,"player_count":0,"max_players":24,"Bots":0,"server_type":"Dedicated","server_os":"Linux","password":true,"vac":true,"version":"7742253","steam_id":85568392924964314,"keywords":["nocrits","nodmgspread","payload","uncletopia"],"game_id":440,"stv_port":27076,"stv_name":"Uncletopia | London | 7 | No Payload | STV","players":null},{"server_id":41,"name":"Uncletopia | London | 8 | Community","name_short":"lon-8","host":"lon-1.uk.uncletopia.com","port":27085,"enabled":true,"region":"eu","cc":"gb","latitude":51.509865,"longitude":-0.118092,"reserved":0,"last_update":"0001-01-01T00:00:00Z","name_a2s":"Uncletopia | London | 8 | Community","protocol":17,"map":"workshop/koth_ramjam_v2_b2.ugc2865676487","folder":"tf","game":"Team Fortress","app_id":440,"player_count":0,"max_players":24,"Bots":0,"server_type":"Dedicated","server_os":"Linux","password":true,"vac":true,"version":"7742253","steam_id":85568392924964315,"keywords":["cp","nocrits","nodmgspread","uncletopia"],"game_id":440,"stv_port":27086,"stv_name":"Uncletopia | London | 8 | Community | STV","players":null},{"server_id":300,"name":"Uncletopia | Montréal | 1 | All Maps","name_short":"mtl-1","host":"mtl-1.ca.uncletopia.com","port":27015,"enabled":true,"region":"us-east","cc":"ca","latitude":45.50889,"longitude":-73.56167,"reserved":0,"last_update":"0001-01-01T00:00:00Z","name_a2s":"Uncletopia | Montréal | 1 | All Maps","protocol":17,"map":"cp_snakewater_final1","folder":"tf","game":"Team Fortress","app_id":440,"player_count":0,"max_players":24,"Bots":0,"server_type":"Dedicated","server_os":"Linux","password":true,"vac":false,"version":"7742253","steam_id":0,"keywords":["cp","nocrits","nodmgspread","uncletopia"],"game_id":440,"stv_port":27016,"stv_name":"Uncletopia | Montréal | 1 | All Maps | STV","players":null},{"server_id":301,"name":"Uncletopia | Montréal | 2 | All Maps","name_short":"mtl-2","host":"mtl-1.ca.uncletopia.com","port":27025,"enabled":true,"region":"us-east","cc":"ca","latitude":45.50889,"longitude":-73.56167,"reserved":0,"last_update":"0001-01-01T00:00:00Z","name_a2s":"Uncletopia | Montréal | 2 | All Maps","protocol":17,"map":"koth_highpass","folder":"tf","game":"Team Fortress","app_id":440,"player_count":0,"max_players":24,"Bots":0,"server_type":"Dedicated","server_os":"Linux","password":true,"vac":false,"version":"7742253","steam_id":0,"keywords":["cp","nocrits","nodmgspread","uncletopia"],"game_id":440,"stv_port":27026,"stv_name":"Uncletopia | Montréal | 2 | All Maps | STV","players":null},{"server_id":302,"name":"Uncletopia | Montréal | 3 | All Maps","name_short":"mtl-3","host":"mtl-1.ca.uncletopia.com","port":27035,"enabled":true,"region":"us-east","cc":"ca","latitude":45.50889,"longitude":-73.56167,"reserved":0,"last_update":"0001-01-01T00:00:00Z","name_a2s":"Uncletopia | Montréal | 3 | All Maps","protocol":17,"map":"cp_mountainlab","folder":"tf","game":"Team Fortress","app_id":440,"player_count":0,"max_players":24,"Bots":0,"server_type":"Dedicated","server_os":"Linux","password":true,"vac":false,"version":"7742253","steam_id":0,"keywords":["cp","nocrits","nodmgspread","uncletopia"],"game_id":440,"stv_port":27036,"stv_name":"Uncletopia | Montréal | 3 | All Maps | STV","players":null},{"server_id":303,"name":"Uncletopia | Montréal | 4 | No Payload","name_short":"mtl-4","host":"mtl-1.ca.uncletopia.com","port":27045,"enabled":true,"region":"us-east","cc":"ca","latitude":45.50889,"longitude":-73.56167,"reserved":0,"last_update":"0001-01-01T00:00:00Z","name_a2s":"Uncletopia | Montréal | 4 | No Payload","protocol":17,"map":"cp_snakewater_final1","folder":"tf","game":"Team Fortress","app_id":440,"player_count":0,"max_players":24,"Bots":0,"server_type":"Dedicated","server_os":"Linux","password":true,"vac":true,"version":"7742253","steam_id":85568392924500090,"keywords":["cp","nocrits","nodmgspread","uncletopia"],"game_id":440,"stv_port":27046,"stv_name":"Uncletopia | Montréal | 4 | No Payload | STV","players":null},{"server_id":13,"name":"Uncletopia | New York City | 1 | All Maps","name_short":"nyc-1","host":"nyc-1.us.uncletopia.com","port":27015,"enabled":true,"region":"us-east","cc":"us","latitude":40.73061,"longitude":-73.93524,"reserved":0,"last_update":"0001-01-01T00:00:00Z","name_a2s":"Uncletopia | New York City | 1 | All Maps","protocol":17,"map":"cp_mountainlab","folder":"tf","game":"Team Fortress","app_id":440,"player_count":0,"max_players":24,"Bots":0,"server_type":"Dedicated","server_os":"Linux","password":true,"vac":false,"version":"7742253","steam_id":0,"keywords":["cp","nocrits","nodmgspread","uncletopia"],"game_id":440,"stv_port":27016,"stv_name":"Uncletopia | New York City | 1 | All Maps | STV","players":null},{"server_id":14,"name":"Uncletopia | New York City | 2 | All Maps","name_short":"nyc-2","host":"nyc-1.us.uncletopia.com","port":27025,"enabled":true,"region":"us-east","cc":"us","latitude":40.73061,"longitude":-73.93524,"reserved":0,"last_update":"0001-01-01T00:00:00Z","name_a2s":"Uncletopia | New York City | 2 | All Maps","protocol":17,"map":"cp_altitude","folder":"tf","game":"Team Fortress","app_id":440,"player_count":22,"max_players":24,"Bots":0,"server_type":"Dedicated","server_os":"Linux","password":true,"vac":true,"version":"7742253","steam_id":85568392924469994,"keywords":["cp","nocrits","nodmgspread","uncletopia"],"game_id":440,"stv_port":27026,"stv_name":"Uncletopia | New York City | 2 | All Maps | STV","players":null},{"server_id":15,"name":"Uncletopia | New York City | 3 | Stopwatch Beta","name_short":"nyc-3","host":"nyc-1.us.uncletopia.com","port":27035,"enabled":true,"region":"us-east","cc":"us","latitude":40.73061,"longitude":-73.93524,"reserved":0,"last_update":"0001-01-01T00:00:00Z","name_a2s":"Uncletopia | New York City | 3 | Stopwatch Beta","protocol":17,"map":"pl_pier","folder":"tf","game":"Team Fortress","app_id":440,"player_count":0,"max_players":24,"Bots":0,"server_type":"Dedicated","server_os":"Linux","password":true,"vac":true,"version":"7742253","steam_id":85568392924742820,"keywords":["cp","nocrits","nodmgspread","uncletopia"],"game_id":440,"stv_port":27036,"stv_name":"Uncletopia | New York City | 3 | Stopwatch Beta | STV","players":null},{"server_id":16,"name":"Uncletopia | New York City | 4 | Community","name_short":"nyc-4","host":"nyc-1.us.uncletopia.com","port":27045,"enabled":true,"region":"us-east","cc":"us","latitude":40.73061,"longitude":-73.93524,"reserved":0,"last_update":"0001-01-01T00:00:00Z","name_a2s":"Uncletopia | New York City | 4 | Community","protocol":17,"map":"workshop/rd_asteroid_redux_rc9.ugc2154902912","folder":"tf","game":"Team Fortress","app_id":440,"player_count":0,"max_players":24,"Bots":0,"server_type":"Dedicated","server_os":"Linux","password":true,"vac":true,"version":"7742253","steam_id":85568392924742821,"keywords":["beta","nocrits","nodmgspread","rd","uncletopia"],"game_id":440,"stv_port":27046,"stv_name":"Uncletopia | New York City | 4 | Community | STV","players":null},{"server_id":142,"name":"Uncletopia | São Paulo | 1 | All Maps","name_short":"sao-1","host":"sao-1.br.uncletopia.com","port":27015,"enabled":true,"region":"sa","cc":"br","latitude":-23.533773,"longitude":-46.62529,"reserved":0,"last_update":"0001-01-01T00:00:00Z","name_a2s":"Uncletopia | São Paulo | 1 | All Maps","protocol":17,"map":"cp_dustbowl","folder":"tf","game":"Team Fortress","app_id":440,"player_count":0,"max_players":24,"Bots":0,"server_type":"Dedicated","server_os":"Linux","password":true,"vac":true,"version":"7742253","steam_id":85568392924469996,"keywords":["cp","nocrits","nodmgspread","uncletopia"],"game_id":440,"stv_port":27016,"stv_name":"Uncletopia | São Paulo | 1 | All Maps | STV","players":null},{"server_id":143,"name":"Uncletopia | São Paulo | 2 | All Maps","name_short":"sao-2","host":"sao-2.br.uncletopia.com","port":27015,"enabled":true,"region":"sa","cc":"br","latitude":-23.533773,"longitude":-46.62529,"reserved":0,"last_update":"0001-01-01T00:00:00Z","name_a2s":"Uncletopia | São Paulo | 2 | All Maps","protocol":17,"map":"koth_lakeside_final","folder":"tf","game":"Team Fortress","app_id":440,"player_count":0,"max_players":24,"Bots":0,"server_type":"Dedicated","server_os":"Linux","password":true,"vac":true,"version":"7742253","steam_id":85568392924485349,"keywords":["cp","nocrits","nodmgspread","uncletopia"],"game_id":440,"stv_port":27016,"stv_name":"Uncletopia | São Paulo | 2 | All Maps | STV","players":null},{"server_id":7,"name":"Uncletopia | Seattle | 1 | All Maps","name_short":"sea-1","host":"sea-1.us.uncletopia.com","port":27015,"enabled":true,"region":"us-west","cc":"us","latitude":47.608013,"longitude":-122.33517,"reserved":0,"last_update":"0001-01-01T00:00:00Z","name_a2s":"Uncletopia | Seattle | 1 | All Maps","protocol":17,"map":"pl_thundermountain","folder":"tf","game":"Team Fortress","app_id":440,"player_count":24,"max_players":24,"Bots":0,"server_type":"Dedicated","server_os":"Linux","password":true,"vac":true,"version":"7742253","steam_id":85568392924469997,"keywords":["nocrits","nodmgspread","payload","uncletopia"],"game_id":440,"stv_port":27016,"stv_name":"Uncletopia | Seattle | 1 | All Maps | STV","players":[{"user_id":162,"name":"Archangel","steam_id":76561198843281598,"connected_time":536000000000,"state":"active","ping":98},{"user_id":126,"name":"Mignyanne :3","steam_id":76561198048754056,"connected_time":4232000000000,"state":"active","ping":74},{"user_id":131,"name":"jungus","steam_id":76561198129862008,"connected_time":3171000000000,"state":"active","ping":79},{"user_id":165,"name":"exephur","steam_id":76561198135763234,"connected_time":381000000000,"state":"active","ping":57},{"user_id":142,"name":"Quietsharp","steam_id":76561198277968438,"connected_time":2411000000000,"state":"active","ping":85},{"user_id":148,"name":"zoo-music girl","steam_id":76561198325306660,"connected_time":2067000000000,"state":"active","ping":57},{"user_id":159,"name":"RighteousICE","steam_id":76561198266993942,"connected_time":968000000000,"state":"active","ping":74},{"user_id":157,"name":"bbbbb","steam_id":76561198095480838,"connected_time":1354000000000,"state":"active","ping":46},{"user_id":158,"name":"Asphodel","steam_id":76561198750101819,"connected_time":1319000000000,"state":"active","ping":57},{"user_id":166,"name":"eyepen","steam_id":76561198381154476,"connected_time":258000000000,"state":"active","ping":75},{"user_id":38,"name":"Sniff","steam_id":76561198010270922,"connected_time":10334000000000,"state":"active","ping":43},{"user_id":133,"name":"MCman","steam_id":76561198412110305,"connected_time":2790000000000,"state":"active","ping":78},{"user_id":163,"name":"Mysteryred12","steam_id":76561199206772814,"connected_time":494000000000,"state":"active","ping":58},{"user_id":146,"name":"Drive-By-Fish-Guy","steam_id":76561198105513652,"connected_time":2093000000000,"state":"active","ping":90},{"user_id":164,"name":"Mask7421","steam_id":76561198006208670,"connected_time":493000000000,"state":"active","ping":47},{"user_id":160,"name":"I' eating a sandwich","steam_id":76561198253922494,"connected_time":863000000000,"state":"active","ping":92},{"user_id":132,"name":"BigGoose","steam_id":76561198833281392,"connected_time":2954000000000,"state":"active","ping":96},{"user_id":145,"name":"ButtSnack","steam_id":76561198036173319,"connected_time":2113000000000,"state":"active","ping":64},{"user_id":109,"name":"rat gets the cheese","steam_id":76561198031234032,"connected_time":5239000000000,"state":"active","ping":100},{"user_id":143,"name":"Sagusky","steam_id":76561199020014535,"connected_time":2335000000000,"state":"active","ping":93},{"user_id":147,"name":"Kirbothebrony","steam_id":76561198971911330,"connected_time":2079000000000,"state":"active","ping":119},{"user_id":136,"name":"jiji","steam_id":76561198298140571,"connected_time":2750000000000,"state":"active","ping":83},{"user_id":130,"name":"Korey","steam_id":76561198210734407,"connected_time":3265000000000,"state":"active","ping":116},{"user_id":121,"name":"Aardappel","steam_id":76561198030894676,"connected_time":4477000000000,"state":"active","ping":69}]},{"server_id":119,"name":"Uncletopia | Seattle | 2 | All Maps","name_short":"sea-2","host":"sea-1.us.uncletopia.com","port":27025,"enabled":true,"region":"us-west","cc":"us","latitude":47.608013,"longitude":-122.33517,"reserved":0,"last_update":"0001-01-01T00:00:00Z","name_a2s":"Uncletopia | Seattle | 2 | All Maps","protocol":17,"map":"pl_borneo","folder":"tf","game":"Team Fortress","app_id":440,"player_count":24,"max_players":24,"Bots":0,"server_type":"Dedicated","server_os":"Linux","password":true,"vac":true,"version":"7742253","steam_id":85568392924469998,"keywords":["nocrits","nodmgspread","payload","uncletopia"],"game_id":440,"stv_port":27026,"stv_name":"Uncletopia | Seattle | 2 | All Maps | STV","players":[{"user_id":163,"name":"ORANGE","steam_id":76561198000401769,"connected_time":1307000000000,"state":"active","ping":55},{"user_id":84,"name":"chloé","steam_id":76561198858926895,"connected_time":6938000000000,"state":"active","ping":42},{"user_id":150,"name":"KingTinkerer","steam_id":76561198226856548,"connected_time":1982000000000,"state":"active","ping":72},{"user_id":118,"name":"Ridley","steam_id":76561198846891176,"connected_time":4910000000000,"state":"active","ping":61},{"user_id":161,"name":"BLU3","steam_id":76561198059652670,"connected_time":1313000000000,"state":"active","ping":46},{"user_id":157,"name":"JacenHan","steam_id":76561198077796718,"connected_time":1755000000000,"state":"active","ping":45},{"user_id":175,"name":"B-0-D-I-E ✓","steam_id":76561198079474904,"connected_time":257000000000,"state":"active","ping":60},{"user_id":132,"name":"am","steam_id":76561198345528370,"connected_time":3754000000000,"state":"active","ping":58},{"user_id":154,"name":"MantisTobboggan","steam_id":76561197969447887,"connected_time":1793000000000,"state":"active","ping":62},{"user_id":164,"name":"FiddyFoMike","steam_id":76561198057072581,"connected_time":1258000000000,"state":"active","ping":62},{"user_id":160,"name":"Google","steam_id":76561198857237473,"connected_time":1335000000000,"state":"active","ping":57},{"user_id":151,"name":"Afrosho","steam_id":76561199072657965,"connected_time":1979000000000,"state":"active","ping":50},{"user_id":170,"name":"jawnymac","steam_id":76561198179529599,"connected_time":860000000000,"state":"active","ping":71},{"user_id":172,"name":"demoman","steam_id":76561199389584938,"connected_time":299000000000,"state":"active","ping":45},{"user_id":176,"name":"BlueZy","steam_id":76561198059111030,"connected_time":14000000000,"state":"active","ping":50},{"user_id":166,"name":"FrenchVanilla","steam_id":76561198904686537,"connected_time":1213000000000,"state":"active","ping":70},{"user_id":141,"name":"Stuff Gremlin","steam_id":76561198011675372,"connected_time":2639000000000,"state":"active","ping":64},{"user_id":110,"name":"the dingler man","steam_id":76561199099203623,"connected_time":5776000000000,"state":"active","ping":100},{"user_id":168,"name":"strong and healthy gamer","steam_id":76561198049489349,"connected_time":1089000000000,"state":"active","ping":61},{"user_id":142,"name":"Popeyes Employee","steam_id":76561198157341489,"connected_time":2639000000000,"state":"active","ping":96},{"user_id":149,"name":"Boywithalife49","steam_id":76561199094143409,"connected_time":2141000000000,"state":"active","ping":47},{"user_id":169,"name":"Caramel_Chalice","steam_id":76561198307609692,"connected_time":1053000000000,"state":"active","ping":56},{"user_id":122,"name":"General Fisticuffs","steam_id":76561198255721392,"connected_time":4496000000000,"state":"active","ping":111},{"user_id":159,"name":"weegeebad","steam_id":76561198280841437,"connected_time":1437000000000,"state":"active","ping":111}]},{"server_id":406,"name":"Uncletopia | Seattle | 3 | Stopwatch Beta","name_short":"sea-3","host":"sea-1.us.uncletopia.com","port":27035,"enabled":true,"region":"us-west","cc":"us","latitude":47.608013,"longitude":-122.33517,"reserved":0,"last_update":"0001-01-01T00:00:00Z","name_a2s":"Uncletopia | Seattle | 3 | Stopwatch Beta","protocol":17,"map":"workshop/koth_clearcut_b15.ugc2107050255","folder":"tf","game":"Team Fortress","app_id":440,"player_count":0,"max_players":24,"Bots":0,"server_type":"Dedicated","server_os":"Linux","password":true,"vac":true,"version":"7742253","steam_id":85568392924515217,"keywords":["cp","nocrits","nodmgspread","uncletopia"],"game_id":440,"stv_port":27036,"stv_name":"Uncletopia | Seattle | 3 | Stopwatch Beta | STV","players":null},{"server_id":17,"name":"Uncletopia | San Francisco | 1 | All Maps","name_short":"sfo-1","host":"sfo-1.us.uncletopia.com","port":27015,"enabled":true,"region":"us-west","cc":"us","latitude":37.77397,"longitude":-122.4313,"reserved":0,"last_update":"0001-01-01T00:00:00Z","name_a2s":"Uncletopia | San Francisco | 1 | All Maps","protocol":17,"map":"cp_dustbowl","folder":"tf","game":"Team Fortress","app_id":440,"player_count":21,"max_players":24,"Bots":0,"server_type":"Dedicated","server_os":"Linux","password":true,"vac":true,"version":"7742253","steam_id":85568392924469999,"keywords":["cp","nocrits","nodmgspread","uncletopia"],"game_id":440,"stv_port":27016,"stv_name":"Uncletopia | San Francisco | 1 | All Maps | STV","players":[{"user_id":26,"name":"MisterT","steam_id":76561198079868873,"connected_time":2660000000000,"state":"active","ping":59},{"user_id":27,"name":"IkermlgYT","steam_id":76561199061497635,"connected_time":2652000000000,"state":"active","ping":92},{"user_id":28,"name":"Ediot","steam_id":76561199349494096,"connected_time":2567000000000,"state":"active","ping":135},{"user_id":31,"name":"ChuChu","steam_id":76561199443647976,"connected_time":2485000000000,"state":"active","ping":115},{"user_id":43,"name":"Bongman","steam_id":76561199041948900,"connected_time":387000000000,"state":"active","ping":48},{"user_id":33,"name":"Christmas?!!!!1!11","steam_id":76561199100225735,"connected_time":1724000000000,"state":"active","ping":65},{"user_id":54,"name":"Bit_By_Bit","steam_id":76561199032191609,"connected_time":118000000000,"state":"active","ping":59},{"user_id":35,"name":"casual bongos","steam_id":76561199138160246,"connected_time":881000000000,"state":"active","ping":85},{"user_id":36,"name":"Presto","steam_id":76561198069293923,"connected_time":826000000000,"state":"active","ping":113},{"user_id":55,"name":"Cpt. Bearshark00","steam_id":76561198072528090,"connected_time":86000000000,"state":"active","ping":101},{"user_id":49,"name":"Omega","steam_id":76561198961009900,"connected_time":311000000000,"state":"active","ping":114},{"user_id":50,"name":"The_Pacific_gamer","steam_id":76561198089491446,"connected_time":306000000000,"state":"active","ping":75},{"user_id":56,"name":"Aunty Frazzle","steam_id":76561198145596626,"connected_time":76000000000,"state":"active","ping":54},{"user_id":51,"name":"Reaper","steam_id":76561198435826103,"connected_time":291000000000,"state":"active","ping":91},{"user_id":45,"name":"hoodclips","steam_id":76561198253706796,"connected_time":379000000000,"state":"active","ping":51},{"user_id":52,"name":"carbonated milk","steam_id":76561198089845705,"connected_time":284000000000,"state":"active","ping":61},{"user_id":47,"name":"New Gaming Chair","steam_id":76561198418288939,"connected_time":360000000000,"state":"active","ping":51},{"user_id":48,"name":"Ruby","steam_id":76561198953084101,"connected_time":355000000000,"state":"active","ping":79},{"user_id":53,"name":"nelly modelo","steam_id":76561198044875206,"connected_time":273000000000,"state":"active","ping":60},{"user_id":57,"name":"wallgreens Now With Ketamine","steam_id":76561199006886644,"connected_time":44000000000,"state":"spawning","ping":55},{"user_id":58,"name":"Wormy Getting Coal","steam_id":76561198054539200,"connected_time":15000000000,"state":"active","ping":65}]},{"server_id":18,"name":"Uncletopia | San Francisco | 2 | All Maps","name_short":"sfo-2","host":"sfo-1.us.uncletopia.com","port":27025,"enabled":true,"region":"us-west","cc":"us","latitude":37.77397,"longitude":-122.4313,"reserved":0,"last_update":"0001-01-01T00:00:00Z","name_a2s":"Uncletopia | San Francisco | 2 | All Maps","protocol":17,"map":"koth_cascade","folder":"tf","game":"Team Fortress","app_id":440,"player_count":0,"max_players":24,"Bots":0,"server_type":"Dedicated","server_os":"Linux","password":true,"vac":true,"version":"7742253","steam_id":85568392924470000,"keywords":["cp","nocrits","nodmgspread","uncletopia"],"game_id":440,"stv_port":27026,"stv_name":"Uncletopia | San Francisco | 2 | All Maps | STV","players":null},{"server_id":19,"name":"Uncletopia | San Francisco | 3 | Stopwatch Beta","name_short":"sfo-3","host":"sfo-1.us.uncletopia.com","port":27035,"enabled":true,"region":"us-west","cc":"us","latitude":37.77397,"longitude":-122.4313,"reserved":0,"last_update":"0001-01-01T00:00:00Z","name_a2s":"Uncletopia | San Francisco | 3 | Stopwatch Beta","protocol":17,"map":"cp_snakewater_final1","folder":"tf","game":"Team Fortress","app_id":440,"player_count":2,"max_players":24,"Bots":0,"server_type":"Dedicated","server_os":"Linux","password":true,"vac":true,"version":"7742253","steam_id":85568392924742824,"keywords":["cp","nocrits","nodmgspread","uncletopia"],"game_id":440,"stv_port":27036,"stv_name":"Uncletopia | San Francisco | 3 | Stopwatch Beta | STV","players":[{"user_id":19,"name":"oscarpeachman","steam_id":76561199031631291,"connected_time":1849000000000,"state":"active","ping":182},{"user_id":20,"name":"loganmeyers08","steam_id":76561199243565077,"connected_time":1753000000000,"state":"active","ping":278}]},{"server_id":20,"name":"Uncletopia | San Francisco | 4 | Community","name_short":"sfo-4","host":"sfo-1.us.uncletopia.com","port":27045,"enabled":true,"region":"us-west","cc":"us","latitude":37.77397,"longitude":-122.4313,"reserved":0,"last_update":"0001-01-01T00:00:00Z","name_a2s":"Uncletopia | San Francisco | 4 | Community","protocol":17,"map":"workshop/koth_product_final.ugc454272353","folder":"tf","game":"Team Fortress","app_id":440,"player_count":0,"max_players":24,"Bots":0,"server_type":"Dedicated","server_os":"Linux","password":true,"vac":true,"version":"7742253","steam_id":85568392924742826,"keywords":["cp","nocrits","nodmgspread","uncletopia"],"game_id":440,"stv_port":27046,"stv_name":"Uncletopia | San Francisco | 4 | Community | STV","players":null},{"server_id":141,"name":"Uncletopia | Sydney | 1 | All Maps","name_short":"syd-1","host":"syd-1.au.uncletopia.com","port":27015,"enabled":true,"region":"au","cc":"au","latitude":-33.865143,"longitude":151.2099,"reserved":0,"last_update":"0001-01-01T00:00:00Z","name_a2s":"Uncletopia | Sydney | 1 | All Maps","protocol":17,"map":"cp_dustbowl","folder":"tf","game":"Team Fortress","app_id":440,"player_count":24,"max_players":24,"Bots":0,"server_type":"Dedicated","server_os":"Linux","password":true,"vac":true,"version":"7742253","steam_id":85568392924470001,"keywords":["cp","nocrits","nodmgspread","uncletopia"],"game_id":440,"stv_port":27016,"stv_name":"Uncletopia | Sydney | 1 | All Maps | STV","players":[{"user_id":193,"name":"AIDSTheMonkey","steam_id":76561198299143146,"connected_time":2599000000000,"state":"active","ping":54},{"user_id":208,"name":"J959","steam_id":76561198855585931,"connected_time":1708000000000,"state":"active","ping":50},{"user_id":130,"name":"Pickled Cow","steam_id":76561198292517991,"connected_time":7547000000000,"state":"active","ping":43},{"user_id":225,"name":"bowser","steam_id":76561198271462646,"connected_time":531000000000,"state":"active","ping":44},{"user_id":224,"name":"Bamooxa","steam_id":76561198067160709,"connected_time":535000000000,"state":"active","ping":77},{"user_id":214,"name":"old chunk of coal","steam_id":76561197990537324,"connected_time":1018000000000,"state":"active","ping":111},{"user_id":213,"name":"Riotline","steam_id":76561198068189677,"connected_time":1059000000000,"state":"active","ping":35},{"user_id":194,"name":"Zoey","steam_id":76561198126153554,"connected_time":2583000000000,"state":"active","ping":83},{"user_id":199,"name":"Dr Barry Mundy PhD","steam_id":76561198034512686,"connected_time":2270000000000,"state":"active","ping":39},{"user_id":186,"name":"Turbo_dip","steam_id":76561198446508846,"connected_time":3406000000000,"state":"active","ping":64},{"user_id":221,"name":"Doctor Estonia","steam_id":76561198057365089,"connected_time":754000000000,"state":"active","ping":69},{"user_id":212,"name":"dumbvent","steam_id":76561198190062810,"connected_time":1127000000000,"state":"active","ping":62},{"user_id":176,"name":"lofty","steam_id":76561198380588357,"connected_time":4071000000000,"state":"active","ping":68},{"user_id":177,"name":"whiteshaq","steam_id":76561198131988811,"connected_time":3910000000000,"state":"active","ping":129},{"user_id":215,"name":"Nylk","steam_id":76561198033625169,"connected_time":995000000000,"state":"active","ping":38},{"user_id":217,"name":"Q","steam_id":76561198055600105,"connected_time":914000000000,"state":"active","ping":72},{"user_id":206,"name":"The Sopranos","steam_id":76561198069602169,"connected_time":1962000000000,"state":"active","ping":52},{"user_id":188,"name":"Flakey","steam_id":76561198021618682,"connected_time":3139000000000,"state":"active","ping":57},{"user_id":218,"name":"RBY","steam_id":76561198279663555,"connected_time":890000000000,"state":"active","ping":57},{"user_id":223,"name":"NewChris","steam_id":76561198254754182,"connected_time":683000000000,"state":"active","ping":73},{"user_id":181,"name":"Mr.Deathclaw","steam_id":76561198025419320,"connected_time":3718000000000,"state":"active","ping":46},{"user_id":222,"name":"JumpinDux","steam_id":76561198173610794,"connected_time":739000000000,"state":"active","ping":59},{"user_id":184,"name":"Dr Rags","steam_id":76561198179481430,"connected_time":3645000000000,"state":"active","ping":97},{"user_id":198,"name":"tim88435","steam_id":76561198089653987,"connected_time":2366000000000,"state":"active","ping":42}]},{"server_id":123,"name":"Uncletopia | Sydney | 2 | All Maps","name_short":"syd-2","host":"syd-1.au.uncletopia.com","port":27025,"enabled":true,"region":"au","cc":"au","latitude":-33.865143,"longitude":151.2099,"reserved":0,"last_update":"0001-01-01T00:00:00Z","name_a2s":"Uncletopia | Sydney | 2 | All Maps","protocol":17,"map":"koth_lakeside_final","folder":"tf","game":"Team Fortress","app_id":440,"player_count":4,"max_players":24,"Bots":0,"server_type":"Dedicated","server_os":"Linux","password":true,"vac":true,"version":"7742253","steam_id":85568392924470002,"keywords":["cp","nocrits","nodmgspread","uncletopia"],"game_id":440,"stv_port":27026,"stv_name":"Uncletopia | Sydney | 2 | All Maps | STV","players":[{"user_id":38,"name":"Branko","steam_id":76561199262196710,"connected_time":4365000000000,"state":"active","ping":47},{"user_id":48,"name":"Skyboi","steam_id":76561199017211623,"connected_time":1782000000000,"state":"active","ping":70},{"user_id":52,"name":"R3V","steam_id":76561198807634069,"connected_time":1168000000000,"state":"active","ping":58},{"user_id":61,"name":"Huski","steam_id":76561198108956967,"connected_time":385000000000,"state":"active","ping":61}]},{"server_id":395,"name":"Uncletopia | Sydney | 3 | All Maps","name_short":"syd-3","host":"syd-1.au.uncletopia.com","port":27035,"enabled":true,"region":"au","cc":"au","latitude":-33.865143,"longitude":151.2099,"reserved":0,"last_update":"0001-01-01T00:00:00Z","name_a2s":"Uncletopia | Sydney | 3 | All Maps","protocol":17,"map":"cp_dustbowl","folder":"tf","game":"Team Fortress","app_id":440,"player_count":0,"max_players":24,"Bots":0,"server_type":"Dedicated","server_os":"Linux","password":true,"vac":true,"version":"7742253","steam_id":85568392925194467,"keywords":["cp","nocrits","nodmgspread","uncletopia"],"game_id":440,"stv_port":27036,"stv_name":"Uncletopia | Sydney | 3 | All Maps | STV","players":null},{"server_id":396,"name":"Uncletopia | Sydney | 4 | All Maps","name_short":"syd-4","host":"syd-1.au.uncletopia.com","port":27045,"enabled":true,"region":"au","cc":"au","latitude":-33.865143,"longitude":151.2099,"reserved":0,"last_update":"0001-01-01T00:00:00Z","name_a2s":"Uncletopia | Sydney | 4 | All Maps","protocol":17,"map":"koth_lakeside_final","folder":"tf","game":"Team Fortress","app_id":440,"player_count":0,"max_players":24,"Bots":0,"server_type":"Dedicated","server_os":"Linux","password":true,"vac":true,"version":"7742253","steam_id":85568392925397958,"keywords":["cp","nocrits","nodmgspread","uncletopia"],"game_id":440,"stv_port":27046,"stv_name":"Uncletopia | Sydney | 4 | All Maps | STV","players":null},{"server_id":58,"name":"Uncletopia | Sydney | 5 | Stopwatch Beta","name_short":"syd-5","host":"syd-1.au.uncletopia.com","port":27055,"enabled":true,"region":"au","cc":"au","latitude":-33.865143,"longitude":151.2099,"reserved":0,"last_update":"0001-01-01T00:00:00Z","name_a2s":"Uncletopia | Sydney | 5 | Stopwatch Beta","protocol":17,"map":"cp_snakewater_final1","folder":"tf","game":"Team Fortress","app_id":440,"player_count":0,"max_players":24,"Bots":0,"server_type":"Dedicated","server_os":"Linux","password":true,"vac":true,"version":"7742253","steam_id":85568392925397959,"keywords":["cp","nocrits","nodmgspread","uncletopia"],"game_id":440,"stv_port":27056,"stv_name":"Uncletopia | Sydney | 5 | Stopwatch Beta | STV","players":null},{"server_id":59,"name":"Uncletopia | Sydney | 6 | Community","name_short":"syd-6","host":"syd-1.au.uncletopia.com","port":27065,"enabled":true,"region":"au","cc":"au","latitude":-33.865143,"longitude":151.2099,"reserved":0,"last_update":"0001-01-01T00:00:00Z","name_a2s":"Uncletopia | Sydney | 6 | Community","protocol":17,"map":"cp_snakewater_final1","folder":"tf","game":"Team Fortress","app_id":440,"player_count":0,"max_players":24,"Bots":0,"server_type":"Dedicated","server_os":"Linux","password":true,"vac":true,"version":"7742253","steam_id":85568392925397960,"keywords":["cp","nocrits","nodmgspread","uncletopia"],"game_id":440,"stv_port":27066,"stv_name":"Uncletopia | Sydney | 6 | Community | STV","players":null},{"server_id":49,"name":"Uncletopia | Warsaw | 1 | All Maps","name_short":"waw-1","host":"waw-1.pl.uncletopia.com","port":27015,"enabled":true,"region":"eu","cc":"pl","latitude":52.2297,"longitude":21.017532,"reserved":0,"last_update":"0001-01-01T00:00:00Z","name_a2s":"","protocol":0,"map":"","folder":"","game":"","app_id":0,"player_count":0,"max_players":0,"Bots":0,"server_type":"","server_os":"","password":false,"vac":false,"version":"","steam_id":0,"keywords":null,"game_id":0,"stv_port":0,"stv_name":"","players":null},{"server_id":50,"name":"Uncletopia | Warsaw | 2 | All Maps","name_short":"waw-2","host":"waw-1.pl.uncletopia.com","port":27025,"enabled":true,"region":"eu","cc":"pl","latitude":52.2297,"longitude":21.017532,"reserved":0,"last_update":"0001-01-01T00:00:00Z","name_a2s":"Uncletopia | Warsaw | 2 | All Maps","protocol":17,"map":"pl_upward","folder":"tf","game":"Team Fortress","app_id":440,"player_count":0,"max_players":24,"Bots":0,"server_type":"Dedicated","server_os":"Linux","password":true,"vac":true,"version":"7742253","steam_id":85568392925397851,"keywords":["cp","nocrits","nodmgspread","uncletopia"],"game_id":440,"stv_port":27026,"stv_name":"Uncletopia | Warsaw | 2 | All Maps | STV","players":null},{"server_id":51,"name":"Uncletopia | Warsaw | 3 | All Maps","name_short":"waw-3","host":"waw-1.pl.uncletopia.com","port":27035,"enabled":true,"region":"eu","cc":"pl","latitude":52.2297,"longitude":21.017532,"reserved":0,"last_update":"0001-01-01T00:00:00Z","name_a2s":"Uncletopia | Warsaw | 3 | All Maps","protocol":17,"map":"koth_cascade","folder":"tf","game":"Team Fortress","app_id":440,"player_count":0,"max_players":24,"Bots":0,"server_type":"Dedicated","server_os":"Linux","password":true,"vac":true,"version":"7742253","steam_id":85568392925397852,"keywords":["cp","nocrits","nodmgspread","uncletopia"],"game_id":440,"stv_port":27036,"stv_name":"Uncletopia | Warsaw | 3 | All Maps | STV","players":null},{"server_id":52,"name":"Uncletopia | Warsaw | 4 | All Maps","name_short":"waw-4","host":"waw-1.pl.uncletopia.com","port":27045,"enabled":true,"region":"eu","cc":"pl","latitude":52.2297,"longitude":21.017532,"reserved":0,"last_update":"0001-01-01T00:00:00Z","name_a2s":"Uncletopia | Warsaw | 4 | All Maps","protocol":17,"map":"koth_lakeside_final","folder":"tf","game":"Team Fortress","app_id":440,"player_count":0,"max_players":24,"Bots":0,"server_type":"Dedicated","server_os":"Linux","password":true,"vac":true,"version":"7742253","steam_id":85568392925397853,"keywords":["cp","nocrits","nodmgspread","uncletopia"],"game_id":440,"stv_port":27046,"stv_name":"Uncletopia | Warsaw | 4 | All Maps | STV","players":null},{"server_id":53,"name":"Uncletopia | Warsaw | 5 | Stopwatch Beta","name_short":"waw-5","host":"waw-1.pl.uncletopia.com","port":27055,"enabled":true,"region":"eu","cc":"pl","latitude":52.2297,"longitude":21.017532,"reserved":0,"last_update":"0001-01-01T00:00:00Z","name_a2s":"Uncletopia | Warsaw | 5 | Stopwatch Beta","protocol":17,"map":"pl_pier","folder":"tf","game":"Team Fortress","app_id":440,"player_count":0,"max_players":24,"Bots":0,"server_type":"Dedicated","server_os":"Linux","password":true,"vac":true,"version":"7742253","steam_id":85568392925397854,"keywords":["nocrits","nodmgspread","payload","uncletopia"],"game_id":440,"stv_port":27056,"stv_name":"Uncletopia | Warsaw | 5 | Stopwatch Beta | STV","players":null},{"server_id":54,"name":"Uncletopia | Warsaw | 6 | Community","name_short":"waw-6","host":"waw-1.pl.uncletopia.com","port":27065,"enabled":true,"region":"eu","cc":"pl","latitude":52.2297,"longitude":21.017532,"reserved":0,"last_update":"0001-01-01T00:00:00Z","name_a2s":"Uncletopia | Warsaw | 6 | Community","protocol":17,"map":"workshop/koth_synthetic_rc6a.ugc1549817316","folder":"tf","game":"Team Fortress","app_id":440,"player_count":0,"max_players":24,"Bots":0,"server_type":"Dedicated","server_os":"Linux","password":true,"vac":true,"version":"7742253","steam_id":85568392925397856,"keywords":["cp","nocrits","nodmgspread","uncletopia"],"game_id":440,"stv_port":27066,"stv_name":"Uncletopia | Warsaw | 6 | Community | STV","players":null}]}