{"status":true,"message":"","result":[{"server_id":9,"name":"Uncletopia | Atlanta | 1 | All Maps","name_short":"atl-1","host":"atl-1.us.uncletopia.com","port":27015,"enabled":true,"region":"us-east","cc":"us","latitude":33.753746,"longitude":-84.38633,"reserved":0,"last_update":"0001-01-01T00:00:00Z","name_a2s":"Uncletopia | Atlanta | 1 | All Maps","protocol":17,"map":"pl_barnblitz","folder":"tf","game":"Team Fortress","app_id":440,"player_count":24,"max_players":24,"Bots":0,"server_type":"Dedicated","server_os":"Linux","password":true,"vac":true,"version":"7882260","steam_id":85568392924469982,"keywords":["nocrits","nodmgspread","payload","uncletopia"],"game_id":440,"stv_port":27016,"stv_name":"Uncletopia | Atlanta | 1 | All Maps | STV","players":[{"user_id":80,"name":"Calestine","steam_id":76561197975925227,"connected_time":189000000000,"state":"active","ping":67},{"user_id":67,"name":"jih","steam_id":76561198043499010,"connected_time":986000000000,"state":"active","ping":67},{"user_id":56,"name":"dr peppah chug!","steam_id":76561198068835693,"connected_time":1528000000000,"state":"active","ping":105},{"user_id":68,"name":"anonpain","steam_id":76561198081317092,"connected_time":961000000000,"state":"active","ping":74},{"user_id":23,"name":"tasty","steam_id":76561198083839061,"connected_time":2791000000000,"state":"active","ping":69},{"user_id":71,"name":"HarryjusttHarry","steam_id":76561198982810452,"connected_time":810000000000,"state":"active","ping":77},{"user_id":20,"name":"GaiBerd","steam_id":76561198177100634,"connected_time":3657000000000,"state":"active","ping":57},{"user_id":57,"name":"Pango","steam_id":76561198069811545,"connected_time":1438000000000,"state":"active","ping":45},{"user_id":81,"name":"Benforce010","steam_id":76561199220886530,"connected_time":188000000000,"state":"active","ping":66},{"user_id":60,"name":"Burnt","steam_id":76561198430058031,"connected_time":1344000000000,"state":"active","ping":73},{"user_id":34,"name":"William Wallace","steam_id":76561199343316814,"connected_time":2269000000000,"state":"active","ping":58},{"user_id":72,"name":"kuso","steam_id":76561198060424207,"connected_time":772000000000,"state":"active","ping":145},{"user_id":76,"name":"Just PYE","steam_id":76561199439622967,"connected_time":501000000000,"state":"active","ping":78},{"user_id":77,"name":"Winston","steam_id":76561198050204475,"connected_time":470000000000,"state":"active","ping":51},{"user_id":61,"name":"Waffle Wannabe","steam_id":76561198064510650,"connected_time":1174000000000,"state":"active","ping":52},{"user_id":66,"name":"lil hog","steam_id":76561199230929836,"connected_time":1011000000000,"state":"active","ping":83},{"user_id":52,"name":"nagwagi","steam_id":76561199067925855,"connected_time":1823000000000,"state":"active","ping":80},{"user_id":37,"name":"Mario (roommate arc)","steam_id":76561198123454475,"connected_time":2188000000000,"state":"active","ping":77},{"user_id":73,"name":"Rornir","steam_id":76561198081829615,"connected_time":611000000000,"state":"active","ping":59},{"user_id":75,"name":"BIG HOG","steam_id":76561198079923652,"connected_time":524000000000,"state":"active","ping":62},{"user_id":82,"name":"mayhem","steam_id":76561199246637881,"connected_time":174000000000,"state":"active","ping":60},{"user_id":44,"name":"ATL1 | wire-guided","steam_id":76561198055407168,"connected_time":2078000000000,"state":"active","ping":51},{"user_id":83,"name":"DuckMann","steam_id":76561198197058638,"connected_time":167000000000,"state":"active","ping":48},{"user_id":54,"name":"VixianUwU","steam_id":76561198948815060,"connected_time":1713000000000,"state":"active","ping":97}]},{"server_id":104,"name":"Uncletopia | Atlanta | 2 | All Maps","name_short":"atl-2","host":"atl-1.us.uncletopia.com","port":27025,"enabled":true,"region":"us-east","cc":"us","latitude":33.753746,"longitude":-84.38633,"reserved":0,"last_update":"0001-01-01T00:00:00Z","name_a2s":"Uncletopia | Atlanta | 2 | All Maps","protocol":17,"map":"pl_frontier_final","folder":"tf","game":"Team Fortress","app_id":440,"player_count":0,"max_players":24,"Bots":0,"server_type":"Dedicated","server_os":"Linux","password":true,"vac":true,"version":"7882260","steam_id":85568392924469983,"keywords":["nocrits","nodmgspread","payload","uncletopia"],"game_id":440,"stv_port":27026,"stv_name":"Uncletopia | Atlanta | 2 | All Maps | STV","players":null},{"server_id":400,"name":"Uncletopia | Atlanta | 3 | Community","name_short":"atl-3","host":"atl-1.us.uncletopia.com","port":27035,"enabled":true,"region":"us-east","cc":"us","latitude":33.753746,"longitude":-84.38633,"reserved":0,"last_update":"0001-01-01T00:00:00Z","name_a2s":"Uncletopia | Atlanta | 3 | Community","protocol":17,"map":"workshop/pl_vigil_rc9.ugc1266210012","folder":"tf","game":"Team Fortress","app_id":440,"player_count":0,"max_players":24,"Bots":0,"server_type":"Dedicated","server_os":"Linux","password":true,"vac":true,"version":"7882260","steam_id":85568392924515187,"keywords":["nocrits","nodmgspread","payload","uncletopia"],"game_id":440,"stv_port":27036,"stv_name":"Uncletopia | Atlanta | 3 | Community | STV","players":null},{"server_id":401,"name":"Uncletopia | Atlanta | 4 | No Payload","name_short":"atl-4","host":"atl-1.us.uncletopia.com","port":27045,"enabled":true,"region":"us-east","cc":"us","latitude":33.753746,"longitude":-84.38633,"reserved":0,"last_update":"0001-01-01T00:00:00Z","name_a2s":"","protocol":0,"map":"","folder":"","game":"","app_id":0,"player_count":0,"max_players":0,"Bots":0,"server_type":"","server_os":"","password":false,"vac":false,"version":"","steam_id":0,"keywords":null,"game_id":0,"stv_port":0,"stv_name":"","players":null},{"server_id":2,"name":"Uncletopia | Chicago | 1 | All Maps","name_short":"chi-1","host":"chi-1.us.uncletopia.com","port":27015,"enabled":true,"region":"us-central","cc":"us","latitude":41.881832,"longitude":-87.62318,"reserved":0,"last_update":"0001-01-01T00:00:00Z","name_a2s":"Uncletopia | Chicago | 1 | All Maps","protocol":17,"map":"cp_process_final","folder":"tf","game":"Team Fortress","app_id":440,"player_count":24,"max_players":24,"Bots":0,"server_type":"Dedicated","server_os":"Linux","password":true,"vac":true,"version":"7882260","steam_id":85568392924469984,"keywords":["cp","nocrits","nodmgspread","uncletopia"],"game_id":440,"stv_port":27016,"stv_name":"Uncletopia | Chicago | 1 | All Maps | STV","players":[{"user_id":231,"name":"Notsocreative","steam_id":76561198236372202,"connected_time":737000000000,"state":"active","ping":77},{"user_id":238,"name":"nurp","steam_id":76561198071687616,"connected_time":337000000000,"state":"active","ping":61},{"user_id":181,"name":"MellowBoy-2354","steam_id":76561199080630632,"connected_time":3702000000000,"state":"active","ping":93},{"user_id":227,"name":"neet","steam_id":76561197968115168,"connected_time":1091000000000,"state":"active","ping":59},{"user_id":232,"name":"Maverick","steam_id":76561198322829814,"connected_time":547000000000,"state":"active","ping":82},{"user_id":163,"name":"PunyHappyFace","steam_id":76561198118059305,"connected_time":4821000000000,"state":"active","ping":85},{"user_id":233,"name":"enty","steam_id":76561199076171301,"connected_time":479000000000,"state":"active","ping":71},{"user_id":234,"name":"Joobathan","steam_id":76561198077576449,"connected_time":465000000000,"state":"active","ping":104},{"user_id":229,"name":"Sandman","steam_id":76561199046497884,"connected_time":830000000000,"state":"active","ping":66},{"user_id":212,"name":"Rya‚ò∫","steam_id":76561198370128860,"connected_time":2156000000000,"state":"active","ping":74},{"user_id":235,"name":"Protato","steam_id":76561198061182563,"connected_time":444000000000,"state":"active","ping":72},{"user_id":225,"name":"Dabicus Vile","steam_id":76561198272413758,"connected_time":1324000000000,"state":"active","ping":53},{"user_id":171,"name":"vv","steam_id":76561198134813102,"connected_time":4358000000000,"state":"active","ping":60},{"user_id":236,"name":"Smuckers Jelly","steam_id":76561198066114874,"connected_time":437000000000,"state":"active","ping":105},{"user_id":198,"name":"Dr.BiohunterPHD","steam_id":76561198047023365,"connected_time":2996000000000,"state":"active","ping":92},{"user_id":195,"name":"Lucerne‚òÖFlower","steam_id":76561198264105406,"connected_time":3389000000000,"state":"active","ping":164},{"user_id":237,"name":"portal enjoyer","steam_id":76561199230796521,"connected_time":407000000000,"state":"active","ping":82},{"user_id":179,"name":"itshuredoes","steam_id":76561199094108419,"connected_time":3807000000000,"state":"active","ping":67},{"user_id":239,"name":"NFLDURAGCOLLECTOR@Yahoo.com","steam_id":76561199006798410,"connected_time":329000000000,"state":"active","ping":76},{"user_id":226,"name":"pumpernickelpeter47","steam_id":76561198202016334,"connected_time":1117000000000,"state":"active","ping":69},{"user_id":240,"name":"Craig Isonychia","steam_id":76561198272013678,"connected_time":93000000000,"state":"active","ping":77},{"user_id":216,"name":"[BBW] Justario","steam_id":76561198016095410,"connected_time":2087000000000,"state":"active","ping":60},{"user_id":224,"name":"Ripheart","steam_id":76561198089661561,"connected_time":1356000000000,"state":"active","ping":50},{"user_id":222,"name":"JD","steam_id":76561198202669250,"connected_time":1627000000000,"state":"active","ping":66}]},{"server_id":106,"name":"Uncletopia | Chicago | 2 | All Maps","name_short":"chi-2","host":"chi-1.us.uncletopia.com","port":27025,"enabled":true,"region":"us-central","cc":"us","latitude":41.881832,"longitude":-87.62318,"reserved":0,"last_update":"0001-01-01T00:00:00Z","name_a2s":"Uncletopia | Chicago | 2 | All Maps","protocol":17,"map":"koth_harvest_final","folder":"tf","game":"Team Fortress","app_id":440,"player_count":21,"max_players":24,"Bots":0,"server_type":"Dedicated","server_os":"Linux","password":true,"vac":true,"version":"7882260","steam_id":85568392924469985,"keywords":["cp","nocrits","nodmgspread","uncletopia"],"game_id":440,"stv_port":27026,"stv_name":"Uncletopia | Chicago | 2 | All Maps | STV","players":[{"user_id":148,"name":"richarven","steam_id":76561198189429665,"connected_time":142000000000,"state":"active","ping":61},{"user_id":129,"name":"bape","steam_id":76561198253731826,"connected_time":1372000000000,"state":"active","ping":58},{"user_id":57,"name":"¬øskitt1eS?","steam_id":76561198330093211,"connected_time":7180000000000,"state":"active","ping":61},{"user_id":138,"name":"Dr. Robotniks Mean Bean Machine","steam_id":76561198047980627,"connected_time":1175000000000,"state":"active","ping":54},{"user_id":82,"name":"Totally not CIA","steam_id":76561198237827742,"connected_time":5051000000000,"state":"active","ping":60},{"user_id":96,"name":"Chiki","steam_id":76561198063590320,"connected_time":3728000000000,"state":"active","ping":67},{"user_id":132,"name":"Weerk","steam_id":76561199209543551,"connected_time":1339000000000,"state":"active","ping":86},{"user_id":107,"name":"Goose of Wisdom","steam_id":76561198233465044,"connected_time":3258000000000,"state":"active","ping":69},{"user_id":139,"name":"Charlie","steam_id":76561198798127908,"connected_time":917000000000,"state":"active","ping":63},{"user_id":14,"name":"motherfucker 2.0","steam_id":76561198141189209,"connected_time":9849000000000,"state":"active","ping":60},{"user_id":111,"name":"serendipity","steam_id":76561198095087127,"connected_time":3072000000000,"state":"active","ping":57},{"user_id":143,"name":"soltuno","steam_id":76561198074430565,"connected_time":465000000000,"state":"active","ping":111},{"user_id":140,"name":"selarom | trade.tf |","steam_id":76561199069219350,"connected_time":857000000000,"state":"active","ping":61},{"user_id":146,"name":"lex.","steam_id":76561198139530449,"connected_time":389000000000,"state":"active","ping":73},{"user_id":134,"name":"Forehead","steam_id":76561198124151399,"connected_time":1295000000000,"state":"active","ping":64},{"user_id":135,"name":"Caoticaos","steam_id":76561198114800227,"connected_time":1293000000000,"state":"active","ping":131},{"user_id":105,"name":"gamerlegend47","steam_id":76561198122776598,"connected_time":3371000000000,"state":"active","ping":71},{"user_id":142,"name":"GreemBeans","steam_id":76561198069648014,"connected_time":725000000000,"state":"active","ping":73},{"user_id":124,"name":"yellow ·óúÀ¨·óú","steam_id":76561198366474647,"connected_time":1882000000000,"state":"active","ping":104},{"user_id":112,"name":"chaffy","steam_id":76561198021754567,"connected_time":3048000000000,"state":"active","ping":47},{"user_id":33,"name":"Alecto","steam_id":76561198042476864,"connected_time":9481000000000,"state":"active","ping":45}]},{"server_id":402,"name":"Uncletopia | Chicago | 3 | All Maps","name_short":"chi-3","host":"chi-1.us.uncletopia.com","port":27035,"enabled":true,"region":"us-central","cc":"us","latitude":41.881832,"longitude":-87.62318,"reserved":0,"last_update":"0001-01-01T00:00:00Z","name_a2s":"Uncletopia | Chicago | 3 | All Maps","protocol":17,"map":"cp_gorge","folder":"tf","game":"Team Fortress","app_id":440,"player_count":24,"max_players":24,"Bots":0,"server_type":"Dedicated","server_os":"Linux","password":true,"vac":true,"version":"7882260","steam_id":85568392924515191,"keywords":["cp","nocrits","nodmgspread","uncletopia"],"game_id":440,"stv_port":27036,"stv_name":"Uncletopia | Chicago | 3 | All Maps | STV","players":[{"user_id":240,"name":"AshMouse","steam_id":76561198151145819,"connected_time":1078000000000,"state":"active","ping":71},{"user_id":247,"name":"GameboyAdvancedSPMobileHotspot","steam_id":76561198413739460,"connected_time":251000000000,"state":"active","ping":107},{"user_id":245,"name":"All 24 Pok√©mon movies at once","steam_id":76561198164738311,"connected_time":299000000000,"state":"active","ping":69},{"user_id":251,"name":"Lepa Radiƒá","steam_id":76561198014698593,"connected_time":199000000000,"state":"active","ping":105},{"user_id":241,"name":"The one Jubilee fan out there","steam_id":76561198256886614,"connected_time":1066000000000,"state":"active","ping":114},{"user_id":221,"name":"bajahero2","steam_id":76561198800900582,"connected_time":2575000000000,"state":"active","ping":87},{"user_id":227,"name":"Salty","steam_id":76561198019195732,"connected_time":1981000000000,"state":"active","ping":61},{"user_id":207,"name":"luki*","steam_id":76561198356797796,"connected_time":3061000000000,"state":"active","ping":176},{"user_id":243,"name":"Rein [‚áÑ]","steam_id":76561198300340427,"connected_time":576000000000,"state":"active","ping":60},{"user_id":163,"name":"Praise Hero","steam_id":76561198071362210,"connected_time":6343000000000,"state":"active","ping":66},{"user_id":242,"name":"[GL] Lord Stolas","steam_id":76561199228319575,"connected_time":1049000000000,"state":"active","ping":96},{"user_id":237,"name":"Simply-Vincenzo","steam_id":76561198044580842,"connected_time":1233000000000,"state":"active","ping":127},{"user_id":211,"name":"Zixzs","steam_id":76561198055504126,"connected_time":2918000000000,"state":"active","ping":62},{"user_id":246,"name":"Ockulus","steam_id":76561199069638460,"connected_time":299000000000,"state":"active","ping":105},{"user_id":225,"name":"Solstrom","steam_id":76561198313364985,"connected_time":2289000000000,"state":"active","ping":74},{"user_id":249,"name":"Andy the Hoff","steam_id":76561198043115724,"connected_time":231000000000,"state":"active","ping":89},{"user_id":250,"name":"sunny","steam_id":76561198069380992,"connected_time":204000000000,"state":"active","ping":81},{"user_id":252,"name":"I AM Malik","steam_id":76561198322021485,"connected_time":159000000000,"state":"active","ping":60},{"user_id":244,"name":"Try Gardening","steam_id":76561198120311340,"connected_time":529000000000,"state":"active","ping":48},{"user_id":253,"name":"TurtledoveJones","steam_id":76561198010200051,"connected_time":156000000000,"state":"active","ping":48},{"user_id":228,"name":"Racoon.zip","steam_id":76561199023759321,"connected_time":1892000000000,"state":"active","ping":82},{"user_id":226,"name":"pafijohn","steam_id":76561198002535190,"connected_time":2263000000000,"state":"active","ping":92},{"user_id":254,"name":"Big Sauce","steam_id":76561198046654750,"connected_time":149000000000,"state":"active","ping":71},{"user_id":220,"name":"Dice","steam_id":76561198079180538,"connected_time":2664000000000,"state":"active","ping":89}]},{"server_id":403,"name":"Uncletopia | Chicago | 4 | All Maps","name_short":"chi-4","host":"chi-1.us.uncletopia.com","port":27045,"enabled":true,"region":"us-central","cc":"us","latitude":41.881832,"longitude":-87.62318,"reserved":0,"last_update":"0001-01-01T00:00:00Z","name_a2s":"Uncletopia | Chicago | 4 | All Maps","protocol":17,"map":"cp_dustbowl","folder":"tf","game":"Team Fortress","app_id":440,"player_count":0,"max_players":24,"Bots":0,"server_type":"Dedicated","server_os":"Linux","password":true,"vac":true,"version":"7882260","steam_id":85568392924515193,"keywords":["cp","nocrits","nodmgspread","uncletopia"],"game_id":440,"stv_port":27046,"stv_name":"Uncletopia | Chicago | 4 | All Maps | STV","players":null},{"server_id":36,"name":"Uncletopia | Chicago | 5 | All Maps","name_short":"chi-5","host":"chi-2.us.uncletopia.com","port":27015,"enabled":true,"region":"us-central","cc":"us","latitude":41.881832,"longitude":-87.62318,"reserved":0,"last_update":"0001-01-01T00:00:00Z","name_a2s":"Uncletopia | Chicago | 5 | All Maps","protocol":17,"map":"cp_dustbowl","folder":"tf","game":"Team Fortress","app_id":440,"player_count":0,"max_players":24,"Bots":0,"server_type":"Dedicated","server_os":"Linux","password":true,"vac":true,"version":"7882260","steam_id":85568392924866362,"keywords":["cp","nocrits","nodmgspread","uncletopia"],"game_id":440,"stv_port":27016,"stv_name":"Uncletopia | Chicago | 5 | All Maps | STV","players":null},{"server_id":37,"name":"Uncletopia | Chicago | 6 | All Maps","name_short":"chi-6","host":"chi-2.us.uncletopia.com","port":27025,"enabled":true,"region":"us-central","cc":"us","latitude":41.881832,"longitude":-87.62318,"reserved":0,"last_update":"0001-01-01T00:00:00Z","name_a2s":"Uncletopia | Chicago | 6 | All Maps","protocol":17,"map":"pl_barnblitz","folder":"tf","game":"Team Fortress","app_id":440,"player_count":20,"max_players":24,"Bots":0,"server_type":"Dedicated","server_os":"Linux","password":true,"vac":true,"version":"7882260","steam_id":85568392924866363,"keywords":["nocrits","nodmgspread","payload","uncletopia"],"game_id":440,"stv_port":27026,"stv_name":"Uncletopia | Chicago | 6 | All Maps | STV","players":[{"user_id":253,"name":"bruh","steam_id":76561199185078229,"connected_time":3963000000000,"state":"active","ping":61},{"user_id":257,"name":"K O I S H I V I B E [F2P]","steam_id":76561198418070607,"connected_time":3695000000000,"state":"active","ping":90},{"user_id":254,"name":"sassy loli","steam_id":76561198402316065,"connected_time":3910000000000,"state":"active","ping":90},{"user_id":305,"name":"katryna","steam_id":76561198023440304,"connected_time":540000000000,"state":"active","ping":46},{"user_id":301,"name":"LIFE","steam_id":76561198027146328,"connected_time":592000000000,"state":"active","ping":40},{"user_id":300,"name":"Soju","steam_id":76561198044130442,"connected_time":633000000000,"state":"active","ping":76},{"user_id":312,"name":"Robo Boss","steam_id":76561199067098696,"connected_time":285000000000,"state":"active","ping":125},{"user_id":292,"name":"twizted","steam_id":76561197960407274,"connected_time":1932000000000,"state":"active","ping":80},{"user_id":303,"name":"AlphaShire","steam_id":76561198170856046,"connected_time":547000000000,"state":"active","ping":81},{"user_id":313,"name":"Kzjytsugn","steam_id":76561198130241974,"connected_time":175000000000,"state":"active","ping":79},{"user_id":270,"name":"Penis Contortionist","steam_id":76561198073663784,"connected_time":2800000000000,"state":"active","ping":132},{"user_id":309,"name":"dave","steam_id":76561198944952153,"connected_time":441000000000,"state":"active","ping":49},{"user_id":314,"name":"‚ô• kiss me ‚ô•","steam_id":76561198014557455,"connected_time":171000000000,"state":"active","ping":52},{"user_id":304,"name":"Mighty","steam_id":76561198080590248,"connected_time":544000000000,"state":"active","ping":47},{"user_id":315,"name":"CyberZayne","steam_id":76561198002351356,"connected_time":162000000000,"state":"active","ping":94},{"user_id":285,"name":"Sage","steam_id":76561198143101697,"connected_time":2231000000000,"state":"active","ping":107},{"user_id":317,"name":"Pigeon Hunter","steam_id":76561198102176850,"connected_time":55000000000,"state":"active","ping":88},{"user_id":293,"name":"(Parentheses)","steam_id":76561198069735882,"connected_time":1636000000000,"state":"active","ping":67},{"user_id":288,"name":"Dr. Chad Feelgood","steam_id":76561198454077219,"connected_time":2119000000000,"state":"active","ping":61},{"user_id":316,"name":"Chypp","steam_id":76561198134090388,"connected_time":133000000000,"state":"active","ping":71}]},{"server_id":38,"name":"Uncletopia | Chicago | 7 | Stopwatch Beta","name_short":"chi-7","host":"chi-2.us.uncletopia.com","port":27035,"enabled":true,"region":"us-central","cc":"us","latitude":41.881832,"longitude":-87.62318,"reserved":0,"last_update":"0001-01-01T00:00:00Z","name_a2s":"Uncletopia | Chicago | 7 | Stopwatch Beta","protocol":17,"map":"workshop/koth_product_final.ugc454272353","folder":"tf","game":"Team Fortress","app_id":440,"player_count":21,"max_players":24,"Bots":0,"server_type":"Dedicated","server_os":"Linux","password":true,"vac":true,"version":"7882260","steam_id":85568392924866364,"keywords":["cp","nocrits","nodmgspread","uncletopia"],"game_id":440,"stv_port":27036,"stv_name":"Uncletopia | Chicago | 7 | Stopwatch Beta | STV","players":[{"user_id":24,"name":"Fireborou","steam_id":76561198329636258,"connected_time":1058000000000,"state":"active","ping":86},{"user_id":41,"name":"n8thegr83008","steam_id":76561198214814260,"connected_time":200000000000,"state":"active","ping":75},{"user_id":8,"name":"pizza patrol","steam_id":76561199238923581,"connected_time":2883000000000,"state":"active","ping":126},{"user_id":9,"name":"Hope","steam_id":76561199201900779,"connected_time":1775000000000,"state":"active","ping":78},{"user_id":20,"name":"Cherry Bomb!","steam_id":76561198017947020,"connected_time":1144000000000,"state":"active","ping":61},{"user_id":25,"name":"J_zar","steam_id":76561198995390104,"connected_time":1044000000000,"state":"active","ping":173},{"user_id":12,"name":"sandvich dealer","steam_id":76561199277336645,"connected_time":1735000000000,"state":"active","ping":87},{"user_id":14,"name":"The Chicken Hunter","steam_id":76561198015240136,"connected_time":1681000000000,"state":"active","ping":80},{"user_id":21,"name":"Glub Tubbus Wepple","steam_id":76561198164401669,"connected_time":1106000000000,"state":"active","ping":61},{"user_id":22,"name":"eclipseDemise","steam_id":76561198317900751,"connected_time":1090000000000,"state":"active","ping":69},{"user_id":23,"name":"Kasodani Kyouko","steam_id":76561198023178589,"connected_time":1074000000000,"state":"active","ping":85},{"user_id":29,"name":"chronos","steam_id":76561199077776159,"connected_time":971000000000,"state":"active","ping":191},{"user_id":30,"name":"eryn üó∫","steam_id":76561198004433070,"connected_time":691000000000,"state":"active","ping":79},{"user_id":35,"name":"Evandale","steam_id":76561198136175924,"connected_time":584000000000,"state":"active","ping":71},{"user_id":32,"name":"Saul Goodman Gaming","steam_id":76561199070127471,"connected_time":655000000000,"state":"active","ping":63},{"user_id":34,"name":"Supreme Leader Gnomedolf Slonke","steam_id":76561198310594866,"connected_time":630000000000,"state":"active","ping":81},{"user_id":38,"name":"Centipede on a Game Boy","steam_id":76561199016285746,"connected_time":234000000000,"state":"active","ping":86},{"user_id":37,"name":"üÖúüÖîüÖîüÖöüÖ¢üÖ£üÖî\ufffd\ufffd\ufffd","steam_id":76561197999748343,"connected_time":421000000000,"state":"active","ping":69},{"user_id":39,"name":"bencw2020","steam_id":76561199444758049,"connected_time":226000000000,"state":"active","ping":119},{"user_id":40,"name":"Sea raider","steam_id":76561198123982355,"connected_time":216000000000,"state":"active","ping":106},{"user_id":42,"name":"evilstuntman","steam_id":76561198056911537,"connected_time":181000000000,"state":"active","ping":60}]},{"server_id":39,"name":"Uncletopia | Chicago | 8 | Community","name_short":"chi-8","host":"chi-2.us.uncletopia.com","port":27045,"enabled":true,"region":"us-central","cc":"us","latitude":41.881832,"longitude":-87.62318,"reserved":0,"last_update":"0001-01-01T00:00:00Z","name_a2s":"Uncletopia | Chicago | 8 | Community","protocol":17,"map":"workshop/pl_fifthcurve_rc1.ugc648227046","folder":"tf","game":"Team Fortress","app_id":440,"player_count":0,"max_players":24,"Bots":0,"server_type":"Dedicated","server_os":"Linux","password":true,"vac":true,"version":"7882260","steam_id":85568392924866365,"keywords":["nocrits","nodmgspread","payload","uncletopia"],"game_id":440,"stv_port":27046,"stv_name":"Uncletopia | Chicago | 8 | Community | STV","players":null},{"server_id":8,"name":"Uncletopia | Dallas | 1 | All Maps","name_short":"dal-1","host":"dal-1.us.uncletopia.com","port":27015,"enabled":true,"region":"us-central","cc":"us","latitude":32.779167,"longitude":-96.80889,"reserved":0,"last_update":"0001-01-01T00:00:00Z","name_a2s":"Uncletopia | Dallas | 1 | All Maps","protocol":17,"map":"pl_borneo","folder":"tf","game":"Team Fortress","app_id":440,"player_count":24,"max_players":24,"Bots":0,"server_type":"Dedicated","server_os":"Linux","password":true,"vac":true,"version":"7882260","steam_id":85568392924469986,"keywords":["nocrits","nodmgspread","payload","uncletopia"],"game_id":440,"stv_port":27016,"stv_name":"Uncletopia | Dallas | 1 | All Maps | STV","players":[{"user_id":77,"name":"Voodo133","steam_id":76561198042670351,"connected_time":3154000000000,"state":"active","ping":99},{"user_id":103,"name":"captainspatklz","steam_id":76561198432167270,"connected_time":946000000000,"state":"active","ping":75},{"user_id":105,"name":"ducky","steam_id":76561198007764271,"connected_time":858000000000,"state":"active","ping":62},{"user_id":73,"name":"Emberdened","steam_id":76561199163688421,"connected_time":3572000000000,"state":"active","ping":75},{"user_id":106,"name":"meca","steam_id":76561198810992350,"connected_time":814000000000,"state":"active","ping":31},{"user_id":124,"name":"Rhea","steam_id":76561198066626240,"connected_time":413000000000,"state":"active","ping":59},{"user_id":117,"name":"kiv","steam_id":76561198838223023,"connected_time":603000000000,"state":"active","ping":77},{"user_id":125,"name":"rumes","steam_id":76561198349219467,"connected_time":399000000000,"state":"active","ping":66},{"user_id":112,"name":"SeaBass","steam_id":76561197982949108,"connected_time":686000000000,"state":"active","ping":68},{"user_id":104,"name":"incoherent thoughtform","steam_id":76561198045343646,"connected_time":944000000000,"state":"active","ping":46},{"user_id":108,"name":"Mediocre Gaming","steam_id":76561199230467980,"connected_time":784000000000,"state":"active","ping":85},{"user_id":111,"name":"Westwood","steam_id":76561199387699252,"connected_time":694000000000,"state":"active","ping":84},{"user_id":128,"name":"Lucky","steam_id":76561198418262145,"connected_time":128000000000,"state":"active","ping":135},{"user_id":119,"name":"SharkGuillotine","steam_id":76561198109028172,"connected_time":535000000000,"state":"active","ping":90},{"user_id":93,"name":"ImTheSBM","steam_id":76561199000487061,"connected_time":2007000000000,"state":"active","ping":154},{"user_id":118,"name":"gromit","steam_id":76561198037746805,"connected_time":591000000000,"state":"active","ping":90},{"user_id":120,"name":"kid squid","steam_id":76561198167016289,"connected_time":532000000000,"state":"active","ping":81},{"user_id":121,"name":"aiming with drawing tablet","steam_id":76561198397662124,"connected_time":528000000000,"state":"active","ping":65},{"user_id":113,"name":"Sariff","steam_id":76561198136446352,"connected_time":662000000000,"state":"active","ping":77},{"user_id":116,"name":"minecraft","steam_id":76561198104345201,"connected_time":618000000000,"state":"active","ping":77},{"user_id":122,"name":"DoubleTee","steam_id":76561198018980347,"connected_time":512000000000,"state":"active","ping":95},{"user_id":60,"name":"Mury","steam_id":76561198069743049,"connected_time":5061000000000,"state":"active","ping":101},{"user_id":126,"name":"[Green Ninja] Skeletor [HM]","steam_id":76561199087344972,"connected_time":397000000000,"state":"active","ping":76},{"user_id":127,"name":"Shalom","steam_id":76561198410005222,"connected_time":362000000000,"state":"active","ping":50}]},{"server_id":108,"name":"Uncletopia | Dallas | 2 | All Maps","name_short":"dal-2","host":"dal-1.us.uncletopia.com","port":27025,"enabled":true,"region":"us-central","cc":"us","latitude":32.779167,"longitude":-96.80889,"reserved":0,"last_update":"0001-01-01T00:00:00Z","name_a2s":"Uncletopia | Dallas | 2 | All Maps","protocol":17,"map":"cp_powerhouse","folder":"tf","game":"Team Fortress","app_id":440,"player_count":23,"max_players":24,"Bots":0,"server_type":"Dedicated","server_os":"Linux","password":true,"vac":true,"version":"7882260","steam_id":85568392924469988,"keywords":["cp","nocrits","nodmgspread","uncletopia"],"game_id":440,"stv_port":27026,"stv_name":"Uncletopia | Dallas | 2 | All Maps | STV","players":[{"user_id":184,"name":"Lavender","steam_id":76561198142770666,"connected_time":1029000000000,"state":"active","ping":62},{"user_id":197,"name":"DivineBanana","steam_id":76561198026529731,"connected_time":131000000000,"state":"active","ping":86},{"user_id":183,"name":"fungus flinger 37","steam_id":76561198119689085,"connected_time":1070000000000,"state":"active","ping":62},{"user_id":185,"name":"AnonymouzR011","steam_id":76561198262685906,"connected_time":1025000000000,"state":"active","ping":83},{"user_id":198,"name":"barker","steam_id":76561198128319767,"connected_time":117000000000,"state":"active","ping":150},{"user_id":199,"name":"mantra","steam_id":76561198023496266,"connected_time":104000000000,"state":"active","ping":41},{"user_id":145,"name":"Jonah Gaming","steam_id":76561198040969743,"connected_time":4020000000000,"state":"active","ping":69},{"user_id":166,"name":"Rin \"Hindwing\" Redtail","steam_id":76561199074865638,"connected_time":2809000000000,"state":"active","ping":46},{"user_id":186,"name":"The Entire Population of Canada","steam_id":76561198090187112,"connected_time":996000000000,"state":"active","ping":90},{"user_id":182,"name":"Spinal_Spit","steam_id":76561198010204565,"connected_time":1114000000000,"state":"active","ping":38},{"user_id":160,"name":"Bad Rollout","steam_id":76561197971948876,"connected_time":3115000000000,"state":"active","ping":90},{"user_id":200,"name":"Jim the Fish","steam_id":76561199135784419,"connected_time":45000000000,"state":"active","ping":108},{"user_id":133,"name":"Verily","steam_id":76561198200558318,"connected_time":5015000000000,"state":"active","ping":122},{"user_id":189,"name":"Carnamate","steam_id":76561198138077990,"connected_time":888000000000,"state":"active","ping":59},{"user_id":174,"name":"kingjeffry2012@hotmail.com","steam_id":76561198314104415,"connected_time":1622000000000,"state":"active","ping":70},{"user_id":172,"name":"slime ( ,'' w'' ) ? ??","steam_id":76561198198984282,"connected_time":2138000000000,"state":"active","ping":91},{"user_id":177,"name":"ProbiusSC","steam_id":76561198379167322,"connected_time":1395000000000,"state":"active","ping":95},{"user_id":201,"name":"Lichcraft","steam_id":76561199111930820,"connected_time":3000000000,"state":"spawning","ping":85},{"user_id":194,"name":"zeredis","steam_id":76561198076596689,"connected_time":546000000000,"state":"active","ping":86},{"user_id":112,"name":"oh the treachery","steam_id":76561198127851014,"connected_time":7514000000000,"state":"active","ping":51},{"user_id":196,"name":"Wick","steam_id":76561198090764386,"connected_time":171000000000,"state":"active","ping":79},{"user_id":192,"name":"Eeb","steam_id":76561198120935174,"connected_time":744000000000,"state":"active","ping":98},{"user_id":179,"name":"Doomagedden","steam_id":76561198272589475,"connected_time":1377000000000,"state":"active","ping":60}]},{"server_id":5,"name":"Uncletopia | Frankfurt | 1 | All Maps","name_short":"frk-1","host":"frk-1.de.uncletopia.com","port":27015,"enabled":true,"region":"eu","cc":"de","latitude":50.110924,"longitude":8.682127,"reserved":0,"last_update":"0001-01-01T00:00:00Z","name_a2s":"Uncletopia | Frankfurt | 1 | All Maps","protocol":17,"map":"cp_dustbowl","folder":"tf","game":"Team Fortress","app_id":440,"player_count":23,"max_players":24,"Bots":0,"server_type":"Dedicated","server_os":"Linux","password":true,"vac":true,"version":"7882260","steam_id":85568392924469989,"keywords":["cp","nocrits","nodmgspread","uncletopia"],"game_id":440,"stv_port":27016,"stv_name":"Uncletopia | Frankfurt | 1 | All Maps | STV","players":[{"user_id":450,"name":"Caliban","steam_id":76561197999696839,"connected_time":2211000000000,"state":"active","ping":103},{"user_id":453,"name":"SWAG MESSIAH Z V","steam_id":76561198992528373,"connected_time":1581000000000,"state":"active","ping":73},{"user_id":447,"name":"Monkey Engineer","steam_id":76561198057707263,"connected_time":2271000000000,"state":"active","ping":57},{"user_id":460,"name":"Tomfool","steam_id":76561197993256481,"connected_time":614000000000,"state":"active","ping":72},{"user_id":461,"name":"Fritz","steam_id":76561198129181164,"connected_time":606000000000,"state":"active","ping":48},{"user_id":462,"name":"goz","steam_id":76561198155229347,"connected_time":526000000000,"state":"active","ping":59},{"user_id":463,"name":"Ablativus","steam_id":76561198025698470,"connected_time":518000000000,"state":"active","ping":63},{"user_id":452,"name":"DariBro","steam_id":76561198155444173,"connected_time":1688000000000,"state":"active","ping":58},{"user_id":436,"name":"Kenny","steam_id":76561198114998715,"connected_time":2906000000000,"state":"active","ping":61},{"user_id":420,"name":"Veile","steam_id":76561199007201531,"connected_time":3280000000000,"state":"active","ping":92},{"user_id":470,"name":"superx","steam_id":76561198044976613,"connected_time":231000000000,"state":"active","ping":146},{"user_id":440,"name":"Razorback from Team Fortress 2","steam_id":76561199214163032,"connected_time":2786000000000,"state":"active","ping":89},{"user_id":445,"name":"Hivel","steam_id":76561198151390773,"connected_time":2574000000000,"state":"active","ping":89},{"user_id":465,"name":"Heisenburger","steam_id":76561199009677881,"connected_time":500000000000,"state":"active","ping":80},{"user_id":466,"name":"slifer the executive producer","steam_id":76561198322087870,"connected_time":461000000000,"state":"active","ping":118},{"user_id":385,"name":"Valdis","steam_id":76561198057340489,"connected_time":5873000000000,"state":"active","ping":46},{"user_id":408,"name":"willus212","steam_id":76561199182615246,"connected_time":4612000000000,"state":"active","ping":91},{"user_id":439,"name":"cock","steam_id":76561198307522022,"connected_time":2837000000000,"state":"active","ping":49},{"user_id":359,"name":"Adib al-asfar","steam_id":76561198095691592,"connected_time":8182000000000,"state":"active","ping":62},{"user_id":467,"name":"Mr.Schnittlauch","steam_id":76561198295868113,"connected_time":446000000000,"state":"active","ping":49},{"user_id":442,"name":"Thing","steam_id":76561197997904403,"connected_time":2725000000000,"state":"active","ping":102},{"user_id":468,"name":"Shadow The Hedgehog","steam_id":76561198323622980,"connected_time":421000000000,"state":"active","ping":85},{"user_id":469,"name":"thia","steam_id":76561198186366599,"connected_time":382000000000,"state":"active","ping":109}]},{"server_id":110,"name":"Uncletopia | Frankfurt | 2 | All Maps","name_short":"frk-2","host":"frk-1.de.uncletopia.com","port":27025,"enabled":true,"region":"eu","cc":"de","latitude":50.110924,"longitude":8.682127,"reserved":0,"last_update":"0001-01-01T00:00:00Z","name_a2s":"Uncletopia | Frankfurt | 2 | All Maps","protocol":17,"map":"pl_barnblitz","folder":"tf","game":"Team Fortress","app_id":440,"player_count":24,"max_players":24,"Bots":0,"server_type":"Dedicated","server_os":"Linux","password":true,"vac":true,"version":"7882260","steam_id":85568392924469990,"keywords":["nocrits","nodmgspread","payload","uncletopia"],"game_id":440,"stv_port":27026,"stv_name":"Uncletopia | Frankfurt | 2 | All Maps | STV","players":[{"user_id":164,"name":"Umbro","steam_id":76561198087930438,"connected_time":843000000000,"state":"active","ping":73},{"user_id":160,"name":"Egor Pomidor","steam_id":76561199175688390,"connected_time":1546000000000,"state":"active","ping":76},{"user_id":88,"name":"Doctor Rudy G. Numpad","steam_id":76561198440881106,"connected_time":4942000000000,"state":"active","ping":76},{"user_id":155,"name":"minitel","steam_id":76561198056336216,"connected_time":2069000000000,"state":"active","ping":51},{"user_id":135,"name":"nynon","steam_id":76561197998432126,"connected_time":2865000000000,"state":"active","ping":90},{"user_id":166,"name":"skille","steam_id":76561198005794325,"connected_time":680000000000,"state":"active","ping":66},{"user_id":156,"name":"BlinkedUp","steam_id":76561198249985618,"connected_time":1990000000000,"state":"active","ping":61},{"user_id":165,"name":"KatTheCookiCat","steam_id":76561199054643392,"connected_time":691000000000,"state":"active","ping":51},{"user_id":180,"name":"Buddy","steam_id":76561198050185582,"connected_time":338000000000,"state":"active","ping":63},{"user_id":149,"name":"Chad Slav","steam_id":76561198160103841,"connected_time":2548000000000,"state":"active","ping":61},{"user_id":176,"name":"flr","steam_id":76561198249327786,"connected_time":517000000000,"state":"active","ping":60},{"user_id":169,"name":"Michael","steam_id":76561198003146906,"connected_time":622000000000,"state":"active","ping":60},{"user_id":170,"name":"ded","steam_id":76561198186054573,"connected_time":619000000000,"state":"active","ping":74},{"user_id":171,"name":"Dolcelatte","steam_id":76561198038501770,"connected_time":610000000000,"state":"active","ping":48},{"user_id":182,"name":"Adolf Dripler","steam_id":76561199049502102,"connected_time":72000000000,"state":"active","ping":92},{"user_id":172,"name":"SoupER","steam_id":76561198063056668,"connected_time":605000000000,"state":"active","ping":63},{"user_id":179,"name":"Oriuke","steam_id":76561197992166123,"connected_time":414000000000,"state":"active","ping":60},{"user_id":174,"name":"The One (and only)","steam_id":76561198827193499,"connected_time":568000000000,"state":"active","ping":68},{"user_id":159,"name":"Driver's drunkest God","steam_id":76561198969373800,"connected_time":1553000000000,"state":"active","ping":69},{"user_id":183,"name":"prophets","steam_id":76561198111134021,"connected_time":60000000000,"state":"active","ping":109},{"user_id":143,"name":"meatsoupcube","steam_id":76561198276802249,"connected_time":2719000000000,"state":"active","ping":105},{"user_id":151,"name":"Miton","steam_id":76561197970323209,"connected_time":2527000000000,"state":"active","ping":85},{"user_id":161,"name":"Raivop","steam_id":76561197980854307,"connected_time":1506000000000,"state":"active","ping":145},{"user_id":98,"name":"spy in the base","steam_id":76561198284570752,"connected_time":4766000000000,"state":"active","ping":65}]},{"server_id":308,"name":"Uncletopia | Frankfurt | 3 | All Maps","name_short":"frk-3","host":"frk-1.de.uncletopia.com","port":27035,"enabled":true,"region":"eu","cc":"de","latitude":50.110924,"longitude":8.682127,"reserved":0,"last_update":"0001-01-01T00:00:00Z","name_a2s":"Uncletopia | Frankfurt | 3 | All Maps","protocol":17,"map":"pl_badwater","folder":"tf","game":"Team Fortress","app_id":440,"player_count":0,"max_players":24,"Bots":0,"server_type":"Dedicated","server_os":"Linux","password":true,"vac":true,"version":"7882260","steam_id":85568392924504274,"keywords":["nocrits","nodmgspread","payload","uncletopia"],"game_id":440,"stv_port":27036,"stv_name":"Uncletopia | Frankfurt | 3 | All Maps | STV","players":null},{"server_id":309,"name":"Uncletopia | Frankfurt | 4 | All Maps","name_short":"frk-4","host":"frk-1.de.uncletopia.com","port":27045,"enabled":true,"region":"eu","cc":"de","latitude":50.110924,"longitude":8.682127,"reserved":0,"last_update":"0001-01-01T00:00:00Z","name_a2s":"Uncletopia | Frankfurt | 4 | All Maps","protocol":17,"map":"pl_swiftwater_final1","folder":"tf","game":"Team Fortress","app_id":440,"player_count":0,"max_players":24,"Bots":0,"server_type":"Dedicated","server_os":"Linux","password":true,"vac":true,"version":"7882260","steam_id":85568392924504275,"keywords":["nocrits","nodmgspread","payload","uncletopia"],"game_id":440,"stv_port":27046,"stv_name":"Uncletopia | Frankfurt | 4 | All Maps | STV","players":null},{"server_id":310,"name":"Uncletopia | Frankfurt | 5 | All Maps","name_short":"frk-5","host":"frk-1.de.uncletopia.com","port":27055,"enabled":true,"region":"eu","cc":"de","latitude":50.110924,"longitude":8.682127,"reserved":0,"last_update":"0001-01-01T00:00:00Z","name_a2s":"Uncletopia | Frankfurt | 5 | All Maps","protocol":17,"map":"pl_badwater","folder":"tf","game":"Team Fortress","app_id":440,"player_count":24,"max_players":24,"Bots":0,"server_type":"Dedicated","server_os":"Linux","password":true,"vac":true,"version":"7882260","steam_id":85568392924504277,"keywords":["nocrits","nodmgspread","payload","uncletopia"],"game_id":440,"stv_port":27056,"stv_name":"Uncletopia | Frankfurt | 5 | All Maps | STV","players":[{"user_id":277,"name":"Watermelon","steam_id":76561198078349914,"connected_time":2357000000000,"state":"active","ping":60},{"user_id":288,"name":"callum1h3","steam_id":76561198106811440,"connected_time":1722000000000,"state":"active","ping":59},{"user_id":291,"name":"DeCypher \u003c3","steam_id":76561198171992619,"connected_time":1450000000000,"state":"active","ping":69},{"user_id":300,"name":"greasy breads","steam_id":76561198012508076,"connected_time":611000000000,"state":"active","ping":134},{"user_id":292,"name":"ibn4","steam_id":76561198985889265,"connected_time":1445000000000,"state":"active","ping":90},{"user_id":287,"name":"MpJens","steam_id":76561198000347669,"connected_time":1793000000000,"state":"active","ping":48},{"user_id":299,"name":"Joe","steam_id":76561198145639903,"connected_time":845000000000,"state":"active","ping":90},{"user_id":261,"name":"Gaxkang","steam_id":76561198125768571,"connected_time":3870000000000,"state":"active","ping":71},{"user_id":305,"name":"Rain_hero","steam_id":76561198425145581,"connected_time":219000000000,"state":"active","ping":97},{"user_id":307,"name":"Shovelhalfrusty","steam_id":76561198346447513,"connected_time":136000000000,"state":"active","ping":72},{"user_id":286,"name":"tf2 enjoyer","steam_id":76561199106689292,"connected_time":1826000000000,"state":"active","ping":178},{"user_id":295,"name":"fredu","steam_id":76561198107605938,"connected_time":1365000000000,"state":"active","ping":89},{"user_id":266,"name":"Atsiputelis","steam_id":76561198066201111,"connected_time":3629000000000,"state":"active","ping":55},{"user_id":289,"name":"paguro","steam_id":76561198119560871,"connected_time":1653000000000,"state":"active","ping":73},{"user_id":263,"name":"NO end to POOTIS","steam_id":76561198144879361,"connected_time":3800000000000,"state":"active","ping":119},{"user_id":304,"name":"Andy","steam_id":76561198136364381,"connected_time":360000000000,"state":"active","ping":66},{"user_id":268,"name":"Smurfette","steam_id":76561198073949118,"connected_time":3566000000000,"state":"active","ping":80},{"user_id":257,"name":"MILKY","steam_id":76561199261620682,"connected_time":4000000000000,"state":"active","ping":75},{"user_id":297,"name":"USBug999","steam_id":76561199174677820,"connected_time":1332000000000,"state":"active","ping":133},{"user_id":301,"name":"Ë™∞„Åã„ÅåË¶ã„Å¶„ÅÑ„Çã","steam_id":76561198834913692,"connected_time":547000000000,"state":"active","ping":68},{"user_id":230,"name":"waluigi","steam_id":76561198215809251,"connected_time":6302000000000,"state":"active","ping":52},{"user_id":239,"name":"shr1mple","steam_id":76561198173537027,"connected_time":5320000000000,"state":"active","ping":44},{"user_id":248,"name":"lyon","steam_id":76561197998096172,"connected_time":4968000000000,"state":"active","ping":76},{"user_id":270,"name":"Evix","steam_id":76561198418450671,"connected_time":3191000000000,"state":"active","ping":80}]},{"server_id":311,"name":"Uncletopia | Frankfurt | 6 | All Maps","name_short":"frk-6","host":"frk-1.de.uncletopia.com","port":27065,"enabled":true,"region":"eu","cc":"de","latitude":50.110924,"longitude":8.682127,"reserved":0,"last_update":"0001-01-01T00:00:00Z","name_a2s":"Uncletopia | Frankfurt | 6 | All Maps","protocol":17,"map":"pl_borneo","folder":"tf","game":"Team Fortress","app_id":440,"player_count":24,"max_players":24,"Bots":0,"server_type":"Dedicated","server_os":"Linux","password":true,"vac":true,"version":"7882260","steam_id":85568392924504278,"keywords":["nocrits","nodmgspread","payload","uncletopia"],"game_id":440,"stv_port":27066,"stv_name":"Uncletopia | Frankfurt | 6 | All Maps | STV","players":[{"user_id":335,"name":"[P-roc] Lovely","steam_id":76561198074361075,"connected_time":329000000000,"state":"active","ping":67},{"user_id":332,"name":"SaltyCupcakes","steam_id":76561198256386417,"connected_time":454000000000,"state":"active","ping":56},{"user_id":346,"name":"KODE","steam_id":76561198053212394,"connected_time":151000000000,"state":"active","ping":75},{"user_id":351,"name":"voco","steam_id":76561198179250642,"connected_time":66000000000,"state":"active","ping":101},{"user_id":236,"name":"prot√´in","steam_id":76561197998423616,"connected_time":7542000000000,"state":"active","ping":75},{"user_id":330,"name":"[P-roc] Cmm Bert","steam_id":76561198016658674,"connected_time":511000000000,"state":"active","ping":77},{"user_id":333,"name":"Adorable Animal","steam_id":76561198002451113,"connected_time":440000000000,"state":"active","ping":104},{"user_id":344,"name":"TECbias","steam_id":76561198109808372,"connected_time":183000000000,"state":"active","ping":59},{"user_id":336,"name":"Zyper","steam_id":76561198865310393,"connected_time":323000000000,"state":"active","ping":74},{"user_id":337,"name":"Beladar","steam_id":76561198052071450,"connected_time":318000000000,"state":"active","ping":62},{"user_id":276,"name":":)","steam_id":76561198039964082,"connected_time":4414000000000,"state":"active","ping":54},{"user_id":338,"name":"Thors","steam_id":76561197968739075,"connected_time":312000000000,"state":"active","ping":47},{"user_id":339,"name":"Ecin","steam_id":76561198816655769,"connected_time":310000000000,"state":"active","ping":56},{"user_id":349,"name":"qwertyrealschru_lll","steam_id":76561199120083473,"connected_time":111000000000,"state":"active","ping":79},{"user_id":340,"name":"dusty","steam_id":76561199011977567,"connected_time":293000000000,"state":"active","ping":55},{"user_id":285,"name":"0xDEADBEEF","steam_id":76561199075416111,"connected_time":3574000000000,"state":"active","ping":89},{"user_id":305,"name":"alex_alex_2016","steam_id":76561198307615334,"connected_time":2327000000000,"state":"active","ping":89},{"user_id":284,"name":"cotroD","steam_id":76561198130063938,"connected_time":3879000000000,"state":"active","ping":103},{"user_id":341,"name":"Dill Killem","steam_id":76561199071571354,"connected_time":287000000000,"state":"active","ping":78},{"user_id":315,"name":"Frank Drebin","steam_id":76561197982891118,"connected_time":1722000000000,"state":"active","ping":46},{"user_id":348,"name":"// HS //","steam_id":76561198835196373,"connected_time":133000000000,"state":"active","ping":86},{"user_id":345,"name":"preVIZSLA","steam_id":76561198815268030,"connected_time":178000000000,"state":"active","ping":60},{"user_id":313,"name":"Tiger Woods' Ping Pong World","steam_id":76561198011155232,"connected_time":1825000000000,"state":"active","ping":77},{"user_id":325,"name":"Bullet magnet (FIN)","steam_id":76561197975715220,"connected_time":947000000000,"state":"active","ping":80}]},{"server_id":23,"name":"Uncletopia | Frankfurt | 7 | Stopwatch Beta","name_short":"frk-7","host":"frk-1.de.uncletopia.com","port":27075,"enabled":true,"region":"eu","cc":"de","latitude":50.110924,"longitude":8.682127,"reserved":0,"last_update":"0001-01-01T00:00:00Z","name_a2s":"Uncletopia | Frankfurt | 7 | Stopwatch Beta","protocol":17,"map":"workshop/koth_bagel_rc6.ugc2514036946","folder":"tf","game":"Team Fortress","app_id":440,"player_count":0,"max_players":24,"Bots":0,"server_type":"Dedicated","server_os":"Linux","password":true,"vac":true,"version":"7882260","steam_id":85568392924742827,"keywords":["cp","nocrits","nodmgspread","uncletopia"],"game_id":440,"stv_port":27076,"stv_name":"Uncletopia | Frankfurt | 7 | Stopwatch Beta | STV","players":null},{"server_id":24,"name":"Uncletopia | Frankfurt | 8 | Community","name_short":"frk-8","host":"frk-1.de.uncletopia.com","port":27085,"enabled":true,"region":"eu","cc":"de","latitude":50.110924,"longitude":8.682127,"reserved":0,"last_update":"0001-01-01T00:00:00Z","name_a2s":"Uncletopia | Frankfurt | 8 | Community","protocol":17,"map":"workshop/cp_kalinka_rc6a.ugc1272700588","folder":"tf","game":"Team Fortress","app_id":440,"player_count":0,"max_players":24,"Bots":0,"server_type":"Dedicated","server_os":"Linux","password":true,"vac":true,"version":"7882260","steam_id":85568392924742828,"keywords":["cp","nocrits","nodmgspread","uncletopia"],"game_id":440,"stv_port":27086,"stv_name":"Uncletopia | Frankfurt | 8 | Community | STV","players":null},{"server_id":202,"name":"Uncletopia | Hong Kong | 1 | All Maps","name_short":"hgk-1","host":"hgk-1.hk.uncletopia.com","port":27015,"enabled":true,"region":"asia","cc":"hk","latitude":22.302711,"longitude":114.177216,"reserved":0,"last_update":"0001-01-01T00:00:00Z","name_a2s":"Uncletopia | Hong Kong | 1 | All Maps","protocol":17,"map":"pl_borneo","folder":"tf","game":"Team Fortress","app_id":440,"player_count":0,"max_players":24,"Bots":0,"server_type":"Dedicated","server_os":"Linux","password":true,"vac":true,"version":"7882260","steam_id":85568392924494504,"keywords":["nocrits","nodmgspread","payload","uncletopia"],"game_id":440,"stv_port":27016,"stv_name":"Uncletopia | Hong Kong | 1 | All Maps | STV","players":null},{"server_id":1,"name":"Uncletopia | Los Angeles | 1 | All Maps","name_short":"lax-1","host":"lax-1.us.uncletopia.com","port":27015,"enabled":true,"region":"us-west","cc":"us","latitude":33.94279,"longitude":-118.41004,"reserved":0,"last_update":"0001-01-01T00:00:00Z","name_a2s":"Uncletopia | Los Angeles | 1 | All Maps","protocol":17,"map":"pl_barnblitz","folder":"tf","game":"Team Fortress","app_id":440,"player_count":0,"max_players":24,"Bots":0,"server_type":"Dedicated","server_os":"Linux","password":true,"vac":true,"version":"7882260","steam_id":85568392924469991,"keywords":["nocrits","nodmgspread","payload","uncletopia"],"game_id":440,"stv_port":27016,"stv_name":"Uncletopia | Los Angeles | 1 | All Maps | STV","players":null},{"server_id":112,"name":"Uncletopia | Los Angeles | 2 | All Maps","name_short":"lax-2","host":"lax-1.us.uncletopia.com","port":27025,"enabled":true,"region":"us-west","cc":"us","latitude":33.94279,"longitude":-118.41004,"reserved":0,"last_update":"0001-01-01T00:00:00Z","name_a2s":"Uncletopia | Los Angeles | 2 | All Maps","protocol":17,"map":"pl_snowycoast","folder":"tf","game":"Team Fortress","app_id":440,"player_count":0,"max_players":24,"Bots":0,"server_type":"Dedicated","server_os":"Linux","password":true,"vac":true,"version":"7882260","steam_id":85568392924469992,"keywords":["nocrits","nodmgspread","payload","uncletopia"],"game_id":440,"stv_port":27026,"stv_name":"Uncletopia | Los Angeles | 2 | All Maps | STV","players":null},{"server_id":324,"name":"Uncletopia | Los Angeles | 3 | All Maps","name_short":"lax-3","host":"lax-1.us.uncletopia.com","port":27035,"enabled":true,"region":"us-west","cc":"us","latitude":33.94279,"longitude":-118.41004,"reserved":0,"last_update":"0001-01-01T00:00:00Z","name_a2s":"Uncletopia | Los Angeles | 3 | All Maps","protocol":17,"map":"pl_upward","folder":"tf","game":"Team Fortress","app_id":440,"player_count":0,"max_players":24,"Bots":0,"server_type":"Dedicated","server_os":"Linux","password":true,"vac":true,"version":"7882260","steam_id":85568392924510198,"keywords":["nocrits","nodmgspread","payload","uncletopia"],"game_id":440,"stv_port":27036,"stv_name":"Uncletopia | Los Angeles | 3 | All Maps | STV","players":null},{"server_id":25,"name":"Uncletopia | Los Angeles | 4 | Stopwatch Beta","name_short":"lax-4","host":"lax-1.us.uncletopia.com","port":27045,"enabled":true,"region":"us-west","cc":"us","latitude":33.94279,"longitude":-118.41004,"reserved":0,"last_update":"0001-01-01T00:00:00Z","name_a2s":"Uncletopia | Los Angeles | 4 | Stopwatch Beta","protocol":17,"map":"koth_viaduct","folder":"tf","game":"Team Fortress","app_id":440,"player_count":0,"max_players":24,"Bots":0,"server_type":"Dedicated","server_os":"Linux","password":true,"vac":true,"version":"7882260","steam_id":85568392924510199,"keywords":["cp","nocrits","nodmgspread","uncletopia"],"game_id":440,"stv_port":27046,"stv_name":"Uncletopia | Los Angeles | 4 | Stopwatch Beta | STV","players":null},{"server_id":11,"name":"Uncletopia | London | 1 | All Maps","name_short":"lon-1","host":"lon-1.uk.uncletopia.com","port":27015,"enabled":true,"region":"eu","cc":"gb","latitude":51.509865,"longitude":-0.118092,"reserved":0,"last_update":"0001-01-01T00:00:00Z","name_a2s":"Uncletopia | London | 1 | All Maps","protocol":17,"map":"cp_dustbowl","folder":"tf","game":"Team Fortress","app_id":440,"player_count":24,"max_players":24,"Bots":0,"server_type":"Dedicated","server_os":"Linux","password":true,"vac":true,"version":"7882260","steam_id":85568392924367362,"keywords":["cp","nocrits","nodmgspread","uncletopia"],"game_id":440,"stv_port":27016,"stv_name":"Uncletopia | London | 1 | All Maps | STV","players":[{"user_id":608,"name":"BatemanPatrick","steam_id":76561198393691611,"connected_time":1403000000000,"state":"active","ping":60},{"user_id":581,"name":"Amandus","steam_id":76561198036281079,"connected_time":3397000000000,"state":"active","ping":73},{"user_id":609,"name":"strideŒî","steam_id":76561199007826093,"connected_time":1346000000000,"state":"active","ping":78},{"user_id":624,"name":"Gubbly Bubbins","steam_id":76561198101451654,"connected_time":163000000000,"state":"active","ping":47},{"user_id":514,"name":"Mika","steam_id":76561199183780280,"connected_time":5307000000000,"state":"active","ping":67},{"user_id":590,"name":"Show me your gun","steam_id":76561198368339225,"connected_time":3211000000000,"state":"active","ping":132},{"user_id":477,"name":"thebigcheif","steam_id":76561198236015392,"connected_time":8391000000000,"state":"active","ping":117},{"user_id":595,"name":"xanguish‚ù§","steam_id":76561198086442571,"connected_time":2865000000000,"state":"active","ping":45},{"user_id":521,"name":"Sputnik","steam_id":76561198138660241,"connected_time":4761000000000,"state":"active","ping":66},{"user_id":580,"name":"Son Goku","steam_id":76561199383437138,"connected_time":3416000000000,"state":"active","ping":125},{"user_id":620,"name":"Mr Lemon","steam_id":76561198054685254,"connected_time":802000000000,"state":"active","ping":62},{"user_id":480,"name":"Snake-chan","steam_id":76561199044755854,"connected_time":8282000000000,"state":"active","ping":73},{"user_id":533,"name":"Mit√§ Sipsej√§?","steam_id":76561197963545568,"connected_time":4544000000000,"state":"active","ping":96},{"user_id":619,"name":"Mywar4","steam_id":76561198069143759,"connected_time":840000000000,"state":"active","ping":60},{"user_id":596,"name":"Crimson","steam_id":76561197987552332,"connected_time":2601000000000,"state":"active","ping":50},{"user_id":594,"name":"Ted Kaczynski","steam_id":76561198064795519,"connected_time":3030000000000,"state":"active","ping":62},{"user_id":614,"name":"quick","steam_id":76561198158981187,"connected_time":1169000000000,"state":"active","ping":89},{"user_id":616,"name":"Psycho","steam_id":76561198160390984,"connected_time":1135000000000,"state":"active","ping":97},{"user_id":617,"name":"Zlyron","steam_id":76561198951447833,"connected_time":1130000000000,"state":"active","ping":99},{"user_id":621,"name":"Alexandre","steam_id":76561198121784446,"connected_time":774000000000,"state":"active","ping":42},{"user_id":537,"name":"Jiipeeze","steam_id":76561198316154333,"connected_time":4452000000000,"state":"active","ping":88},{"user_id":618,"name":"Kahvi","steam_id":76561198723244199,"connected_time":937000000000,"state":"active","ping":82},{"user_id":496,"name":"[UB]Destiny","steam_id":76561198023243402,"connected_time":6888000000000,"state":"active","ping":82},{"user_id":623,"name":"MoistMomMauler","steam_id":76561198069359049,"connected_time":321000000000,"state":"active","ping":82}]},{"server_id":114,"name":"Uncletopia | London | 2 | All Maps","name_short":"lon-2","host":"lon-1.uk.uncletopia.com","port":27025,"enabled":true,"region":"eu","cc":"gb","latitude":51.509865,"longitude":-0.118092,"reserved":0,"last_update":"0001-01-01T00:00:00Z","name_a2s":"Uncletopia | London | 2 | All Maps","protocol":17,"map":"pl_upward","folder":"tf","game":"Team Fortress","app_id":440,"player_count":20,"max_players":24,"Bots":0,"server_type":"Dedicated","server_os":"Linux","password":true,"vac":true,"version":"7882260","steam_id":85568392924470941,"keywords":["nocrits","nodmgspread","payload","uncletopia"],"game_id":440,"stv_port":27026,"stv_name":"Uncletopia | London | 2 | All Maps | STV","players":[{"user_id":188,"name":"Doggo225","steam_id":76561198166707002,"connected_time":323000000000,"state":"active","ping":42},{"user_id":191,"name":"generic alias","steam_id":76561198271607226,"connected_time":43000000000,"state":"active","ping":78},{"user_id":47,"name":"john fortress","steam_id":76561198013237629,"connected_time":10683000000000,"state":"active","ping":94},{"user_id":158,"name":"chugger beef","steam_id":76561198372130358,"connected_time":1715000000000,"state":"active","ping":48},{"user_id":165,"name":"Jan.","steam_id":76561197974066329,"connected_time":1377000000000,"state":"active","ping":60},{"user_id":189,"name":"DocTwoEight","steam_id":76561198153488940,"connected_time":146000000000,"state":"active","ping":75},{"user_id":186,"name":"Exe_Red","steam_id":76561198154952759,"connected_time":550000000000,"state":"active","ping":90},{"user_id":190,"name":"Xoukz","steam_id":76561198356014540,"connected_time":134000000000,"state":"active","ping":104},{"user_id":157,"name":"Erin in Soup","steam_id":76561198416493306,"connected_time":1767000000000,"state":"active","ping":56},{"user_id":161,"name":"Vitamin Weee","steam_id":76561199183937747,"connected_time":1645000000000,"state":"active","ping":86},{"user_id":37,"name":"Houlles","steam_id":76561198095277383,"connected_time":11185000000000,"state":"active","ping":53},{"user_id":152,"name":"Gregorio","steam_id":76561198179463343,"connected_time":2596000000000,"state":"active","ping":44},{"user_id":177,"name":"GEP Gun","steam_id":76561197981821003,"connected_time":1064000000000,"state":"active","ping":49},{"user_id":185,"name":".moe","steam_id":76561198153974095,"connected_time":588000000000,"state":"active","ping":36},{"user_id":172,"name":"f√©nix","steam_id":76561198083199151,"connected_time":1189000000000,"state":"active","ping":56},{"user_id":183,"name":"BORGETENNISCLUB","steam_id":76561198049343723,"connected_time":848000000000,"state":"active","ping":46},{"user_id":107,"name":"bigwish | bmod.tf","steam_id":76561197997859723,"connected_time":5635000000000,"state":"active","ping":83},{"user_id":175,"name":"Kaule goede gamer (leugen)","steam_id":76561198051685232,"connected_time":1118000000000,"state":"active","ping":49},{"user_id":38,"name":"LSKi","steam_id":76561198215470228,"connected_time":11039000000000,"state":"active","ping":59},{"user_id":117,"name":"Aimoku","steam_id":76561198303362642,"connected_time":5259000000000,"state":"active","ping":180}]},{"server_id":320,"name":"Uncletopia | London | 3 | All Maps","name_short":"lon-3","host":"lon-1.uk.uncletopia.com","port":27035,"enabled":true,"region":"eu","cc":"gb","latitude":51.509865,"longitude":-0.118092,"reserved":0,"last_update":"0001-01-01T00:00:00Z","name_a2s":"Uncletopia | London | 3 | All Maps","protocol":17,"map":"pl_borneo","folder":"tf","game":"Team Fortress","app_id":440,"player_count":0,"max_players":24,"Bots":0,"server_type":"Dedicated","server_os":"Linux","password":true,"vac":true,"version":"7882260","steam_id":85568392924510192,"keywords":["nocrits","nodmgspread","payload","uncletopia"],"game_id":440,"stv_port":27036,"stv_name":"Uncletopia | London | 3 | All Maps | STV","players":null},{"server_id":321,"name":"Uncletopia | London | 4 | All Maps","name_short":"lon-4","host":"lon-1.uk.uncletopia.com","port":27045,"enabled":true,"region":"eu","cc":"gb","latitude":51.509865,"longitude":-0.118092,"reserved":0,"last_update":"0001-01-01T00:00:00Z","name_a2s":"Uncletopia | London | 4 | All Maps","protocol":17,"map":"pl_badwater","folder":"tf","game":"Team Fortress","app_id":440,"player_count":24,"max_players":24,"Bots":0,"server_type":"Dedicated","server_os":"Linux","password":true,"vac":true,"version":"7882260","steam_id":85568392924510193,"keywords":["nocrits","nodmgspread","payload","uncletopia"],"game_id":440,"stv_port":27046,"stv_name":"Uncletopia | London | 4 | All Maps | STV","players":[{"user_id":59,"name":"No | S | uS","steam_id":76561199195727551,"connected_time":1479000000000,"state":"active","ping":54},{"user_id":21,"name":"Ixsus\u003c3","steam_id":76561198094756869,"connected_time":3509000000000,"state":"active","ping":63},{"user_id":84,"name":"radiation","steam_id":76561198001157602,"connected_time":583000000000,"state":"active","ping":145},{"user_id":77,"name":"Mauve","steam_id":76561198371121377,"connected_time":816000000000,"state":"active","ping":46},{"user_id":91,"name":"KillerQueen (he/they/she)","steam_id":76561199019399725,"connected_time":10000000000,"state":"spawning","ping":48},{"user_id":85,"name":"Koli","steam_id":76561197992428783,"connected_time":464000000000,"state":"active","ping":59},{"user_id":37,"name":"LOBZIK","steam_id":76561198114830120,"connected_time":1863000000000,"state":"active","ping":78},{"user_id":38,"name":"Arkku","steam_id":76561198255441801,"connected_time":1843000000000,"state":"active","ping":94},{"user_id":39,"name":"Soerlssoelss√∂en","steam_id":76561197993060585,"connected_time":1836000000000,"state":"active","ping":82},{"user_id":61,"name":"FOAP!","steam_id":76561198833392443,"connected_time":1392000000000,"state":"active","ping":75},{"user_id":42,"name":"RuneShine","steam_id":76561198007098323,"connected_time":1748000000000,"state":"active","ping":58},{"user_id":44,"name":"Kaputo :3","steam_id":76561198062559523,"connected_time":1665000000000,"state":"active","ping":85},{"user_id":72,"name":"JaneDoe","steam_id":76561198067081506,"connected_time":931000000000,"state":"active","ping":84},{"user_id":81,"name":"Seeker","steam_id":76561198873052772,"connected_time":708000000000,"state":"active","ping":79},{"user_id":47,"name":"FATTY","steam_id":76561198087962709,"connected_time":1649000000000,"state":"active","ping":80},{"user_id":78,"name":"Krefa12","steam_id":76561198268375393,"connected_time":738000000000,"state":"active","ping":95},{"user_id":66,"name":"smk","steam_id":76561198068027379,"connected_time":1321000000000,"state":"active","ping":83},{"user_id":82,"name":"Reflector","steam_id":76561198078999855,"connected_time":705000000000,"state":"active","ping":142},{"user_id":65,"name":"irritable vowel syndrome","steam_id":76561198117033273,"connected_time":1341000000000,"state":"active","ping":53},{"user_id":83,"name":"hopefullythisnameisnttaken","steam_id":76561198979277765,"connected_time":704000000000,"state":"active","ping":42},{"user_id":64,"name":"xiiski","steam_id":76561198152387747,"connected_time":1359000000000,"state":"active","ping":103},{"user_id":86,"name":"WolfmanCZ","steam_id":76561199157141414,"connected_time":437000000000,"state":"active","ping":76},{"user_id":87,"name":"Chonky dorito","steam_id":76561199076870571,"connected_time":399000000000,"state":"active","ping":92},{"user_id":89,"name":"The_Jaystone","steam_id":76561198126280691,"connected_time":209000000000,"state":"active","ping":36}]},{"server_id":21,"name":"Uncletopia | London | 5 | All Maps","name_short":"lon-5","host":"lon-1.uk.uncletopia.com","port":27055,"enabled":true,"region":"eu","cc":"gb","latitude":51.509865,"longitude":-0.118092,"reserved":0,"last_update":"0001-01-01T00:00:00Z","name_a2s":"Uncletopia | London | 5 | All Maps","protocol":17,"map":"pl_swiftwater_final1","folder":"tf","game":"Team Fortress","app_id":440,"player_count":23,"max_players":24,"Bots":0,"server_type":"Dedicated","server_os":"Linux","password":true,"vac":true,"version":"7882260","steam_id":85568392924742829,"keywords":["nocrits","nodmgspread","payload","uncletopia"],"game_id":440,"stv_port":27056,"stv_name":"Uncletopia | London | 5 | All Maps | STV","players":[{"user_id":400,"name":"Lyell","steam_id":76561198350329389,"connected_time":981000000000,"state":"active","ping":79},{"user_id":334,"name":"After8","steam_id":76561198090750865,"connected_time":3847000000000,"state":"active","ping":75},{"user_id":379,"name":"Mr. Gaming","steam_id":76561198159360685,"connected_time":1768000000000,"state":"active","ping":112},{"user_id":375,"name":"1ggy","steam_id":76561199051285912,"connected_time":2090000000000,"state":"active","ping":83},{"user_id":401,"name":"Well, off to hang myself","steam_id":76561198053374944,"connected_time":906000000000,"state":"active","ping":65},{"user_id":392,"name":"peso enjoyer","steam_id":76561198798177799,"connected_time":1251000000000,"state":"active","ping":87},{"user_id":349,"name":"Braamklauw","steam_id":76561198283287697,"connected_time":3543000000000,"state":"active","ping":58},{"user_id":390,"name":"bad farter","steam_id":76561198261853441,"connected_time":1307000000000,"state":"active","ping":75},{"user_id":383,"name":"Tutiwit","steam_id":76561198254481528,"connected_time":1753000000000,"state":"active","ping":47},{"user_id":396,"name":"PASTAMAN!!!","steam_id":76561198995641765,"connected_time":1097000000000,"state":"active","ping":67},{"user_id":369,"name":"vadr","steam_id":76561198334528186,"connected_time":2257000000000,"state":"active","ping":43},{"user_id":387,"name":"Amoru","steam_id":76561198798161817,"connected_time":1565000000000,"state":"active","ping":91},{"user_id":409,"name":"76531198198177417","steam_id":76561198086304421,"connected_time":37000000000,"state":"active","ping":88},{"user_id":404,"name":"Borat","steam_id":76561198122226417,"connected_time":548000000000,"state":"active","ping":41},{"user_id":350,"name":"Sir Quacksalot","steam_id":76561198048942777,"connected_time":3529000000000,"state":"active","ping":161},{"user_id":353,"name":"nemelex","steam_id":76561198958005865,"connected_time":3435000000000,"state":"active","ping":60},{"user_id":295,"name":"Dog ?","steam_id":76561198347020945,"connected_time":5749000000000,"state":"active","ping":90},{"user_id":384,"name":"lore","steam_id":76561198120984188,"connected_time":1731000000000,"state":"active","ping":71},{"user_id":408,"name":"Dr.Sees [F2P]","steam_id":76561199219233587,"connected_time":346000000000,"state":"active","ping":78},{"user_id":405,"name":"DeanAdamFry","steam_id":76561198054153160,"connected_time":547000000000,"state":"active","ping":53},{"user_id":388,"name":"the least schizo med main","steam_id":76561198048530109,"connected_time":1561000000000,"state":"active","ping":76},{"user_id":393,"name":"Spoofr","steam_id":76561199267825043,"connected_time":1247000000000,"state":"active","ping":78},{"user_id":398,"name":"Pita Bread","steam_id":76561198095600582,"connected_time":1058000000000,"state":"active","ping":87}]},{"server_id":22,"name":"Uncletopia | London | 6 | All Maps","name_short":"lon-6","host":"lon-1.uk.uncletopia.com","port":27065,"enabled":true,"region":"eu","cc":"gb","latitude":51.509865,"longitude":-0.118092,"reserved":0,"last_update":"0001-01-01T00:00:00Z","name_a2s":"Uncletopia | London | 6 | All Maps","protocol":17,"map":"pl_pier","folder":"tf","game":"Team Fortress","app_id":440,"player_count":24,"max_players":24,"Bots":0,"server_type":"Dedicated","server_os":"Linux","password":true,"vac":true,"version":"7882260","steam_id":85568392924742830,"keywords":["nocrits","nodmgspread","payload","uncletopia"],"game_id":440,"stv_port":27066,"stv_name":"Uncletopia | London | 6 | All Maps | STV","players":[{"user_id":210,"name":"LegitACarWithAGun","steam_id":76561198081742337,"connected_time":1035000000000,"state":"active","ping":96},{"user_id":214,"name":"Unusual Spycrab","steam_id":76561198164397570,"connected_time":1005000000000,"state":"active","ping":46},{"user_id":189,"name":"FUKAYU","steam_id":76561198380484033,"connected_time":2577000000000,"state":"active","ping":50},{"user_id":216,"name":"ScaryTree","steam_id":76561199384362833,"connected_time":897000000000,"state":"active","ping":63},{"user_id":177,"name":"Inov","steam_id":76561198207364644,"connected_time":3579000000000,"state":"active","ping":78},{"user_id":225,"name":"Ander Escobar","steam_id":76561198335366902,"connected_time":285000000000,"state":"active","ping":89},{"user_id":204,"name":"Miiukade","steam_id":76561198089157860,"connected_time":1750000000000,"state":"active","ping":119},{"user_id":199,"name":"20BB Raxor","steam_id":76561198239927434,"connected_time":2119000000000,"state":"active","ping":87},{"user_id":173,"name":"kreeekz","steam_id":76561198014431602,"connected_time":4116000000000,"state":"active","ping":74},{"user_id":166,"name":"Laske","steam_id":76561198370905474,"connected_time":4593000000000,"state":"active","ping":75},{"user_id":187,"name":"The Daniella","steam_id":76561198023075547,"connected_time":2627000000000,"state":"active","ping":62},{"user_id":224,"name":"John Noob","steam_id":76561197999170026,"connected_time":346000000000,"state":"active","ping":84},{"user_id":226,"name":"hello hi","steam_id":76561198148074472,"connected_time":134000000000,"state":"active","ping":45},{"user_id":197,"name":"LT.Steeamer","steam_id":76561198271938142,"connected_time":2336000000000,"state":"active","ping":59},{"user_id":206,"name":"Frok","steam_id":76561199213363196,"connected_time":1402000000000,"state":"active","ping":85},{"user_id":134,"name":"It's time","steam_id":76561198061197114,"connected_time":6535000000000,"state":"active","ping":77},{"user_id":153,"name":"Fish 'n' Chips","steam_id":76561198033476886,"connected_time":4990000000000,"state":"active","ping":47},{"user_id":227,"name":"jaime8D","steam_id":76561197980590671,"connected_time":40000000000,"state":"active","ping":132},{"user_id":221,"name":"ja","steam_id":76561199228540618,"connected_time":753000000000,"state":"active","ping":70},{"user_id":212,"name":"‚ô• Cirno ‚ô•","steam_id":76561198834982738,"connected_time":1020000000000,"state":"active","ping":77},{"user_id":223,"name":"Cr√®m√®dSphere","steam_id":76561198016962137,"connected_time":370000000000,"state":"active","ping":75},{"user_id":192,"name":"Zizman","steam_id":76561198446562910,"connected_time":2539000000000,"state":"active","ping":155},{"user_id":215,"name":"Sylvanas","steam_id":76561198154904165,"connected_time":1005000000000,"state":"active","ping":117},{"user_id":171,"name":"fume.","steam_id":76561197960476801,"connected_time":4290000000000,"state":"active","ping":55}]},{"server_id":40,"name":"Uncletopia | London | 7 | No Payload","name_short":"lon-7","host":"lon-1.uk.uncletopia.com","port":27075,"enabled":true,"region":"eu","cc":"gb","latitude":51.509865,"longitude":-0.118092,"reserved":0,"last_update":"0001-01-01T00:00:00Z","name_a2s":"Uncletopia | London | 7 | No Payload","protocol":17,"map":"cp_metalworks","folder":"tf","game":"Team Fortress","app_id":440,"player_count":16,"max_players":24,"Bots":0,"server_type":"Dedicated","server_os":"Linux","password":true,"vac":true,"version":"7882260","steam_id":85568392924964314,"keywords":["cp","nocrits","nodmgspread","uncletopia"],"game_id":440,"stv_port":27076,"stv_name":"Uncletopia | London | 7 | No Payload | STV","players":[{"user_id":146,"name":"elsuedi","steam_id":76561198074722832,"connected_time":1353000000000,"state":"active","ping":60},{"user_id":93,"name":"ArtaKir","steam_id":76561198291746440,"connected_time":4534000000000,"state":"active","ping":87},{"user_id":105,"name":"Top 5 Goblin sightings (real)","steam_id":76561198082502910,"connected_time":3956000000000,"state":"active","ping":62},{"user_id":130,"name":"Maycrom","steam_id":76561198145482626,"connected_time":2491000000000,"state":"active","ping":64},{"user_id":159,"name":"static","steam_id":76561198836825741,"connected_time":124000000000,"state":"active","ping":43},{"user_id":160,"name":"‚òûLaZe‚òú","steam_id":76561198202191400,"connected_time":64000000000,"state":"active","ping":46},{"user_id":161,"name":"juicy","steam_id":76561198127264835,"connected_time":17000000000,"state":"spawning","ping":51},{"user_id":138,"name":"harbl's herbal tea","steam_id":76561198024929695,"connected_time":2138000000000,"state":"active","ping":66},{"user_id":155,"name":"throwing up","steam_id":76561198002834788,"connected_time":673000000000,"state":"active","ping":65},{"user_id":145,"name":"Fat Pigeon","steam_id":76561198817940142,"connected_time":1582000000000,"state":"active","ping":45},{"user_id":125,"name":"Cass","steam_id":76561198934205195,"connected_time":2909000000000,"state":"active","ping":57},{"user_id":149,"name":"reformed i swear","steam_id":76561198152392309,"connected_time":1121000000000,"state":"active","ping":47},{"user_id":111,"name":"WiseFree","steam_id":76561197990887750,"connected_time":3778000000000,"state":"active","ping":76},{"user_id":133,"name":"Sorcha The Wise","steam_id":76561198063220459,"connected_time":2276000000000,"state":"active","ping":54},{"user_id":140,"name":"Perci","steam_id":76561198097789669,"connected_time":2124000000000,"state":"active","ping":67},{"user_id":75,"name":"Nyhde","steam_id":76561198012771416,"connected_time":5507000000000,"state":"active","ping":112}]},{"server_id":41,"name":"Uncletopia | London | 8 | Community","name_short":"lon-8","host":"lon-1.uk.uncletopia.com","port":27085,"enabled":true,"region":"eu","cc":"gb","latitude":51.509865,"longitude":-0.118092,"reserved":0,"last_update":"0001-01-01T00:00:00Z","name_a2s":"Uncletopia | London | 8 | Community","protocol":17,"map":"workshop/koth_product_final.ugc454272353","folder":"tf","game":"Team Fortress","app_id":440,"player_count":0,"max_players":24,"Bots":0,"server_type":"Dedicated","server_os":"Linux","password":true,"vac":true,"version":"7882260","steam_id":85568392924964315,"keywords":["cp","nocrits","nodmgspread","uncletopia"],"game_id":440,"stv_port":27086,"stv_name":"Uncletopia | London | 8 | Community | STV","players":null},{"server_id":300,"name":"Uncletopia | Montr√©al | 1 | All Maps","name_short":"mtl-1","host":"mtl-1.ca.uncletopia.com","port":27015,"enabled":true,"region":"us-east","cc":"ca","latitude":45.50889,"longitude":-73.56167,"reserved":0,"last_update":"0001-01-01T00:00:00Z","name_a2s":"Uncletopia | Montr√©al | 1 | All Maps","protocol":17,"map":"koth_viaduct","folder":"tf","game":"Team Fortress","app_id":440,"player_count":0,"max_players":24,"Bots":0,"server_type":"Dedicated","server_os":"Linux","password":true,"vac":true,"version":"7882260","steam_id":85568392924500087,"keywords":["cp","nocrits","nodmgspread","uncletopia"],"game_id":440,"stv_port":27016,"stv_name":"Uncletopia | Montr√©al | 1 | All Maps | STV","players":null},{"server_id":301,"name":"Uncletopia | Montr√©al | 2 | All Maps","name_short":"mtl-2","host":"mtl-1.ca.uncletopia.com","port":27025,"enabled":true,"region":"us-east","cc":"ca","latitude":45.50889,"longitude":-73.56167,"reserved":0,"last_update":"0001-01-01T00:00:00Z","name_a2s":"Uncletopia | Montr√©al | 2 | All Maps","protocol":17,"map":"pl_snowycoast","folder":"tf","game":"Team Fortress","app_id":440,"player_count":0,"max_players":24,"Bots":0,"server_type":"Dedicated","server_os":"Linux","password":true,"vac":true,"version":"7882260","steam_id":85568392924500088,"keywords":["nocrits","nodmgspread","payload","uncletopia"],"game_id":440,"stv_port":27026,"stv_name":"Uncletopia | Montr√©al | 2 | All Maps | STV","players":null},{"server_id":302,"name":"Uncletopia | Montr√©al | 3 | All Maps","name_short":"mtl-3","host":"mtl-1.ca.uncletopia.com","port":27035,"enabled":true,"region":"us-east","cc":"ca","latitude":45.50889,"longitude":-73.56167,"reserved":0,"last_update":"0001-01-01T00:00:00Z","name_a2s":"Uncletopia | Montr√©al | 3 | All Maps","protocol":17,"map":"koth_highpass","folder":"tf","game":"Team Fortress","app_id":440,"player_count":0,"max_players":24,"Bots":0,"server_type":"Dedicated","server_os":"Linux","password":true,"vac":true,"version":"7882260","steam_id":85568392924500089,"keywords":["cp","nocrits","nodmgspread","uncletopia"],"game_id":440,"stv_port":27036,"stv_name":"Uncletopia | Montr√©al | 3 | All Maps | STV","players":null},{"server_id":303,"name":"Uncletopia | Montr√©al | 4 | No Payload","name_short":"mtl-4","host":"mtl-1.ca.uncletopia.com","port":27045,"enabled":true,"region":"us-east","cc":"ca","latitude":45.50889,"longitude":-73.56167,"reserved":0,"last_update":"0001-01-01T00:00:00Z","name_a2s":"Uncletopia | Montr√©al | 4 | No Payload","protocol":17,"map":"koth_highpass","folder":"tf","game":"Team Fortress","app_id":440,"player_count":0,"max_players":24,"Bots":0,"server_type":"Dedicated","server_os":"Linux","password":true,"vac":true,"version":"7882260","steam_id":85568392924500090,"keywords":["cp","nocrits","nodmgspread","uncletopia"],"game_id":440,"stv_port":27046,"stv_name":"Uncletopia | Montr√©al | 4 | No Payload | STV","players":null},{"server_id":13,"name":"Uncletopia | New York City | 1 | All Maps","name_short":"nyc-1","host":"nyc-1.us.uncletopia.com","port":27015,"enabled":true,"region":"us-east","cc":"us","latitude":40.73061,"longitude":-73.93524,"reserved":0,"last_update":"0001-01-01T00:00:00Z","name_a2s":"Uncletopia | New York City | 1 | All Maps","protocol":17,"map":"cp_altitude","folder":"tf","game":"Team Fortress","app_id":440,"player_count":0,"max_players":24,"Bots":0,"server_type":"Dedicated","server_os":"Linux","password":true,"vac":true,"version":"7882260","steam_id":85568392924469993,"keywords":["cp","nocrits","nodmgspread","uncletopia"],"game_id":440,"stv_port":27016,"stv_name":"Uncletopia | New York City | 1 | All Maps | STV","players":null},{"server_id":14,"name":"Uncletopia | New York City | 2 | All Maps","name_short":"nyc-2","host":"nyc-1.us.uncletopia.com","port":27025,"enabled":true,"region":"us-east","cc":"us","latitude":40.73061,"longitude":-73.93524,"reserved":0,"last_update":"0001-01-01T00:00:00Z","name_a2s":"Uncletopia | New York City | 2 | All Maps","protocol":17,"map":"pl_borneo","folder":"tf","game":"Team Fortress","app_id":440,"player_count":0,"max_players":24,"Bots":0,"server_type":"Dedicated","server_os":"Linux","password":true,"vac":true,"version":"7882260","steam_id":85568392924469994,"keywords":["nocrits","nodmgspread","payload","uncletopia"],"game_id":440,"stv_port":27026,"stv_name":"Uncletopia | New York City | 2 | All Maps | STV","players":null},{"server_id":15,"name":"Uncletopia | New York City | 3 | Stopwatch Beta","name_short":"nyc-3","host":"nyc-1.us.uncletopia.com","port":27035,"enabled":true,"region":"us-east","cc":"us","latitude":40.73061,"longitude":-73.93524,"reserved":0,"last_update":"0001-01-01T00:00:00Z","name_a2s":"Uncletopia | New York City | 3 | Stopwatch Beta","protocol":17,"map":"pl_borneo","folder":"tf","game":"Team Fortress","app_id":440,"player_count":0,"max_players":24,"Bots":0,"server_type":"Dedicated","server_os":"Linux","password":true,"vac":true,"version":"7882260","steam_id":85568392924742820,"keywords":["nocrits","nodmgspread","payload","uncletopia"],"game_id":440,"stv_port":27036,"stv_name":"Uncletopia | New York City | 3 | Stopwatch Beta | STV","players":null},{"server_id":16,"name":"Uncletopia | New York City | 4 | Community","name_short":"nyc-4","host":"nyc-1.us.uncletopia.com","port":27045,"enabled":true,"region":"us-east","cc":"us","latitude":40.73061,"longitude":-73.93524,"reserved":0,"last_update":"0001-01-01T00:00:00Z","name_a2s":"Uncletopia | New York City | 4 | Community","protocol":17,"map":"cp_altitude","folder":"tf","game":"Team Fortress","app_id":440,"player_count":0,"max_players":24,"Bots":0,"server_type":"Dedicated","server_os":"Linux","password":true,"vac":true,"version":"7882260","steam_id":85568392924742821,"keywords":["cp","nocrits","nodmgspread","uncletopia"],"game_id":440,"stv_port":27046,"stv_name":"Uncletopia | New York City | 4 | Community | STV","players":null},{"server_id":142,"name":"Uncletopia | S√£o Paulo | 1 | All Maps","name_short":"sao-1","host":"sao-1.br.uncletopia.com","port":27015,"enabled":true,"region":"sa","cc":"br","latitude":-23.533773,"longitude":-46.62529,"reserved":0,"last_update":"0001-01-01T00:00:00Z","name_a2s":"Uncletopia | S√£o Paulo | 1 | All Maps","protocol":17,"map":"pl_upward","folder":"tf","game":"Team Fortress","app_id":440,"player_count":0,"max_players":24,"Bots":0,"server_type":"Dedicated","server_os":"Linux","password":true,"vac":true,"version":"7882260","steam_id":85568392924469996,"keywords":["nocrits","nodmgspread","payload","uncletopia"],"game_id":440,"stv_port":27016,"stv_name":"Uncletopia | S√£o Paulo | 1 | All Maps | STV","players":null},{"server_id":143,"name":"Uncletopia | S√£o Paulo | 2 | All Maps","name_short":"sao-2","host":"sao-2.br.uncletopia.com","port":27015,"enabled":true,"region":"sa","cc":"br","latitude":-23.533773,"longitude":-46.62529,"reserved":0,"last_update":"0001-01-01T00:00:00Z","name_a2s":"Uncletopia | S√£o Paulo | 2 | All Maps","protocol":17,"map":"pl_borneo","folder":"tf","game":"Team Fortress","app_id":440,"player_count":0,"max_players":24,"Bots":0,"server_type":"Dedicated","server_os":"Linux","password":true,"vac":true,"version":"7882260","steam_id":85568392924485349,"keywords":["nocrits","nodmgspread","payload","uncletopia"],"game_id":440,"stv_port":27016,"stv_name":"Uncletopia | S√£o Paulo | 2 | All Maps | STV","players":null},{"server_id":7,"name":"Uncletopia | Seattle | 1 | All Maps","name_short":"sea-1","host":"sea-1.us.uncletopia.com","port":27015,"enabled":true,"region":"us-west","cc":"us","latitude":47.608013,"longitude":-122.33517,"reserved":0,"last_update":"0001-01-01T00:00:00Z","name_a2s":"Uncletopia | Seattle | 1 | All Maps","protocol":17,"map":"pl_snowycoast","folder":"tf","game":"Team Fortress","app_id":440,"player_count":20,"max_players":24,"Bots":0,"server_type":"Dedicated","server_os":"Linux","password":true,"vac":true,"version":"7882260","steam_id":85568392924469997,"keywords":["nocrits","nodmgspread","payload","uncletopia"],"game_id":440,"stv_port":27016,"stv_name":"Uncletopia | Seattle | 1 | All Maps | STV","players":[{"user_id":107,"name":"Spruce","steam_id":76561198081684676,"connected_time":567000000000,"state":"active","ping":69},{"user_id":114,"name":"thisisnotaustin","steam_id":76561198074463510,"connected_time":113000000000,"state":"active","ping":313},{"user_id":113,"name":"8th class gamer","steam_id":76561198243695590,"connected_time":119000000000,"state":"active","ping":53},{"user_id":58,"name":"Tyler\u0026Fingers","steam_id":76561198085154485,"connected_time":4407000000000,"state":"active","ping":131},{"user_id":94,"name":"Kedata","steam_id":76561198047750050,"connected_time":1664000000000,"state":"active","ping":81},{"user_id":81,"name":"mineblast99","steam_id":76561199065648954,"connected_time":3239000000000,"state":"active","ping":120},{"user_id":106,"name":"Nibotshooter","steam_id":76561199284825579,"connected_time":606000000000,"state":"active","ping":107},{"user_id":77,"name":"give up your childish dreams","steam_id":76561198164990091,"connected_time":3376000000000,"state":"active","ping":74},{"user_id":96,"name":"sobadorci","steam_id":76561198208627555,"connected_time":1655000000000,"state":"active","ping":72},{"user_id":104,"name":"Keamy","steam_id":76561199471434875,"connected_time":962000000000,"state":"active","ping":40},{"user_id":105,"name":"AmiableNebula","steam_id":76561198094306627,"connected_time":739000000000,"state":"active","ping":73},{"user_id":71,"name":"Cookie Dough","steam_id":76561198975607081,"connected_time":3701000000000,"state":"active","ping":102},{"user_id":57,"name":"Integral","steam_id":76561198158225481,"connected_time":4532000000000,"state":"active","ping":63},{"user_id":103,"name":"ray (the based god)","steam_id":76561198311984941,"connected_time":1100000000000,"state":"active","ping":90},{"user_id":72,"name":"2008 Toyota Corolla","steam_id":76561199053589114,"connected_time":3678000000000,"state":"active","ping":110},{"user_id":90,"name":"monkey squirts","steam_id":76561197983101644,"connected_time":2065000000000,"state":"active","ping":66},{"user_id":100,"name":"„Åµ„Çè„Åµ„ÇèÊØõÂ∏É","steam_id":76561198088403016,"connected_time":1584000000000,"state":"active","ping":150},{"user_id":83,"name":"Mr. Computer","steam_id":76561198136878831,"connected_time":3204000000000,"state":"active","ping":55},{"user_id":84,"name":"Biden Blast","steam_id":76561198366729030,"connected_time":3196000000000,"state":"active","ping":75},{"user_id":109,"name":"Astronat","steam_id":76561198096321896,"connected_time":326000000000,"state":"active","ping":62}]},{"server_id":119,"name":"Uncletopia | Seattle | 2 | All Maps","name_short":"sea-2","host":"sea-1.us.uncletopia.com","port":27025,"enabled":true,"region":"us-west","cc":"us","latitude":47.608013,"longitude":-122.33517,"reserved":0,"last_update":"0001-01-01T00:00:00Z","name_a2s":"Uncletopia | Seattle | 2 | All Maps","protocol":17,"map":"pl_upward","folder":"tf","game":"Team Fortress","app_id":440,"player_count":0,"max_players":24,"Bots":0,"server_type":"Dedicated","server_os":"Linux","password":true,"vac":true,"version":"7882260","steam_id":85568392924469998,"keywords":["nocrits","nodmgspread","payload","uncletopia"],"game_id":440,"stv_port":27026,"stv_name":"Uncletopia | Seattle | 2 | All Maps | STV","players":null},{"server_id":406,"name":"Uncletopia | Seattle | 3 | Stopwatch Beta","name_short":"sea-3","host":"sea-1.us.uncletopia.com","port":27035,"enabled":true,"region":"us-west","cc":"us","latitude":47.608013,"longitude":-122.33517,"reserved":0,"last_update":"0001-01-01T00:00:00Z","name_a2s":"Uncletopia | Seattle | 3 | Stopwatch Beta","protocol":17,"map":"koth_viaduct","folder":"tf","game":"Team Fortress","app_id":440,"player_count":0,"max_players":24,"Bots":0,"server_type":"Dedicated","server_os":"Linux","password":true,"vac":true,"version":"7882260","steam_id":85568392924515217,"keywords":["cp","nocrits","nodmgspread","uncletopia"],"game_id":440,"stv_port":27036,"stv_name":"Uncletopia | Seattle | 3 | Stopwatch Beta | STV","players":null},{"server_id":17,"name":"Uncletopia | San Francisco | 1 | All Maps","name_short":"sfo-1","host":"sfo-1.us.uncletopia.com","port":27015,"enabled":true,"region":"us-west","cc":"us","latitude":37.77397,"longitude":-122.4313,"reserved":0,"last_update":"0001-01-01T00:00:00Z","name_a2s":"Uncletopia | San Francisco | 1 | All Maps","protocol":17,"map":"pl_pier","folder":"tf","game":"Team Fortress","app_id":440,"player_count":0,"max_players":24,"Bots":0,"server_type":"Dedicated","server_os":"Linux","password":true,"vac":true,"version":"7882260","steam_id":85568392924469999,"keywords":["nocrits","nodmgspread","payload","uncletopia"],"game_id":440,"stv_port":27016,"stv_name":"Uncletopia | San Francisco | 1 | All Maps | STV","players":null},{"server_id":18,"name":"Uncletopia | San Francisco | 2 | All Maps","name_short":"sfo-2","host":"sfo-1.us.uncletopia.com","port":27025,"enabled":true,"region":"us-west","cc":"us","latitude":37.77397,"longitude":-122.4313,"reserved":0,"last_update":"0001-01-01T00:00:00Z","name_a2s":"Uncletopia | San Francisco | 2 | All Maps","protocol":17,"map":"pl_frontier_final","folder":"tf","game":"Team Fortress","app_id":440,"player_count":0,"max_players":24,"Bots":0,"server_type":"Dedicated","server_os":"Linux","password":true,"vac":true,"version":"7882260","steam_id":85568392924470000,"keywords":["nocrits","nodmgspread","payload","uncletopia"],"game_id":440,"stv_port":27026,"stv_name":"Uncletopia | San Francisco | 2 | All Maps | STV","players":null},{"server_id":19,"name":"Uncletopia | San Francisco | 3 | Stopwatch Beta","name_short":"sfo-3","host":"sfo-1.us.uncletopia.com","port":27035,"enabled":true,"region":"us-west","cc":"us","latitude":37.77397,"longitude":-122.4313,"reserved":0,"last_update":"0001-01-01T00:00:00Z","name_a2s":"Uncletopia | San Francisco | 3 | Stopwatch Beta","protocol":17,"map":"pl_snowycoast","folder":"tf","game":"Team Fortress","app_id":440,"player_count":0,"max_players":24,"Bots":0,"server_type":"Dedicated","server_os":"Linux","password":true,"vac":true,"version":"7882260","steam_id":85568392924742824,"keywords":["nocrits","nodmgspread","payload","uncletopia"],"game_id":440,"stv_port":27036,"stv_name":"Uncletopia | San Francisco | 3 | Stopwatch Beta | STV","players":null},{"server_id":20,"name":"Uncletopia | San Francisco | 4 | Community","name_short":"sfo-4","host":"sfo-1.us.uncletopia.com","port":27045,"enabled":true,"region":"us-west","cc":"us","latitude":37.77397,"longitude":-122.4313,"reserved":0,"last_update":"0001-01-01T00:00:00Z","name_a2s":"Uncletopia | San Francisco | 4 | Community","protocol":17,"map":"pl_swiftwater_final1","folder":"tf","game":"Team Fortress","app_id":440,"player_count":0,"max_players":24,"Bots":0,"server_type":"Dedicated","server_os":"Linux","password":true,"vac":true,"version":"7882260","steam_id":85568392924742826,"keywords":["nocrits","nodmgspread","payload","uncletopia"],"game_id":440,"stv_port":27046,"stv_name":"Uncletopia | San Francisco | 4 | Community | STV","players":null},{"server_id":141,"name":"Uncletopia | Sydney | 1 | All Maps","name_short":"syd-1","host":"syd-1.au.uncletopia.com","port":27015,"enabled":true,"region":"au","cc":"au","latitude":-33.865143,"longitude":151.2099,"reserved":0,"last_update":"0001-01-01T00:00:00Z","name_a2s":"Uncletopia | Sydney | 1 | All Maps","protocol":17,"map":"koth_highpass","folder":"tf","game":"Team Fortress","app_id":440,"player_count":0,"max_players":24,"Bots":0,"server_type":"Dedicated","server_os":"Linux","password":true,"vac":true,"version":"7882260","steam_id":85568392924470001,"keywords":["cp","nocrits","nodmgspread","uncletopia"],"game_id":440,"stv_port":27016,"stv_name":"Uncletopia | Sydney | 1 | All Maps | STV","players":null},{"server_id":123,"name":"Uncletopia | Sydney | 2 | All Maps","name_short":"syd-2","host":"syd-1.au.uncletopia.com","port":27025,"enabled":true,"region":"au","cc":"au","latitude":-33.865143,"longitude":151.2099,"reserved":0,"last_update":"0001-01-01T00:00:00Z","name_a2s":"Uncletopia | Sydney | 2 | All Maps","protocol":17,"map":"koth_lakeside_final","folder":"tf","game":"Team Fortress","app_id":440,"player_count":0,"max_players":24,"Bots":0,"server_type":"Dedicated","server_os":"Linux","password":true,"vac":true,"version":"7882260","steam_id":85568392924470002,"keywords":["cp","nocrits","nodmgspread","uncletopia"],"game_id":440,"stv_port":27026,"stv_name":"Uncletopia | Sydney | 2 | All Maps | STV","players":null},{"server_id":395,"name":"Uncletopia | Sydney | 3 | All Maps","name_short":"syd-3","host":"syd-1.au.uncletopia.com","port":27035,"enabled":true,"region":"au","cc":"au","latitude":-33.865143,"longitude":151.2099,"reserved":0,"last_update":"0001-01-01T00:00:00Z","name_a2s":"Uncletopia | Sydney | 3 | All Maps","protocol":17,"map":"cp_sunshine","folder":"tf","game":"Team Fortress","app_id":440,"player_count":0,"max_players":24,"Bots":0,"server_type":"Dedicated","server_os":"Linux","password":true,"vac":true,"version":"7882260","steam_id":85568392925194467,"keywords":["cp","nocrits","nodmgspread","uncletopia"],"game_id":440,"stv_port":27036,"stv_name":"Uncletopia | Sydney | 3 | All Maps | STV","players":null},{"server_id":396,"name":"Uncletopia | Sydney | 4 | All Maps","name_short":"syd-4","host":"syd-1.au.uncletopia.com","port":27045,"enabled":true,"region":"au","cc":"au","latitude":-33.865143,"longitude":151.2099,"reserved":0,"last_update":"0001-01-01T00:00:00Z","name_a2s":"Uncletopia | Sydney | 4 | All Maps","protocol":17,"map":"pl_badwater","folder":"tf","game":"Team Fortress","app_id":440,"player_count":0,"max_players":24,"Bots":0,"server_type":"Dedicated","server_os":"Linux","password":true,"vac":true,"version":"7882260","steam_id":85568392925397958,"keywords":["nocrits","nodmgspread","payload","uncletopia"],"game_id":440,"stv_port":27046,"stv_name":"Uncletopia | Sydney | 4 | All Maps | STV","players":null},{"server_id":58,"name":"Uncletopia | Sydney | 5 | Stopwatch Beta","name_short":"syd-5","host":"syd-1.au.uncletopia.com","port":27055,"enabled":true,"region":"au","cc":"au","latitude":-33.865143,"longitude":151.2099,"reserved":0,"last_update":"0001-01-01T00:00:00Z","name_a2s":"Uncletopia | Sydney | 5 | Stopwatch Beta","protocol":17,"map":"koth_viaduct","folder":"tf","game":"Team Fortress","app_id":440,"player_count":0,"max_players":24,"Bots":0,"server_type":"Dedicated","server_os":"Linux","password":true,"vac":true,"version":"7882260","steam_id":85568392925397959,"keywords":["cp","nocrits","nodmgspread","uncletopia"],"game_id":440,"stv_port":27056,"stv_name":"Uncletopia | Sydney | 5 | Stopwatch Beta | STV","players":null},{"server_id":59,"name":"Uncletopia | Sydney | 6 | Community","name_short":"syd-6","host":"syd-1.au.uncletopia.com","port":27065,"enabled":true,"region":"au","cc":"au","latitude":-33.865143,"longitude":151.2099,"reserved":0,"last_update":"0001-01-01T00:00:00Z","name_a2s":"Uncletopia | Sydney | 6 | Community","protocol":17,"map":"workshop/koth_ramjam_rc1.ugc459778887","folder":"tf","game":"Team Fortress","app_id":440,"player_count":0,"max_players":24,"Bots":0,"server_type":"Dedicated","server_os":"Linux","password":true,"vac":true,"version":"7882260","steam_id":85568392925397960,"keywords":["cp","nocrits","nodmgspread","uncletopia"],"game_id":440,"stv_port":27066,"stv_name":"Uncletopia | Sydney | 6 | Community | STV","players":null},{"server_id":49,"name":"Uncletopia | Warsaw | 1 | All Maps","name_short":"waw-1","host":"waw-1.pl.uncletopia.com","port":27015,"enabled":true,"region":"eu","cc":"pl","latitude":52.2297,"longitude":21.017532,"reserved":0,"last_update":"0001-01-01T00:00:00Z","name_a2s":"","protocol":0,"map":"","folder":"","game":"","app_id":0,"player_count":0,"max_players":0,"Bots":0,"server_type":"","server_os":"","password":false,"vac":false,"version":"","steam_id":0,"keywords":null,"game_id":0,"stv_port":0,"stv_name":"","players":null},{"server_id":50,"name":"Uncletopia | Warsaw | 2 | All Maps","name_short":"waw-2","host":"waw-1.pl.uncletopia.com","port":27025,"enabled":true,"region":"eu","cc":"pl","latitude":52.2297,"longitude":21.017532,"reserved":0,"last_update":"0001-01-01T00:00:00Z","name_a2s":"Uncletopia | Warsaw | 2 | All Maps","protocol":17,"map":"pl_swiftwater_final1","folder":"tf","game":"Team Fortress","app_id":440,"player_count":0,"max_players":24,"Bots":0,"server_type":"Dedicated","server_os":"Linux","password":true,"vac":true,"version":"7882260","steam_id":85568392925397851,"keywords":["nocrits","nodmgspread","payload","uncletopia"],"game_id":440,"stv_port":27026,"stv_name":"Uncletopia | Warsaw | 2 | All Maps | STV","players":null},{"server_id":51,"name":"Uncletopia | Warsaw | 3 | All Maps","name_short":"waw-3","host":"waw-1.pl.uncletopia.com","port":27035,"enabled":true,"region":"eu","cc":"pl","latitude":52.2297,"longitude":21.017532,"reserved":0,"last_update":"0001-01-01T00:00:00Z","name_a2s":"Uncletopia | Warsaw | 3 | All Maps","protocol":17,"map":"koth_lakeside_final","folder":"tf","game":"Team Fortress","app_id":440,"player_count":0,"max_players":24,"Bots":0,"server_type":"Dedicated","server_os":"Linux","password":true,"vac":true,"version":"7882260","steam_id":85568392925397852,"keywords":["cp","nocrits","nodmgspread","uncletopia"],"game_id":440,"stv_port":27036,"stv_name":"Uncletopia | Warsaw | 3 | All Maps | STV","players":null},{"server_id":52,"name":"Uncletopia | Warsaw | 4 | All Maps","name_short":"waw-4","host":"waw-1.pl.uncletopia.com","port":27045,"enabled":true,"region":"eu","cc":"pl","latitude":52.2297,"longitude":21.017532,"reserved":0,"last_update":"0001-01-01T00:00:00Z","name_a2s":"Uncletopia | Warsaw | 4 | All Maps","protocol":17,"map":"koth_cascade","folder":"tf","game":"Team Fortress","app_id":440,"player_count":0,"max_players":24,"Bots":0,"server_type":"Dedicated","server_os":"Linux","password":true,"vac":true,"version":"7882260","steam_id":85568392925397853,"keywords":["cp","nocrits","nodmgspread","uncletopia"],"game_id":440,"stv_port":27046,"stv_name":"Uncletopia | Warsaw | 4 | All Maps | STV","players":null},{"server_id":53,"name":"Uncletopia | Warsaw | 5 | Stopwatch Beta","name_short":"waw-5","host":"waw-1.pl.uncletopia.com","port":27055,"enabled":true,"region":"eu","cc":"pl","latitude":52.2297,"longitude":21.017532,"reserved":0,"last_update":"0001-01-01T00:00:00Z","name_a2s":"Uncletopia | Warsaw | 5 | Stopwatch Beta","protocol":17,"map":"cp_sunshine","folder":"tf","game":"Team Fortress","app_id":440,"player_count":0,"max_players":24,"Bots":0,"server_type":"Dedicated","server_os":"Linux","password":true,"vac":true,"version":"7882260","steam_id":85568392925397854,"keywords":["cp","nocrits","nodmgspread","uncletopia"],"game_id":440,"stv_port":27056,"stv_name":"Uncletopia | Warsaw | 5 | Stopwatch Beta | STV","players":null},{"server_id":54,"name":"Uncletopia | Warsaw | 6 | Community","name_short":"waw-6","host":"waw-1.pl.uncletopia.com","port":27065,"enabled":true,"region":"eu","cc":"pl","latitude":52.2297,"longitude":21.017532,"reserved":0,"last_update":"0001-01-01T00:00:00Z","name_a2s":"Uncletopia | Warsaw | 6 | Community","protocol":17,"map":"workshop/koth_ashville_final.ugc2130459942","folder":"tf","game":"Team Fortress","app_id":440,"player_count":0,"max_players":24,"Bots":0,"server_type":"Dedicated","server_os":"Linux","password":true,"vac":true,"version":"7882260","steam_id":85568392925397856,"keywords":["cp","nocrits","nodmgspread","uncletopia"],"game_id":440,"stv_port":27066,"stv_name":"Uncletopia | Warsaw | 6 | Community | STV","players":null}]}