{"status":true,"message":"","result":[{"server_id":9,"name":"Uncletopia | Atlanta | 1 | All Maps","name_short":"atl-1","host":"atl-1.us.uncletopia.com","port":27015,"enabled":true,"region":"us-east","cc":"us","latitude":33.753746,"longitude":-84.38633,"reserved":0,"last_update":"0001-01-01T00:00:00Z","name_a2s":"Uncletopia | Atlanta | 1 | All Maps","protocol":17,"map":"pl_upward","folder":"tf","game":"Team Fortress","app_id":440,"player_count":12,"max_players":24,"Bots":0,"server_type":"Dedicated","server_os":"Linux","password":true,"vac":true,"version":"7961495","steam_id":85568392924469982,"keywords":["nocrits","nodmgspread","payload","uncletopia"],"game_id":440,"stv_port":27016,"stv_name":"Uncletopia | Atlanta | 1 | All Maps | STV","players":null},{"server_id":104,"name":"Uncletopia | Atlanta | 2 | All Maps","name_short":"atl-2","host":"atl-1.us.uncletopia.com","port":27025,"enabled":true,"region":"us-east","cc":"us","latitude":33.753746,"longitude":-84.38633,"reserved":0,"last_update":"0001-01-01T00:00:00Z","name_a2s":"","protocol":0,"map":"","folder":"","game":"","app_id":0,"player_count":0,"max_players":0,"Bots":0,"server_type":"","server_os":"","password":false,"vac":false,"version":"","steam_id":0,"keywords":null,"game_id":0,"stv_port":0,"stv_name":"","players":null},{"server_id":400,"name":"Uncletopia | Atlanta | 3 | All Maps","name_short":"atl-3","host":"atl-1.us.uncletopia.com","port":27035,"enabled":true,"region":"us-east","cc":"us","latitude":33.753746,"longitude":-84.38633,"reserved":0,"last_update":"0001-01-01T00:00:00Z","name_a2s":"","protocol":0,"map":"","folder":"","game":"","app_id":0,"player_count":0,"max_players":0,"Bots":0,"server_type":"","server_os":"","password":false,"vac":false,"version":"","steam_id":0,"keywords":null,"game_id":0,"stv_port":0,"stv_name":"","players":null},{"server_id":401,"name":"Uncletopia | Atlanta | 4 | Community","name_short":"atl-4","host":"atl-1.us.uncletopia.com","port":27045,"enabled":true,"region":"us-east","cc":"us","latitude":33.753746,"longitude":-84.38633,"reserved":0,"last_update":"0001-01-01T00:00:00Z","name_a2s":"","protocol":0,"map":"","folder":"","game":"","app_id":0,"player_count":0,"max_players":0,"Bots":0,"server_type":"","server_os":"","password":false,"vac":false,"version":"","steam_id":0,"keywords":null,"game_id":0,"stv_port":0,"stv_name":"","players":null},{"server_id":2,"name":"Uncletopia | Chicago | 1 | All Maps","name_short":"chi-1","host":"chi-1.us.uncletopia.com","port":27015,"enabled":true,"region":"us-central","cc":"us","latitude":41.881832,"longitude":-87.62318,"reserved":0,"last_update":"0001-01-01T00:00:00Z","name_a2s":"Uncletopia | Chicago | 1 | All Maps","protocol":17,"map":"pl_snowycoast","folder":"tf","game":"Team Fortress","app_id":440,"player_count":24,"max_players":24,"Bots":0,"server_type":"Dedicated","server_os":"Linux","password":true,"vac":true,"version":"7961495","steam_id":85568392924469984,"keywords":["nocrits","nodmgspread","payload","uncletopia"],"game_id":440,"stv_port":27016,"stv_name":"Uncletopia | Chicago | 1 | All Maps | STV","players":[{"user_id":619,"name":"Gram Tokers Count Doinkula","steam_id":76561198112811565,"connected_time":3911000000000,"state":"active","ping":71},{"user_id":667,"name":"孫子","steam_id":76561198083112681,"connected_time":537000000000,"state":"active","ping":57},{"user_id":567,"name":"seldom","steam_id":76561198166193756,"connected_time":10008000000000,"state":"active","ping":74},{"user_id":666,"name":"eish","steam_id":76561198089463603,"connected_time":556000000000,"state":"active","ping":131},{"user_id":661,"name":"Lefty","steam_id":76561199155446396,"connected_time":966000000000,"state":"active","ping":109},{"user_id":672,"name":"TheArachnidGamer","steam_id":76561198304986752,"connected_time":304000000000,"state":"active","ping":76},{"user_id":674,"name":"Chicken Burger","steam_id":76561198358529311,"connected_time":63000000000,"state":"active","ping":110},{"user_id":664,"name":"Wingsaber","steam_id":76561198045010390,"connected_time":830000000000,"state":"active","ping":61},{"user_id":665,"name":"Sophie","steam_id":76561198170408057,"connected_time":620000000000,"state":"active","ping":59},{"user_id":637,"name":"Ashes!","steam_id":76561197998475441,"connected_time":2854000000000,"state":"active","ping":92},{"user_id":648,"name":"Bodhi (she/they)","steam_id":76561198103230995,"connected_time":1895000000000,"state":"active","ping":80},{"user_id":653,"name":"JakeK","steam_id":76561198149375504,"connected_time":1833000000000,"state":"active","ping":66},{"user_id":633,"name":"icyy","steam_id":76561198968001329,"connected_time":3500000000000,"state":"active","ping":61},{"user_id":654,"name":"Dragus","steam_id":76561198032967285,"connected_time":1830000000000,"state":"active","ping":48},{"user_id":668,"name":"Five","steam_id":76561198026640473,"connected_time":494000000000,"state":"active","ping":65},{"user_id":615,"name":"Wizard Raccoon","steam_id":76561198072562591,"connected_time":5077000000000,"state":"active","ping":80},{"user_id":673,"name":"Alecto","steam_id":76561198042476864,"connected_time":284000000000,"state":"active","ping":45},{"user_id":620,"name":"Oddball","steam_id":76561198040440984,"connected_time":3908000000000,"state":"active","ping":73},{"user_id":663,"name":"D0g","steam_id":76561198165312893,"connected_time":949000000000,"state":"active","ping":74},{"user_id":628,"name":"Urbanzpinapple","steam_id":76561198115426938,"connected_time":3774000000000,"state":"active","ping":100},{"user_id":638,"name":"Laogh Marbh","steam_id":76561198115240256,"connected_time":2842000000000,"state":"active","ping":56},{"user_id":659,"name":"Epicmullen","steam_id":76561198259850795,"connected_time":1480000000000,"state":"active","ping":72},{"user_id":640,"name":"Phos","steam_id":76561198122339506,"connected_time":2572000000000,"state":"active","ping":77},{"user_id":671,"name":"Hythreon","steam_id":76561198083031622,"connected_time":481000000000,"state":"active","ping":107}]},{"server_id":106,"name":"Uncletopia | Chicago | 2 | All Maps","name_short":"chi-2","host":"chi-1.us.uncletopia.com","port":27025,"enabled":true,"region":"us-central","cc":"us","latitude":41.881832,"longitude":-87.62318,"reserved":0,"last_update":"0001-01-01T00:00:00Z","name_a2s":"Uncletopia | Chicago | 2 | All Maps","protocol":17,"map":"pl_badwater","folder":"tf","game":"Team Fortress","app_id":440,"player_count":24,"max_players":24,"Bots":0,"server_type":"Dedicated","server_os":"Linux","password":true,"vac":true,"version":"7961495","steam_id":85568392924469985,"keywords":["nocrits","nodmgspread","payload","uncletopia"],"game_id":440,"stv_port":27026,"stv_name":"Uncletopia | Chicago | 2 | All Maps | STV","players":[{"user_id":1050,"name":"InvaderAlex","steam_id":76561198039232451,"connected_time":263000000000,"state":"active","ping":85},{"user_id":1033,"name":"Cork","steam_id":76561198398918486,"connected_time":1647000000000,"state":"active","ping":66},{"user_id":1042,"name":"blorp","steam_id":76561198054677742,"connected_time":1125000000000,"state":"active","ping":98},{"user_id":986,"name":"Narlax","steam_id":76561198852832741,"connected_time":3594000000000,"state":"active","ping":86},{"user_id":1019,"name":"DRUMMY GRAMMY","steam_id":76561198047642540,"connected_time":2833000000000,"state":"active","ping":84},{"user_id":1045,"name":"Miami \"The Cunnysseur\" Zeal","steam_id":76561198124558226,"connected_time":894000000000,"state":"active","ping":105},{"user_id":1026,"name":"Ceige (redemption arc)","steam_id":76561198068538473,"connected_time":2621000000000,"state":"active","ping":78},{"user_id":1046,"name":"breathing meat donut","steam_id":76561198123566649,"connected_time":860000000000,"state":"active","ping":141},{"user_id":1049,"name":"mike","steam_id":76561198163265338,"connected_time":633000000000,"state":"active","ping":90},{"user_id":1035,"name":"Pork Tenderloin","steam_id":76561198138663842,"connected_time":1612000000000,"state":"active","ping":57},{"user_id":1020,"name":"Yakul","steam_id":76561198100040013,"connected_time":2816000000000,"state":"active","ping":83},{"user_id":766,"name":"Jovo","steam_id":76561197993265970,"connected_time":9197000000000,"state":"active","ping":74},{"user_id":846,"name":"Flexo","steam_id":76561198111618506,"connected_time":6083000000000,"state":"active","ping":131},{"user_id":1031,"name":"kite","steam_id":76561198346516392,"connected_time":1659000000000,"state":"active","ping":85},{"user_id":1036,"name":"Moth Beam","steam_id":76561198005069202,"connected_time":1591000000000,"state":"active","ping":70},{"user_id":1040,"name":"cyber.genius","steam_id":76561198034121017,"connected_time":1323000000000,"state":"active","ping":72},{"user_id":1032,"name":"Spike","steam_id":76561198141356571,"connected_time":1649000000000,"state":"active","ping":61},{"user_id":1027,"name":"Maxxycat","steam_id":76561198194062681,"connected_time":2414000000000,"state":"active","ping":58},{"user_id":1030,"name":"lcd soundsystem","steam_id":76561198207881077,"connected_time":1912000000000,"state":"active","ping":82},{"user_id":1028,"name":"Fluffeline","steam_id":76561198352909489,"connected_time":2340000000000,"state":"active","ping":148},{"user_id":990,"name":"smegma male","steam_id":76561197970450546,"connected_time":3414000000000,"state":"active","ping":118},{"user_id":1044,"name":"SoldMyKidneyForCollege","steam_id":76561198096329559,"connected_time":923000000000,"state":"active","ping":95},{"user_id":1048,"name":"John16Mark","steam_id":76561198119445407,"connected_time":650000000000,"state":"active","ping":91},{"user_id":1041,"name":"Ellis McGruber","steam_id":76561198060739536,"connected_time":1319000000000,"state":"active","ping":71}]},{"server_id":402,"name":"Uncletopia | Chicago | 3 | All Maps","name_short":"chi-3","host":"chi-1.us.uncletopia.com","port":27035,"enabled":true,"region":"us-central","cc":"us","latitude":41.881832,"longitude":-87.62318,"reserved":0,"last_update":"0001-01-01T00:00:00Z","name_a2s":"Uncletopia | Chicago | 3 | All Maps","protocol":17,"map":"pl_pier","folder":"tf","game":"Team Fortress","app_id":440,"player_count":24,"max_players":24,"Bots":0,"server_type":"Dedicated","server_os":"Linux","password":true,"vac":true,"version":"7961495","steam_id":85568392924515191,"keywords":["nocrits","nodmgspread","payload","uncletopia"],"game_id":440,"stv_port":27036,"stv_name":"Uncletopia | Chicago | 3 | All Maps | STV","players":[{"user_id":809,"name":"Ruins","steam_id":76561198140372785,"connected_time":2911000000000,"state":"active","ping":60},{"user_id":839,"name":"Fstev ✘","steam_id":76561198358766202,"connected_time":294000000000,"state":"active","ping":146},{"user_id":826,"name":"LerN","steam_id":76561198083463877,"connected_time":672000000000,"state":"active","ping":59},{"user_id":784,"name":"Fiendish Frog","steam_id":76561198029478821,"connected_time":3892000000000,"state":"active","ping":72},{"user_id":821,"name":"stedman slick","steam_id":76561198088599835,"connected_time":2083000000000,"state":"active","ping":71},{"user_id":709,"name":"Amoxicilina","steam_id":76561198168486429,"connected_time":11545000000000,"state":"active","ping":122},{"user_id":774,"name":"femboy toucher","steam_id":76561198087039429,"connected_time":6116000000000,"state":"active","ping":76},{"user_id":785,"name":"Lee?","steam_id":76561199060892634,"connected_time":3892000000000,"state":"active","ping":78},{"user_id":838,"name":"aphexjh","steam_id":76561197985854658,"connected_time":417000000000,"state":"active","ping":56},{"user_id":786,"name":"newport menthol 100s CEO","steam_id":76561198050976060,"connected_time":3881000000000,"state":"active","ping":45},{"user_id":833,"name":"Bush.exe","steam_id":76561198124385307,"connected_time":557000000000,"state":"active","ping":72},{"user_id":818,"name":"AnonWithAHatOn","steam_id":76561199199586340,"connected_time":2137000000000,"state":"active","ping":108},{"user_id":743,"name":"carly rae jepsen","steam_id":76561198336144991,"connected_time":9677000000000,"state":"active","ping":62},{"user_id":829,"name":"Xyverle","steam_id":76561198799726415,"connected_time":630000000000,"state":"active","ping":60},{"user_id":832,"name":"dicksnip","steam_id":76561198356515396,"connected_time":577000000000,"state":"active","ping":77},{"user_id":831,"name":"gatorbelt","steam_id":76561198145784505,"connected_time":590000000000,"state":"active","ping":105},{"user_id":810,"name":"too funky ᗜˬᗜ","steam_id":76561199120399776,"connected_time":2905000000000,"state":"active","ping":94},{"user_id":696,"name":"RusticCarp42989","steam_id":76561198361151865,"connected_time":12351000000000,"state":"active","ping":131},{"user_id":777,"name":"Fat lazy useless Engineer","steam_id":76561199020244051,"connected_time":5081000000000,"state":"active","ping":95},{"user_id":707,"name":"SiltyStar85","steam_id":76561198309175923,"connected_time":11726000000000,"state":"active","ping":74},{"user_id":834,"name":"❤To Lazy❤","steam_id":76561198164211904,"connected_time":552000000000,"state":"active","ping":104},{"user_id":835,"name":"HundchenTanque","steam_id":76561198122692754,"connected_time":534000000000,"state":"active","ping":58},{"user_id":836,"name":"Vega","steam_id":76561198141126883,"connected_time":532000000000,"state":"active","ping":91},{"user_id":837,"name":"❤MsHikaruu❤","steam_id":76561198970481882,"connected_time":518000000000,"state":"active","ping":145}]},{"server_id":403,"name":"Uncletopia | Chicago | 4 | All Maps","name_short":"chi-4","host":"chi-1.us.uncletopia.com","port":27045,"enabled":true,"region":"us-central","cc":"us","latitude":41.881832,"longitude":-87.62318,"reserved":0,"last_update":"0001-01-01T00:00:00Z","name_a2s":"Uncletopia | Chicago | 4 | All Maps","protocol":17,"map":"pl_rumford_event","folder":"tf","game":"Team Fortress","app_id":440,"player_count":1,"max_players":24,"Bots":0,"server_type":"Dedicated","server_os":"Linux","password":true,"vac":true,"version":"7961495","steam_id":85568392924515193,"keywords":["nocrits","nodmgspread","payload","uncletopia"],"game_id":440,"stv_port":27046,"stv_name":"Uncletopia | Chicago | 4 | All Maps | STV","players":[{"user_id":363,"name":"Irritated Duck","steam_id":76561198247792076,"connected_time":2537000000000,"state":"active","ping":133}]},{"server_id":36,"name":"Uncletopia | Chicago | 5 | All Maps","name_short":"chi-5","host":"chi-2.us.uncletopia.com","port":27015,"enabled":true,"region":"us-central","cc":"us","latitude":41.881832,"longitude":-87.62318,"reserved":0,"last_update":"0001-01-01T00:00:00Z","name_a2s":"Uncletopia | Chicago | 5 | All Maps","protocol":17,"map":"cp_process_final","folder":"tf","game":"Team Fortress","app_id":440,"player_count":22,"max_players":24,"Bots":0,"server_type":"Dedicated","server_os":"Linux","password":true,"vac":true,"version":"7961495","steam_id":85568392924866362,"keywords":["cp","nocrits","nodmgspread","uncletopia"],"game_id":440,"stv_port":27016,"stv_name":"Uncletopia | Chicago | 5 | All Maps | STV","players":[{"user_id":446,"name":"Stranger in a Strange Land","steam_id":76561198049843671,"connected_time":22000000000,"state":"spawning","ping":45},{"user_id":443,"name":"Soy","steam_id":76561198015120487,"connected_time":571000000000,"state":"active","ping":57},{"user_id":434,"name":"DFR DeezNoodlez","steam_id":76561198246700372,"connected_time":954000000000,"state":"active","ping":75},{"user_id":436,"name":"big boobs","steam_id":76561198151150175,"connected_time":861000000000,"state":"active","ping":57},{"user_id":429,"name":"Le4n!!!","steam_id":76561198045522596,"connected_time":1946000000000,"state":"active","ping":85},{"user_id":418,"name":"gendermutt","steam_id":76561198152857317,"connected_time":2772000000000,"state":"active","ping":49},{"user_id":437,"name":"maxie!","steam_id":76561197962607364,"connected_time":857000000000,"state":"active","ping":69},{"user_id":301,"name":"x","steam_id":76561198013735714,"connected_time":12882000000000,"state":"active","ping":76},{"user_id":438,"name":"Bytor2121","steam_id":76561197991263350,"connected_time":854000000000,"state":"active","ping":34},{"user_id":396,"name":"t","steam_id":76561198175988929,"connected_time":5282000000000,"state":"active","ping":65},{"user_id":431,"name":"spoon","steam_id":76561198927517471,"connected_time":963000000000,"state":"active","ping":75},{"user_id":444,"name":"feliser","steam_id":76561198084336096,"connected_time":499000000000,"state":"active","ping":52},{"user_id":409,"name":"CherriKat","steam_id":76561198821297512,"connected_time":3780000000000,"state":"active","ping":101},{"user_id":408,"name":"Trout Mask Replica","steam_id":76561198069814977,"connected_time":3803000000000,"state":"active","ping":71},{"user_id":439,"name":"Wingm4n","steam_id":76561198064127012,"connected_time":817000000000,"state":"active","ping":65},{"user_id":427,"name":"...like clockwork","steam_id":76561198904898274,"connected_time":2510000000000,"state":"active","ping":83},{"user_id":445,"name":"Synergy","steam_id":76561198098630198,"connected_time":214000000000,"state":"active","ping":105},{"user_id":414,"name":"Temm32","steam_id":76561198440657154,"connected_time":3140000000000,"state":"active","ping":83},{"user_id":390,"name":"Ace Chromatica","steam_id":76561198042211131,"connected_time":5858000000000,"state":"active","ping":53},{"user_id":373,"name":"Lego Yoda","steam_id":76561199008362890,"connected_time":8361000000000,"state":"active","ping":67},{"user_id":428,"name":"loot","steam_id":76561198069954956,"connected_time":2040000000000,"state":"active","ping":60},{"user_id":305,"name":"corntent","steam_id":76561198824847948,"connected_time":12842000000000,"state":"active","ping":60}]},{"server_id":37,"name":"Uncletopia | Chicago | 6 | All Maps","name_short":"chi-6","host":"chi-2.us.uncletopia.com","port":27025,"enabled":true,"region":"us-central","cc":"us","latitude":41.881832,"longitude":-87.62318,"reserved":0,"last_update":"0001-01-01T00:00:00Z","name_a2s":"Uncletopia | Chicago | 6 | All Maps","protocol":17,"map":"pl_borneo","folder":"tf","game":"Team Fortress","app_id":440,"player_count":24,"max_players":24,"Bots":0,"server_type":"Dedicated","server_os":"Linux","password":true,"vac":true,"version":"7961495","steam_id":85568392924866363,"keywords":["nocrits","nodmgspread","payload","uncletopia"],"game_id":440,"stv_port":27026,"stv_name":"Uncletopia | Chicago | 6 | All Maps | STV","players":[{"user_id":333,"name":"uhooter","steam_id":76561198007829078,"connected_time":2785000000000,"state":"active","ping":51},{"user_id":346,"name":"Pean-Sus","steam_id":76561198007904330,"connected_time":1028000000000,"state":"active","ping":74},{"user_id":352,"name":"JAke","steam_id":76561198141382684,"connected_time":533000000000,"state":"active","ping":75},{"user_id":347,"name":"Strange Festive Femboy","steam_id":76561198050385093,"connected_time":789000000000,"state":"active","ping":83},{"user_id":318,"name":"wakeupbdot","steam_id":76561198160786631,"connected_time":3067000000000,"state":"active","ping":62},{"user_id":349,"name":"Julage","steam_id":76561198313058677,"connected_time":698000000000,"state":"active","ping":84},{"user_id":282,"name":"Hipkid81","steam_id":76561198209679029,"connected_time":6486000000000,"state":"active","ping":91},{"user_id":350,"name":"Casper","steam_id":76561198142131926,"connected_time":678000000000,"state":"active","ping":75},{"user_id":351,"name":"WitheringLeo","steam_id":76561198046722918,"connected_time":624000000000,"state":"active","ping":90},{"user_id":353,"name":"maggot !","steam_id":76561199075532033,"connected_time":523000000000,"state":"active","ping":169},{"user_id":354,"name":"Plain Toast","steam_id":76561198451580251,"connected_time":420000000000,"state":"active","ping":73},{"user_id":355,"name":"Walfools","steam_id":76561198798909928,"connected_time":305000000000,"state":"active","ping":51},{"user_id":356,"name":"baby","steam_id":76561198401942740,"connected_time":287000000000,"state":"active","ping":74},{"user_id":330,"name":"Cagnus Marlsen","steam_id":76561198063341193,"connected_time":2919000000000,"state":"active","ping":64},{"user_id":357,"name":"♥Lewd Okty♥","steam_id":76561198221367292,"connected_time":244000000000,"state":"active","ping":79},{"user_id":358,"name":"♥Lewd Reaper Milf♥","steam_id":76561199471220623,"connected_time":222000000000,"state":"active","ping":89},{"user_id":345,"name":"a fuddruckers","steam_id":76561198092656099,"connected_time":1193000000000,"state":"active","ping":44},{"user_id":329,"name":"Sam2411","steam_id":76561198977695657,"connected_time":2930000000000,"state":"active","ping":92},{"user_id":243,"name":"C Papi","steam_id":76561198027779564,"connected_time":9195000000000,"state":"active","ping":59},{"user_id":361,"name":"Super3D","steam_id":76561199297779078,"connected_time":189000000000,"state":"active","ping":72},{"user_id":343,"name":"leonardo doujinshi","steam_id":76561198025810326,"connected_time":1702000000000,"state":"active","ping":76},{"user_id":360,"name":"SillyBilly","steam_id":76561199001228326,"connected_time":192000000000,"state":"active","ping":93},{"user_id":363,"name":"superx","steam_id":76561198044976613,"connected_time":146000000000,"state":"active","ping":72},{"user_id":285,"name":"the indomitable human spirit","steam_id":76561198277163301,"connected_time":6461000000000,"state":"active","ping":68}]},{"server_id":38,"name":"Uncletopia | Chicago | 7 | Stopwatch Beta","name_short":"chi-7","host":"chi-2.us.uncletopia.com","port":27035,"enabled":true,"region":"us-central","cc":"us","latitude":41.881832,"longitude":-87.62318,"reserved":0,"last_update":"0001-01-01T00:00:00Z","name_a2s":"Uncletopia | Chicago | 7 | Stopwatch Beta","protocol":17,"map":"pl_badwater","folder":"tf","game":"Team Fortress","app_id":440,"player_count":0,"max_players":24,"Bots":0,"server_type":"Dedicated","server_os":"Linux","password":true,"vac":true,"version":"7961495","steam_id":85568392924866364,"keywords":["nocrits","nodmgspread","payload","uncletopia"],"game_id":440,"stv_port":27036,"stv_name":"Uncletopia | Chicago | 7 | Stopwatch Beta | STV","players":null},{"server_id":39,"name":"Uncletopia | Chicago | 8 | Community","name_short":"chi-8","host":"chi-2.us.uncletopia.com","port":27045,"enabled":true,"region":"us-central","cc":"us","latitude":41.881832,"longitude":-87.62318,"reserved":0,"last_update":"0001-01-01T00:00:00Z","name_a2s":"Uncletopia | Chicago | 8 | Community","protocol":17,"map":"workshop/pl_shoreleave_rc2.ugc1238849347","folder":"tf","game":"Team Fortress","app_id":440,"player_count":20,"max_players":24,"Bots":0,"server_type":"Dedicated","server_os":"Linux","password":true,"vac":true,"version":"7961495","steam_id":85568392924866365,"keywords":["nocrits","nodmgspread","payload","uncletopia"],"game_id":440,"stv_port":27046,"stv_name":"Uncletopia | Chicago | 8 | Community | STV","players":[{"user_id":409,"name":"Mike","steam_id":76561198827756158,"connected_time":331000000000,"state":"active","ping":132},{"user_id":295,"name":"[ᎴᏋᏋᎮ] Danmar33","steam_id":76561198056453091,"connected_time":7120000000000,"state":"active","ping":59},{"user_id":332,"name":"Lifial","steam_id":76561198271885819,"connected_time":4522000000000,"state":"active","ping":76},{"user_id":402,"name":"BB","steam_id":76561197982356871,"connected_time":1211000000000,"state":"active","ping":49},{"user_id":412,"name":"Noponz","steam_id":76561198176891054,"connected_time":28000000000,"state":"spawning","ping":106},{"user_id":407,"name":"frank","steam_id":76561198137777483,"connected_time":388000000000,"state":"active","ping":61},{"user_id":336,"name":"ROGUE-PLANET","steam_id":76561198116023052,"connected_time":4272000000000,"state":"active","ping":65},{"user_id":408,"name":"Mavvy","steam_id":76561198254444762,"connected_time":375000000000,"state":"active","ping":98},{"user_id":363,"name":"Patton","steam_id":76561198087871688,"connected_time":3333000000000,"state":"active","ping":56},{"user_id":410,"name":"T-M-FIELD","steam_id":76561198035870595,"connected_time":243000000000,"state":"active","ping":75},{"user_id":411,"name":"green demon","steam_id":76561198203353732,"connected_time":84000000000,"state":"active","ping":75},{"user_id":413,"name":"Antifa Supersoldier","steam_id":76561198141816516,"connected_time":22000000000,"state":"active","ping":66},{"user_id":370,"name":"Meatyard","steam_id":76561198049896089,"connected_time":2879000000000,"state":"active","ping":67},{"user_id":397,"name":"Funke Monke","steam_id":76561198079440976,"connected_time":1352000000000,"state":"active","ping":62},{"user_id":390,"name":"RarestGuide","steam_id":76561198050338923,"connected_time":1594000000000,"state":"active","ping":71},{"user_id":379,"name":"Halo CE Elite","steam_id":76561198181208478,"connected_time":2344000000000,"state":"active","ping":78},{"user_id":403,"name":"LordGandalf23","steam_id":76561198086928298,"connected_time":1172000000000,"state":"active","ping":91},{"user_id":381,"name":"Knooper","steam_id":76561198096149824,"connected_time":2235000000000,"state":"active","ping":113},{"user_id":384,"name":"Jork","steam_id":76561198121415366,"connected_time":2051000000000,"state":"active","ping":85},{"user_id":293,"name":"Induce Salt","steam_id":76561198116645978,"connected_time":7165000000000,"state":"active","ping":55}]},{"server_id":8,"name":"Uncletopia | Dallas | 1 | All Maps","name_short":"dal-1","host":"dal-1.us.uncletopia.com","port":27015,"enabled":true,"region":"us-central","cc":"us","latitude":32.779167,"longitude":-96.80889,"reserved":0,"last_update":"0001-01-01T00:00:00Z","name_a2s":"Uncletopia | Dallas | 1 | All Maps","protocol":17,"map":"plr_hightower","folder":"tf","game":"Team Fortress","app_id":440,"player_count":24,"max_players":24,"Bots":0,"server_type":"Dedicated","server_os":"Linux","password":true,"vac":true,"version":"7961495","steam_id":85568392924469986,"keywords":["nocrits","nodmgspread","payload","uncletopia"],"game_id":440,"stv_port":27016,"stv_name":"Uncletopia | Dallas | 1 | All Maps | STV","players":[{"user_id":417,"name":"Bogey","steam_id":76561198096227944,"connected_time":7720000000000,"state":"active","ping":44},{"user_id":477,"name":"McCanny","steam_id":76561198324340383,"connected_time":1437000000000,"state":"active","ping":131},{"user_id":481,"name":"Ruby Gillman (He/Him)","steam_id":76561198366299848,"connected_time":610000000000,"state":"active","ping":63},{"user_id":456,"name":"Hiser","steam_id":76561198308193624,"connected_time":3864000000000,"state":"active","ping":62},{"user_id":457,"name":"Lope","steam_id":76561198365488828,"connected_time":3861000000000,"state":"active","ping":96},{"user_id":466,"name":"Santamen","steam_id":76561198119478199,"connected_time":3083000000000,"state":"active","ping":69},{"user_id":421,"name":"Anon","steam_id":76561198109740776,"connected_time":7253000000000,"state":"active","ping":88},{"user_id":486,"name":"Charles","steam_id":76561199124935140,"connected_time":483000000000,"state":"active","ping":64},{"user_id":475,"name":"BoM.scarecr0wzz","steam_id":76561198416218389,"connected_time":1957000000000,"state":"active","ping":90},{"user_id":482,"name":"MoonWolf","steam_id":76561198095735033,"connected_time":596000000000,"state":"active","ping":61},{"user_id":487,"name":"mr.edderkopper","steam_id":76561198152614478,"connected_time":465000000000,"state":"active","ping":72},{"user_id":462,"name":"SPREAD SPRING GROWTH AND WARMTH","steam_id":76561198800386026,"connected_time":3511000000000,"state":"active","ping":95},{"user_id":483,"name":"☂Bliffenstimmers☂","steam_id":76561198059984896,"connected_time":563000000000,"state":"active","ping":59},{"user_id":490,"name":"Jerry Temporary","steam_id":76561198972750702,"connected_time":137000000000,"state":"active","ping":77},{"user_id":424,"name":"rAnch","steam_id":76561198024562587,"connected_time":7036000000000,"state":"active","ping":34},{"user_id":488,"name":"Antzen","steam_id":76561198041343470,"connected_time":444000000000,"state":"active","ping":89},{"user_id":467,"name":"Greg Boberton 2012","steam_id":76561198983566026,"connected_time":3059000000000,"state":"active","ping":77},{"user_id":489,"name":"flippercurve","steam_id":76561199238295034,"connected_time":171000000000,"state":"active","ping":71},{"user_id":474,"name":"Missing Minus","steam_id":76561198120822928,"connected_time":2038000000000,"state":"active","ping":62},{"user_id":480,"name":"Googol","steam_id":76561198015967429,"connected_time":895000000000,"state":"active","ping":72},{"user_id":444,"name":"GLG.Liz","steam_id":76561198021957956,"connected_time":4550000000000,"state":"active","ping":46},{"user_id":485,"name":"Chub","steam_id":76561197960983902,"connected_time":553000000000,"state":"active","ping":45},{"user_id":471,"name":"Jarate Jihadi","steam_id":76561197999837455,"connected_time":2384000000000,"state":"active","ping":81},{"user_id":338,"name":"PROFILE NAME","steam_id":76561199438851854,"connected_time":15651000000000,"state":"active","ping":133}]},{"server_id":108,"name":"Uncletopia | Dallas | 2 | All Maps","name_short":"dal-2","host":"dal-1.us.uncletopia.com","port":27025,"enabled":true,"region":"us-central","cc":"us","latitude":32.779167,"longitude":-96.80889,"reserved":0,"last_update":"0001-01-01T00:00:00Z","name_a2s":"Uncletopia | Dallas | 2 | All Maps","protocol":17,"map":"cp_sunshine","folder":"tf","game":"Team Fortress","app_id":440,"player_count":24,"max_players":24,"Bots":0,"server_type":"Dedicated","server_os":"Linux","password":true,"vac":true,"version":"7961495","steam_id":85568392924469988,"keywords":["cp","nocrits","nodmgspread","uncletopia"],"game_id":440,"stv_port":27026,"stv_name":"Uncletopia | Dallas | 2 | All Maps | STV","players":[{"user_id":445,"name":"Manic","steam_id":76561198128149670,"connected_time":359000000000,"state":"active","ping":45},{"user_id":363,"name":"emerie","steam_id":76561198406252824,"connected_time":6532000000000,"state":"active","ping":104},{"user_id":394,"name":"Plains Phoenix","steam_id":76561198817161299,"connected_time":3731000000000,"state":"active","ping":54},{"user_id":443,"name":"Cornelius","steam_id":76561198123447388,"connected_time":463000000000,"state":"active","ping":61},{"user_id":432,"name":"Psychromaniac","steam_id":76561198012215214,"connected_time":1512000000000,"state":"active","ping":109},{"user_id":420,"name":"minecraft","steam_id":76561198104345201,"connected_time":2010000000000,"state":"active","ping":68},{"user_id":371,"name":"Kenny","steam_id":76561199005805984,"connected_time":6256000000000,"state":"active","ping":43},{"user_id":435,"name":"paypur -rng","steam_id":76561198214370515,"connected_time":1311000000000,"state":"active","ping":88},{"user_id":446,"name":"LtK","steam_id":76561197993180943,"connected_time":348000000000,"state":"active","ping":34},{"user_id":438,"name":"Estrogen Smuggler","steam_id":76561197993735819,"connected_time":754000000000,"state":"active","ping":35},{"user_id":439,"name":"deb","steam_id":76561198414336279,"connected_time":684000000000,"state":"active","ping":47},{"user_id":447,"name":"Brian","steam_id":76561198144650969,"connected_time":347000000000,"state":"active","ping":105},{"user_id":456,"name":"Ssamjang","steam_id":76561197966891870,"connected_time":97000000000,"state":"active","ping":90},{"user_id":298,"name":"Ichthyology Enthusiast","steam_id":76561198854662187,"connected_time":11812000000000,"state":"active","ping":45},{"user_id":454,"name":"Giselle","steam_id":76561198162593640,"connected_time":168000000000,"state":"active","ping":118},{"user_id":448,"name":"MR MODE","steam_id":76561198046775352,"connected_time":347000000000,"state":"active","ping":90},{"user_id":455,"name":"cringeass nae-nae girl","steam_id":76561198108753857,"connected_time":162000000000,"state":"active","ping":68},{"user_id":431,"name":"Cringys","steam_id":76561199029812838,"connected_time":1695000000000,"state":"active","ping":76},{"user_id":452,"name":"dave","steam_id":76561198135961731,"connected_time":271000000000,"state":"active","ping":70},{"user_id":409,"name":"cozy","steam_id":76561199044037628,"connected_time":3119000000000,"state":"active","ping":126},{"user_id":441,"name":"Belts the Puppet","steam_id":76561198322969864,"connected_time":657000000000,"state":"active","ping":91},{"user_id":367,"name":"npc energy","steam_id":76561198035342207,"connected_time":6394000000000,"state":"active","ping":58},{"user_id":375,"name":"im a huge guy","steam_id":76561198971285292,"connected_time":5824000000000,"state":"active","ping":61},{"user_id":390,"name":"Nobody","steam_id":76561199352089107,"connected_time":3912000000000,"state":"active","ping":83}]},{"server_id":404,"name":"Uncletopia | Dallas | 3 | All Maps","name_short":"dal-3","host":"dal-1.us.uncletopia.com","port":27035,"enabled":true,"region":"us-central","cc":"us","latitude":32.779167,"longitude":-96.80889,"reserved":0,"last_update":"0001-01-01T00:00:00Z","name_a2s":"Uncletopia | Dallas | 3 | All Maps","protocol":17,"map":"pl_badwater","folder":"tf","game":"Team Fortress","app_id":440,"player_count":24,"max_players":24,"Bots":0,"server_type":"Dedicated","server_os":"Linux","password":true,"vac":true,"version":"7961495","steam_id":85568392924515219,"keywords":["nocrits","nodmgspread","payload","uncletopia"],"game_id":440,"stv_port":27036,"stv_name":"Uncletopia | Dallas | 3 | All Maps | STV","players":[{"user_id":471,"name":"Snoopy","steam_id":76561198273735974,"connected_time":6523000000000,"state":"active","ping":78},{"user_id":517,"name":"Wizard02","steam_id":76561198178293623,"connected_time":2431000000000,"state":"active","ping":59},{"user_id":539,"name":"ryfith","steam_id":76561198878986398,"connected_time":605000000000,"state":"active","ping":50},{"user_id":528,"name":"Firestorm","steam_id":76561198025017126,"connected_time":1458000000000,"state":"active","ping":107},{"user_id":544,"name":"jon pickle water","steam_id":76561199036212135,"connected_time":476000000000,"state":"active","ping":114},{"user_id":537,"name":"xiPoison","steam_id":76561198064961659,"connected_time":722000000000,"state":"active","ping":72},{"user_id":520,"name":"nonagon infinity","steam_id":76561198397662124,"connected_time":1710000000000,"state":"active","ping":62},{"user_id":521,"name":"nae nae goblin68","steam_id":76561199115259028,"connected_time":1583000000000,"state":"active","ping":121},{"user_id":533,"name":"drunk driver","steam_id":76561198400058665,"connected_time":1281000000000,"state":"active","ping":99},{"user_id":541,"name":"usmnt==chokers","steam_id":76561198043456370,"connected_time":541000000000,"state":"active","ping":96},{"user_id":495,"name":"HEE HOO DUSTBOWL!","steam_id":76561199389985063,"connected_time":4175000000000,"state":"active","ping":113},{"user_id":542,"name":"rainbowmaster25!","steam_id":76561199215255414,"connected_time":528000000000,"state":"active","ping":84},{"user_id":543,"name":"JellyParrot","steam_id":76561199190990163,"connected_time":499000000000,"state":"active","ping":73},{"user_id":545,"name":"Final_MarioXD","steam_id":76561199184862419,"connected_time":423000000000,"state":"active","ping":83},{"user_id":546,"name":"ุ","steam_id":76561198404271005,"connected_time":406000000000,"state":"active","ping":68},{"user_id":534,"name":"denuggie","steam_id":76561198245546280,"connected_time":1100000000000,"state":"active","ping":119},{"user_id":493,"name":"Michaelpc1","steam_id":76561198088365519,"connected_time":4314000000000,"state":"active","ping":90},{"user_id":511,"name":"CampinCarl","steam_id":76561197997373624,"connected_time":3390000000000,"state":"active","ping":88},{"user_id":547,"name":"beyond","steam_id":76561198051009126,"connected_time":382000000000,"state":"active","ping":87},{"user_id":525,"name":"Acuzik","steam_id":76561198045453400,"connected_time":1484000000000,"state":"active","ping":60},{"user_id":548,"name":"♿","steam_id":76561198296145819,"connected_time":371000000000,"state":"active","ping":108},{"user_id":527,"name":"Braingoo Hex","steam_id":76561198083094783,"connected_time":1471000000000,"state":"active","ping":78},{"user_id":530,"name":"Hatter","steam_id":76561198010341986,"connected_time":1410000000000,"state":"active","ping":67},{"user_id":549,"name":"Nav","steam_id":76561198238895786,"connected_time":326000000000,"state":"active","ping":93}]},{"server_id":405,"name":"Uncletopia | Dallas | 4 | Community","name_short":"dal-4","host":"dal-1.us.uncletopia.com","port":27045,"enabled":true,"region":"us-central","cc":"us","latitude":32.779167,"longitude":-96.80889,"reserved":0,"last_update":"0001-01-01T00:00:00Z","name_a2s":"Uncletopia | Dallas | 4 | Community","protocol":17,"map":"workshop/pl_divulgence_b4b.ugc2884808746","folder":"tf","game":"Team Fortress","app_id":440,"player_count":0,"max_players":24,"Bots":0,"server_type":"Dedicated","server_os":"Linux","password":true,"vac":true,"version":"7961495","steam_id":85568392924515220,"keywords":["nocrits","nodmgspread","payload","uncletopia"],"game_id":440,"stv_port":27046,"stv_name":"Uncletopia | Dallas | 4 | Community | STV","players":null},{"server_id":5,"name":"Uncletopia | Frankfurt | 1 | All Maps","name_short":"frk-1","host":"frk-1.de.uncletopia.com","port":27015,"enabled":true,"region":"eu","cc":"de","latitude":50.110924,"longitude":8.682127,"reserved":0,"last_update":"0001-01-01T00:00:00Z","name_a2s":"Uncletopia | Frankfurt | 1 | All Maps","protocol":17,"map":"pl_badwater","folder":"tf","game":"Team Fortress","app_id":440,"player_count":0,"max_players":24,"Bots":0,"server_type":"Dedicated","server_os":"Linux","password":true,"vac":true,"version":"7961495","steam_id":85568392924469989,"keywords":["nocrits","nodmgspread","payload","uncletopia"],"game_id":440,"stv_port":27016,"stv_name":"Uncletopia | Frankfurt | 1 | All Maps | STV","players":null},{"server_id":110,"name":"Uncletopia | Frankfurt | 2 | All Maps","name_short":"frk-2","host":"frk-1.de.uncletopia.com","port":27025,"enabled":true,"region":"eu","cc":"de","latitude":50.110924,"longitude":8.682127,"reserved":0,"last_update":"0001-01-01T00:00:00Z","name_a2s":"Uncletopia | Frankfurt | 2 | All Maps","protocol":17,"map":"koth_lakeside_final","folder":"tf","game":"Team Fortress","app_id":440,"player_count":0,"max_players":24,"Bots":0,"server_type":"Dedicated","server_os":"Linux","password":true,"vac":true,"version":"7961495","steam_id":85568392924469990,"keywords":["cp","nocrits","nodmgspread","uncletopia"],"game_id":440,"stv_port":27026,"stv_name":"Uncletopia | Frankfurt | 2 | All Maps | STV","players":null},{"server_id":308,"name":"Uncletopia | Frankfurt | 3 | All Maps","name_short":"frk-3","host":"frk-1.de.uncletopia.com","port":27035,"enabled":true,"region":"eu","cc":"de","latitude":50.110924,"longitude":8.682127,"reserved":0,"last_update":"0001-01-01T00:00:00Z","name_a2s":"Uncletopia | Frankfurt | 3 | All Maps","protocol":17,"map":"cp_sunshine","folder":"tf","game":"Team Fortress","app_id":440,"player_count":0,"max_players":24,"Bots":0,"server_type":"Dedicated","server_os":"Linux","password":true,"vac":true,"version":"7961495","steam_id":85568392924504274,"keywords":["cp","nocrits","nodmgspread","uncletopia"],"game_id":440,"stv_port":27036,"stv_name":"Uncletopia | Frankfurt | 3 | All Maps | STV","players":null},{"server_id":309,"name":"Uncletopia | Frankfurt | 4 | All Maps","name_short":"frk-4","host":"frk-1.de.uncletopia.com","port":27045,"enabled":true,"region":"eu","cc":"de","latitude":50.110924,"longitude":8.682127,"reserved":0,"last_update":"0001-01-01T00:00:00Z","name_a2s":"Uncletopia | Frankfurt | 4 | All Maps","protocol":17,"map":"cp_altitude","folder":"tf","game":"Team Fortress","app_id":440,"player_count":0,"max_players":24,"Bots":0,"server_type":"Dedicated","server_os":"Linux","password":true,"vac":true,"version":"7961495","steam_id":85568392924504275,"keywords":["cp","nocrits","nodmgspread","uncletopia"],"game_id":440,"stv_port":27046,"stv_name":"Uncletopia | Frankfurt | 4 | All Maps | STV","players":null},{"server_id":310,"name":"Uncletopia | Frankfurt | 5 | All Maps","name_short":"frk-5","host":"frk-1.de.uncletopia.com","port":27055,"enabled":true,"region":"eu","cc":"de","latitude":50.110924,"longitude":8.682127,"reserved":0,"last_update":"0001-01-01T00:00:00Z","name_a2s":"Uncletopia | Frankfurt | 5 | All Maps","protocol":17,"map":"cp_process_final","folder":"tf","game":"Team Fortress","app_id":440,"player_count":0,"max_players":24,"Bots":0,"server_type":"Dedicated","server_os":"Linux","password":true,"vac":true,"version":"7961495","steam_id":85568392924504277,"keywords":["cp","nocrits","nodmgspread","uncletopia"],"game_id":440,"stv_port":27056,"stv_name":"Uncletopia | Frankfurt | 5 | All Maps | STV","players":null},{"server_id":311,"name":"Uncletopia | Frankfurt | 6 | All Maps","name_short":"frk-6","host":"frk-1.de.uncletopia.com","port":27065,"enabled":true,"region":"eu","cc":"de","latitude":50.110924,"longitude":8.682127,"reserved":0,"last_update":"0001-01-01T00:00:00Z","name_a2s":"Uncletopia | Frankfurt | 6 | All Maps","protocol":17,"map":"pl_barnblitz","folder":"tf","game":"Team Fortress","app_id":440,"player_count":0,"max_players":24,"Bots":0,"server_type":"Dedicated","server_os":"Linux","password":true,"vac":true,"version":"7961495","steam_id":85568392924504278,"keywords":["nocrits","nodmgspread","payload","uncletopia"],"game_id":440,"stv_port":27066,"stv_name":"Uncletopia | Frankfurt | 6 | All Maps | STV","players":null},{"server_id":23,"name":"Uncletopia | Frankfurt | 7 | Stopwatch Beta","name_short":"frk-7","host":"frk-1.de.uncletopia.com","port":27075,"enabled":true,"region":"eu","cc":"de","latitude":50.110924,"longitude":8.682127,"reserved":0,"last_update":"0001-01-01T00:00:00Z","name_a2s":"Uncletopia | Frankfurt | 7 | Stopwatch Beta","protocol":17,"map":"koth_cascade","folder":"tf","game":"Team Fortress","app_id":440,"player_count":0,"max_players":24,"Bots":0,"server_type":"Dedicated","server_os":"Linux","password":true,"vac":true,"version":"7961495","steam_id":85568392924742827,"keywords":["cp","nocrits","nodmgspread","uncletopia"],"game_id":440,"stv_port":27076,"stv_name":"Uncletopia | Frankfurt | 7 | Stopwatch Beta | STV","players":null},{"server_id":24,"name":"Uncletopia | Frankfurt | 8 | Community","name_short":"frk-8","host":"frk-1.de.uncletopia.com","port":27085,"enabled":true,"region":"eu","cc":"de","latitude":50.110924,"longitude":8.682127,"reserved":0,"last_update":"0001-01-01T00:00:00Z","name_a2s":"Uncletopia | Frankfurt | 8 | Community","protocol":17,"map":"cp_dustbowl","folder":"tf","game":"Team Fortress","app_id":440,"player_count":0,"max_players":24,"Bots":0,"server_type":"Dedicated","server_os":"Linux","password":true,"vac":true,"version":"7961495","steam_id":85568392924742828,"keywords":["cp","nocrits","nodmgspread","uncletopia"],"game_id":440,"stv_port":27086,"stv_name":"Uncletopia | Frankfurt | 8 | Community | STV","players":null},{"server_id":202,"name":"Uncletopia | Hong Kong | 1 | All Maps","name_short":"hgk-1","host":"hgk-1.hk.uncletopia.com","port":27015,"enabled":true,"region":"asia","cc":"hk","latitude":22.302711,"longitude":114.177216,"reserved":0,"last_update":"0001-01-01T00:00:00Z","name_a2s":"Uncletopia | Hong Kong | 1 | All Maps","protocol":17,"map":"koth_viaduct","folder":"tf","game":"Team Fortress","app_id":440,"player_count":0,"max_players":24,"Bots":0,"server_type":"Dedicated","server_os":"Linux","password":true,"vac":true,"version":"7961495","steam_id":85568392924494504,"keywords":["cp","nocrits","nodmgspread","uncletopia"],"game_id":440,"stv_port":27016,"stv_name":"Uncletopia | Hong Kong | 1 | All Maps | STV","players":null},{"server_id":1,"name":"Uncletopia | Los Angeles | 1 | All Maps","name_short":"lax-1","host":"lax-1.us.uncletopia.com","port":27015,"enabled":true,"region":"us-west","cc":"us","latitude":33.94279,"longitude":-118.41004,"reserved":0,"last_update":"0001-01-01T00:00:00Z","name_a2s":"Uncletopia | Los Angeles | 1 | All Maps","protocol":17,"map":"cp_steel","folder":"tf","game":"Team Fortress","app_id":440,"player_count":22,"max_players":24,"Bots":0,"server_type":"Dedicated","server_os":"Linux","password":true,"vac":true,"version":"7961495","steam_id":85568392924469991,"keywords":["cp","nocrits","nodmgspread","uncletopia"],"game_id":440,"stv_port":27016,"stv_name":"Uncletopia | Los Angeles | 1 | All Maps | STV","players":[{"user_id":422,"name":"Grizzakk","steam_id":76561198115821923,"connected_time":2692000000000,"state":"active","ping":71},{"user_id":454,"name":"Mr Sir Logan","steam_id":76561198088803891,"connected_time":807000000000,"state":"active","ping":60},{"user_id":449,"name":"QueenBeeRobert","steam_id":76561198069753129,"connected_time":1131000000000,"state":"active","ping":67},{"user_id":428,"name":"deafened","steam_id":76561198454526448,"connected_time":2451000000000,"state":"active","ping":90},{"user_id":395,"name":"LEE","steam_id":76561199127408846,"connected_time":4795000000000,"state":"active","ping":66},{"user_id":440,"name":"soupwithonions37","steam_id":76561199014636515,"connected_time":2068000000000,"state":"active","ping":114},{"user_id":451,"name":"ars110","steam_id":76561198030492435,"connected_time":910000000000,"state":"active","ping":80},{"user_id":430,"name":"DigBick","steam_id":76561199013107272,"connected_time":2254000000000,"state":"active","ping":62},{"user_id":420,"name":"asmr eater (deaf)","steam_id":76561198067053408,"connected_time":2766000000000,"state":"active","ping":48},{"user_id":458,"name":"Sterling Nano","steam_id":76561198048580088,"connected_time":712000000000,"state":"active","ping":72},{"user_id":453,"name":"Nine Inch Иipples","steam_id":76561198149413947,"connected_time":870000000000,"state":"active","ping":67},{"user_id":460,"name":"Scorcho","steam_id":76561198071413833,"connected_time":19000000000,"state":"spawning","ping":82},{"user_id":400,"name":"De Monki","steam_id":76561198964210411,"connected_time":4188000000000,"state":"active","ping":60},{"user_id":446,"name":"011sra","steam_id":76561199489542125,"connected_time":1334000000000,"state":"active","ping":85},{"user_id":447,"name":"Majin Manju","steam_id":76561198069810012,"connected_time":1286000000000,"state":"active","ping":71},{"user_id":442,"name":"Born_In_Xixax","steam_id":76561197960464479,"connected_time":1999000000000,"state":"active","ping":75},{"user_id":444,"name":"TwoForFlinching","steam_id":76561198073814209,"connected_time":1514000000000,"state":"active","ping":95},{"user_id":456,"name":"westward (was/were)","steam_id":76561198805512350,"connected_time":776000000000,"state":"active","ping":84},{"user_id":448,"name":"Spaceman","steam_id":76561198349305249,"connected_time":1283000000000,"state":"active","ping":73},{"user_id":457,"name":"Geek monster","steam_id":76561198084422657,"connected_time":737000000000,"state":"active","ping":56},{"user_id":408,"name":"meme","steam_id":76561199170771700,"connected_time":3668000000000,"state":"active","ping":59},{"user_id":433,"name":"Imnotnuggets","steam_id":76561198886670414,"connected_time":2245000000000,"state":"active","ping":72}]},{"server_id":112,"name":"Uncletopia | Los Angeles | 2 | All Maps","name_short":"lax-2","host":"lax-1.us.uncletopia.com","port":27025,"enabled":true,"region":"us-west","cc":"us","latitude":33.94279,"longitude":-118.41004,"reserved":0,"last_update":"0001-01-01T00:00:00Z","name_a2s":"Uncletopia | Los Angeles | 2 | All Maps","protocol":17,"map":"pl_upward","folder":"tf","game":"Team Fortress","app_id":440,"player_count":24,"max_players":24,"Bots":0,"server_type":"Dedicated","server_os":"Linux","password":true,"vac":true,"version":"7961495","steam_id":85568392924469992,"keywords":["nocrits","nodmgspread","payload","uncletopia"],"game_id":440,"stv_port":27026,"stv_name":"Uncletopia | Los Angeles | 2 | All Maps | STV","players":[{"user_id":42,"name":"oliver biscuit","steam_id":76561197989058876,"connected_time":2877000000000,"state":"active","ping":80},{"user_id":70,"name":"Sasuri","steam_id":76561198404769732,"connected_time":1929000000000,"state":"active","ping":52},{"user_id":75,"name":"xbox record that","steam_id":76561198150117455,"connected_time":1430000000000,"state":"active","ping":48},{"user_id":40,"name":"Sgt. Eclair","steam_id":76561198156384194,"connected_time":2997000000000,"state":"active","ping":65},{"user_id":76,"name":"spineuser","steam_id":76561198348168106,"connected_time":1425000000000,"state":"active","ping":46},{"user_id":94,"name":"puffer","steam_id":76561199049164456,"connected_time":312000000000,"state":"active","ping":69},{"user_id":91,"name":"KiwifruitDev","steam_id":76561198042912823,"connected_time":453000000000,"state":"active","ping":46},{"user_id":45,"name":"mrthugpug1732","steam_id":76561198881200768,"connected_time":2845000000000,"state":"active","ping":59},{"user_id":79,"name":"2 3rd graders in a trenchcoat","steam_id":76561198084885479,"connected_time":1412000000000,"state":"active","ping":82},{"user_id":47,"name":"porksoda","steam_id":76561198021451377,"connected_time":2832000000000,"state":"active","ping":75},{"user_id":71,"name":"Sleuth","steam_id":76561198418288939,"connected_time":1891000000000,"state":"active","ping":69},{"user_id":93,"name":"Walrus","steam_id":76561198001799905,"connected_time":430000000000,"state":"active","ping":56},{"user_id":51,"name":"Retrace","steam_id":76561198080620966,"connected_time":2514000000000,"state":"active","ping":83},{"user_id":99,"name":"adios muchacho","steam_id":76561198068113347,"connected_time":11000000000,"state":"active","ping":52},{"user_id":96,"name":"(TPT) Ghost","steam_id":76561198123262873,"connected_time":97000000000,"state":"active","ping":62},{"user_id":74,"name":"LogicalFurret","steam_id":76561198350604657,"connected_time":1719000000000,"state":"active","ping":73},{"user_id":95,"name":"plutonium isotope","steam_id":76561198319442494,"connected_time":155000000000,"state":"active","ping":60},{"user_id":97,"name":"birbyob","steam_id":76561198121268007,"connected_time":90000000000,"state":"active","ping":61},{"user_id":92,"name":"Zaiah","steam_id":76561198377588247,"connected_time":435000000000,"state":"active","ping":79},{"user_id":58,"name":"Jackboi","steam_id":76561198097707558,"connected_time":2424000000000,"state":"active","ping":48},{"user_id":88,"name":"vioxynteris","steam_id":76561198161428666,"connected_time":719000000000,"state":"active","ping":32},{"user_id":98,"name":"Idiotden","steam_id":76561199340950135,"connected_time":86000000000,"state":"active","ping":53},{"user_id":83,"name":"Newt","steam_id":76561198842909288,"connected_time":1378000000000,"state":"active","ping":89},{"user_id":63,"name":"Poddlesworth","steam_id":76561198090592535,"connected_time":2312000000000,"state":"active","ping":124}]},{"server_id":324,"name":"Uncletopia | Los Angeles | 3 | All Maps","name_short":"lax-3","host":"lax-1.us.uncletopia.com","port":27035,"enabled":true,"region":"us-west","cc":"us","latitude":33.94279,"longitude":-118.41004,"reserved":0,"last_update":"0001-01-01T00:00:00Z","name_a2s":"Uncletopia | Los Angeles | 3 | All Maps","protocol":17,"map":"koth_highpass","folder":"tf","game":"Team Fortress","app_id":440,"player_count":7,"max_players":24,"Bots":0,"server_type":"Dedicated","server_os":"Linux","password":true,"vac":true,"version":"7961495","steam_id":85568392924510198,"keywords":["cp","nocrits","nodmgspread","uncletopia"],"game_id":440,"stv_port":27036,"stv_name":"Uncletopia | Los Angeles | 3 | All Maps | STV","players":[{"user_id":20,"name":"Herbal Infusion","steam_id":76561198146881319,"connected_time":1645000000000,"state":"active","ping":47},{"user_id":22,"name":"Subject Delta","steam_id":76561199109118980,"connected_time":1506000000000,"state":"active","ping":45},{"user_id":28,"name":"Mom","steam_id":76561198207936000,"connected_time":884000000000,"state":"active","ping":40},{"user_id":29,"name":"They could be ********","steam_id":76561198441020995,"connected_time":438000000000,"state":"active","ping":45},{"user_id":32,"name":"lemonjack","steam_id":76561198277380277,"connected_time":221000000000,"state":"active","ping":49},{"user_id":30,"name":"JavaScript Frappuccino","steam_id":76561198111620153,"connected_time":436000000000,"state":"active","ping":74},{"user_id":31,"name":"squibonacci","steam_id":76561198305870184,"connected_time":347000000000,"state":"active","ping":70}]},{"server_id":25,"name":"Uncletopia | Los Angeles | 4 | Stopwatch Beta","name_short":"lax-4","host":"lax-1.us.uncletopia.com","port":27045,"enabled":true,"region":"us-west","cc":"us","latitude":33.94279,"longitude":-118.41004,"reserved":0,"last_update":"0001-01-01T00:00:00Z","name_a2s":"Uncletopia | Los Angeles | 4 | Stopwatch Beta","protocol":17,"map":"workshop/pl_vigil_rc9.ugc1266210012","folder":"tf","game":"Team Fortress","app_id":440,"player_count":0,"max_players":24,"Bots":0,"server_type":"Dedicated","server_os":"Linux","password":true,"vac":true,"version":"7961495","steam_id":85568392924510199,"keywords":["nocrits","nodmgspread","payload","uncletopia"],"game_id":440,"stv_port":27046,"stv_name":"Uncletopia | Los Angeles | 4 | Stopwatch Beta | STV","players":null},{"server_id":11,"name":"Uncletopia | London | 1 | All Maps","name_short":"lon-1","host":"lon-1.uk.uncletopia.com","port":27015,"enabled":true,"region":"eu","cc":"gb","latitude":51.509865,"longitude":-0.118092,"reserved":0,"last_update":"0001-01-01T00:00:00Z","name_a2s":"Uncletopia | London | 1 | All Maps","protocol":17,"map":"cp_dustbowl","folder":"tf","game":"Team Fortress","app_id":440,"player_count":23,"max_players":24,"Bots":0,"server_type":"Dedicated","server_os":"Linux","password":true,"vac":true,"version":"7961495","steam_id":85568392924367362,"keywords":["cp","nocrits","nodmgspread","uncletopia"],"game_id":440,"stv_port":27016,"stv_name":"Uncletopia | London | 1 | All Maps | STV","players":[{"user_id":909,"name":"mehe","steam_id":76561198004684499,"connected_time":1966000000000,"state":"active","ping":73},{"user_id":931,"name":"jonbob","steam_id":76561197963506620,"connected_time":160000000000,"state":"active","ping":48},{"user_id":902,"name":"󠁳⁧⁧раздал стил","steam_id":76561199102123654,"connected_time":2714000000000,"state":"active","ping":103},{"user_id":911,"name":"Not Sussy Tanuki","steam_id":76561198137289375,"connected_time":1911000000000,"state":"active","ping":100},{"user_id":920,"name":"kostor7000","steam_id":76561199238315561,"connected_time":1036000000000,"state":"active","ping":380},{"user_id":905,"name":"Hamst123","steam_id":76561198957312452,"connected_time":2368000000000,"state":"active","ping":61},{"user_id":918,"name":"Jessica","steam_id":76561198040354215,"connected_time":1315000000000,"state":"active","ping":47},{"user_id":878,"name":"Ran33","steam_id":76561197991474499,"connected_time":4412000000000,"state":"active","ping":84},{"user_id":866,"name":"seigfried","steam_id":76561198047260133,"connected_time":4959000000000,"state":"active","ping":70},{"user_id":906,"name":"MAGGOTS!!BBX","steam_id":76561198326015472,"connected_time":2251000000000,"state":"active","ping":72},{"user_id":914,"name":"Louna","steam_id":76561198393344301,"connected_time":1655000000000,"state":"active","ping":86},{"user_id":923,"name":"beda","steam_id":76561198277943630,"connected_time":835000000000,"state":"active","ping":71},{"user_id":930,"name":"Grekofun","steam_id":76561198758029808,"connected_time":345000000000,"state":"active","ping":83},{"user_id":919,"name":"luckyastroman","steam_id":76561199027500574,"connected_time":1203000000000,"state":"active","ping":87},{"user_id":932,"name":"DanklyMoist","steam_id":76561198062187821,"connected_time":51000000000,"state":"active","ping":156},{"user_id":922,"name":"✪ SM1LEY","steam_id":76561198149748719,"connected_time":898000000000,"state":"active","ping":102},{"user_id":928,"name":"Nodoka","steam_id":76561197992138411,"connected_time":460000000000,"state":"active","ping":57},{"user_id":929,"name":"spxcy","steam_id":76561198080296853,"connected_time":409000000000,"state":"active","ping":75},{"user_id":894,"name":"[\u003e\u003c] OTP Uncle Sam","steam_id":76561198186666399,"connected_time":3378000000000,"state":"active","ping":60},{"user_id":834,"name":"bird ideas","steam_id":76561199480942903,"connected_time":7703000000000,"state":"active","ping":76},{"user_id":836,"name":"Qwerty","steam_id":76561198023525894,"connected_time":7696000000000,"state":"active","ping":186},{"user_id":882,"name":"Dead Kitten","steam_id":76561198152132092,"connected_time":4245000000000,"state":"active","ping":75},{"user_id":883,"name":"Sakari","steam_id":76561197997811299,"connected_time":4127000000000,"state":"active","ping":60}]},{"server_id":114,"name":"Uncletopia | London | 2 | All Maps","name_short":"lon-2","host":"lon-1.uk.uncletopia.com","port":27025,"enabled":true,"region":"eu","cc":"gb","latitude":51.509865,"longitude":-0.118092,"reserved":0,"last_update":"0001-01-01T00:00:00Z","name_a2s":"Uncletopia | London | 2 | All Maps","protocol":17,"map":"pl_snowycoast","folder":"tf","game":"Team Fortress","app_id":440,"player_count":0,"max_players":24,"Bots":0,"server_type":"Dedicated","server_os":"Linux","password":true,"vac":true,"version":"7961495","steam_id":85568392924470941,"keywords":["nocrits","nodmgspread","payload","uncletopia"],"game_id":440,"stv_port":27026,"stv_name":"Uncletopia | London | 2 | All Maps | STV","players":null},{"server_id":320,"name":"Uncletopia | London | 3 | All Maps","name_short":"lon-3","host":"lon-1.uk.uncletopia.com","port":27035,"enabled":true,"region":"eu","cc":"gb","latitude":51.509865,"longitude":-0.118092,"reserved":0,"last_update":"0001-01-01T00:00:00Z","name_a2s":"Uncletopia | London | 3 | All Maps","protocol":17,"map":"pl_pier","folder":"tf","game":"Team Fortress","app_id":440,"player_count":0,"max_players":24,"Bots":0,"server_type":"Dedicated","server_os":"Linux","password":true,"vac":true,"version":"7961495","steam_id":85568392924510192,"keywords":["nocrits","nodmgspread","payload","uncletopia"],"game_id":440,"stv_port":27036,"stv_name":"Uncletopia | London | 3 | All Maps | STV","players":null},{"server_id":321,"name":"Uncletopia | London | 4 | All Maps","name_short":"lon-4","host":"lon-1.uk.uncletopia.com","port":27045,"enabled":true,"region":"eu","cc":"gb","latitude":51.509865,"longitude":-0.118092,"reserved":0,"last_update":"0001-01-01T00:00:00Z","name_a2s":"Uncletopia | London | 4 | All Maps","protocol":17,"map":"koth_lakeside_final","folder":"tf","game":"Team Fortress","app_id":440,"player_count":0,"max_players":24,"Bots":0,"server_type":"Dedicated","server_os":"Linux","password":true,"vac":true,"version":"7961495","steam_id":85568392924510193,"keywords":["cp","nocrits","nodmgspread","uncletopia"],"game_id":440,"stv_port":27046,"stv_name":"Uncletopia | London | 4 | All Maps | STV","players":null},{"server_id":21,"name":"Uncletopia | London | 5 | All Maps","name_short":"lon-5","host":"lon-1.uk.uncletopia.com","port":27055,"enabled":true,"region":"eu","cc":"gb","latitude":51.509865,"longitude":-0.118092,"reserved":0,"last_update":"0001-01-01T00:00:00Z","name_a2s":"Uncletopia | London | 5 | All Maps","protocol":17,"map":"pl_upward","folder":"tf","game":"Team Fortress","app_id":440,"player_count":0,"max_players":24,"Bots":0,"server_type":"Dedicated","server_os":"Linux","password":true,"vac":true,"version":"7961495","steam_id":85568392924742829,"keywords":["nocrits","nodmgspread","payload","uncletopia"],"game_id":440,"stv_port":27056,"stv_name":"Uncletopia | London | 5 | All Maps | STV","players":null},{"server_id":22,"name":"Uncletopia | London | 6 | All Maps","name_short":"lon-6","host":"lon-1.uk.uncletopia.com","port":27065,"enabled":true,"region":"eu","cc":"gb","latitude":51.509865,"longitude":-0.118092,"reserved":0,"last_update":"0001-01-01T00:00:00Z","name_a2s":"Uncletopia | London | 6 | All Maps","protocol":17,"map":"cp_mountainlab","folder":"tf","game":"Team Fortress","app_id":440,"player_count":0,"max_players":24,"Bots":0,"server_type":"Dedicated","server_os":"Linux","password":true,"vac":true,"version":"7961495","steam_id":85568392924742830,"keywords":["cp","nocrits","nodmgspread","uncletopia"],"game_id":440,"stv_port":27066,"stv_name":"Uncletopia | London | 6 | All Maps | STV","players":null},{"server_id":40,"name":"Uncletopia | London | 7 | No Payload","name_short":"lon-7","host":"lon-1.uk.uncletopia.com","port":27075,"enabled":true,"region":"eu","cc":"gb","latitude":51.509865,"longitude":-0.118092,"reserved":0,"last_update":"0001-01-01T00:00:00Z","name_a2s":"Uncletopia | London | 7 | No Payload","protocol":17,"map":"cp_powerhouse","folder":"tf","game":"Team Fortress","app_id":440,"player_count":2,"max_players":24,"Bots":0,"server_type":"Dedicated","server_os":"Linux","password":true,"vac":true,"version":"7961495","steam_id":85568392924964314,"keywords":["cp","nocrits","nodmgspread","uncletopia"],"game_id":440,"stv_port":27076,"stv_name":"Uncletopia | London | 7 | No Payload | STV","players":[{"user_id":228,"name":"Slessplee","steam_id":76561198315732431,"connected_time":8358000000000,"state":"active","ping":164},{"user_id":229,"name":"Cosmic Yoshi","steam_id":76561199195528497,"connected_time":8291000000000,"state":"active","ping":174}]},{"server_id":41,"name":"Uncletopia | London | 8 | Community","name_short":"lon-8","host":"lon-1.uk.uncletopia.com","port":27085,"enabled":true,"region":"eu","cc":"gb","latitude":51.509865,"longitude":-0.118092,"reserved":0,"last_update":"0001-01-01T00:00:00Z","name_a2s":"Uncletopia | London | 8 | Community","protocol":17,"map":"workshop/pl_divulgence_b4b.ugc2884808746","folder":"tf","game":"Team Fortress","app_id":440,"player_count":0,"max_players":24,"Bots":0,"server_type":"Dedicated","server_os":"Linux","password":true,"vac":true,"version":"7961495","steam_id":85568392924964315,"keywords":["nocrits","nodmgspread","payload","uncletopia"],"game_id":440,"stv_port":27086,"stv_name":"Uncletopia | London | 8 | Community | STV","players":null},{"server_id":300,"name":"Uncletopia | Montréal | 1 | All Maps","name_short":"mtl-1","host":"mtl-1.ca.uncletopia.com","port":27015,"enabled":true,"region":"us-east","cc":"ca","latitude":45.50889,"longitude":-73.56167,"reserved":0,"last_update":"0001-01-01T00:00:00Z","name_a2s":"Uncletopia | Montréal | 1 | All Maps","protocol":17,"map":"pl_barnblitz","folder":"tf","game":"Team Fortress","app_id":440,"player_count":0,"max_players":24,"Bots":0,"server_type":"Dedicated","server_os":"Linux","password":true,"vac":true,"version":"7961495","steam_id":85568392924500087,"keywords":["nocrits","nodmgspread","payload","uncletopia"],"game_id":440,"stv_port":27016,"stv_name":"Uncletopia | Montréal | 1 | All Maps | STV","players":null},{"server_id":301,"name":"Uncletopia | Montréal | 2 | All Maps","name_short":"mtl-2","host":"mtl-1.ca.uncletopia.com","port":27025,"enabled":true,"region":"us-east","cc":"ca","latitude":45.50889,"longitude":-73.56167,"reserved":0,"last_update":"0001-01-01T00:00:00Z","name_a2s":"Uncletopia | Montréal | 2 | All Maps","protocol":17,"map":"koth_viaduct","folder":"tf","game":"Team Fortress","app_id":440,"player_count":4,"max_players":24,"Bots":0,"server_type":"Dedicated","server_os":"Linux","password":true,"vac":true,"version":"7961495","steam_id":85568392924500088,"keywords":["cp","nocrits","nodmgspread","uncletopia"],"game_id":440,"stv_port":27026,"stv_name":"Uncletopia | Montréal | 2 | All Maps | STV","players":[{"user_id":11,"name":"Thequirka #ForBlu2th","steam_id":76561198968058652,"connected_time":4234000000000,"state":"active","ping":108},{"user_id":29,"name":"BoyKisser","steam_id":76561199200969139,"connected_time":1297000000000,"state":"active","ping":130},{"user_id":30,"name":"big man","steam_id":76561199031963925,"connected_time":1273000000000,"state":"active","ping":103},{"user_id":32,"name":"casualfemboy","steam_id":76561199433765709,"connected_time":1170000000000,"state":"active","ping":95}]},{"server_id":302,"name":"Uncletopia | Montréal | 3 | All Maps","name_short":"mtl-3","host":"mtl-1.ca.uncletopia.com","port":27035,"enabled":true,"region":"us-east","cc":"ca","latitude":45.50889,"longitude":-73.56167,"reserved":0,"last_update":"0001-01-01T00:00:00Z","name_a2s":"Uncletopia | Montréal | 3 | All Maps","protocol":17,"map":"pl_pier","folder":"tf","game":"Team Fortress","app_id":440,"player_count":0,"max_players":24,"Bots":0,"server_type":"Dedicated","server_os":"Linux","password":true,"vac":true,"version":"7961495","steam_id":85568392924500089,"keywords":["nocrits","nodmgspread","payload","uncletopia"],"game_id":440,"stv_port":27036,"stv_name":"Uncletopia | Montréal | 3 | All Maps | STV","players":null},{"server_id":303,"name":"Uncletopia | Montréal | 4 | No Payload","name_short":"mtl-4","host":"mtl-1.ca.uncletopia.com","port":27045,"enabled":true,"region":"us-east","cc":"ca","latitude":45.50889,"longitude":-73.56167,"reserved":0,"last_update":"0001-01-01T00:00:00Z","name_a2s":"Uncletopia | Montréal | 4 | No Payload","protocol":17,"map":"koth_lakeside_final","folder":"tf","game":"Team Fortress","app_id":440,"player_count":0,"max_players":24,"Bots":0,"server_type":"Dedicated","server_os":"Linux","password":true,"vac":true,"version":"7961495","steam_id":85568392924500090,"keywords":["cp","nocrits","nodmgspread","uncletopia"],"game_id":440,"stv_port":27046,"stv_name":"Uncletopia | Montréal | 4 | No Payload | STV","players":null},{"server_id":13,"name":"Uncletopia | New York City | 1 | All Maps","name_short":"nyc-1","host":"nyc-1.us.uncletopia.com","port":27015,"enabled":true,"region":"us-east","cc":"us","latitude":40.73061,"longitude":-73.93524,"reserved":0,"last_update":"0001-01-01T00:00:00Z","name_a2s":"Uncletopia | New York City | 1 | All Maps","protocol":17,"map":"koth_nucleus","folder":"tf","game":"Team Fortress","app_id":440,"player_count":20,"max_players":24,"Bots":0,"server_type":"Dedicated","server_os":"Linux","password":true,"vac":true,"version":"7961495","steam_id":85568392924469993,"keywords":["cp","nocrits","nodmgspread","uncletopia"],"game_id":440,"stv_port":27016,"stv_name":"Uncletopia | New York City | 1 | All Maps | STV","players":[{"user_id":505,"name":"detective","steam_id":76561198413125750,"connected_time":1615000000000,"state":"active","ping":46},{"user_id":521,"name":"MonkyBoo","steam_id":76561198304371716,"connected_time":156000000000,"state":"active","ping":83},{"user_id":520,"name":"Parth Makeo","steam_id":76561198002516581,"connected_time":366000000000,"state":"active","ping":41},{"user_id":498,"name":"kipper","steam_id":76561198119375620,"connected_time":2354000000000,"state":"active","ping":68},{"user_id":376,"name":"็Periculosum PhD in Funny","steam_id":76561198123370914,"connected_time":13158000000000,"state":"active","ping":93},{"user_id":471,"name":"ATL1 | on my hunting trip","steam_id":76561198315341646,"connected_time":4727000000000,"state":"active","ping":84},{"user_id":487,"name":"Captain Emerald The Changeling","steam_id":76561198320651177,"connected_time":2693000000000,"state":"active","ping":54},{"user_id":510,"name":"Queen Frau the Round","steam_id":76561197999942134,"connected_time":898000000000,"state":"active","ping":63},{"user_id":517,"name":"Z2X","steam_id":76561198031916579,"connected_time":691000000000,"state":"active","ping":44},{"user_id":513,"name":"roman","steam_id":76561198170066797,"connected_time":804000000000,"state":"active","ping":53},{"user_id":522,"name":"Flyinglab","steam_id":76561198042161408,"connected_time":94000000000,"state":"active","ping":61},{"user_id":446,"name":"ATL 1 | Save your wifi","steam_id":76561198286147372,"connected_time":6624000000000,"state":"active","ping":75},{"user_id":489,"name":"Engineer","steam_id":76561198029265697,"connected_time":2661000000000,"state":"active","ping":75},{"user_id":494,"name":"Talented","steam_id":76561198800259660,"connected_time":2524000000000,"state":"active","ping":71},{"user_id":492,"name":"Ludcmorais","steam_id":76561198359217809,"connected_time":2553000000000,"state":"active","ping":177},{"user_id":495,"name":"Fletcher","steam_id":76561198317846538,"connected_time":2519000000000,"state":"active","ping":52},{"user_id":477,"name":"mytoyo2k2","steam_id":76561199486326945,"connected_time":3628000000000,"state":"active","ping":75},{"user_id":511,"name":"ATL1 | cola","steam_id":76561198374390458,"connected_time":868000000000,"state":"active","ping":61},{"user_id":468,"name":"Machine Girl - SAD CLAPS","steam_id":76561198294013916,"connected_time":4748000000000,"state":"active","ping":47},{"user_id":500,"name":"Jun Manjoume","steam_id":76561198124040126,"connected_time":2307000000000,"state":"active","ping":62}]},{"server_id":14,"name":"Uncletopia | New York City | 2 | All Maps","name_short":"nyc-2","host":"nyc-1.us.uncletopia.com","port":27025,"enabled":true,"region":"us-east","cc":"us","latitude":40.73061,"longitude":-73.93524,"reserved":0,"last_update":"0001-01-01T00:00:00Z","name_a2s":"Uncletopia | New York City | 2 | All Maps","protocol":17,"map":"pl_upward","folder":"tf","game":"Team Fortress","app_id":440,"player_count":24,"max_players":24,"Bots":0,"server_type":"Dedicated","server_os":"Linux","password":true,"vac":true,"version":"7961495","steam_id":85568392924469994,"keywords":["nocrits","nodmgspread","payload","uncletopia"],"game_id":440,"stv_port":27026,"stv_name":"Uncletopia | New York City | 2 | All Maps | STV","players":[{"user_id":725,"name":"Big Chief Slap-A-Hoe","steam_id":76561198440881697,"connected_time":1603000000000,"state":"active","ping":75},{"user_id":705,"name":"Gibs Degrossi","steam_id":76561198066152609,"connected_time":2853000000000,"state":"active","ping":61},{"user_id":720,"name":"orbisg","steam_id":76561198004133638,"connected_time":1942000000000,"state":"active","ping":115},{"user_id":709,"name":"dipp","steam_id":76561198395577807,"connected_time":2805000000000,"state":"active","ping":45},{"user_id":737,"name":"holyblade12","steam_id":76561198090842572,"connected_time":24000000000,"state":"active","ping":38},{"user_id":726,"name":"BurnN8or101","steam_id":76561198132668224,"connected_time":1311000000000,"state":"active","ping":61},{"user_id":724,"name":"The Horselords and Animal Gods","steam_id":76561197975094050,"connected_time":1746000000000,"state":"active","ping":130},{"user_id":694,"name":"Nogard015","steam_id":76561198302867168,"connected_time":5541000000000,"state":"active","ping":65},{"user_id":735,"name":"Menlymen","steam_id":76561198046508051,"connected_time":78000000000,"state":"active","ping":84},{"user_id":707,"name":"Samercam","steam_id":76561198189403190,"connected_time":2847000000000,"state":"active","ping":58},{"user_id":731,"name":"Bulk","steam_id":76561199009814535,"connected_time":1031000000000,"state":"active","ping":62},{"user_id":691,"name":"Classy","steam_id":76561198128415840,"connected_time":5757000000000,"state":"active","ping":48},{"user_id":729,"name":"Fargo","steam_id":76561198044703931,"connected_time":1203000000000,"state":"active","ping":85},{"user_id":711,"name":"noided","steam_id":76561198353924837,"connected_time":2770000000000,"state":"active","ping":68},{"user_id":699,"name":"noodle leg","steam_id":76561198303462970,"connected_time":4763000000000,"state":"active","ping":68},{"user_id":738,"name":"Garrett","steam_id":76561199215798445,"connected_time":5000000000,"state":"spawning","ping":98},{"user_id":712,"name":"GreenApples","steam_id":76561198120559543,"connected_time":2765000000000,"state":"active","ping":115},{"user_id":692,"name":"Generator","steam_id":76561198011762257,"connected_time":5706000000000,"state":"active","ping":140},{"user_id":723,"name":"Hannah","steam_id":76561199142959128,"connected_time":1881000000000,"state":"active","ping":126},{"user_id":675,"name":"Thunderous","steam_id":76561198192752793,"connected_time":7522000000000,"state":"active","ping":56},{"user_id":673,"name":"A Puppy","steam_id":76561198828184456,"connected_time":7592000000000,"state":"active","ping":46},{"user_id":714,"name":"Dullahan","steam_id":76561198119668908,"connected_time":2744000000000,"state":"active","ping":117},{"user_id":717,"name":"Broadway Rose","steam_id":76561198046083342,"connected_time":2262000000000,"state":"active","ping":45},{"user_id":681,"name":"MAXIMUS","steam_id":76561198085809453,"connected_time":6650000000000,"state":"active","ping":80}]},{"server_id":15,"name":"Uncletopia | New York City | 3 | Stopwatch Beta","name_short":"nyc-3","host":"nyc-1.us.uncletopia.com","port":27035,"enabled":true,"region":"us-east","cc":"us","latitude":40.73061,"longitude":-73.93524,"reserved":0,"last_update":"0001-01-01T00:00:00Z","name_a2s":"Uncletopia | New York City | 3 | Stopwatch Beta","protocol":17,"map":"cp_process_final","folder":"tf","game":"Team Fortress","app_id":440,"player_count":24,"max_players":24,"Bots":0,"server_type":"Dedicated","server_os":"Linux","password":true,"vac":true,"version":"7961495","steam_id":85568392924742820,"keywords":["cp","nocrits","nodmgspread","uncletopia"],"game_id":440,"stv_port":27036,"stv_name":"Uncletopia | New York City | 3 | Stopwatch Beta | STV","players":[{"user_id":238,"name":"Czar","steam_id":76561198122463353,"connected_time":2076000000000,"state":"active","ping":60},{"user_id":206,"name":"iStrava","steam_id":76561198088223717,"connected_time":3942000000000,"state":"active","ping":60},{"user_id":239,"name":"dnl","steam_id":76561198096413059,"connected_time":2056000000000,"state":"active","ping":145},{"user_id":240,"name":"jim4jam","steam_id":76561197971147104,"connected_time":2045000000000,"state":"active","ping":59},{"user_id":265,"name":"Sun Tzu Gaming","steam_id":76561198066887958,"connected_time":609000000000,"state":"active","ping":63},{"user_id":241,"name":"Aegis","steam_id":76561198272052750,"connected_time":2024000000000,"state":"active","ping":74},{"user_id":233,"name":"Rustys_Revenge","steam_id":76561198269414024,"connected_time":2265000000000,"state":"active","ping":111},{"user_id":216,"name":"KFC☭","steam_id":76561199206815320,"connected_time":3398000000000,"state":"active","ping":109},{"user_id":247,"name":"Da Bird","steam_id":76561198215677985,"connected_time":1809000000000,"state":"active","ping":134},{"user_id":173,"name":"toastman","steam_id":76561198207073088,"connected_time":6853000000000,"state":"active","ping":78},{"user_id":267,"name":"TF2C | fac -AA-","steam_id":76561198009818412,"connected_time":62000000000,"state":"active","ping":90},{"user_id":250,"name":"Psycho Turkey","steam_id":76561198011571860,"connected_time":1398000000000,"state":"active","ping":38},{"user_id":251,"name":"Jopi (They/Them)","steam_id":76561198055534922,"connected_time":1366000000000,"state":"active","ping":88},{"user_id":246,"name":"Parax","steam_id":76561198069015743,"connected_time":1910000000000,"state":"active","ping":51},{"user_id":201,"name":"Kiphus","steam_id":76561198025289407,"connected_time":4660000000000,"state":"active","ping":58},{"user_id":252,"name":"Sun","steam_id":76561198065540776,"connected_time":1342000000000,"state":"active","ping":121},{"user_id":262,"name":"ultralisk52","steam_id":76561198051666604,"connected_time":1039000000000,"state":"active","ping":81},{"user_id":254,"name":"FierceSafe","steam_id":76561198375134464,"connected_time":1329000000000,"state":"active","ping":79},{"user_id":255,"name":"IMG_3247","steam_id":76561198284591268,"connected_time":1307000000000,"state":"active","ping":90},{"user_id":194,"name":"Bewen","steam_id":76561198325334261,"connected_time":5630000000000,"state":"active","ping":41},{"user_id":257,"name":"Dest","steam_id":76561198320056088,"connected_time":1265000000000,"state":"active","ping":160},{"user_id":258,"name":"MegaKEKER","steam_id":76561199485792353,"connected_time":1261000000000,"state":"active","ping":142},{"user_id":260,"name":"typhoon","steam_id":76561198165123178,"connected_time":1161000000000,"state":"active","ping":73},{"user_id":266,"name":"magzion","steam_id":76561197995203746,"connected_time":580000000000,"state":"active","ping":43}]},{"server_id":16,"name":"Uncletopia | New York City | 4 | Community","name_short":"nyc-4","host":"nyc-1.us.uncletopia.com","port":27045,"enabled":true,"region":"us-east","cc":"us","latitude":40.73061,"longitude":-73.93524,"reserved":0,"last_update":"0001-01-01T00:00:00Z","name_a2s":"Uncletopia | New York City | 4 | Community","protocol":17,"map":"workshop/cp_indulge.ugc528106646","folder":"tf","game":"Team Fortress","app_id":440,"player_count":0,"max_players":24,"Bots":0,"server_type":"Dedicated","server_os":"Linux","password":true,"vac":true,"version":"7961495","steam_id":85568392924742821,"keywords":["cp","nocrits","nodmgspread","uncletopia"],"game_id":440,"stv_port":27046,"stv_name":"Uncletopia | New York City | 4 | Community | STV","players":null},{"server_id":142,"name":"Uncletopia | São Paulo | 1 | All Maps","name_short":"sao-1","host":"sao-1.br.uncletopia.com","port":27015,"enabled":true,"region":"sa","cc":"br","latitude":-23.533773,"longitude":-46.62529,"reserved":0,"last_update":"0001-01-01T00:00:00Z","name_a2s":"Uncletopia | São Paulo | 1 | All Maps","protocol":17,"map":"koth_cascade","folder":"tf","game":"Team Fortress","app_id":440,"player_count":0,"max_players":24,"Bots":0,"server_type":"Dedicated","server_os":"Linux","password":true,"vac":true,"version":"7961495","steam_id":85568392924469996,"keywords":["cp","nocrits","nodmgspread","uncletopia"],"game_id":440,"stv_port":27016,"stv_name":"Uncletopia | São Paulo | 1 | All Maps | STV","players":null},{"server_id":143,"name":"Uncletopia | São Paulo | 2 | Community","name_short":"sao-2","host":"sao-2.br.uncletopia.com","port":27015,"enabled":true,"region":"sa","cc":"br","latitude":-23.533773,"longitude":-46.62529,"reserved":0,"last_update":"0001-01-01T00:00:00Z","name_a2s":"Uncletopia | São Paulo | 2 | Community","protocol":17,"map":"workshop/cp_indulge.ugc528106646","folder":"tf","game":"Team Fortress","app_id":440,"player_count":0,"max_players":24,"Bots":0,"server_type":"Dedicated","server_os":"Linux","password":true,"vac":true,"version":"7961495","steam_id":85568392924485349,"keywords":["cp","nocrits","nodmgspread","uncletopia"],"game_id":440,"stv_port":27016,"stv_name":"Uncletopia | São Paulo | 2 | Community | STV","players":null},{"server_id":7,"name":"Uncletopia | Seattle | 1 | All Maps","name_short":"sea-1","host":"sea-1.us.uncletopia.com","port":27015,"enabled":true,"region":"us-west","cc":"us","latitude":47.608013,"longitude":-122.33517,"reserved":0,"last_update":"0001-01-01T00:00:00Z","name_a2s":"Uncletopia | Seattle | 1 | All Maps","protocol":17,"map":"pl_rumford_event","folder":"tf","game":"Team Fortress","app_id":440,"player_count":24,"max_players":24,"Bots":0,"server_type":"Dedicated","server_os":"Linux","password":true,"vac":true,"version":"7961495","steam_id":85568392924469997,"keywords":["nocrits","nodmgspread","payload","uncletopia"],"game_id":440,"stv_port":27016,"stv_name":"Uncletopia | Seattle | 1 | All Maps | STV","players":[{"user_id":780,"name":"NEBULA","steam_id":76561198086878595,"connected_time":2381000000000,"state":"active","ping":82},{"user_id":775,"name":"NOT FRIENDLY","steam_id":76561198041327231,"connected_time":2983000000000,"state":"active","ping":56},{"user_id":772,"name":"i cant aim","steam_id":76561198065873462,"connected_time":3659000000000,"state":"active","ping":76},{"user_id":792,"name":"Why does glass taste like blood","steam_id":76561198253922494,"connected_time":1114000000000,"state":"active","ping":93},{"user_id":801,"name":"Keamy","steam_id":76561199471434875,"connected_time":974000000000,"state":"active","ping":45},{"user_id":695,"name":"BolognaWithOlives","steam_id":76561198101262668,"connected_time":11576000000000,"state":"active","ping":85},{"user_id":791,"name":"Username","steam_id":76561199033122306,"connected_time":1896000000000,"state":"active","ping":156},{"user_id":806,"name":"giggles","steam_id":76561198020322241,"connected_time":212000000000,"state":"active","ping":58},{"user_id":805,"name":"AligatoR","steam_id":76561198256605198,"connected_time":284000000000,"state":"active","ping":47},{"user_id":673,"name":"ilun","steam_id":76561198042913843,"connected_time":13199000000000,"state":"active","ping":61},{"user_id":808,"name":"Gohan Beast","steam_id":76561198271939793,"connected_time":201000000000,"state":"active","ping":50},{"user_id":751,"name":"O","steam_id":76561198450073779,"connected_time":5609000000000,"state":"active","ping":57},{"user_id":785,"name":"Polybius","steam_id":76561198072173048,"connected_time":2355000000000,"state":"active","ping":61},{"user_id":730,"name":"aisu","steam_id":76561198043768507,"connected_time":7901000000000,"state":"active","ping":91},{"user_id":799,"name":"muddy","steam_id":76561198035015260,"connected_time":1029000000000,"state":"active","ping":84},{"user_id":770,"name":"H0UZM@$T3R!!!!1","steam_id":76561198044297170,"connected_time":3662000000000,"state":"active","ping":64},{"user_id":795,"name":"toes","steam_id":76561198221151676,"connected_time":1105000000000,"state":"active","ping":60},{"user_id":794,"name":"mike, dead before 2100","steam_id":76561198225411004,"connected_time":1111000000000,"state":"active","ping":69},{"user_id":789,"name":"fungi","steam_id":76561198169755734,"connected_time":2034000000000,"state":"active","ping":73},{"user_id":798,"name":"Ruben","steam_id":76561198048508642,"connected_time":1054000000000,"state":"active","ping":57},{"user_id":800,"name":"Ayayayayayahuasca","steam_id":76561199002906056,"connected_time":1014000000000,"state":"active","ping":56},{"user_id":766,"name":"Dextersbrain","steam_id":76561198011831579,"connected_time":3691000000000,"state":"active","ping":78},{"user_id":790,"name":"roryisonamobilehotspot","steam_id":76561198065825165,"connected_time":2003000000000,"state":"active","ping":106},{"user_id":732,"name":"a cat plushie","steam_id":76561198080046542,"connected_time":7846000000000,"state":"active","ping":50}]},{"server_id":119,"name":"Uncletopia | Seattle | 2 | All Maps","name_short":"sea-2","host":"sea-1.us.uncletopia.com","port":27025,"enabled":true,"region":"us-west","cc":"us","latitude":47.608013,"longitude":-122.33517,"reserved":0,"last_update":"0001-01-01T00:00:00Z","name_a2s":"Uncletopia | Seattle | 2 | All Maps","protocol":17,"map":"pl_upward","folder":"tf","game":"Team Fortress","app_id":440,"player_count":23,"max_players":24,"Bots":0,"server_type":"Dedicated","server_os":"Linux","password":true,"vac":true,"version":"7961495","steam_id":85568392924469998,"keywords":["nocrits","nodmgspread","payload","uncletopia"],"game_id":440,"stv_port":27026,"stv_name":"Uncletopia | Seattle | 2 | All Maps | STV","players":[{"user_id":407,"name":"lightaaa","steam_id":76561198335346271,"connected_time":819000000000,"state":"active","ping":181},{"user_id":382,"name":"Mr. Ravioli","steam_id":76561197996625649,"connected_time":2953000000000,"state":"active","ping":61},{"user_id":412,"name":"Lump man","steam_id":76561198288198932,"connected_time":40000000000,"state":"active","ping":47},{"user_id":392,"name":"H E L P  M E","steam_id":76561199275127093,"connected_time":2298000000000,"state":"active","ping":147},{"user_id":411,"name":"Villchip","steam_id":76561198198599982,"connected_time":204000000000,"state":"active","ping":49},{"user_id":398,"name":"Peppino","steam_id":76561199139504199,"connected_time":1362000000000,"state":"active","ping":89},{"user_id":395,"name":"tehp","steam_id":76561198056411914,"connected_time":1690000000000,"state":"active","ping":45},{"user_id":387,"name":"MyMonkeyBaby","steam_id":76561198046896670,"connected_time":2736000000000,"state":"active","ping":60},{"user_id":404,"name":"Pacemaker","steam_id":76561198046865217,"connected_time":1140000000000,"state":"active","ping":74},{"user_id":380,"name":"Duncan Idaho","steam_id":76561197988963861,"connected_time":3162000000000,"state":"active","ping":121},{"user_id":409,"name":"Sly Marbo","steam_id":76561198135271741,"connected_time":231000000000,"state":"active","ping":52},{"user_id":406,"name":"greens beans","steam_id":76561198153611491,"connected_time":858000000000,"state":"active","ping":43},{"user_id":334,"name":"flamingdorit0s","steam_id":76561198869206247,"connected_time":6295000000000,"state":"active","ping":90},{"user_id":403,"name":"TallPrince","steam_id":76561198337065171,"connected_time":1172000000000,"state":"active","ping":45},{"user_id":394,"name":"cringy","steam_id":76561198323000455,"connected_time":1751000000000,"state":"active","ping":95},{"user_id":408,"name":"HotHead","steam_id":76561198138468982,"connected_time":434000000000,"state":"active","ping":51},{"user_id":399,"name":"Quietsharp","steam_id":76561198277968438,"connected_time":1232000000000,"state":"active","ping":80},{"user_id":393,"name":"top Golf","steam_id":76561198241265568,"connected_time":1980000000000,"state":"active","ping":42},{"user_id":365,"name":"Spray and Pray","steam_id":76561199062326425,"connected_time":3975000000000,"state":"active","ping":70},{"user_id":362,"name":"selling rice","steam_id":76561198063357023,"connected_time":4311000000000,"state":"active","ping":64},{"user_id":400,"name":"makeshift_burrito","steam_id":76561198042510825,"connected_time":1223000000000,"state":"active","ping":78},{"user_id":355,"name":"General Fisticuffs","steam_id":76561198255721392,"connected_time":4796000000000,"state":"active","ping":113},{"user_id":405,"name":"Dr. Fast M.D.","steam_id":76561198871298539,"connected_time":1132000000000,"state":"active","ping":86}]},{"server_id":406,"name":"Uncletopia | Seattle | 3 | Stopwatch Beta","name_short":"sea-3","host":"sea-1.us.uncletopia.com","port":27035,"enabled":true,"region":"us-west","cc":"us","latitude":47.608013,"longitude":-122.33517,"reserved":0,"last_update":"0001-01-01T00:00:00Z","name_a2s":"Uncletopia | Seattle | 3 | Stopwatch Beta","protocol":17,"map":"workshop/koth_ramjam_rc1.ugc459778887","folder":"tf","game":"Team Fortress","app_id":440,"player_count":1,"max_players":24,"Bots":0,"server_type":"Dedicated","server_os":"Linux","password":true,"vac":true,"version":"7961495","steam_id":85568392924515217,"keywords":["cp","nocrits","nodmgspread","uncletopia"],"game_id":440,"stv_port":27036,"stv_name":"Uncletopia | Seattle | 3 | Stopwatch Beta | STV","players":[{"user_id":14,"name":"Häagen Dazs","steam_id":76561198096460518,"connected_time":1405000000000,"state":"active","ping":57}]},{"server_id":17,"name":"Uncletopia | San Francisco | 1 | All Maps","name_short":"sfo-1","host":"sfo-1.us.uncletopia.com","port":27015,"enabled":true,"region":"us-west","cc":"us","latitude":37.77397,"longitude":-122.4313,"reserved":0,"last_update":"0001-01-01T00:00:00Z","name_a2s":"Uncletopia | San Francisco | 1 | All Maps","protocol":17,"map":"pl_pier","folder":"tf","game":"Team Fortress","app_id":440,"player_count":24,"max_players":24,"Bots":0,"server_type":"Dedicated","server_os":"Linux","password":true,"vac":true,"version":"7961495","steam_id":85568392924469999,"keywords":["nocrits","nodmgspread","payload","uncletopia"],"game_id":440,"stv_port":27016,"stv_name":"Uncletopia | San Francisco | 1 | All Maps | STV","players":[{"user_id":256,"name":"BuncusBeffer","steam_id":76561198285936616,"connected_time":466000000000,"state":"active","ping":54},{"user_id":244,"name":"Switchclackback","steam_id":76561198014355417,"connected_time":1115000000000,"state":"active","ping":75},{"user_id":223,"name":"echelon","steam_id":76561198139172979,"connected_time":2916000000000,"state":"active","ping":47},{"user_id":252,"name":"Sad Guardsman","steam_id":76561199023564654,"connected_time":814000000000,"state":"active","ping":113},{"user_id":249,"name":"iSilentShooter","steam_id":76561198851343507,"connected_time":1017000000000,"state":"active","ping":100},{"user_id":253,"name":"loco503","steam_id":76561198827495121,"connected_time":756000000000,"state":"active","ping":59},{"user_id":173,"name":"Cookies","steam_id":76561199099061813,"connected_time":6413000000000,"state":"active","ping":71},{"user_id":254,"name":"smeasly","steam_id":76561198028718812,"connected_time":751000000000,"state":"active","ping":59},{"user_id":234,"name":"Slitheris","steam_id":76561198109698818,"connected_time":2118000000000,"state":"active","ping":46},{"user_id":185,"name":"Manchurian Bandit","steam_id":76561198072410042,"connected_time":5717000000000,"state":"active","ping":61},{"user_id":171,"name":"Higuma","steam_id":76561198375229012,"connected_time":6731000000000,"state":"active","ping":58},{"user_id":222,"name":"Throws Before Bros󠀡","steam_id":76561197992905530,"connected_time":2938000000000,"state":"active","ping":53},{"user_id":177,"name":"chanoc","steam_id":76561198026734746,"connected_time":6085000000000,"state":"active","ping":50},{"user_id":227,"name":"El Gato Paranoico","steam_id":76561198116567116,"connected_time":2534000000000,"state":"active","ping":104},{"user_id":235,"name":"type \"bad med\" to kick","steam_id":76561198076402476,"connected_time":2101000000000,"state":"active","ping":71},{"user_id":246,"name":"Defeat","steam_id":76561198065203818,"connected_time":1111000000000,"state":"active","ping":57},{"user_id":255,"name":"Dcoyotzi","steam_id":76561199124707627,"connected_time":747000000000,"state":"active","ping":74},{"user_id":240,"name":"Lily Thorn","steam_id":76561198305488625,"connected_time":1482000000000,"state":"active","ping":86},{"user_id":229,"name":"♫ Gilgion","steam_id":76561198050297529,"connected_time":2331000000000,"state":"active","ping":63},{"user_id":218,"name":"Saber","steam_id":76561199030547855,"connected_time":3335000000000,"state":"active","ping":66},{"user_id":231,"name":"shrpnlgod","steam_id":76561198357132470,"connected_time":2218000000000,"state":"active","ping":69},{"user_id":250,"name":"Crazy Hungarian","steam_id":76561198025498172,"connected_time":955000000000,"state":"active","ping":80},{"user_id":228,"name":"Green Mario","steam_id":76561198094325997,"connected_time":2522000000000,"state":"active","ping":78},{"user_id":238,"name":"bobby wasabi","steam_id":76561198380018244,"connected_time":1964000000000,"state":"active","ping":85}]},{"server_id":18,"name":"Uncletopia | San Francisco | 2 | All Maps","name_short":"sfo-2","host":"sfo-1.us.uncletopia.com","port":27025,"enabled":true,"region":"us-west","cc":"us","latitude":37.77397,"longitude":-122.4313,"reserved":0,"last_update":"0001-01-01T00:00:00Z","name_a2s":"Uncletopia | San Francisco | 2 | All Maps","protocol":17,"map":"pl_snowycoast","folder":"tf","game":"Team Fortress","app_id":440,"player_count":24,"max_players":24,"Bots":0,"server_type":"Dedicated","server_os":"Linux","password":true,"vac":true,"version":"7961495","steam_id":85568392924470000,"keywords":["nocrits","nodmgspread","payload","uncletopia"],"game_id":440,"stv_port":27026,"stv_name":"Uncletopia | San Francisco | 2 | All Maps | STV","players":[{"user_id":226,"name":"Whiskey","steam_id":76561198858154667,"connected_time":6323000000000,"state":"active","ping":59},{"user_id":268,"name":"ambigraham","steam_id":76561198075452437,"connected_time":2355000000000,"state":"active","ping":68},{"user_id":293,"name":"Jeff","steam_id":76561199003107869,"connected_time":15000000000,"state":"spawning","ping":45},{"user_id":287,"name":"Thunder","steam_id":76561198097721532,"connected_time":846000000000,"state":"active","ping":57},{"user_id":265,"name":"elephant thumb","steam_id":76561198118859752,"connected_time":2953000000000,"state":"active","ping":51},{"user_id":290,"name":"Serene Salamander","steam_id":76561198001094770,"connected_time":260000000000,"state":"active","ping":67},{"user_id":266,"name":"HanakoToast","steam_id":76561198045233131,"connected_time":2801000000000,"state":"active","ping":75},{"user_id":280,"name":"SolarusD","steam_id":76561198029279861,"connected_time":1692000000000,"state":"active","ping":48},{"user_id":274,"name":"Kylar","steam_id":76561198196979431,"connected_time":2059000000000,"state":"active","ping":65},{"user_id":249,"name":"Pablo's nuts","steam_id":76561198062763756,"connected_time":4062000000000,"state":"active","ping":100},{"user_id":224,"name":"Grand","steam_id":76561198290143399,"connected_time":6982000000000,"state":"active","ping":70},{"user_id":225,"name":"Truffles","steam_id":76561198095868800,"connected_time":6724000000000,"state":"active","ping":121},{"user_id":285,"name":"Lambchop","steam_id":76561198043900363,"connected_time":952000000000,"state":"active","ping":62},{"user_id":284,"name":"TYPICAL-HUMAN","steam_id":76561198060914982,"connected_time":966000000000,"state":"active","ping":59},{"user_id":286,"name":"Trousers","steam_id":76561198128158481,"connected_time":850000000000,"state":"active","ping":59},{"user_id":230,"name":"Grassman (Cc)","steam_id":76561198026488532,"connected_time":6291000000000,"state":"active","ping":47},{"user_id":283,"name":"Mapachito Lindo","steam_id":76561198031359995,"connected_time":1033000000000,"state":"active","ping":61},{"user_id":261,"name":"EpicNGamerz","steam_id":76561198304292582,"connected_time":3105000000000,"state":"active","ping":146},{"user_id":102,"name":"riSygneD","steam_id":76561198331618687,"connected_time":15399000000000,"state":"active","ping":46},{"user_id":267,"name":"parallax","steam_id":76561198004438881,"connected_time":2671000000000,"state":"active","ping":68},{"user_id":260,"name":"Kawi","steam_id":76561198099696751,"connected_time":3130000000000,"state":"active","ping":85},{"user_id":291,"name":"triq267","steam_id":76561198072092090,"connected_time":131000000000,"state":"active","ping":83},{"user_id":292,"name":"xXx_FukkyBr4inz69_xXx \u0026","steam_id":76561198027321950,"connected_time":94000000000,"state":"active","ping":57},{"user_id":279,"name":"❤Kogu❤","steam_id":76561198062396512,"connected_time":1819000000000,"state":"active","ping":114}]},{"server_id":19,"name":"Uncletopia | San Francisco | 3 | Stopwatch Beta","name_short":"sfo-3","host":"sfo-1.us.uncletopia.com","port":27035,"enabled":true,"region":"us-west","cc":"us","latitude":37.77397,"longitude":-122.4313,"reserved":0,"last_update":"0001-01-01T00:00:00Z","name_a2s":"Uncletopia | San Francisco | 3 | Stopwatch Beta","protocol":17,"map":"workshop/pl_vigil_rc9.ugc1266210012","folder":"tf","game":"Team Fortress","app_id":440,"player_count":0,"max_players":24,"Bots":0,"server_type":"Dedicated","server_os":"Linux","password":true,"vac":true,"version":"7961495","steam_id":85568392924742824,"keywords":["nocrits","nodmgspread","payload","uncletopia"],"game_id":440,"stv_port":27036,"stv_name":"Uncletopia | San Francisco | 3 | Stopwatch Beta | STV","players":null},{"server_id":20,"name":"Uncletopia | San Francisco | 4 | Community","name_short":"sfo-4","host":"sfo-1.us.uncletopia.com","port":27045,"enabled":true,"region":"us-west","cc":"us","latitude":37.77397,"longitude":-122.4313,"reserved":0,"last_update":"0001-01-01T00:00:00Z","name_a2s":"Uncletopia | San Francisco | 4 | Community","protocol":17,"map":"workshop/cp_bruhstbowl_b6.ugc2878604990","folder":"tf","game":"Team Fortress","app_id":440,"player_count":0,"max_players":24,"Bots":0,"server_type":"Dedicated","server_os":"Linux","password":true,"vac":true,"version":"7961495","steam_id":85568392924742826,"keywords":["cp","nocrits","nodmgspread","uncletopia"],"game_id":440,"stv_port":27046,"stv_name":"Uncletopia | San Francisco | 4 | Community | STV","players":null},{"server_id":141,"name":"Uncletopia | Sydney | 1 | All Maps","name_short":"syd-1","host":"syd-1.au.uncletopia.com","port":27015,"enabled":true,"region":"au","cc":"au","latitude":-33.865143,"longitude":151.2099,"reserved":0,"last_update":"0001-01-01T00:00:00Z","name_a2s":"Uncletopia | Sydney | 1 | All Maps","protocol":17,"map":"koth_highpass","folder":"tf","game":"Team Fortress","app_id":440,"player_count":2,"max_players":24,"Bots":0,"server_type":"Dedicated","server_os":"Linux","password":true,"vac":true,"version":"7961495","steam_id":85568392924470001,"keywords":["cp","nocrits","nodmgspread","uncletopia"],"game_id":440,"stv_port":27016,"stv_name":"Uncletopia | Sydney | 1 | All Maps | STV","players":[{"user_id":5,"name":"Empolé","steam_id":76561198363939040,"connected_time":481000000000,"state":"active","ping":75},{"user_id":7,"name":"HJGuard","steam_id":76561199275636067,"connected_time":295000000000,"state":"active","ping":131}]},{"server_id":123,"name":"Uncletopia | Sydney | 2 | All Maps","name_short":"syd-2","host":"syd-1.au.uncletopia.com","port":27025,"enabled":true,"region":"au","cc":"au","latitude":-33.865143,"longitude":151.2099,"reserved":0,"last_update":"0001-01-01T00:00:00Z","name_a2s":"Uncletopia | Sydney | 2 | All Maps","protocol":17,"map":"koth_cascade","folder":"tf","game":"Team Fortress","app_id":440,"player_count":0,"max_players":24,"Bots":0,"server_type":"Dedicated","server_os":"Linux","password":true,"vac":true,"version":"7961495","steam_id":85568392924470002,"keywords":["cp","nocrits","nodmgspread","uncletopia"],"game_id":440,"stv_port":27026,"stv_name":"Uncletopia | Sydney | 2 | All Maps | STV","players":null},{"server_id":395,"name":"Uncletopia | Sydney | 3 | All Maps","name_short":"syd-3","host":"syd-1.au.uncletopia.com","port":27035,"enabled":true,"region":"au","cc":"au","latitude":-33.865143,"longitude":151.2099,"reserved":0,"last_update":"0001-01-01T00:00:00Z","name_a2s":"Uncletopia | Sydney | 3 | All Maps","protocol":17,"map":"cp_process_final","folder":"tf","game":"Team Fortress","app_id":440,"player_count":13,"max_players":24,"Bots":0,"server_type":"Dedicated","server_os":"Linux","password":true,"vac":true,"version":"7961495","steam_id":85568392925194467,"keywords":["cp","nocrits","nodmgspread","uncletopia"],"game_id":440,"stv_port":27036,"stv_name":"Uncletopia | Sydney | 3 | All Maps | STV","players":[{"user_id":121,"name":"Richard Cranium","steam_id":76561198085847402,"connected_time":1717000000000,"state":"active","ping":73},{"user_id":139,"name":"perturb (feed/seed)","steam_id":76561198085124297,"connected_time":539000000000,"state":"active","ping":55},{"user_id":24,"name":"VyKK0iolet","steam_id":76561199439296450,"connected_time":9230000000000,"state":"active","ping":89},{"user_id":141,"name":"craftiestub8","steam_id":76561198155433424,"connected_time":284000000000,"state":"active","ping":78},{"user_id":122,"name":"Okie Dokie","steam_id":76561198125237921,"connected_time":1707000000000,"state":"active","ping":44},{"user_id":142,"name":"Sk8rrrr","steam_id":76561198334646675,"connected_time":191000000000,"state":"active","ping":39},{"user_id":123,"name":"UrAvgDMG","steam_id":76561199214859141,"connected_time":1695000000000,"state":"active","ping":140},{"user_id":100,"name":"V2","steam_id":76561198205919189,"connected_time":2750000000000,"state":"active","ping":80},{"user_id":108,"name":"MORPHEUS","steam_id":76561198238036058,"connected_time":2388000000000,"state":"active","ping":66},{"user_id":133,"name":"The :)","steam_id":76561198958059883,"connected_time":920000000000,"state":"active","ping":82},{"user_id":117,"name":"No Scrubs","steam_id":76561197969619053,"connected_time":2138000000000,"state":"active","ping":69},{"user_id":137,"name":"militarywombat","steam_id":76561198798651633,"connected_time":725000000000,"state":"active","ping":83},{"user_id":138,"name":"consume ur poon","steam_id":76561198288970258,"connected_time":706000000000,"state":"active","ping":45}]},{"server_id":396,"name":"Uncletopia | Sydney | 4 | All Maps","name_short":"syd-4","host":"syd-1.au.uncletopia.com","port":27045,"enabled":true,"region":"au","cc":"au","latitude":-33.865143,"longitude":151.2099,"reserved":0,"last_update":"0001-01-01T00:00:00Z","name_a2s":"Uncletopia | Sydney | 4 | All Maps","protocol":17,"map":"cp_snakewater_final1","folder":"tf","game":"Team Fortress","app_id":440,"player_count":0,"max_players":24,"Bots":0,"server_type":"Dedicated","server_os":"Linux","password":true,"vac":true,"version":"7961495","steam_id":85568392925397958,"keywords":["cp","nocrits","nodmgspread","uncletopia"],"game_id":440,"stv_port":27046,"stv_name":"Uncletopia | Sydney | 4 | All Maps | STV","players":null},{"server_id":58,"name":"Uncletopia | Sydney | 5 | Stopwatch Beta","name_short":"syd-5","host":"syd-1.au.uncletopia.com","port":27055,"enabled":true,"region":"au","cc":"au","latitude":-33.865143,"longitude":151.2099,"reserved":0,"last_update":"0001-01-01T00:00:00Z","name_a2s":"Uncletopia | Sydney | 5 | Stopwatch Beta","protocol":17,"map":"koth_viaduct","folder":"tf","game":"Team Fortress","app_id":440,"player_count":0,"max_players":24,"Bots":0,"server_type":"Dedicated","server_os":"Linux","password":true,"vac":true,"version":"7961495","steam_id":85568392925397959,"keywords":["cp","nocrits","nodmgspread","uncletopia"],"game_id":440,"stv_port":27056,"stv_name":"Uncletopia | Sydney | 5 | Stopwatch Beta | STV","players":null},{"server_id":59,"name":"Uncletopia | Sydney | 6 | Community","name_short":"syd-6","host":"syd-1.au.uncletopia.com","port":27065,"enabled":true,"region":"au","cc":"au","latitude":-33.865143,"longitude":151.2099,"reserved":0,"last_update":"0001-01-01T00:00:00Z","name_a2s":"Uncletopia | Sydney | 6 | Community","protocol":17,"map":"koth_cascade","folder":"tf","game":"Team Fortress","app_id":440,"player_count":0,"max_players":24,"Bots":0,"server_type":"Dedicated","server_os":"Linux","password":true,"vac":true,"version":"7961495","steam_id":85568392925397960,"keywords":["cp","nocrits","nodmgspread","uncletopia"],"game_id":440,"stv_port":27066,"stv_name":"Uncletopia | Sydney | 6 | Community | STV","players":null},{"server_id":49,"name":"Uncletopia | Warsaw | 1 | All Maps","name_short":"waw-1","host":"waw-1.pl.uncletopia.com","port":27015,"enabled":true,"region":"eu","cc":"pl","latitude":52.2297,"longitude":21.017532,"reserved":0,"last_update":"0001-01-01T00:00:00Z","name_a2s":"Uncletopia | Warsaw | 1 | All Maps","protocol":17,"map":"pl_swiftwater_final1","folder":"tf","game":"Team Fortress","app_id":440,"player_count":0,"max_players":24,"Bots":0,"server_type":"Dedicated","server_os":"Linux","password":true,"vac":true,"version":"7961495","steam_id":85568392925397850,"keywords":["nocrits","nodmgspread","payload","uncletopia"],"game_id":440,"stv_port":27016,"stv_name":"Uncletopia | Warsaw | 1 | All Maps | STV","players":null},{"server_id":50,"name":"Uncletopia | Warsaw | 2 | All Maps","name_short":"waw-2","host":"waw-1.pl.uncletopia.com","port":27025,"enabled":true,"region":"eu","cc":"pl","latitude":52.2297,"longitude":21.017532,"reserved":0,"last_update":"0001-01-01T00:00:00Z","name_a2s":"Uncletopia | Warsaw | 2 | All Maps","protocol":17,"map":"cp_dustbowl","folder":"tf","game":"Team Fortress","app_id":440,"player_count":0,"max_players":24,"Bots":0,"server_type":"Dedicated","server_os":"Linux","password":true,"vac":true,"version":"7961495","steam_id":85568392925397851,"keywords":["cp","nocrits","nodmgspread","uncletopia"],"game_id":440,"stv_port":27026,"stv_name":"Uncletopia | Warsaw | 2 | All Maps | STV","players":null},{"server_id":51,"name":"Uncletopia | Warsaw | 3 | All Maps","name_short":"waw-3","host":"waw-1.pl.uncletopia.com","port":27035,"enabled":true,"region":"eu","cc":"pl","latitude":52.2297,"longitude":21.017532,"reserved":0,"last_update":"0001-01-01T00:00:00Z","name_a2s":"Uncletopia | Warsaw | 3 | All Maps","protocol":17,"map":"pl_upward","folder":"tf","game":"Team Fortress","app_id":440,"player_count":0,"max_players":24,"Bots":0,"server_type":"Dedicated","server_os":"Linux","password":true,"vac":true,"version":"7961495","steam_id":85568392925397852,"keywords":["nocrits","nodmgspread","payload","uncletopia"],"game_id":440,"stv_port":27036,"stv_name":"Uncletopia | Warsaw | 3 | All Maps | STV","players":null},{"server_id":52,"name":"Uncletopia | Warsaw | 4 | All Maps","name_short":"waw-4","host":"waw-1.pl.uncletopia.com","port":27045,"enabled":true,"region":"eu","cc":"pl","latitude":52.2297,"longitude":21.017532,"reserved":0,"last_update":"0001-01-01T00:00:00Z","name_a2s":"Uncletopia | Warsaw | 4 | All Maps","protocol":17,"map":"koth_viaduct","folder":"tf","game":"Team Fortress","app_id":440,"player_count":0,"max_players":24,"Bots":0,"server_type":"Dedicated","server_os":"Linux","password":true,"vac":true,"version":"7961495","steam_id":85568392925397853,"keywords":["cp","nocrits","nodmgspread","uncletopia"],"game_id":440,"stv_port":27046,"stv_name":"Uncletopia | Warsaw | 4 | All Maps | STV","players":null},{"server_id":53,"name":"Uncletopia | Warsaw | 5 | Stopwatch Beta","name_short":"waw-5","host":"waw-1.pl.uncletopia.com","port":27055,"enabled":true,"region":"eu","cc":"pl","latitude":52.2297,"longitude":21.017532,"reserved":0,"last_update":"0001-01-01T00:00:00Z","name_a2s":"Uncletopia | Warsaw | 5 | Stopwatch Beta","protocol":17,"map":"cp_snakewater_final1","folder":"tf","game":"Team Fortress","app_id":440,"player_count":0,"max_players":24,"Bots":0,"server_type":"Dedicated","server_os":"Linux","password":true,"vac":true,"version":"7961495","steam_id":85568392925397854,"keywords":["cp","nocrits","nodmgspread","uncletopia"],"game_id":440,"stv_port":27056,"stv_name":"Uncletopia | Warsaw | 5 | Stopwatch Beta | STV","players":null},{"server_id":54,"name":"Uncletopia | Warsaw | 6 | Community","name_short":"waw-6","host":"waw-1.pl.uncletopia.com","port":27065,"enabled":true,"region":"eu","cc":"pl","latitude":52.2297,"longitude":21.017532,"reserved":0,"last_update":"0001-01-01T00:00:00Z","name_a2s":"Uncletopia | Warsaw | 6 | Community","protocol":17,"map":"cp_mountainlab","folder":"tf","game":"Team Fortress","app_id":440,"player_count":0,"max_players":24,"Bots":0,"server_type":"Dedicated","server_os":"Linux","password":true,"vac":true,"version":"7961495","steam_id":85568392925397856,"keywords":["cp","nocrits","nodmgspread","uncletopia"],"game_id":440,"stv_port":27066,"stv_name":"Uncletopia | Warsaw | 6 | Community | STV","players":null}]}