{"status":true,"message":"","result":[{"server_id":9,"name":"Uncletopia | Atlanta | 1 | All Maps","name_short":"atl-1","host":"atl-1.us.uncletopia.com","port":27015,"enabled":true,"region":"us-east","cc":"us","latitude":33.753746,"longitude":-84.38633,"reserved":0,"last_update":"0001-01-01T00:00:00Z","name_a2s":"Uncletopia | Atlanta | 1 | All Maps","protocol":17,"map":"cp_dustbowl","folder":"tf","game":"Team Fortress","app_id":440,"player_count":24,"max_players":24,"Bots":0,"server_type":"Dedicated","server_os":"Linux","password":true,"vac":true,"version":"7882260","steam_id":85568392924469982,"keywords":["cp","nocrits","nodmgspread","uncletopia"],"game_id":440,"stv_port":27016,"stv_name":"Uncletopia | Atlanta | 1 | All Maps | STV","players":[{"user_id":772,"name":"13£","steam_id":76561198425726464,"connected_time":1276000000000,"state":"active","ping":72},{"user_id":779,"name":"Pants Shitter (with rizz)","steam_id":76561198276385778,"connected_time":392000000000,"state":"active","ping":101},{"user_id":752,"name":"social distance warrior","steam_id":76561198128992994,"connected_time":3537000000000,"state":"active","ping":92},{"user_id":728,"name":"Catalina Caldwell","steam_id":76561198263579848,"connected_time":6295000000000,"state":"active","ping":75},{"user_id":771,"name":"Mocha","steam_id":76561199426520539,"connected_time":1280000000000,"state":"active","ping":86},{"user_id":773,"name":"Shi","steam_id":76561198053716284,"connected_time":1218000000000,"state":"active","ping":55},{"user_id":734,"name":"bro like stop it","steam_id":76561198065928600,"connected_time":5715000000000,"state":"active","ping":94},{"user_id":749,"name":"dementia gaming","steam_id":76561198432668439,"connected_time":3910000000000,"state":"active","ping":71},{"user_id":781,"name":"Satan-2","steam_id":76561199231742764,"connected_time":124000000000,"state":"active","ping":85},{"user_id":735,"name":"Da Big Beefer™","steam_id":76561199477267466,"connected_time":5714000000000,"state":"active","ping":97},{"user_id":774,"name":"The Bar Ice Cream","steam_id":76561198448102983,"connected_time":1171000000000,"state":"active","ping":71},{"user_id":716,"name":"Rusted Cake","steam_id":76561198209755931,"connected_time":7025000000000,"state":"active","ping":89},{"user_id":750,"name":"gerg","steam_id":76561197997127387,"connected_time":3902000000000,"state":"active","ping":106},{"user_id":730,"name":"Gaming","steam_id":76561198107080532,"connected_time":5944000000000,"state":"active","ping":73},{"user_id":764,"name":"Es","steam_id":76561198986060392,"connected_time":1539000000000,"state":"active","ping":158},{"user_id":765,"name":"guess i'll die...virtually","steam_id":76561199112291386,"connected_time":1495000000000,"state":"active","ping":116},{"user_id":762,"name":"Teh_Hsky","steam_id":76561198798630221,"connected_time":1597000000000,"state":"active","ping":85},{"user_id":778,"name":"Diapa Snipa","steam_id":76561198096221632,"connected_time":665000000000,"state":"active","ping":45},{"user_id":775,"name":"bocaJ","steam_id":76561198374535092,"connected_time":1140000000000,"state":"active","ping":79},{"user_id":776,"name":"CheeseCake488","steam_id":76561199407617942,"connected_time":1138000000000,"state":"active","ping":170},{"user_id":729,"name":"Bodhi","steam_id":76561198103230995,"connected_time":6044000000000,"state":"active","ping":64},{"user_id":777,"name":"falc0n","steam_id":76561198055438261,"connected_time":1048000000000,"state":"active","ping":82},{"user_id":780,"name":"JollyVG","steam_id":76561198044919633,"connected_time":196000000000,"state":"active","ping":56},{"user_id":751,"name":"Kanbaru Suruga","steam_id":76561198164782653,"connected_time":3901000000000,"state":"active","ping":70}]},{"server_id":104,"name":"Uncletopia | Atlanta | 2 | All Maps","name_short":"atl-2","host":"atl-1.us.uncletopia.com","port":27025,"enabled":true,"region":"us-east","cc":"us","latitude":33.753746,"longitude":-84.38633,"reserved":0,"last_update":"0001-01-01T00:00:00Z","name_a2s":"Uncletopia | Atlanta | 2 | All Maps","protocol":17,"map":"koth_viaduct","folder":"tf","game":"Team Fortress","app_id":440,"player_count":0,"max_players":24,"Bots":0,"server_type":"Dedicated","server_os":"Linux","password":true,"vac":true,"version":"7882260","steam_id":85568392924469983,"keywords":["cp","nocrits","nodmgspread","uncletopia"],"game_id":440,"stv_port":27026,"stv_name":"Uncletopia | Atlanta | 2 | All Maps | STV","players":null},{"server_id":400,"name":"Uncletopia | Atlanta | 3 | Community","name_short":"atl-3","host":"atl-1.us.uncletopia.com","port":27035,"enabled":true,"region":"us-east","cc":"us","latitude":33.753746,"longitude":-84.38633,"reserved":0,"last_update":"0001-01-01T00:00:00Z","name_a2s":"Uncletopia | Atlanta | 3 | Community","protocol":17,"map":"workshop/cp_indulge.ugc528106646","folder":"tf","game":"Team Fortress","app_id":440,"player_count":0,"max_players":24,"Bots":0,"server_type":"Dedicated","server_os":"Linux","password":true,"vac":true,"version":"7882260","steam_id":85568392924515187,"keywords":["cp","nocrits","nodmgspread","uncletopia"],"game_id":440,"stv_port":27036,"stv_name":"Uncletopia | Atlanta | 3 | Community | STV","players":null},{"server_id":401,"name":"Uncletopia | Atlanta | 4 | No Payload","name_short":"atl-4","host":"atl-1.us.uncletopia.com","port":27045,"enabled":true,"region":"us-east","cc":"us","latitude":33.753746,"longitude":-84.38633,"reserved":0,"last_update":"0001-01-01T00:00:00Z","name_a2s":"","protocol":0,"map":"","folder":"","game":"","app_id":0,"player_count":0,"max_players":0,"Bots":0,"server_type":"","server_os":"","password":false,"vac":false,"version":"","steam_id":0,"keywords":null,"game_id":0,"stv_port":0,"stv_name":"","players":null},{"server_id":2,"name":"Uncletopia | Chicago | 1 | All Maps","name_short":"chi-1","host":"chi-1.us.uncletopia.com","port":27015,"enabled":true,"region":"us-central","cc":"us","latitude":41.881832,"longitude":-87.62318,"reserved":0,"last_update":"0001-01-01T00:00:00Z","name_a2s":"Uncletopia | Chicago | 1 | All Maps","protocol":17,"map":"cp_sunshine","folder":"tf","game":"Team Fortress","app_id":440,"player_count":0,"max_players":24,"Bots":0,"server_type":"Dedicated","server_os":"Linux","password":true,"vac":true,"version":"7882260","steam_id":85568392924469984,"keywords":["cp","nocrits","nodmgspread","uncletopia"],"game_id":440,"stv_port":27016,"stv_name":"Uncletopia | Chicago | 1 | All Maps | STV","players":null},{"server_id":106,"name":"Uncletopia | Chicago | 2 | All Maps","name_short":"chi-2","host":"chi-1.us.uncletopia.com","port":27025,"enabled":true,"region":"us-central","cc":"us","latitude":41.881832,"longitude":-87.62318,"reserved":0,"last_update":"0001-01-01T00:00:00Z","name_a2s":"Uncletopia | Chicago | 2 | All Maps","protocol":17,"map":"pl_upward","folder":"tf","game":"Team Fortress","app_id":440,"player_count":23,"max_players":24,"Bots":0,"server_type":"Dedicated","server_os":"Linux","password":true,"vac":true,"version":"7882260","steam_id":85568392924469985,"keywords":["nocrits","nodmgspread","payload","uncletopia"],"game_id":440,"stv_port":27026,"stv_name":"Uncletopia | Chicago | 2 | All Maps | STV","players":[{"user_id":925,"name":"cool safe name","steam_id":76561198237827742,"connected_time":3029000000000,"state":"active","ping":60},{"user_id":930,"name":"Breach","steam_id":76561198045060392,"connected_time":1855000000000,"state":"active","ping":58},{"user_id":936,"name":"lettuce","steam_id":76561198133969522,"connected_time":1074000000000,"state":"active","ping":109},{"user_id":937,"name":"milo","steam_id":76561199061380038,"connected_time":1073000000000,"state":"active","ping":60},{"user_id":926,"name":"Kurayami","steam_id":76561198089630547,"connected_time":2911000000000,"state":"active","ping":69},{"user_id":827,"name":"X_Sniper7","steam_id":76561198081097640,"connected_time":12159000000000,"state":"active","ping":75},{"user_id":928,"name":"Mr.Frundles","steam_id":76561198134559026,"connected_time":2479000000000,"state":"active","ping":74},{"user_id":931,"name":"conner","steam_id":76561198052911241,"connected_time":1835000000000,"state":"active","ping":68},{"user_id":952,"name":"$Theory","steam_id":76561198027033926,"connected_time":59000000000,"state":"active","ping":137},{"user_id":917,"name":"cornships","steam_id":76561199220411023,"connected_time":3357000000000,"state":"active","ping":40},{"user_id":847,"name":"Free1337","steam_id":76561198034160133,"connected_time":9918000000000,"state":"active","ping":50},{"user_id":946,"name":"Ayylmao","steam_id":76561198104780147,"connected_time":287000000000,"state":"active","ping":43},{"user_id":939,"name":"Niko","steam_id":76561199006295285,"connected_time":1047000000000,"state":"active","ping":156},{"user_id":944,"name":"Aeterna Victrix","steam_id":76561198067701236,"connected_time":948000000000,"state":"active","ping":55},{"user_id":885,"name":"creepycrawler","steam_id":76561198352016831,"connected_time":6836000000000,"state":"active","ping":59},{"user_id":866,"name":"Node⋄","steam_id":76561198219359475,"connected_time":7896000000000,"state":"active","ping":64},{"user_id":923,"name":"Aqua UwU","steam_id":76561198108784167,"connected_time":3077000000000,"state":"active","ping":46},{"user_id":922,"name":"Soda Drink Shartblast","steam_id":76561198134187113,"connected_time":3111000000000,"state":"active","ping":87},{"user_id":943,"name":"Snowbolt","steam_id":76561197974085095,"connected_time":964000000000,"state":"active","ping":47},{"user_id":888,"name":"A Good Name (she/her)","steam_id":76561198858190691,"connected_time":6485000000000,"state":"active","ping":114},{"user_id":935,"name":"TrainerAbu","steam_id":76561197995479203,"connected_time":1174000000000,"state":"active","ping":75},{"user_id":927,"name":"slurdydurdy","steam_id":76561198101494591,"connected_time":2676000000000,"state":"active","ping":75},{"user_id":950,"name":"the tf2 player of all time","steam_id":76561198881665250,"connected_time":112000000000,"state":"active","ping":90}]},{"server_id":402,"name":"Uncletopia | Chicago | 3 | All Maps","name_short":"chi-3","host":"chi-1.us.uncletopia.com","port":27035,"enabled":true,"region":"us-central","cc":"us","latitude":41.881832,"longitude":-87.62318,"reserved":0,"last_update":"0001-01-01T00:00:00Z","name_a2s":"Uncletopia | Chicago | 3 | All Maps","protocol":17,"map":"koth_cascade","folder":"tf","game":"Team Fortress","app_id":440,"player_count":0,"max_players":24,"Bots":0,"server_type":"Dedicated","server_os":"Linux","password":true,"vac":true,"version":"7882260","steam_id":85568392924515191,"keywords":["cp","nocrits","nodmgspread","uncletopia"],"game_id":440,"stv_port":27036,"stv_name":"Uncletopia | Chicago | 3 | All Maps | STV","players":null},{"server_id":403,"name":"Uncletopia | Chicago | 4 | All Maps","name_short":"chi-4","host":"chi-1.us.uncletopia.com","port":27045,"enabled":true,"region":"us-central","cc":"us","latitude":41.881832,"longitude":-87.62318,"reserved":0,"last_update":"0001-01-01T00:00:00Z","name_a2s":"Uncletopia | Chicago | 4 | All Maps","protocol":17,"map":"koth_highpass","folder":"tf","game":"Team Fortress","app_id":440,"player_count":0,"max_players":24,"Bots":0,"server_type":"Dedicated","server_os":"Linux","password":true,"vac":true,"version":"7882260","steam_id":85568392924515193,"keywords":["cp","nocrits","nodmgspread","uncletopia"],"game_id":440,"stv_port":27046,"stv_name":"Uncletopia | Chicago | 4 | All Maps | STV","players":null},{"server_id":36,"name":"Uncletopia | Chicago | 5 | All Maps","name_short":"chi-5","host":"chi-2.us.uncletopia.com","port":27015,"enabled":true,"region":"us-central","cc":"us","latitude":41.881832,"longitude":-87.62318,"reserved":0,"last_update":"0001-01-01T00:00:00Z","name_a2s":"Uncletopia | Chicago | 5 | All Maps","protocol":17,"map":"koth_cascade","folder":"tf","game":"Team Fortress","app_id":440,"player_count":0,"max_players":24,"Bots":0,"server_type":"Dedicated","server_os":"Linux","password":true,"vac":true,"version":"7882260","steam_id":85568392924866362,"keywords":["cp","nocrits","nodmgspread","uncletopia"],"game_id":440,"stv_port":27016,"stv_name":"Uncletopia | Chicago | 5 | All Maps | STV","players":null},{"server_id":37,"name":"Uncletopia | Chicago | 6 | All Maps","name_short":"chi-6","host":"chi-2.us.uncletopia.com","port":27025,"enabled":true,"region":"us-central","cc":"us","latitude":41.881832,"longitude":-87.62318,"reserved":0,"last_update":"0001-01-01T00:00:00Z","name_a2s":"Uncletopia | Chicago | 6 | All Maps","protocol":17,"map":"cp_process_final","folder":"tf","game":"Team Fortress","app_id":440,"player_count":10,"max_players":24,"Bots":0,"server_type":"Dedicated","server_os":"Linux","password":true,"vac":true,"version":"7882260","steam_id":85568392924866363,"keywords":["cp","nocrits","nodmgspread","uncletopia"],"game_id":440,"stv_port":27026,"stv_name":"Uncletopia | Chicago | 6 | All Maps | STV","players":[{"user_id":815,"name":"nipplezits","steam_id":76561198138409507,"connected_time":263000000000,"state":"active","ping":62},{"user_id":744,"name":"Mimiu the Mimiga","steam_id":76561197976714577,"connected_time":8139000000000,"state":"active","ping":67},{"user_id":814,"name":"Gustavo Fring","steam_id":76561198132807405,"connected_time":290000000000,"state":"active","ping":96},{"user_id":797,"name":"ultralisk52","steam_id":76561198051666604,"connected_time":2558000000000,"state":"active","ping":54},{"user_id":816,"name":"Griffin","steam_id":76561198159339442,"connected_time":198000000000,"state":"active","ping":72},{"user_id":800,"name":"Aedaxe","steam_id":76561198036555143,"connected_time":2132000000000,"state":"active","ping":69},{"user_id":729,"name":"puppy :3","steam_id":76561198011196264,"connected_time":8999000000000,"state":"active","ping":45},{"user_id":779,"name":"Beemo Velnias","steam_id":76561198136850730,"connected_time":4719000000000,"state":"active","ping":64},{"user_id":689,"name":"Ġ1 ♦ Synth","steam_id":76561198058660228,"connected_time":11319000000000,"state":"active","ping":53},{"user_id":809,"name":"hud_saytext_time 0","steam_id":76561198010327228,"connected_time":948000000000,"state":"active","ping":169}]},{"server_id":38,"name":"Uncletopia | Chicago | 7 | Stopwatch Beta","name_short":"chi-7","host":"chi-2.us.uncletopia.com","port":27035,"enabled":true,"region":"us-central","cc":"us","latitude":41.881832,"longitude":-87.62318,"reserved":0,"last_update":"0001-01-01T00:00:00Z","name_a2s":"Uncletopia | Chicago | 7 | Stopwatch Beta","protocol":17,"map":"koth_highpass","folder":"tf","game":"Team Fortress","app_id":440,"player_count":0,"max_players":24,"Bots":0,"server_type":"Dedicated","server_os":"Linux","password":true,"vac":true,"version":"7882260","steam_id":85568392924866364,"keywords":["cp","nocrits","nodmgspread","uncletopia"],"game_id":440,"stv_port":27036,"stv_name":"Uncletopia | Chicago | 7 | Stopwatch Beta | STV","players":null},{"server_id":39,"name":"Uncletopia | Chicago | 8 | Community","name_short":"chi-8","host":"chi-2.us.uncletopia.com","port":27045,"enabled":true,"region":"us-central","cc":"us","latitude":41.881832,"longitude":-87.62318,"reserved":0,"last_update":"0001-01-01T00:00:00Z","name_a2s":"Uncletopia | Chicago | 8 | Community","protocol":17,"map":"workshop/koth_slaughter_rc1.ugc1712845210","folder":"tf","game":"Team Fortress","app_id":440,"player_count":0,"max_players":24,"Bots":0,"server_type":"Dedicated","server_os":"Linux","password":true,"vac":true,"version":"7882260","steam_id":85568392924866365,"keywords":["cp","nocrits","nodmgspread","uncletopia"],"game_id":440,"stv_port":27046,"stv_name":"Uncletopia | Chicago | 8 | Community | STV","players":null},{"server_id":8,"name":"Uncletopia | Dallas | 1 | All Maps","name_short":"dal-1","host":"dal-1.us.uncletopia.com","port":27015,"enabled":true,"region":"us-central","cc":"us","latitude":32.779167,"longitude":-96.80889,"reserved":0,"last_update":"0001-01-01T00:00:00Z","name_a2s":"Uncletopia | Dallas | 1 | All Maps","protocol":17,"map":"pl_borneo","folder":"tf","game":"Team Fortress","app_id":440,"player_count":4,"max_players":24,"Bots":0,"server_type":"Dedicated","server_os":"Linux","password":true,"vac":true,"version":"7882260","steam_id":85568392924469986,"keywords":["nocrits","nodmgspread","payload","uncletopia"],"game_id":440,"stv_port":27016,"stv_name":"Uncletopia | Dallas | 1 | All Maps | STV","players":[{"user_id":993,"name":"Professionally Braindead ツ","steam_id":76561198276714220,"connected_time":1282000000000,"state":"spawning","ping":44},{"user_id":970,"name":"Derpy Hooves???","steam_id":76561198101505695,"connected_time":4294000000000,"state":"spawning","ping":255},{"user_id":972,"name":"DGRarity","steam_id":76561198065196790,"connected_time":4287000000000,"state":"active","ping":85},{"user_id":979,"name":"a 1930","steam_id":76561198320639814,"connected_time":2789000000000,"state":"spawning","ping":152}]},{"server_id":108,"name":"Uncletopia | Dallas | 2 | All Maps","name_short":"dal-2","host":"dal-1.us.uncletopia.com","port":27025,"enabled":true,"region":"us-central","cc":"us","latitude":32.779167,"longitude":-96.80889,"reserved":0,"last_update":"0001-01-01T00:00:00Z","name_a2s":"Uncletopia | Dallas | 2 | All Maps","protocol":17,"map":"pl_frontier_final","folder":"tf","game":"Team Fortress","app_id":440,"player_count":19,"max_players":24,"Bots":0,"server_type":"Dedicated","server_os":"Linux","password":true,"vac":true,"version":"7882260","steam_id":85568392924469988,"keywords":["nocrits","nodmgspread","payload","uncletopia"],"game_id":440,"stv_port":27026,"stv_name":"Uncletopia | Dallas | 2 | All Maps | STV","players":[{"user_id":742,"name":"CupOJo","steam_id":76561198067153390,"connected_time":3426000000000,"state":"active","ping":76},{"user_id":764,"name":"John","steam_id":76561198138105188,"connected_time":84000000000,"state":"active","ping":92},{"user_id":728,"name":"Reptile","steam_id":76561198078463246,"connected_time":4160000000000,"state":"active","ping":69},{"user_id":745,"name":"lycoris","steam_id":76561199113965768,"connected_time":2840000000000,"state":"active","ping":100},{"user_id":748,"name":"HTA","steam_id":76561198043879140,"connected_time":2228000000000,"state":"active","ping":70},{"user_id":762,"name":"Medusaka","steam_id":76561198115735955,"connected_time":130000000000,"state":"active","ping":56},{"user_id":763,"name":"Aethirion","steam_id":76561198100185492,"connected_time":127000000000,"state":"active","ping":69},{"user_id":765,"name":"FemFem","steam_id":76561198100162199,"connected_time":82000000000,"state":"active","ping":54},{"user_id":746,"name":"shadow elite","steam_id":76561198165212575,"connected_time":2412000000000,"state":"active","ping":76},{"user_id":722,"name":"KrylonHeretic","steam_id":76561198139811459,"connected_time":4517000000000,"state":"active","ping":101},{"user_id":759,"name":"Neo Kojiro","steam_id":76561198000967076,"connected_time":454000000000,"state":"active","ping":90},{"user_id":758,"name":"PocketTieAMPLFY","steam_id":76561199080485881,"connected_time":588000000000,"state":"active","ping":111},{"user_id":751,"name":"Where The F**K I Am?","steam_id":76561197986530028,"connected_time":2174000000000,"state":"active","ping":88},{"user_id":724,"name":"Shmaden Shmuki","steam_id":76561198272381217,"connected_time":4493000000000,"state":"active","ping":80},{"user_id":754,"name":"the beach that makes you old","steam_id":76561198008332777,"connected_time":1808000000000,"state":"active","ping":91},{"user_id":691,"name":"dumb dog","steam_id":76561198114227142,"connected_time":7632000000000,"state":"active","ping":70},{"user_id":760,"name":"twitch.tv/wokkyyy","steam_id":76561198265200834,"connected_time":246000000000,"state":"active","ping":75},{"user_id":753,"name":"soupy","steam_id":76561197974283797,"connected_time":2123000000000,"state":"active","ping":61},{"user_id":744,"name":"kbsfnk","steam_id":76561198036884600,"connected_time":3355000000000,"state":"active","ping":86}]},{"server_id":5,"name":"Uncletopia | Frankfurt | 1 | All Maps","name_short":"frk-1","host":"frk-1.de.uncletopia.com","port":27015,"enabled":true,"region":"eu","cc":"de","latitude":50.110924,"longitude":8.682127,"reserved":0,"last_update":"0001-01-01T00:00:00Z","name_a2s":"Uncletopia | Frankfurt | 1 | All Maps","protocol":17,"map":"cp_process_final","folder":"tf","game":"Team Fortress","app_id":440,"player_count":0,"max_players":24,"Bots":0,"server_type":"Dedicated","server_os":"Linux","password":true,"vac":true,"version":"7882260","steam_id":85568392924469989,"keywords":["cp","nocrits","nodmgspread","uncletopia"],"game_id":440,"stv_port":27016,"stv_name":"Uncletopia | Frankfurt | 1 | All Maps | STV","players":null},{"server_id":110,"name":"Uncletopia | Frankfurt | 2 | All Maps","name_short":"frk-2","host":"frk-1.de.uncletopia.com","port":27025,"enabled":true,"region":"eu","cc":"de","latitude":50.110924,"longitude":8.682127,"reserved":0,"last_update":"0001-01-01T00:00:00Z","name_a2s":"Uncletopia | Frankfurt | 2 | All Maps","protocol":17,"map":"pl_swiftwater_final1","folder":"tf","game":"Team Fortress","app_id":440,"player_count":0,"max_players":24,"Bots":0,"server_type":"Dedicated","server_os":"Linux","password":true,"vac":true,"version":"7882260","steam_id":85568392924469990,"keywords":["nocrits","nodmgspread","payload","uncletopia"],"game_id":440,"stv_port":27026,"stv_name":"Uncletopia | Frankfurt | 2 | All Maps | STV","players":null},{"server_id":308,"name":"Uncletopia | Frankfurt | 3 | All Maps","name_short":"frk-3","host":"frk-1.de.uncletopia.com","port":27035,"enabled":true,"region":"eu","cc":"de","latitude":50.110924,"longitude":8.682127,"reserved":0,"last_update":"0001-01-01T00:00:00Z","name_a2s":"Uncletopia | Frankfurt | 3 | All Maps","protocol":17,"map":"koth_highpass","folder":"tf","game":"Team Fortress","app_id":440,"player_count":0,"max_players":24,"Bots":0,"server_type":"Dedicated","server_os":"Linux","password":true,"vac":true,"version":"7882260","steam_id":85568392924504274,"keywords":["cp","nocrits","nodmgspread","uncletopia"],"game_id":440,"stv_port":27036,"stv_name":"Uncletopia | Frankfurt | 3 | All Maps | STV","players":null},{"server_id":309,"name":"Uncletopia | Frankfurt | 4 | All Maps","name_short":"frk-4","host":"frk-1.de.uncletopia.com","port":27045,"enabled":true,"region":"eu","cc":"de","latitude":50.110924,"longitude":8.682127,"reserved":0,"last_update":"0001-01-01T00:00:00Z","name_a2s":"Uncletopia | Frankfurt | 4 | All Maps","protocol":17,"map":"pl_upward","folder":"tf","game":"Team Fortress","app_id":440,"player_count":0,"max_players":24,"Bots":0,"server_type":"Dedicated","server_os":"Linux","password":true,"vac":true,"version":"7882260","steam_id":85568392924504275,"keywords":["nocrits","nodmgspread","payload","uncletopia"],"game_id":440,"stv_port":27046,"stv_name":"Uncletopia | Frankfurt | 4 | All Maps | STV","players":null},{"server_id":310,"name":"Uncletopia | Frankfurt | 5 | All Maps","name_short":"frk-5","host":"frk-1.de.uncletopia.com","port":27055,"enabled":true,"region":"eu","cc":"de","latitude":50.110924,"longitude":8.682127,"reserved":0,"last_update":"0001-01-01T00:00:00Z","name_a2s":"Uncletopia | Frankfurt | 5 | All Maps","protocol":17,"map":"cp_mountainlab","folder":"tf","game":"Team Fortress","app_id":440,"player_count":0,"max_players":24,"Bots":0,"server_type":"Dedicated","server_os":"Linux","password":true,"vac":true,"version":"7882260","steam_id":85568392924504277,"keywords":["cp","nocrits","nodmgspread","uncletopia"],"game_id":440,"stv_port":27056,"stv_name":"Uncletopia | Frankfurt | 5 | All Maps | STV","players":null},{"server_id":311,"name":"Uncletopia | Frankfurt | 6 | All Maps","name_short":"frk-6","host":"frk-1.de.uncletopia.com","port":27065,"enabled":true,"region":"eu","cc":"de","latitude":50.110924,"longitude":8.682127,"reserved":0,"last_update":"0001-01-01T00:00:00Z","name_a2s":"Uncletopia | Frankfurt | 6 | All Maps","protocol":17,"map":"pl_badwater","folder":"tf","game":"Team Fortress","app_id":440,"player_count":4,"max_players":24,"Bots":0,"server_type":"Dedicated","server_os":"Linux","password":true,"vac":true,"version":"7882260","steam_id":85568392924504278,"keywords":["nocrits","nodmgspread","payload","uncletopia"],"game_id":440,"stv_port":27066,"stv_name":"Uncletopia | Frankfurt | 6 | All Maps | STV","players":[{"user_id":4,"name":"ASS?!?!?!?!?","steam_id":76561199159262388,"connected_time":1095000000000,"state":"active","ping":91},{"user_id":5,"name":"mero","steam_id":76561198293147412,"connected_time":1076000000000,"state":"active","ping":89},{"user_id":7,"name":"Zerwee","steam_id":76561198181368101,"connected_time":319000000000,"state":"active","ping":46},{"user_id":8,"name":"Yuzu","steam_id":76561198121694613,"connected_time":135000000000,"state":"active","ping":52}]},{"server_id":23,"name":"Uncletopia | Frankfurt | 7 | Stopwatch Beta","name_short":"frk-7","host":"frk-1.de.uncletopia.com","port":27075,"enabled":true,"region":"eu","cc":"de","latitude":50.110924,"longitude":8.682127,"reserved":0,"last_update":"0001-01-01T00:00:00Z","name_a2s":"Uncletopia | Frankfurt | 7 | Stopwatch Beta","protocol":17,"map":"cp_dustbowl","folder":"tf","game":"Team Fortress","app_id":440,"player_count":0,"max_players":24,"Bots":0,"server_type":"Dedicated","server_os":"Linux","password":true,"vac":true,"version":"7882260","steam_id":85568392924742827,"keywords":["cp","nocrits","nodmgspread","uncletopia"],"game_id":440,"stv_port":27076,"stv_name":"Uncletopia | Frankfurt | 7 | Stopwatch Beta | STV","players":null},{"server_id":24,"name":"Uncletopia | Frankfurt | 8 | Community","name_short":"frk-8","host":"frk-1.de.uncletopia.com","port":27085,"enabled":true,"region":"eu","cc":"de","latitude":50.110924,"longitude":8.682127,"reserved":0,"last_update":"0001-01-01T00:00:00Z","name_a2s":"Uncletopia | Frankfurt | 8 | Community","protocol":17,"map":"koth_cascade","folder":"tf","game":"Team Fortress","app_id":440,"player_count":0,"max_players":24,"Bots":0,"server_type":"Dedicated","server_os":"Linux","password":true,"vac":true,"version":"7882260","steam_id":85568392924742828,"keywords":["cp","nocrits","nodmgspread","uncletopia"],"game_id":440,"stv_port":27086,"stv_name":"Uncletopia | Frankfurt | 8 | Community | STV","players":null},{"server_id":202,"name":"Uncletopia | Hong Kong | 1 | All Maps","name_short":"hgk-1","host":"hgk-1.hk.uncletopia.com","port":27015,"enabled":true,"region":"asia","cc":"hk","latitude":22.302711,"longitude":114.177216,"reserved":0,"last_update":"0001-01-01T00:00:00Z","name_a2s":"Uncletopia | Hong Kong | 1 | All Maps","protocol":17,"map":"cp_altitude","folder":"tf","game":"Team Fortress","app_id":440,"player_count":0,"max_players":24,"Bots":0,"server_type":"Dedicated","server_os":"Linux","password":true,"vac":true,"version":"7882260","steam_id":85568392924494504,"keywords":["cp","nocrits","nodmgspread","uncletopia"],"game_id":440,"stv_port":27016,"stv_name":"Uncletopia | Hong Kong | 1 | All Maps | STV","players":null},{"server_id":1,"name":"Uncletopia | Los Angeles | 1 | All Maps","name_short":"lax-1","host":"lax-1.us.uncletopia.com","port":27015,"enabled":true,"region":"us-west","cc":"us","latitude":33.94279,"longitude":-118.41004,"reserved":0,"last_update":"0001-01-01T00:00:00Z","name_a2s":"Uncletopia | Los Angeles | 1 | All Maps","protocol":17,"map":"pl_borneo","folder":"tf","game":"Team Fortress","app_id":440,"player_count":24,"max_players":24,"Bots":0,"server_type":"Dedicated","server_os":"Linux","password":true,"vac":true,"version":"7882260","steam_id":85568392924469991,"keywords":["nocrits","nodmgspread","payload","uncletopia"],"game_id":440,"stv_port":27016,"stv_name":"Uncletopia | Los Angeles | 1 | All Maps | STV","players":[{"user_id":820,"name":"TothBrush","steam_id":76561198028254471,"connected_time":1465000000000,"state":"active","ping":58},{"user_id":798,"name":"ProbiusSC","steam_id":76561198379167322,"connected_time":3266000000000,"state":"active","ping":82},{"user_id":772,"name":"Burgie","steam_id":76561198066425198,"connected_time":4587000000000,"state":"active","ping":57},{"user_id":802,"name":"Saul Bunyan Attorney at Log","steam_id":76561198209153291,"connected_time":3053000000000,"state":"active","ping":49},{"user_id":859,"name":"็","steam_id":76561199483015098,"connected_time":377000000000,"state":"active","ping":89},{"user_id":810,"name":"wget","steam_id":76561198971705338,"connected_time":2365000000000,"state":"active","ping":167},{"user_id":791,"name":"BananaFana","steam_id":76561198008891875,"connected_time":3865000000000,"state":"active","ping":50},{"user_id":854,"name":"Pylori","steam_id":76561197993858197,"connected_time":455000000000,"state":"active","ping":181},{"user_id":815,"name":"VicLoL","steam_id":76561198045580784,"connected_time":1842000000000,"state":"active","ping":56},{"user_id":821,"name":"bootyzillaᴸᴮᴴ","steam_id":76561198322206140,"connected_time":1448000000000,"state":"active","ping":84},{"user_id":843,"name":"FutureVase","steam_id":76561199229834857,"connected_time":682000000000,"state":"active","ping":118},{"user_id":806,"name":"Jimmy Kimmel","steam_id":76561198108044200,"connected_time":2897000000000,"state":"active","ping":92},{"user_id":799,"name":"TacticalFluke","steam_id":76561198403291862,"connected_time":3190000000000,"state":"active","ping":84},{"user_id":816,"name":"Saucy Boy","steam_id":76561198178332031,"connected_time":1805000000000,"state":"active","ping":115},{"user_id":822,"name":"Cap","steam_id":76561198072870415,"connected_time":1439000000000,"state":"active","ping":103},{"user_id":794,"name":"younggflylyfe","steam_id":76561199477357832,"connected_time":3542000000000,"state":"active","ping":67},{"user_id":863,"name":"Bobby","steam_id":76561198265253992,"connected_time":94000000000,"state":"active","ping":54},{"user_id":823,"name":"Mark^","steam_id":76561198068602143,"connected_time":1435000000000,"state":"active","ping":96},{"user_id":862,"name":"Lizardman","steam_id":76561198022410505,"connected_time":265000000000,"state":"active","ping":61},{"user_id":864,"name":"DagyDin","steam_id":76561199212257554,"connected_time":70000000000,"state":"active","ping":105},{"user_id":824,"name":"KermitSudoku","steam_id":76561198119723054,"connected_time":1430000000000,"state":"active","ping":99},{"user_id":829,"name":"arrap1117","steam_id":76561199484571904,"connected_time":906000000000,"state":"active","ping":112},{"user_id":856,"name":"Miro","steam_id":76561198936412406,"connected_time":454000000000,"state":"active","ping":175},{"user_id":828,"name":"Ty","steam_id":76561198137100410,"connected_time":1283000000000,"state":"active","ping":126}]},{"server_id":112,"name":"Uncletopia | Los Angeles | 2 | All Maps","name_short":"lax-2","host":"lax-1.us.uncletopia.com","port":27025,"enabled":true,"region":"us-west","cc":"us","latitude":33.94279,"longitude":-118.41004,"reserved":0,"last_update":"0001-01-01T00:00:00Z","name_a2s":"Uncletopia | Los Angeles | 2 | All Maps","protocol":17,"map":"pl_badwater","folder":"tf","game":"Team Fortress","app_id":440,"player_count":21,"max_players":24,"Bots":0,"server_type":"Dedicated","server_os":"Linux","password":true,"vac":true,"version":"7882260","steam_id":85568392924469992,"keywords":["nocrits","nodmgspread","payload","uncletopia"],"game_id":440,"stv_port":27026,"stv_name":"Uncletopia | Los Angeles | 2 | All Maps | STV","players":[{"user_id":647,"name":"wafflehamster2000","steam_id":76561198849161820,"connected_time":951000000000,"state":"active","ping":121},{"user_id":643,"name":"owen excellence","steam_id":76561198079978485,"connected_time":1700000000000,"state":"active","ping":45},{"user_id":560,"name":"Seriously Bruh","steam_id":76561198070408485,"connected_time":7278000000000,"state":"active","ping":73},{"user_id":639,"name":"Linksaver1","steam_id":76561198096312838,"connected_time":2344000000000,"state":"active","ping":55},{"user_id":648,"name":"Mozz","steam_id":76561198132892873,"connected_time":940000000000,"state":"active","ping":55},{"user_id":640,"name":"gatoloco","steam_id":76561198048779107,"connected_time":2090000000000,"state":"active","ping":75},{"user_id":645,"name":"ba ba black sheep","steam_id":76561198206922028,"connected_time":1486000000000,"state":"active","ping":45},{"user_id":649,"name":"Rabblerouser","steam_id":76561198127930963,"connected_time":920000000000,"state":"active","ping":83},{"user_id":603,"name":"DaΓkPuΓple","steam_id":76561198271462402,"connected_time":4249000000000,"state":"active","ping":90},{"user_id":641,"name":"lol","steam_id":76561198026491738,"connected_time":2079000000000,"state":"active","ping":59},{"user_id":611,"name":"Samurai JackOff","steam_id":76561198165160011,"connected_time":3754000000000,"state":"active","ping":69},{"user_id":653,"name":"WP Casual","steam_id":76561198057725316,"connected_time":319000000000,"state":"active","ping":69},{"user_id":654,"name":"DeviledEgg","steam_id":76561198318797339,"connected_time":271000000000,"state":"active","ping":34},{"user_id":634,"name":"Gruntic","steam_id":76561198170396647,"connected_time":2555000000000,"state":"active","ping":54},{"user_id":615,"name":"Popeye Senior","steam_id":76561198009727462,"connected_time":3648000000000,"state":"active","ping":127},{"user_id":657,"name":"MagPootis","steam_id":76561198157065778,"connected_time":31000000000,"state":"spawning","ping":197},{"user_id":651,"name":"Manticore","steam_id":76561198044664093,"connected_time":715000000000,"state":"active","ping":105},{"user_id":623,"name":"Monster Energy Ultra Peachy Kee","steam_id":76561199006292310,"connected_time":2962000000000,"state":"active","ping":46},{"user_id":642,"name":"Clagger","steam_id":76561198066701092,"connected_time":2019000000000,"state":"active","ping":64},{"user_id":586,"name":"SmallErection","steam_id":76561198071770147,"connected_time":5411000000000,"state":"active","ping":84},{"user_id":559,"name":"PillCosby","steam_id":76561199396184696,"connected_time":7304000000000,"state":"active","ping":72}]},{"server_id":324,"name":"Uncletopia | Los Angeles | 3 | All Maps","name_short":"lax-3","host":"lax-1.us.uncletopia.com","port":27035,"enabled":true,"region":"us-west","cc":"us","latitude":33.94279,"longitude":-118.41004,"reserved":0,"last_update":"0001-01-01T00:00:00Z","name_a2s":"Uncletopia | Los Angeles | 3 | All Maps","protocol":17,"map":"koth_highpass","folder":"tf","game":"Team Fortress","app_id":440,"player_count":24,"max_players":24,"Bots":0,"server_type":"Dedicated","server_os":"Linux","password":true,"vac":true,"version":"7882260","steam_id":85568392924510198,"keywords":["cp","nocrits","nodmgspread","uncletopia"],"game_id":440,"stv_port":27036,"stv_name":"Uncletopia | Los Angeles | 3 | All Maps | STV","players":[{"user_id":712,"name":"SIGMA [BS]","steam_id":76561197962604879,"connected_time":1909000000000,"state":"active","ping":109},{"user_id":727,"name":"AAGooseman","steam_id":76561198378941369,"connected_time":847000000000,"state":"active","ping":43},{"user_id":731,"name":"Super crak 202 9","steam_id":76561199176207530,"connected_time":691000000000,"state":"active","ping":67},{"user_id":709,"name":"Pee-Pee Storm","steam_id":76561198101442649,"connected_time":2276000000000,"state":"active","ping":73},{"user_id":691,"name":"A_guy_on_the_internet","steam_id":76561198330044146,"connected_time":3391000000000,"state":"active","ping":126},{"user_id":733,"name":"korkskrou","steam_id":76561198422156430,"connected_time":626000000000,"state":"active","ping":71},{"user_id":735,"name":"xkill568","steam_id":76561198281705140,"connected_time":327000000000,"state":"active","ping":115},{"user_id":707,"name":"noahgamblez","steam_id":76561198025463181,"connected_time":2470000000000,"state":"active","ping":111},{"user_id":730,"name":"Korwin","steam_id":76561198027369126,"connected_time":751000000000,"state":"active","ping":89},{"user_id":576,"name":"BUSY","steam_id":76561198047532250,"connected_time":15772000000000,"state":"active","ping":76},{"user_id":738,"name":"ketsu","steam_id":76561197966171554,"connected_time":13000000000,"state":"active","ping":194},{"user_id":692,"name":"Furious George","steam_id":76561198405111646,"connected_time":3381000000000,"state":"active","ping":61},{"user_id":736,"name":"1234567890","steam_id":76561199433913176,"connected_time":102000000000,"state":"active","ping":56},{"user_id":732,"name":"zefir","steam_id":76561198041348890,"connected_time":674000000000,"state":"active","ping":105},{"user_id":725,"name":"Ad3ptus","steam_id":76561198272045750,"connected_time":1463000000000,"state":"active","ping":60},{"user_id":647,"name":"californjoe","steam_id":76561197965047795,"connected_time":7240000000000,"state":"active","ping":53},{"user_id":716,"name":"Oh No! It's Twister!","steam_id":76561198016791916,"connected_time":1734000000000,"state":"active","ping":112},{"user_id":699,"name":"..flop","steam_id":76561197989058876,"connected_time":2723000000000,"state":"active","ping":76},{"user_id":721,"name":"happypurple","steam_id":76561198114782270,"connected_time":1627000000000,"state":"active","ping":58},{"user_id":711,"name":"IHUNTZ","steam_id":76561198390109907,"connected_time":2200000000000,"state":"active","ping":60},{"user_id":696,"name":"Spirit","steam_id":76561198026245914,"connected_time":3343000000000,"state":"active","ping":88},{"user_id":724,"name":"watafak","steam_id":76561198205934511,"connected_time":1575000000000,"state":"active","ping":75},{"user_id":722,"name":"NoovaDT","steam_id":76561198369784242,"connected_time":1616000000000,"state":"active","ping":75},{"user_id":737,"name":"the sauce","steam_id":76561198250215874,"connected_time":99000000000,"state":"active","ping":121}]},{"server_id":25,"name":"Uncletopia | Los Angeles | 4 | Stopwatch Beta","name_short":"lax-4","host":"lax-1.us.uncletopia.com","port":27045,"enabled":true,"region":"us-west","cc":"us","latitude":33.94279,"longitude":-118.41004,"reserved":0,"last_update":"0001-01-01T00:00:00Z","name_a2s":"Uncletopia | Los Angeles | 4 | Stopwatch Beta","protocol":17,"map":"workshop/koth_ramjam_rc1.ugc459778887","folder":"tf","game":"Team Fortress","app_id":440,"player_count":2,"max_players":24,"Bots":0,"server_type":"Dedicated","server_os":"Linux","password":true,"vac":true,"version":"7882260","steam_id":85568392924510199,"keywords":["cp","nocrits","nodmgspread","uncletopia"],"game_id":440,"stv_port":27046,"stv_name":"Uncletopia | Los Angeles | 4 | Stopwatch Beta | STV","players":[{"user_id":112,"name":"YungLuv","steam_id":76561199200757524,"connected_time":571000000000,"state":"active","ping":42},{"user_id":113,"name":"DeBaby(Plug\"Fraggers\"Ft.YungLuv","steam_id":76561198143209841,"connected_time":493000000000,"state":"active","ping":84}]},{"server_id":11,"name":"Uncletopia | London | 1 | All Maps","name_short":"lon-1","host":"lon-1.uk.uncletopia.com","port":27015,"enabled":true,"region":"eu","cc":"gb","latitude":51.509865,"longitude":-0.118092,"reserved":0,"last_update":"0001-01-01T00:00:00Z","name_a2s":"Uncletopia | London | 1 | All Maps","protocol":17,"map":"pl_frontier_final","folder":"tf","game":"Team Fortress","app_id":440,"player_count":0,"max_players":24,"Bots":0,"server_type":"Dedicated","server_os":"Linux","password":true,"vac":true,"version":"7882260","steam_id":85568392924367362,"keywords":["nocrits","nodmgspread","payload","uncletopia"],"game_id":440,"stv_port":27016,"stv_name":"Uncletopia | London | 1 | All Maps | STV","players":null},{"server_id":114,"name":"Uncletopia | London | 2 | All Maps","name_short":"lon-2","host":"lon-1.uk.uncletopia.com","port":27025,"enabled":true,"region":"eu","cc":"gb","latitude":51.509865,"longitude":-0.118092,"reserved":0,"last_update":"0001-01-01T00:00:00Z","name_a2s":"Uncletopia | London | 2 | All Maps","protocol":17,"map":"koth_viaduct","folder":"tf","game":"Team Fortress","app_id":440,"player_count":0,"max_players":24,"Bots":0,"server_type":"Dedicated","server_os":"Linux","password":true,"vac":true,"version":"7882260","steam_id":85568392924470941,"keywords":["cp","nocrits","nodmgspread","uncletopia"],"game_id":440,"stv_port":27026,"stv_name":"Uncletopia | London | 2 | All Maps | STV","players":null},{"server_id":320,"name":"Uncletopia | London | 3 | All Maps","name_short":"lon-3","host":"lon-1.uk.uncletopia.com","port":27035,"enabled":true,"region":"eu","cc":"gb","latitude":51.509865,"longitude":-0.118092,"reserved":0,"last_update":"0001-01-01T00:00:00Z","name_a2s":"Uncletopia | London | 3 | All Maps","protocol":17,"map":"koth_highpass","folder":"tf","game":"Team Fortress","app_id":440,"player_count":0,"max_players":24,"Bots":0,"server_type":"Dedicated","server_os":"Linux","password":true,"vac":true,"version":"7882260","steam_id":85568392924510192,"keywords":["cp","nocrits","nodmgspread","uncletopia"],"game_id":440,"stv_port":27036,"stv_name":"Uncletopia | London | 3 | All Maps | STV","players":null},{"server_id":321,"name":"Uncletopia | London | 4 | All Maps","name_short":"lon-4","host":"lon-1.uk.uncletopia.com","port":27045,"enabled":true,"region":"eu","cc":"gb","latitude":51.509865,"longitude":-0.118092,"reserved":0,"last_update":"0001-01-01T00:00:00Z","name_a2s":"Uncletopia | London | 4 | All Maps","protocol":17,"map":"koth_harvest_final","folder":"tf","game":"Team Fortress","app_id":440,"player_count":24,"max_players":24,"Bots":0,"server_type":"Dedicated","server_os":"Linux","password":true,"vac":true,"version":"7882260","steam_id":85568392924510193,"keywords":["cp","nocrits","nodmgspread","uncletopia"],"game_id":440,"stv_port":27046,"stv_name":"Uncletopia | London | 4 | All Maps | STV","players":[{"user_id":49,"name":"Nyhde","steam_id":76561198012771416,"connected_time":9736000000000,"state":"active","ping":96},{"user_id":145,"name":"fried","steam_id":76561198307522022,"connected_time":1467000000000,"state":"active","ping":57},{"user_id":153,"name":"Egg","steam_id":76561199360189459,"connected_time":318000000000,"state":"active","ping":71},{"user_id":154,"name":"gamer","steam_id":76561199121842872,"connected_time":166000000000,"state":"active","ping":54},{"user_id":146,"name":"pyro?","steam_id":76561198382281653,"connected_time":755000000000,"state":"active","ping":72},{"user_id":150,"name":"csnipery","steam_id":76561199435280050,"connected_time":391000000000,"state":"active","ping":70},{"user_id":144,"name":"cool skeleton","steam_id":76561198219901556,"connected_time":1564000000000,"state":"active","ping":106},{"user_id":138,"name":"s a i","steam_id":76561197970379754,"connected_time":1902000000000,"state":"active","ping":61},{"user_id":147,"name":"Jan.","steam_id":76561197974066329,"connected_time":643000000000,"state":"active","ping":60},{"user_id":151,"name":"iIMOFIi","steam_id":76561199000483925,"connected_time":389000000000,"state":"active","ping":179},{"user_id":132,"name":"skille","steam_id":76561198005794325,"connected_time":2146000000000,"state":"active","ping":71},{"user_id":148,"name":".::[SerafeTTiN]::.","steam_id":76561198009471724,"connected_time":418000000000,"state":"active","ping":99},{"user_id":103,"name":"Lord of Beans","steam_id":76561198283379801,"connected_time":5238000000000,"state":"active","ping":120},{"user_id":108,"name":"7-Zip","steam_id":76561198099726966,"connected_time":4372000000000,"state":"active","ping":113},{"user_id":149,"name":"engie?","steam_id":76561198331852832,"connected_time":405000000000,"state":"active","ping":45},{"user_id":129,"name":"Saint","steam_id":76561198003296382,"connected_time":2328000000000,"state":"active","ping":75},{"user_id":109,"name":"tïger","steam_id":76561198260483157,"connected_time":4288000000000,"state":"active","ping":77},{"user_id":134,"name":"Dzan50","steam_id":76561198059758591,"connected_time":1991000000000,"state":"active","ping":98},{"user_id":152,"name":"0","steam_id":76561199084809092,"connected_time":382000000000,"state":"active","ping":107},{"user_id":86,"name":"Mr. Shadow | Folfie","steam_id":76561198037028507,"connected_time":6593000000000,"state":"active","ping":66},{"user_id":130,"name":"Oceanic | tuesday maybe","steam_id":76561197979741827,"connected_time":2328000000000,"state":"active","ping":72},{"user_id":105,"name":"david","steam_id":76561198843793834,"connected_time":4976000000000,"state":"active","ping":82},{"user_id":135,"name":"Ｍａｃｉｎｔｏｓｈ","steam_id":76561198074294565,"connected_time":1991000000000,"state":"active","ping":86},{"user_id":141,"name":"Holy f stewie, I am shítting.","steam_id":76561198147173457,"connected_time":1804000000000,"state":"active","ping":78}]},{"server_id":21,"name":"Uncletopia | London | 5 | All Maps","name_short":"lon-5","host":"lon-1.uk.uncletopia.com","port":27055,"enabled":true,"region":"eu","cc":"gb","latitude":51.509865,"longitude":-0.118092,"reserved":0,"last_update":"0001-01-01T00:00:00Z","name_a2s":"Uncletopia | London | 5 | All Maps","protocol":17,"map":"koth_lakeside_final","folder":"tf","game":"Team Fortress","app_id":440,"player_count":0,"max_players":24,"Bots":0,"server_type":"Dedicated","server_os":"Linux","password":true,"vac":true,"version":"7882260","steam_id":85568392924742829,"keywords":["cp","nocrits","nodmgspread","uncletopia"],"game_id":440,"stv_port":27056,"stv_name":"Uncletopia | London | 5 | All Maps | STV","players":null},{"server_id":22,"name":"Uncletopia | London | 6 | All Maps","name_short":"lon-6","host":"lon-1.uk.uncletopia.com","port":27065,"enabled":true,"region":"eu","cc":"gb","latitude":51.509865,"longitude":-0.118092,"reserved":0,"last_update":"0001-01-01T00:00:00Z","name_a2s":"Uncletopia | London | 6 | All Maps","protocol":17,"map":"cp_altitude","folder":"tf","game":"Team Fortress","app_id":440,"player_count":0,"max_players":24,"Bots":0,"server_type":"Dedicated","server_os":"Linux","password":true,"vac":true,"version":"7882260","steam_id":85568392924742830,"keywords":["cp","nocrits","nodmgspread","uncletopia"],"game_id":440,"stv_port":27066,"stv_name":"Uncletopia | London | 6 | All Maps | STV","players":null},{"server_id":40,"name":"Uncletopia | London | 7 | No Payload","name_short":"lon-7","host":"lon-1.uk.uncletopia.com","port":27075,"enabled":true,"region":"eu","cc":"gb","latitude":51.509865,"longitude":-0.118092,"reserved":0,"last_update":"0001-01-01T00:00:00Z","name_a2s":"Uncletopia | London | 7 | No Payload","protocol":17,"map":"pl_pier","folder":"tf","game":"Team Fortress","app_id":440,"player_count":0,"max_players":24,"Bots":0,"server_type":"Dedicated","server_os":"Linux","password":true,"vac":true,"version":"7882260","steam_id":85568392924964314,"keywords":["nocrits","nodmgspread","payload","uncletopia"],"game_id":440,"stv_port":27076,"stv_name":"Uncletopia | London | 7 | No Payload | STV","players":null},{"server_id":41,"name":"Uncletopia | London | 8 | Community","name_short":"lon-8","host":"lon-1.uk.uncletopia.com","port":27085,"enabled":true,"region":"eu","cc":"gb","latitude":51.509865,"longitude":-0.118092,"reserved":0,"last_update":"0001-01-01T00:00:00Z","name_a2s":"Uncletopia | London | 8 | Community","protocol":17,"map":"pl_swiftwater_final1","folder":"tf","game":"Team Fortress","app_id":440,"player_count":0,"max_players":24,"Bots":0,"server_type":"Dedicated","server_os":"Linux","password":true,"vac":true,"version":"7882260","steam_id":85568392924964315,"keywords":["nocrits","nodmgspread","payload","uncletopia"],"game_id":440,"stv_port":27086,"stv_name":"Uncletopia | London | 8 | Community | STV","players":null},{"server_id":300,"name":"Uncletopia | Montréal | 1 | All Maps","name_short":"mtl-1","host":"mtl-1.ca.uncletopia.com","port":27015,"enabled":true,"region":"us-east","cc":"ca","latitude":45.50889,"longitude":-73.56167,"reserved":0,"last_update":"0001-01-01T00:00:00Z","name_a2s":"Uncletopia | Montréal | 1 | All Maps","protocol":17,"map":"cp_altitude","folder":"tf","game":"Team Fortress","app_id":440,"player_count":0,"max_players":24,"Bots":0,"server_type":"Dedicated","server_os":"Linux","password":true,"vac":true,"version":"7882260","steam_id":85568392924500087,"keywords":["cp","nocrits","nodmgspread","uncletopia"],"game_id":440,"stv_port":27016,"stv_name":"Uncletopia | Montréal | 1 | All Maps | STV","players":null},{"server_id":301,"name":"Uncletopia | Montréal | 2 | All Maps","name_short":"mtl-2","host":"mtl-1.ca.uncletopia.com","port":27025,"enabled":true,"region":"us-east","cc":"ca","latitude":45.50889,"longitude":-73.56167,"reserved":0,"last_update":"0001-01-01T00:00:00Z","name_a2s":"Uncletopia | Montréal | 2 | All Maps","protocol":17,"map":"koth_cascade","folder":"tf","game":"Team Fortress","app_id":440,"player_count":0,"max_players":24,"Bots":0,"server_type":"Dedicated","server_os":"Linux","password":true,"vac":true,"version":"7882260","steam_id":85568392924500088,"keywords":["cp","nocrits","nodmgspread","uncletopia"],"game_id":440,"stv_port":27026,"stv_name":"Uncletopia | Montréal | 2 | All Maps | STV","players":null},{"server_id":302,"name":"Uncletopia | Montréal | 3 | All Maps","name_short":"mtl-3","host":"mtl-1.ca.uncletopia.com","port":27035,"enabled":true,"region":"us-east","cc":"ca","latitude":45.50889,"longitude":-73.56167,"reserved":0,"last_update":"0001-01-01T00:00:00Z","name_a2s":"Uncletopia | Montréal | 3 | All Maps","protocol":17,"map":"koth_highpass","folder":"tf","game":"Team Fortress","app_id":440,"player_count":0,"max_players":24,"Bots":0,"server_type":"Dedicated","server_os":"Linux","password":true,"vac":true,"version":"7882260","steam_id":85568392924500089,"keywords":["cp","nocrits","nodmgspread","uncletopia"],"game_id":440,"stv_port":27036,"stv_name":"Uncletopia | Montréal | 3 | All Maps | STV","players":null},{"server_id":303,"name":"Uncletopia | Montréal | 4 | No Payload","name_short":"mtl-4","host":"mtl-1.ca.uncletopia.com","port":27045,"enabled":true,"region":"us-east","cc":"ca","latitude":45.50889,"longitude":-73.56167,"reserved":0,"last_update":"0001-01-01T00:00:00Z","name_a2s":"Uncletopia | Montréal | 4 | No Payload","protocol":17,"map":"koth_highpass","folder":"tf","game":"Team Fortress","app_id":440,"player_count":0,"max_players":24,"Bots":0,"server_type":"Dedicated","server_os":"Linux","password":true,"vac":true,"version":"7882260","steam_id":85568392924500090,"keywords":["cp","nocrits","nodmgspread","uncletopia"],"game_id":440,"stv_port":27046,"stv_name":"Uncletopia | Montréal | 4 | No Payload | STV","players":null},{"server_id":13,"name":"Uncletopia | New York City | 1 | All Maps","name_short":"nyc-1","host":"nyc-1.us.uncletopia.com","port":27015,"enabled":true,"region":"us-east","cc":"us","latitude":40.73061,"longitude":-73.93524,"reserved":0,"last_update":"0001-01-01T00:00:00Z","name_a2s":"Uncletopia | New York City | 1 | All Maps","protocol":17,"map":"pl_borneo","folder":"tf","game":"Team Fortress","app_id":440,"player_count":7,"max_players":24,"Bots":0,"server_type":"Dedicated","server_os":"Linux","password":true,"vac":true,"version":"7882260","steam_id":85568392924469993,"keywords":["nocrits","nodmgspread","payload","uncletopia"],"game_id":440,"stv_port":27016,"stv_name":"Uncletopia | New York City | 1 | All Maps | STV","players":[{"user_id":858,"name":"mu","steam_id":76561197997530228,"connected_time":1376000000000,"state":"active","ping":106},{"user_id":856,"name":"Solly Soupcan","steam_id":76561198071833965,"connected_time":1456000000000,"state":"active","ping":46},{"user_id":864,"name":"fiasco","steam_id":76561198070800553,"connected_time":381000000000,"state":"active","ping":39},{"user_id":865,"name":"SmileyVR","steam_id":76561197998366715,"connected_time":242000000000,"state":"active","ping":45},{"user_id":859,"name":"ui.ui.i.ui.ui.ui.ui.ui.ui","steam_id":76561199422322415,"connected_time":1296000000000,"state":"active","ping":270},{"user_id":847,"name":"ILanderLeEeveeGuy","steam_id":76561199403167392,"connected_time":2934000000000,"state":"active","ping":288},{"user_id":814,"name":"DVD Copy of Men in Black II","steam_id":76561198080067715,"connected_time":8045000000000,"state":"active","ping":43}]},{"server_id":14,"name":"Uncletopia | New York City | 2 | All Maps","name_short":"nyc-2","host":"nyc-1.us.uncletopia.com","port":27025,"enabled":true,"region":"us-east","cc":"us","latitude":40.73061,"longitude":-73.93524,"reserved":0,"last_update":"0001-01-01T00:00:00Z","name_a2s":"Uncletopia | New York City | 2 | All Maps","protocol":17,"map":"cp_snakewater_final1","folder":"tf","game":"Team Fortress","app_id":440,"player_count":0,"max_players":24,"Bots":0,"server_type":"Dedicated","server_os":"Linux","password":true,"vac":true,"version":"7882260","steam_id":85568392924469994,"keywords":["cp","nocrits","nodmgspread","uncletopia"],"game_id":440,"stv_port":27026,"stv_name":"Uncletopia | New York City | 2 | All Maps | STV","players":null},{"server_id":15,"name":"Uncletopia | New York City | 3 | Stopwatch Beta","name_short":"nyc-3","host":"nyc-1.us.uncletopia.com","port":27035,"enabled":true,"region":"us-east","cc":"us","latitude":40.73061,"longitude":-73.93524,"reserved":0,"last_update":"0001-01-01T00:00:00Z","name_a2s":"Uncletopia | New York City | 3 | Stopwatch Beta","protocol":17,"map":"koth_highpass","folder":"tf","game":"Team Fortress","app_id":440,"player_count":0,"max_players":24,"Bots":0,"server_type":"Dedicated","server_os":"Linux","password":true,"vac":true,"version":"7882260","steam_id":85568392924742820,"keywords":["cp","nocrits","nodmgspread","uncletopia"],"game_id":440,"stv_port":27036,"stv_name":"Uncletopia | New York City | 3 | Stopwatch Beta | STV","players":null},{"server_id":16,"name":"Uncletopia | New York City | 4 | Community","name_short":"nyc-4","host":"nyc-1.us.uncletopia.com","port":27045,"enabled":true,"region":"us-east","cc":"us","latitude":40.73061,"longitude":-73.93524,"reserved":0,"last_update":"0001-01-01T00:00:00Z","name_a2s":"Uncletopia | New York City | 4 | Community","protocol":17,"map":"workshop/cp_sulfur_rc2.ugc619869471","folder":"tf","game":"Team Fortress","app_id":440,"player_count":0,"max_players":24,"Bots":0,"server_type":"Dedicated","server_os":"Linux","password":true,"vac":true,"version":"7882260","steam_id":85568392924742821,"keywords":["cp","nocrits","nodmgspread","uncletopia"],"game_id":440,"stv_port":27046,"stv_name":"Uncletopia | New York City | 4 | Community | STV","players":null},{"server_id":142,"name":"Uncletopia | São Paulo | 1 | All Maps","name_short":"sao-1","host":"sao-1.br.uncletopia.com","port":27015,"enabled":true,"region":"sa","cc":"br","latitude":-23.533773,"longitude":-46.62529,"reserved":0,"last_update":"0001-01-01T00:00:00Z","name_a2s":"Uncletopia | São Paulo | 1 | All Maps","protocol":17,"map":"cp_process_final","folder":"tf","game":"Team Fortress","app_id":440,"player_count":0,"max_players":24,"Bots":0,"server_type":"Dedicated","server_os":"Linux","password":true,"vac":true,"version":"7882260","steam_id":85568392924469996,"keywords":["cp","nocrits","nodmgspread","uncletopia"],"game_id":440,"stv_port":27016,"stv_name":"Uncletopia | São Paulo | 1 | All Maps | STV","players":null},{"server_id":143,"name":"Uncletopia | São Paulo | 2 | All Maps","name_short":"sao-2","host":"sao-2.br.uncletopia.com","port":27015,"enabled":true,"region":"sa","cc":"br","latitude":-23.533773,"longitude":-46.62529,"reserved":0,"last_update":"0001-01-01T00:00:00Z","name_a2s":"Uncletopia | São Paulo | 2 | All Maps","protocol":17,"map":"pl_pier","folder":"tf","game":"Team Fortress","app_id":440,"player_count":0,"max_players":24,"Bots":0,"server_type":"Dedicated","server_os":"Linux","password":true,"vac":true,"version":"7882260","steam_id":85568392924485349,"keywords":["nocrits","nodmgspread","payload","uncletopia"],"game_id":440,"stv_port":27016,"stv_name":"Uncletopia | São Paulo | 2 | All Maps | STV","players":null},{"server_id":7,"name":"Uncletopia | Seattle | 1 | All Maps","name_short":"sea-1","host":"sea-1.us.uncletopia.com","port":27015,"enabled":true,"region":"us-west","cc":"us","latitude":47.608013,"longitude":-122.33517,"reserved":0,"last_update":"0001-01-01T00:00:00Z","name_a2s":"Uncletopia | Seattle | 1 | All Maps","protocol":17,"map":"pl_badwater","folder":"tf","game":"Team Fortress","app_id":440,"player_count":24,"max_players":24,"Bots":0,"server_type":"Dedicated","server_os":"Linux","password":true,"vac":true,"version":"7882260","steam_id":85568392924469997,"keywords":["nocrits","nodmgspread","payload","uncletopia"],"game_id":440,"stv_port":27016,"stv_name":"Uncletopia | Seattle | 1 | All Maps | STV","players":[{"user_id":880,"name":"cracky","steam_id":76561197971365444,"connected_time":159000000000,"state":"active","ping":48},{"user_id":850,"name":"Florist","steam_id":76561198009121060,"connected_time":4689000000000,"state":"active","ping":44},{"user_id":865,"name":"oil","steam_id":76561198099980149,"connected_time":2300000000000,"state":"active","ping":77},{"user_id":877,"name":"LovingKindn32z","steam_id":76561199064932372,"connected_time":470000000000,"state":"active","ping":70},{"user_id":842,"name":"gorlab","steam_id":76561198025089694,"connected_time":5021000000000,"state":"active","ping":60},{"user_id":839,"name":"rorywashere /ᐠ - ˕ -マ Ⳋ","steam_id":76561198065825165,"connected_time":5069000000000,"state":"active","ping":94},{"user_id":824,"name":"ed","steam_id":76561198080475712,"connected_time":6745000000000,"state":"active","ping":61},{"user_id":823,"name":"delight","steam_id":76561197980280272,"connected_time":7136000000000,"state":"active","ping":44},{"user_id":814,"name":"my money washed like george","steam_id":76561198115458307,"connected_time":7506000000000,"state":"active","ping":75},{"user_id":881,"name":"[TGP] T-Virus","steam_id":76561198001963208,"connected_time":148000000000,"state":"active","ping":42},{"user_id":871,"name":"baguette","steam_id":76561198041770884,"connected_time":1772000000000,"state":"active","ping":75},{"user_id":807,"name":"I'M DRUNK","steam_id":76561198107941274,"connected_time":8352000000000,"state":"active","ping":85},{"user_id":829,"name":"schmegalodon","steam_id":76561198986534519,"connected_time":6354000000000,"state":"active","ping":49},{"user_id":860,"name":"Cheezbeargur","steam_id":76561198164702899,"connected_time":3426000000000,"state":"active","ping":64},{"user_id":867,"name":"Tim Duncan","steam_id":76561198010557666,"connected_time":2283000000000,"state":"active","ping":69},{"user_id":862,"name":"ursa","steam_id":76561198025394298,"connected_time":3243000000000,"state":"active","ping":105},{"user_id":849,"name":"never knows best","steam_id":76561197989933601,"connected_time":4706000000000,"state":"active","ping":58},{"user_id":863,"name":"John Calibur","steam_id":76561197999986606,"connected_time":2817000000000,"state":"active","ping":66},{"user_id":864,"name":"jorts","steam_id":76561199041179985,"connected_time":2688000000000,"state":"active","ping":66},{"user_id":847,"name":"brobtlcehc","steam_id":76561198043558709,"connected_time":4773000000000,"state":"active","ping":48},{"user_id":883,"name":"fartstreaks active","steam_id":76561198046073848,"connected_time":146000000000,"state":"active","ping":51},{"user_id":866,"name":"please wait warmly","steam_id":76561198049258493,"connected_time":2295000000000,"state":"active","ping":53},{"user_id":852,"name":"smeasly","steam_id":76561198028718812,"connected_time":4612000000000,"state":"active","ping":44},{"user_id":857,"name":"PerKnuckleChuckle","steam_id":76561198023221596,"connected_time":3453000000000,"state":"active","ping":85}]},{"server_id":119,"name":"Uncletopia | Seattle | 2 | All Maps","name_short":"sea-2","host":"sea-1.us.uncletopia.com","port":27025,"enabled":true,"region":"us-west","cc":"us","latitude":47.608013,"longitude":-122.33517,"reserved":0,"last_update":"0001-01-01T00:00:00Z","name_a2s":"Uncletopia | Seattle | 2 | All Maps","protocol":17,"map":"pl_pier","folder":"tf","game":"Team Fortress","app_id":440,"player_count":0,"max_players":24,"Bots":0,"server_type":"Dedicated","server_os":"Linux","password":true,"vac":true,"version":"7882260","steam_id":85568392924469998,"keywords":["nocrits","nodmgspread","payload","uncletopia"],"game_id":440,"stv_port":27026,"stv_name":"Uncletopia | Seattle | 2 | All Maps | STV","players":null},{"server_id":406,"name":"Uncletopia | Seattle | 3 | Stopwatch Beta","name_short":"sea-3","host":"sea-1.us.uncletopia.com","port":27035,"enabled":true,"region":"us-west","cc":"us","latitude":47.608013,"longitude":-122.33517,"reserved":0,"last_update":"0001-01-01T00:00:00Z","name_a2s":"Uncletopia | Seattle | 3 | Stopwatch Beta","protocol":17,"map":"workshop/koth_bagel_rc6.ugc2514036946","folder":"tf","game":"Team Fortress","app_id":440,"player_count":0,"max_players":24,"Bots":0,"server_type":"Dedicated","server_os":"Linux","password":true,"vac":true,"version":"7882260","steam_id":85568392924515217,"keywords":["cp","nocrits","nodmgspread","uncletopia"],"game_id":440,"stv_port":27036,"stv_name":"Uncletopia | Seattle | 3 | Stopwatch Beta | STV","players":null},{"server_id":17,"name":"Uncletopia | San Francisco | 1 | All Maps","name_short":"sfo-1","host":"sfo-1.us.uncletopia.com","port":27015,"enabled":true,"region":"us-west","cc":"us","latitude":37.77397,"longitude":-122.4313,"reserved":0,"last_update":"0001-01-01T00:00:00Z","name_a2s":"Uncletopia | San Francisco | 1 | All Maps","protocol":17,"map":"cp_process_final","folder":"tf","game":"Team Fortress","app_id":440,"player_count":0,"max_players":24,"Bots":0,"server_type":"Dedicated","server_os":"Linux","password":true,"vac":true,"version":"7757534","steam_id":85568392924469999,"keywords":["cp","nocrits","nodmgspread","uncletopia"],"game_id":440,"stv_port":27016,"stv_name":"Uncletopia | San Francisco | 1 | All Maps | STV","players":null},{"server_id":18,"name":"Uncletopia | San Francisco | 2 | All Maps","name_short":"sfo-2","host":"sfo-1.us.uncletopia.com","port":27025,"enabled":true,"region":"us-west","cc":"us","latitude":37.77397,"longitude":-122.4313,"reserved":0,"last_update":"0001-01-01T00:00:00Z","name_a2s":"Uncletopia | San Francisco | 2 | All Maps","protocol":17,"map":"koth_highpass","folder":"tf","game":"Team Fortress","app_id":440,"player_count":0,"max_players":24,"Bots":0,"server_type":"Dedicated","server_os":"Linux","password":true,"vac":true,"version":"7757534","steam_id":85568392924470000,"keywords":["cp","nocrits","nodmgspread","uncletopia"],"game_id":440,"stv_port":27026,"stv_name":"Uncletopia | San Francisco | 2 | All Maps | STV","players":null},{"server_id":19,"name":"Uncletopia | San Francisco | 3 | Stopwatch Beta","name_short":"sfo-3","host":"sfo-1.us.uncletopia.com","port":27035,"enabled":true,"region":"us-west","cc":"us","latitude":37.77397,"longitude":-122.4313,"reserved":0,"last_update":"0001-01-01T00:00:00Z","name_a2s":"Uncletopia | San Francisco | 3 | Stopwatch Beta","protocol":17,"map":"koth_lakeside_final","folder":"tf","game":"Team Fortress","app_id":440,"player_count":0,"max_players":24,"Bots":0,"server_type":"Dedicated","server_os":"Linux","password":true,"vac":true,"version":"7757534","steam_id":85568392924742824,"keywords":["cp","nocrits","nodmgspread","uncletopia"],"game_id":440,"stv_port":27036,"stv_name":"Uncletopia | San Francisco | 3 | Stopwatch Beta | STV","players":null},{"server_id":20,"name":"Uncletopia | San Francisco | 4 | Community","name_short":"sfo-4","host":"sfo-1.us.uncletopia.com","port":27045,"enabled":true,"region":"us-west","cc":"us","latitude":37.77397,"longitude":-122.4313,"reserved":0,"last_update":"0001-01-01T00:00:00Z","name_a2s":"Uncletopia | San Francisco | 4 | Community","protocol":17,"map":"cp_altitude","folder":"tf","game":"Team Fortress","app_id":440,"player_count":0,"max_players":24,"Bots":0,"server_type":"Dedicated","server_os":"Linux","password":true,"vac":true,"version":"7757534","steam_id":85568392924742826,"keywords":["cp","nocrits","nodmgspread","uncletopia"],"game_id":440,"stv_port":27046,"stv_name":"Uncletopia | San Francisco | 4 | Community | STV","players":null},{"server_id":141,"name":"Uncletopia | Sydney | 1 | All Maps","name_short":"syd-1","host":"syd-1.au.uncletopia.com","port":27015,"enabled":true,"region":"au","cc":"au","latitude":-33.865143,"longitude":151.2099,"reserved":0,"last_update":"0001-01-01T00:00:00Z","name_a2s":"Uncletopia | Sydney | 1 | All Maps","protocol":17,"map":"pl_pier","folder":"tf","game":"Team Fortress","app_id":440,"player_count":24,"max_players":24,"Bots":0,"server_type":"Dedicated","server_os":"Linux","password":true,"vac":true,"version":"7882260","steam_id":85568392924470001,"keywords":["nocrits","nodmgspread","payload","uncletopia"],"game_id":440,"stv_port":27016,"stv_name":"Uncletopia | Sydney | 1 | All Maps | STV","players":[{"user_id":350,"name":"miyamoto is daddy","steam_id":76561199483818230,"connected_time":6215000000000,"state":"active","ping":66},{"user_id":434,"name":"Blander_17","steam_id":76561198068232508,"connected_time":91000000000,"state":"active","ping":67},{"user_id":420,"name":"PootisMaster","steam_id":76561198879078558,"connected_time":1570000000000,"state":"active","ping":88},{"user_id":415,"name":"Bigrichard","steam_id":76561198032092945,"connected_time":2146000000000,"state":"active","ping":86},{"user_id":398,"name":"cas ganister","steam_id":76561198879023728,"connected_time":3099000000000,"state":"active","ping":51},{"user_id":426,"name":"Cozza","steam_id":76561198090069548,"connected_time":1177000000000,"state":"active","ping":68},{"user_id":372,"name":"Creamy Gusset","steam_id":76561198001544539,"connected_time":4925000000000,"state":"active","ping":53},{"user_id":430,"name":"$TheMan$","steam_id":76561198134849763,"connected_time":854000000000,"state":"active","ping":55},{"user_id":379,"name":"Psalm 118:10-17","steam_id":76561198305904806,"connected_time":4295000000000,"state":"active","ping":55},{"user_id":425,"name":"Comedy Mode","steam_id":76561198293250088,"connected_time":1211000000000,"state":"active","ping":106},{"user_id":408,"name":"JP","steam_id":76561198026221737,"connected_time":2652000000000,"state":"active","ping":45},{"user_id":348,"name":"Lumalee ❤","steam_id":76561198157613299,"connected_time":6459000000000,"state":"active","ping":64},{"user_id":422,"name":"R","steam_id":76561197996963023,"connected_time":1411000000000,"state":"active","ping":78},{"user_id":428,"name":"RHOBLE","steam_id":76561198797890384,"connected_time":999000000000,"state":"active","ping":69},{"user_id":409,"name":"Tetch","steam_id":76561198259803540,"connected_time":2639000000000,"state":"active","ping":66},{"user_id":431,"name":"Dende","steam_id":76561198997966214,"connected_time":842000000000,"state":"active","ping":74},{"user_id":417,"name":"Mr. Stank","steam_id":76561199145084308,"connected_time":1953000000000,"state":"active","ping":65},{"user_id":424,"name":"smite","steam_id":76561198845304189,"connected_time":1378000000000,"state":"active","ping":78},{"user_id":433,"name":"TheNeutrality","steam_id":76561199017954062,"connected_time":741000000000,"state":"active","ping":170},{"user_id":414,"name":"CEO of Sex","steam_id":76561199083971136,"connected_time":2353000000000,"state":"active","ping":77},{"user_id":400,"name":"Jodelkönig Franzl Lang","steam_id":76561198007667830,"connected_time":2954000000000,"state":"active","ping":51},{"user_id":413,"name":"E","steam_id":76561199173781370,"connected_time":2397000000000,"state":"active","ping":146},{"user_id":419,"name":"Vaconcovat","steam_id":76561198024284041,"connected_time":1846000000000,"state":"active","ping":63},{"user_id":396,"name":"CHOIB","steam_id":76561198387938667,"connected_time":3342000000000,"state":"active","ping":45}]},{"server_id":123,"name":"Uncletopia | Sydney | 2 | All Maps","name_short":"syd-2","host":"syd-1.au.uncletopia.com","port":27025,"enabled":true,"region":"au","cc":"au","latitude":-33.865143,"longitude":151.2099,"reserved":0,"last_update":"0001-01-01T00:00:00Z","name_a2s":"Uncletopia | Sydney | 2 | All Maps","protocol":17,"map":"pl_borneo","folder":"tf","game":"Team Fortress","app_id":440,"player_count":21,"max_players":24,"Bots":0,"server_type":"Dedicated","server_os":"Linux","password":true,"vac":true,"version":"7882260","steam_id":85568392924470002,"keywords":["nocrits","nodmgspread","payload","uncletopia"],"game_id":440,"stv_port":27026,"stv_name":"Uncletopia | Sydney | 2 | All Maps | STV","players":[{"user_id":208,"name":"perturb (feed/seed)","steam_id":76561198085124297,"connected_time":3033000000000,"state":"active","ping":53},{"user_id":251,"name":"dinxie","steam_id":76561199448765541,"connected_time":111000000000,"state":"active","ping":71},{"user_id":252,"name":"Pompadouraus","steam_id":76561198327530525,"connected_time":86000000000,"state":"active","ping":74},{"user_id":247,"name":"trayegkuka","steam_id":76561199305297721,"connected_time":531000000000,"state":"active","ping":96},{"user_id":243,"name":"ADUCK","steam_id":76561198249887912,"connected_time":695000000000,"state":"active","ping":67},{"user_id":248,"name":"Toody","steam_id":76561198212656752,"connected_time":249000000000,"state":"active","ping":56},{"user_id":204,"name":"Plowie789","steam_id":76561198144492322,"connected_time":3746000000000,"state":"active","ping":82},{"user_id":250,"name":"AmethystDragon10","steam_id":76561198412979983,"connected_time":163000000000,"state":"active","ping":76},{"user_id":249,"name":"Frog Friend","steam_id":76561198054505772,"connected_time":222000000000,"state":"active","ping":54},{"user_id":177,"name":"Sentry Gun (EpicGuy4227)","steam_id":76561198094132328,"connected_time":6041000000000,"state":"active","ping":52},{"user_id":176,"name":"Jiffy360","steam_id":76561198149550772,"connected_time":6072000000000,"state":"active","ping":86},{"user_id":154,"name":"Muffin","steam_id":76561198075391119,"connected_time":7481000000000,"state":"active","ping":55},{"user_id":217,"name":"mushroom","steam_id":76561197992336470,"connected_time":2335000000000,"state":"active","ping":92},{"user_id":240,"name":"2fort investigator","steam_id":76561198996460555,"connected_time":876000000000,"state":"active","ping":96},{"user_id":221,"name":"A KNIFE!","steam_id":76561198160390701,"connected_time":2057000000000,"state":"active","ping":55},{"user_id":238,"name":"ETHICAL CONSUMPTION","steam_id":76561198035066643,"connected_time":900000000000,"state":"active","ping":96},{"user_id":244,"name":"little raw meat boy","steam_id":76561199248254676,"connected_time":642000000000,"state":"active","ping":58},{"user_id":245,"name":"Fyre Rose","steam_id":76561198000527551,"connected_time":620000000000,"state":"active","ping":81},{"user_id":246,"name":"table","steam_id":76561199218095319,"connected_time":604000000000,"state":"active","ping":65},{"user_id":231,"name":"Granola (the bar)","steam_id":76561198059129270,"connected_time":1766000000000,"state":"active","ping":67},{"user_id":226,"name":"green dot","steam_id":76561198254802111,"connected_time":1844000000000,"state":"active","ping":55}]},{"server_id":395,"name":"Uncletopia | Sydney | 3 | All Maps","name_short":"syd-3","host":"syd-1.au.uncletopia.com","port":27035,"enabled":true,"region":"au","cc":"au","latitude":-33.865143,"longitude":151.2099,"reserved":0,"last_update":"0001-01-01T00:00:00Z","name_a2s":"Uncletopia | Sydney | 3 | All Maps","protocol":17,"map":"koth_viaduct","folder":"tf","game":"Team Fortress","app_id":440,"player_count":0,"max_players":24,"Bots":0,"server_type":"Dedicated","server_os":"Linux","password":true,"vac":true,"version":"7882260","steam_id":85568392925194467,"keywords":["cp","nocrits","nodmgspread","uncletopia"],"game_id":440,"stv_port":27036,"stv_name":"Uncletopia | Sydney | 3 | All Maps | STV","players":null},{"server_id":396,"name":"Uncletopia | Sydney | 4 | All Maps","name_short":"syd-4","host":"syd-1.au.uncletopia.com","port":27045,"enabled":true,"region":"au","cc":"au","latitude":-33.865143,"longitude":151.2099,"reserved":0,"last_update":"0001-01-01T00:00:00Z","name_a2s":"Uncletopia | Sydney | 4 | All Maps","protocol":17,"map":"cp_dustbowl","folder":"tf","game":"Team Fortress","app_id":440,"player_count":0,"max_players":24,"Bots":0,"server_type":"Dedicated","server_os":"Linux","password":true,"vac":true,"version":"7882260","steam_id":85568392925397958,"keywords":["cp","nocrits","nodmgspread","uncletopia"],"game_id":440,"stv_port":27046,"stv_name":"Uncletopia | Sydney | 4 | All Maps | STV","players":null},{"server_id":58,"name":"Uncletopia | Sydney | 5 | Stopwatch Beta","name_short":"syd-5","host":"syd-1.au.uncletopia.com","port":27055,"enabled":true,"region":"au","cc":"au","latitude":-33.865143,"longitude":151.2099,"reserved":0,"last_update":"0001-01-01T00:00:00Z","name_a2s":"Uncletopia | Sydney | 5 | Stopwatch Beta","protocol":17,"map":"workshop/pl_vigil_rc9.ugc1266210012","folder":"tf","game":"Team Fortress","app_id":440,"player_count":0,"max_players":24,"Bots":0,"server_type":"Dedicated","server_os":"Linux","password":true,"vac":true,"version":"7882260","steam_id":85568392925397959,"keywords":["nocrits","nodmgspread","payload","uncletopia"],"game_id":440,"stv_port":27056,"stv_name":"Uncletopia | Sydney | 5 | Stopwatch Beta | STV","players":null},{"server_id":59,"name":"Uncletopia | Sydney | 6 | Community","name_short":"syd-6","host":"syd-1.au.uncletopia.com","port":27065,"enabled":true,"region":"au","cc":"au","latitude":-33.865143,"longitude":151.2099,"reserved":0,"last_update":"0001-01-01T00:00:00Z","name_a2s":"Uncletopia | Sydney | 6 | Community","protocol":17,"map":"workshop/pl_divulgence_b4b.ugc2884808746","folder":"tf","game":"Team Fortress","app_id":440,"player_count":0,"max_players":24,"Bots":0,"server_type":"Dedicated","server_os":"Linux","password":true,"vac":true,"version":"7882260","steam_id":85568392925397960,"keywords":["nocrits","nodmgspread","payload","uncletopia"],"game_id":440,"stv_port":27066,"stv_name":"Uncletopia | Sydney | 6 | Community | STV","players":null},{"server_id":49,"name":"Uncletopia | Warsaw | 1 | All Maps","name_short":"waw-1","host":"waw-1.pl.uncletopia.com","port":27015,"enabled":true,"region":"eu","cc":"pl","latitude":52.2297,"longitude":21.017532,"reserved":0,"last_update":"0001-01-01T00:00:00Z","name_a2s":"","protocol":0,"map":"","folder":"","game":"","app_id":0,"player_count":0,"max_players":0,"Bots":0,"server_type":"","server_os":"","password":false,"vac":false,"version":"","steam_id":0,"keywords":null,"game_id":0,"stv_port":0,"stv_name":"","players":null},{"server_id":50,"name":"Uncletopia | Warsaw | 2 | All Maps","name_short":"waw-2","host":"waw-1.pl.uncletopia.com","port":27025,"enabled":true,"region":"eu","cc":"pl","latitude":52.2297,"longitude":21.017532,"reserved":0,"last_update":"0001-01-01T00:00:00Z","name_a2s":"Uncletopia | Warsaw | 2 | All Maps","protocol":17,"map":"pl_swiftwater_final1","folder":"tf","game":"Team Fortress","app_id":440,"player_count":0,"max_players":24,"Bots":0,"server_type":"Dedicated","server_os":"Linux","password":true,"vac":true,"version":"7882260","steam_id":85568392925397851,"keywords":["nocrits","nodmgspread","payload","uncletopia"],"game_id":440,"stv_port":27026,"stv_name":"Uncletopia | Warsaw | 2 | All Maps | STV","players":null},{"server_id":51,"name":"Uncletopia | Warsaw | 3 | All Maps","name_short":"waw-3","host":"waw-1.pl.uncletopia.com","port":27035,"enabled":true,"region":"eu","cc":"pl","latitude":52.2297,"longitude":21.017532,"reserved":0,"last_update":"0001-01-01T00:00:00Z","name_a2s":"Uncletopia | Warsaw | 3 | All Maps","protocol":17,"map":"koth_viaduct","folder":"tf","game":"Team Fortress","app_id":440,"player_count":0,"max_players":24,"Bots":0,"server_type":"Dedicated","server_os":"Linux","password":true,"vac":true,"version":"7882260","steam_id":85568392925397852,"keywords":["cp","nocrits","nodmgspread","uncletopia"],"game_id":440,"stv_port":27036,"stv_name":"Uncletopia | Warsaw | 3 | All Maps | STV","players":null},{"server_id":52,"name":"Uncletopia | Warsaw | 4 | All Maps","name_short":"waw-4","host":"waw-1.pl.uncletopia.com","port":27045,"enabled":true,"region":"eu","cc":"pl","latitude":52.2297,"longitude":21.017532,"reserved":0,"last_update":"0001-01-01T00:00:00Z","name_a2s":"Uncletopia | Warsaw | 4 | All Maps","protocol":17,"map":"koth_highpass","folder":"tf","game":"Team Fortress","app_id":440,"player_count":0,"max_players":24,"Bots":0,"server_type":"Dedicated","server_os":"Linux","password":true,"vac":true,"version":"7882260","steam_id":85568392925397853,"keywords":["cp","nocrits","nodmgspread","uncletopia"],"game_id":440,"stv_port":27046,"stv_name":"Uncletopia | Warsaw | 4 | All Maps | STV","players":null},{"server_id":53,"name":"Uncletopia | Warsaw | 5 | Stopwatch Beta","name_short":"waw-5","host":"waw-1.pl.uncletopia.com","port":27055,"enabled":true,"region":"eu","cc":"pl","latitude":52.2297,"longitude":21.017532,"reserved":0,"last_update":"0001-01-01T00:00:00Z","name_a2s":"Uncletopia | Warsaw | 5 | Stopwatch Beta","protocol":17,"map":"cp_mountainlab","folder":"tf","game":"Team Fortress","app_id":440,"player_count":0,"max_players":24,"Bots":0,"server_type":"Dedicated","server_os":"Linux","password":true,"vac":true,"version":"7882260","steam_id":85568392925397854,"keywords":["cp","nocrits","nodmgspread","uncletopia"],"game_id":440,"stv_port":27056,"stv_name":"Uncletopia | Warsaw | 5 | Stopwatch Beta | STV","players":null},{"server_id":54,"name":"Uncletopia | Warsaw | 6 | Community","name_short":"waw-6","host":"waw-1.pl.uncletopia.com","port":27065,"enabled":true,"region":"eu","cc":"pl","latitude":52.2297,"longitude":21.017532,"reserved":0,"last_update":"0001-01-01T00:00:00Z","name_a2s":"Uncletopia | Warsaw | 6 | Community","protocol":17,"map":"koth_viaduct","folder":"tf","game":"Team Fortress","app_id":440,"player_count":0,"max_players":24,"Bots":0,"server_type":"Dedicated","server_os":"Linux","password":true,"vac":true,"version":"7882260","steam_id":85568392925397856,"keywords":["cp","nocrits","nodmgspread","uncletopia"],"game_id":440,"stv_port":27066,"stv_name":"Uncletopia | Warsaw | 6 | Community | STV","players":null}]}