{"status":true,"message":"","result":[{"server_id":9,"name":"Uncletopia | Atlanta | 1 | All Maps","name_short":"atl-1","host":"atl-1.us.uncletopia.com","port":27015,"enabled":true,"region":"us-east","cc":"us","latitude":33.753746,"longitude":-84.38633,"reserved":0,"last_update":"0001-01-01T00:00:00Z","name_a2s":"Uncletopia | Atlanta | 1 | All Maps","protocol":17,"map":"pl_thundermountain","folder":"tf","game":"Team Fortress","app_id":440,"player_count":24,"max_players":24,"Bots":0,"server_type":"Dedicated","server_os":"Linux","password":true,"vac":true,"version":"7742253","steam_id":85568392924469982,"keywords":["nocrits","nodmgspread","payload","uncletopia"],"game_id":440,"stv_port":27016,"stv_name":"Uncletopia | Atlanta | 1 | All Maps | STV","players":[{"user_id":600,"name":"Regi","steam_id":76561198271508598,"connected_time":2661000000000,"state":"active","ping":74},{"user_id":609,"name":"Rokkon Shojo","steam_id":76561198082071180,"connected_time":2218000000000,"state":"active","ping":175},{"user_id":619,"name":"Shiba","steam_id":76561198076604234,"connected_time":1142000000000,"state":"active","ping":78},{"user_id":620,"name":"guappodiablo2","steam_id":76561198132087785,"connected_time":1130000000000,"state":"active","ping":73},{"user_id":616,"name":"Duncan","steam_id":76561198197527126,"connected_time":1249000000000,"state":"active","ping":115},{"user_id":623,"name":"THIRDPIERCE","steam_id":76561198405366314,"connected_time":901000000000,"state":"active","ping":89},{"user_id":418,"name":"nnoby","steam_id":76561198878729277,"connected_time":17025000000000,"state":"active","ping":60},{"user_id":621,"name":"HarpyHour","steam_id":76561198156045988,"connected_time":1115000000000,"state":"active","ping":62},{"user_id":611,"name":"stink","steam_id":76561198099318923,"connected_time":2145000000000,"state":"active","ping":76},{"user_id":581,"name":"Grilled Of The Cheese","steam_id":76561198145066749,"connected_time":3836000000000,"state":"active","ping":74},{"user_id":624,"name":"ʕっ•ᴥ•ʔっ","steam_id":76561198010392559,"connected_time":53000000000,"state":"active","ping":92},{"user_id":592,"name":"Hobity","steam_id":76561198135386781,"connected_time":3102000000000,"state":"active","ping":71},{"user_id":606,"name":"nin nin","steam_id":76561198055445565,"connected_time":2452000000000,"state":"active","ping":154},{"user_id":614,"name":"Rose","steam_id":76561198068421587,"connected_time":1411000000000,"state":"active","ping":108},{"user_id":599,"name":"goon tf2","steam_id":76561198341806593,"connected_time":2683000000000,"state":"active","ping":81},{"user_id":598,"name":"elyk37","steam_id":76561198124135253,"connected_time":2706000000000,"state":"active","ping":95},{"user_id":532,"name":"ATL1 | to4st","steam_id":76561198981009008,"connected_time":8821000000000,"state":"active","ping":72},{"user_id":512,"name":"Tay1Qr","steam_id":76561198082809935,"connected_time":10314000000000,"state":"active","ping":72},{"user_id":524,"name":"Alt","steam_id":76561197992591984,"connected_time":9157000000000,"state":"active","ping":81},{"user_id":622,"name":"a man with a pan","steam_id":76561198838214873,"connected_time":1097000000000,"state":"active","ping":76},{"user_id":617,"name":"Egg","steam_id":76561198408593857,"connected_time":1193000000000,"state":"active","ping":64},{"user_id":607,"name":"Toi-Kan Sa Itto","steam_id":76561198059655937,"connected_time":2448000000000,"state":"active","ping":165},{"user_id":586,"name":"kangconqueror","steam_id":76561199229806456,"connected_time":3736000000000,"state":"active","ping":45}]},{"server_id":400,"name":"Uncletopia | Atlanta | 3 | Stopwatch Beta","name_short":"atl-3","host":"atl-1.us.uncletopia.com","port":27035,"enabled":true,"region":"us-east","cc":"us","latitude":33.753746,"longitude":-84.38633,"reserved":0,"last_update":"0001-01-01T00:00:00Z","name_a2s":"Uncletopia | Atlanta | 3 | Stopwatch Beta","protocol":17,"map":"workshop/pl_badwater_pro_v12.ugc2142942074","folder":"tf","game":"Team Fortress","app_id":440,"player_count":0,"max_players":24,"Bots":0,"server_type":"Dedicated","server_os":"Linux","password":true,"vac":true,"version":"7742253","steam_id":85568392924515187,"keywords":["nocrits","nodmgspread","payload","uncletopia"],"game_id":440,"stv_port":27036,"stv_name":"Uncletopia | Atlanta | 3 | Stopwatch Beta | STV","players":null},{"server_id":401,"name":"Uncletopia | Atlanta | 4 | No Payload","name_short":"atl-4","host":"atl-1.us.uncletopia.com","port":27045,"enabled":true,"region":"us-east","cc":"us","latitude":33.753746,"longitude":-84.38633,"reserved":0,"last_update":"0001-01-01T00:00:00Z","name_a2s":"Uncletopia | Atlanta | 4 | No Payload","protocol":17,"map":"pl_pier","folder":"tf","game":"Team Fortress","app_id":440,"player_count":0,"max_players":24,"Bots":0,"server_type":"Dedicated","server_os":"Linux","password":true,"vac":true,"version":"7723704","steam_id":85568392924515188,"keywords":["nocrits","nodmgspread","payload","uncletopia"],"game_id":440,"stv_port":27046,"stv_name":"Uncletopia | Atlanta | 4 | No Payload | STV","players":null},{"server_id":2,"name":"Uncletopia | Chicago | 1 | All Maps","name_short":"chi-1","host":"chi-1.us.uncletopia.com","port":27015,"enabled":true,"region":"us-central","cc":"us","latitude":41.881832,"longitude":-87.62318,"reserved":0,"last_update":"0001-01-01T00:00:00Z","name_a2s":"Uncletopia | Chicago | 1 | All Maps","protocol":17,"map":"pl_borneo","folder":"tf","game":"Team Fortress","app_id":440,"player_count":24,"max_players":24,"Bots":0,"server_type":"Dedicated","server_os":"Linux","password":true,"vac":true,"version":"7742253","steam_id":85568392924469984,"keywords":["nocrits","nodmgspread","payload","uncletopia"],"game_id":440,"stv_port":27016,"stv_name":"Uncletopia | Chicago | 1 | All Maps | STV","players":[{"user_id":740,"name":"debin","steam_id":76561198070711217,"connected_time":6527000000000,"state":"active","ping":52},{"user_id":765,"name":"Flume","steam_id":76561198801227132,"connected_time":5249000000000,"state":"active","ping":53},{"user_id":798,"name":"peter griffin","steam_id":76561198079485096,"connected_time":1834000000000,"state":"active","ping":75},{"user_id":773,"name":"Thatoneguybunchanumbers","steam_id":76561198028039160,"connected_time":5012000000000,"state":"active","ping":73},{"user_id":799,"name":"♥ Femboy♥Ventily ♥","steam_id":76561198157260335,"connected_time":1829000000000,"state":"active","ping":47},{"user_id":785,"name":"NOLSEY","steam_id":76561198108959504,"connected_time":3471000000000,"state":"active","ping":59},{"user_id":743,"name":"Ras","steam_id":76561198123546775,"connected_time":6493000000000,"state":"active","ping":58},{"user_id":794,"name":"arashsmash","steam_id":76561198277649058,"connected_time":3112000000000,"state":"active","ping":64},{"user_id":768,"name":"Amphibian Gaming","steam_id":76561199173558915,"connected_time":5182000000000,"state":"active","ping":60},{"user_id":802,"name":"seaniee","steam_id":76561198354473513,"connected_time":1574000000000,"state":"active","ping":47},{"user_id":796,"name":"Dullahan","steam_id":76561198119668908,"connected_time":2499000000000,"state":"active","ping":99},{"user_id":753,"name":"Merchants of Misery","steam_id":76561199188142396,"connected_time":5821000000000,"state":"active","ping":79},{"user_id":800,"name":"mammoth!?","steam_id":76561198066881911,"connected_time":1829000000000,"state":"active","ping":77},{"user_id":770,"name":"Jolly evil little man","steam_id":76561198311053471,"connected_time":5148000000000,"state":"active","ping":80},{"user_id":752,"name":"blob","steam_id":76561198122375328,"connected_time":5835000000000,"state":"active","ping":61},{"user_id":749,"name":"Cleric","steam_id":76561198045887994,"connected_time":6029000000000,"state":"active","ping":47},{"user_id":803,"name":"❤ Ashley ❤","steam_id":76561198056428303,"connected_time":1572000000000,"state":"active","ping":104},{"user_id":791,"name":"Aperture Laboratories","steam_id":76561198072281743,"connected_time":3335000000000,"state":"active","ping":90},{"user_id":750,"name":"PKBEAST_7","steam_id":76561198177136537,"connected_time":5907000000000,"state":"active","ping":84},{"user_id":797,"name":"GreenApples","steam_id":76561198120559543,"connected_time":2494000000000,"state":"active","ping":103},{"user_id":776,"name":"the deadliest pyroshark","steam_id":76561198374227766,"connected_time":4854000000000,"state":"active","ping":74},{"user_id":748,"name":"Ye ( I Love Caulk ) West","steam_id":76561198068830312,"connected_time":6119000000000,"state":"active","ping":56},{"user_id":801,"name":"sweaterfan","steam_id":76561199389567214,"connected_time":1828000000000,"state":"active","ping":63}]},{"server_id":106,"name":"Uncletopia | Chicago | 2 | All Maps","name_short":"chi-2","host":"chi-1.us.uncletopia.com","port":27025,"enabled":true,"region":"us-central","cc":"us","latitude":41.881832,"longitude":-87.62318,"reserved":0,"last_update":"0001-01-01T00:00:00Z","name_a2s":"Uncletopia | Chicago | 2 | All Maps","protocol":17,"map":"pl_frontier_final","folder":"tf","game":"Team Fortress","app_id":440,"player_count":24,"max_players":24,"Bots":0,"server_type":"Dedicated","server_os":"Linux","password":true,"vac":true,"version":"7742253","steam_id":85568392924469985,"keywords":["nocrits","nodmgspread","payload","uncletopia"],"game_id":440,"stv_port":27026,"stv_name":"Uncletopia | Chicago | 2 | All Maps | STV","players":[{"user_id":716,"name":"BigSchwif","steam_id":76561198007976941,"connected_time":3779000000000,"state":"active","ping":70},{"user_id":728,"name":"Terium","steam_id":76561198331234327,"connected_time":3509000000000,"state":"active","ping":56},{"user_id":700,"name":"WildEvieAppears","steam_id":76561198004001828,"connected_time":4857000000000,"state":"active","ping":52},{"user_id":759,"name":"SensualNic","steam_id":76561198042566460,"connected_time":571000000000,"state":"active","ping":76},{"user_id":679,"name":"Shuzzilay","steam_id":76561197969138678,"connected_time":6418000000000,"state":"active","ping":78},{"user_id":641,"name":"Baka!⑨⑨⑨⑨","steam_id":76561198152948254,"connected_time":9754000000000,"state":"active","ping":61},{"user_id":603,"name":"kairOs.fk","steam_id":76561197972421260,"connected_time":12043000000000,"state":"active","ping":64},{"user_id":750,"name":"Marceline the Vampire Queen","steam_id":76561198322969864,"connected_time":1478000000000,"state":"active","ping":81},{"user_id":692,"name":"whizwit","steam_id":76561198011759651,"connected_time":5799000000000,"state":"active","ping":150},{"user_id":765,"name":"Ace Attorney","steam_id":76561198133011705,"connected_time":24000000000,"state":"spawning","ping":68},{"user_id":655,"name":"Squid121","steam_id":76561198038832034,"connected_time":7869000000000,"state":"active","ping":95},{"user_id":762,"name":"femineralization","steam_id":76561198090412935,"connected_time":363000000000,"state":"active","ping":84},{"user_id":602,"name":"you are loved","steam_id":76561198108524571,"connected_time":12044000000000,"state":"active","ping":74},{"user_id":752,"name":"Gooey Gaped Grannys","steam_id":76561198089731303,"connected_time":1219000000000,"state":"active","ping":73},{"user_id":760,"name":"knip","steam_id":76561198147061182,"connected_time":416000000000,"state":"active","ping":76},{"user_id":745,"name":"(real)","steam_id":76561199062024437,"connected_time":1673000000000,"state":"active","ping":59},{"user_id":756,"name":"Goosher","steam_id":76561198052121130,"connected_time":974000000000,"state":"active","ping":63},{"user_id":766,"name":"NovaSc6ut","steam_id":76561198277163301,"connected_time":19000000000,"state":"active","ping":73},{"user_id":647,"name":"A Puppy","steam_id":76561198828184456,"connected_time":8781000000000,"state":"active","ping":60},{"user_id":747,"name":"McAspie","steam_id":76561198079700167,"connected_time":1620000000000,"state":"active","ping":80},{"user_id":733,"name":"Ace Chromatica","steam_id":76561198042211131,"connected_time":2849000000000,"state":"active","ping":54},{"user_id":761,"name":"Nickson1","steam_id":76561198175839309,"connected_time":375000000000,"state":"active","ping":74},{"user_id":764,"name":"Joseph \"Biden\" Stalin","steam_id":76561198213863907,"connected_time":323000000000,"state":"active","ping":165},{"user_id":749,"name":"ChipperGunslinger","steam_id":76561199100483140,"connected_time":1549000000000,"state":"active","ping":83}]},{"server_id":402,"name":"Uncletopia | Chicago | 3 | All Maps","name_short":"chi-3","host":"chi-1.us.uncletopia.com","port":27035,"enabled":true,"region":"us-central","cc":"us","latitude":41.881832,"longitude":-87.62318,"reserved":0,"last_update":"0001-01-01T00:00:00Z","name_a2s":"Uncletopia | Chicago | 3 | All Maps","protocol":17,"map":"pl_frontier_final","folder":"tf","game":"Team Fortress","app_id":440,"player_count":21,"max_players":24,"Bots":0,"server_type":"Dedicated","server_os":"Linux","password":true,"vac":true,"version":"7742253","steam_id":85568392924515191,"keywords":["nocrits","nodmgspread","payload","uncletopia"],"game_id":440,"stv_port":27036,"stv_name":"Uncletopia | Chicago | 3 | All Maps | STV","players":[{"user_id":609,"name":"2L84U","steam_id":76561198079176017,"connected_time":1821000000000,"state":"active","ping":91},{"user_id":631,"name":"baja blatsune miku","steam_id":76561198402783260,"connected_time":877000000000,"state":"active","ping":51},{"user_id":601,"name":"bikerkid207","steam_id":76561198390782783,"connected_time":3359000000000,"state":"active","ping":64},{"user_id":611,"name":"D6_6","steam_id":76561198055790332,"connected_time":1637000000000,"state":"active","ping":68},{"user_id":640,"name":"Weeniedoinks","steam_id":76561199033290976,"connected_time":180000000000,"state":"active","ping":105},{"user_id":641,"name":"The Great Karizma!","steam_id":76561198346191193,"connected_time":173000000000,"state":"active","ping":92},{"user_id":642,"name":"JujuBalu","steam_id":76561198207253071,"connected_time":159000000000,"state":"active","ping":59},{"user_id":630,"name":"dodecadron","steam_id":76561198027397222,"connected_time":909000000000,"state":"active","ping":112},{"user_id":627,"name":"FryGuy512","steam_id":76561198131506012,"connected_time":1115000000000,"state":"active","ping":89},{"user_id":645,"name":"FightyPNW","steam_id":76561198981808810,"connected_time":136000000000,"state":"active","ping":93},{"user_id":618,"name":"Lore","steam_id":76561198098407538,"connected_time":1387000000000,"state":"active","ping":52},{"user_id":619,"name":"bicth","steam_id":76561198086314381,"connected_time":1347000000000,"state":"active","ping":83},{"user_id":644,"name":"rin-rin","steam_id":76561198166827208,"connected_time":155000000000,"state":"active","ping":90},{"user_id":646,"name":"Lukerp","steam_id":76561198875469297,"connected_time":130000000000,"state":"active","ping":256},{"user_id":621,"name":"dudeer733","steam_id":76561198030319392,"connected_time":1330000000000,"state":"active","ping":69},{"user_id":628,"name":"turveyy","steam_id":76561198283507975,"connected_time":970000000000,"state":"active","ping":64},{"user_id":649,"name":"Beelzebub","steam_id":76561198990699576,"connected_time":103000000000,"state":"active","ping":77},{"user_id":607,"name":"skidzz","steam_id":76561198257068611,"connected_time":2240000000000,"state":"active","ping":82},{"user_id":651,"name":"caption cool","steam_id":76561197990612056,"connected_time":83000000000,"state":"active","ping":73},{"user_id":625,"name":"Infinitytacos","steam_id":76561198884260211,"connected_time":1303000000000,"state":"active","ping":45},{"user_id":638,"name":"Busta-Ma-Balls","steam_id":76561198005777658,"connected_time":682000000000,"state":"active","ping":80}]},{"server_id":403,"name":"Uncletopia | Chicago | 4 | All Maps","name_short":"chi-4","host":"chi-1.us.uncletopia.com","port":27045,"enabled":true,"region":"us-central","cc":"us","latitude":41.881832,"longitude":-87.62318,"reserved":0,"last_update":"0001-01-01T00:00:00Z","name_a2s":"Uncletopia | Chicago | 4 | All Maps","protocol":17,"map":"cp_dustbowl","folder":"tf","game":"Team Fortress","app_id":440,"player_count":23,"max_players":24,"Bots":0,"server_type":"Dedicated","server_os":"Linux","password":true,"vac":true,"version":"7742253","steam_id":85568392924515193,"keywords":["cp","nocrits","nodmgspread","uncletopia"],"game_id":440,"stv_port":27046,"stv_name":"Uncletopia | Chicago | 4 | All Maps | STV","players":[{"user_id":559,"name":"Joe Biden","steam_id":76561198163057374,"connected_time":1833000000000,"state":"active","ping":60},{"user_id":618,"name":"Uhonlapjontetzika","steam_id":76561199431280503,"connected_time":383000000000,"state":"active","ping":53},{"user_id":619,"name":"Wacko","steam_id":76561198333271604,"connected_time":361000000000,"state":"active","ping":52},{"user_id":620,"name":"t.tv/FamilyGuyFunnyMoments277","steam_id":76561198416047580,"connected_time":339000000000,"state":"active","ping":77},{"user_id":613,"name":"Room","steam_id":76561199174579733,"connected_time":524000000000,"state":"active","ping":75},{"user_id":492,"name":"Zubats |TAOZ|","steam_id":76561198041819445,"connected_time":3662000000000,"state":"active","ping":53},{"user_id":621,"name":"Némiscau","steam_id":76561198257979613,"connected_time":294000000000,"state":"active","ping":91},{"user_id":626,"name":"Farseer Ulwithy","steam_id":76561197965179245,"connected_time":1000000000,"state":"spawning","ping":40},{"user_id":622,"name":"foura","steam_id":76561198181972739,"connected_time":289000000000,"state":"active","ping":95},{"user_id":623,"name":"Militant Pacifist","steam_id":76561198290691432,"connected_time":264000000000,"state":"active","ping":79},{"user_id":562,"name":"m9","steam_id":76561198125732157,"connected_time":1780000000000,"state":"active","ping":50},{"user_id":615,"name":"malkshake, flattener","steam_id":76561198031977478,"connected_time":446000000000,"state":"active","ping":62},{"user_id":486,"name":"Elizabeth truss","steam_id":76561198058250979,"connected_time":3702000000000,"state":"active","ping":63},{"user_id":495,"name":"Aspxts","steam_id":76561199125254746,"connected_time":3587000000000,"state":"active","ping":57},{"user_id":624,"name":"Psylics","steam_id":76561198221323008,"connected_time":263000000000,"state":"active","ping":142},{"user_id":578,"name":"BigOrca54","steam_id":76561198181360271,"connected_time":1433000000000,"state":"active","ping":52},{"user_id":625,"name":"Mr Struggle","steam_id":76561198320434551,"connected_time":205000000000,"state":"active","ping":97},{"user_id":555,"name":"Frank_Eash","steam_id":76561198135470871,"connected_time":2027000000000,"state":"active","ping":45},{"user_id":610,"name":"SkyJett","steam_id":76561198040719249,"connected_time":654000000000,"state":"active","ping":56},{"user_id":616,"name":"Dr. Kamirubich","steam_id":76561198136169355,"connected_time":444000000000,"state":"active","ping":51},{"user_id":408,"name":"smuffy","steam_id":76561198091459506,"connected_time":7008000000000,"state":"active","ping":75},{"user_id":589,"name":"Facet","steam_id":76561197999782628,"connected_time":1248000000000,"state":"active","ping":60},{"user_id":617,"name":"The Hoagie Hero","steam_id":76561198057569298,"connected_time":443000000000,"state":"active","ping":79}]},{"server_id":36,"name":"Uncletopia | Chicago | 5 | All Maps","name_short":"chi-5","host":"chi-2.us.uncletopia.com","port":27015,"enabled":true,"region":"us-central","cc":"us","latitude":41.881832,"longitude":-87.62318,"reserved":0,"last_update":"0001-01-01T00:00:00Z","name_a2s":"Uncletopia | Chicago | 5 | All Maps","protocol":17,"map":"koth_cascade","folder":"tf","game":"Team Fortress","app_id":440,"player_count":0,"max_players":24,"Bots":0,"server_type":"Dedicated","server_os":"Linux","password":true,"vac":true,"version":"7742253","steam_id":85568392924866362,"keywords":["cp","nocrits","nodmgspread","uncletopia"],"game_id":440,"stv_port":27016,"stv_name":"Uncletopia | Chicago | 5 | All Maps | STV","players":null},{"server_id":37,"name":"Uncletopia | Chicago | 6 | All Maps","name_short":"chi-6","host":"chi-2.us.uncletopia.com","port":27025,"enabled":true,"region":"us-central","cc":"us","latitude":41.881832,"longitude":-87.62318,"reserved":0,"last_update":"0001-01-01T00:00:00Z","name_a2s":"Uncletopia | Chicago | 6 | All Maps","protocol":17,"map":"cp_process_final","folder":"tf","game":"Team Fortress","app_id":440,"player_count":0,"max_players":24,"Bots":0,"server_type":"Dedicated","server_os":"Linux","password":true,"vac":true,"version":"7742253","steam_id":85568392924866363,"keywords":["cp","nocrits","nodmgspread","uncletopia"],"game_id":440,"stv_port":27026,"stv_name":"Uncletopia | Chicago | 6 | All Maps | STV","players":null},{"server_id":38,"name":"Uncletopia | Chicago | 7 | Stopwatch Beta","name_short":"chi-7","host":"chi-2.us.uncletopia.com","port":27035,"enabled":true,"region":"us-central","cc":"us","latitude":41.881832,"longitude":-87.62318,"reserved":0,"last_update":"0001-01-01T00:00:00Z","name_a2s":"Uncletopia | Chicago | 7 | Stopwatch Beta","protocol":17,"map":"workshop/pl_barnblitz_pro7.ugc582280235","folder":"tf","game":"Team Fortress","app_id":440,"player_count":0,"max_players":24,"Bots":0,"server_type":"Dedicated","server_os":"Linux","password":true,"vac":true,"version":"7742253","steam_id":85568392924866364,"keywords":["nocrits","nodmgspread","payload","uncletopia"],"game_id":440,"stv_port":27036,"stv_name":"Uncletopia | Chicago | 7 | Stopwatch Beta | STV","players":null},{"server_id":39,"name":"Uncletopia | Chicago | 8 | Community","name_short":"chi-8","host":"chi-2.us.uncletopia.com","port":27045,"enabled":true,"region":"us-central","cc":"us","latitude":41.881832,"longitude":-87.62318,"reserved":0,"last_update":"0001-01-01T00:00:00Z","name_a2s":"Uncletopia | Chicago | 8 | Community","protocol":17,"map":"koth_lakeside_final","folder":"tf","game":"Team Fortress","app_id":440,"player_count":0,"max_players":24,"Bots":0,"server_type":"Dedicated","server_os":"Linux","password":true,"vac":true,"version":"7742253","steam_id":85568392924866365,"keywords":["cp","nocrits","nodmgspread","uncletopia"],"game_id":440,"stv_port":27046,"stv_name":"Uncletopia | Chicago | 8 | Community | STV","players":null},{"server_id":8,"name":"Uncletopia | Dallas | 1 | All Maps","name_short":"dal-1","host":"dal-1.us.uncletopia.com","port":27015,"enabled":true,"region":"us-central","cc":"us","latitude":32.779167,"longitude":-96.80889,"reserved":0,"last_update":"0001-01-01T00:00:00Z","name_a2s":"Uncletopia | Dallas | 1 | All Maps","protocol":17,"map":"pl_snowycoast","folder":"tf","game":"Team Fortress","app_id":440,"player_count":23,"max_players":24,"Bots":0,"server_type":"Dedicated","server_os":"Linux","password":true,"vac":true,"version":"7742253","steam_id":85568392924469986,"keywords":["nocrits","nodmgspread","payload","uncletopia"],"game_id":440,"stv_port":27016,"stv_name":"Uncletopia | Dallas | 1 | All Maps | STV","players":[{"user_id":391,"name":"Samsiel","steam_id":76561198094134951,"connected_time":3146000000000,"state":"active","ping":88},{"user_id":410,"name":"Squatter1","steam_id":76561198078987734,"connected_time":1916000000000,"state":"active","ping":81},{"user_id":420,"name":"bruh","steam_id":76561198044118234,"connected_time":1058000000000,"state":"active","ping":77},{"user_id":402,"name":"Pepsi-Man","steam_id":76561198052061790,"connected_time":2784000000000,"state":"active","ping":86},{"user_id":389,"name":"sil","steam_id":76561198046650995,"connected_time":3203000000000,"state":"active","ping":62},{"user_id":421,"name":"bad spy player","steam_id":76561198873699671,"connected_time":1048000000000,"state":"active","ping":100},{"user_id":396,"name":"Biosock Infiknit","steam_id":76561198072693794,"connected_time":2836000000000,"state":"active","ping":62},{"user_id":397,"name":"hack fraud","steam_id":76561198015036066,"connected_time":2830000000000,"state":"active","ping":71},{"user_id":422,"name":"Saristan","steam_id":76561198093346048,"connected_time":1046000000000,"state":"active","ping":91},{"user_id":398,"name":"Someguy6470","steam_id":76561198047240975,"connected_time":2829000000000,"state":"active","ping":71},{"user_id":399,"name":"Star-Lord","steam_id":76561198035908175,"connected_time":2825000000000,"state":"active","ping":90},{"user_id":393,"name":"HumFreY","steam_id":76561198076639682,"connected_time":3119000000000,"state":"active","ping":92},{"user_id":426,"name":"Jakeipooo","steam_id":76561198241989896,"connected_time":774000000000,"state":"active","ping":71},{"user_id":428,"name":"treesarered","steam_id":76561198089344173,"connected_time":17000000000,"state":"spawning","ping":74},{"user_id":406,"name":"Faust main","steam_id":76561198971799149,"connected_time":2285000000000,"state":"active","ping":69},{"user_id":404,"name":"mrp","steam_id":76561198942843544,"connected_time":2679000000000,"state":"active","ping":89},{"user_id":424,"name":"Blehnder","steam_id":76561198172097526,"connected_time":1014000000000,"state":"active","ping":100},{"user_id":427,"name":"Hanky","steam_id":76561199042672335,"connected_time":346000000000,"state":"active","ping":77},{"user_id":417,"name":"little hog","steam_id":76561199230929836,"connected_time":1592000000000,"state":"active","ping":61},{"user_id":415,"name":"BIG HOG","steam_id":76561198079923652,"connected_time":1756000000000,"state":"active","ping":53},{"user_id":377,"name":"Psychosis","steam_id":76561198078659070,"connected_time":3998000000000,"state":"active","ping":83},{"user_id":425,"name":"peachy","steam_id":76561198026664629,"connected_time":944000000000,"state":"active","ping":75},{"user_id":416,"name":"deadly_gamer #!ganger!","steam_id":76561198311446636,"connected_time":1747000000000,"state":"active","ping":73}]},{"server_id":108,"name":"Uncletopia | Dallas | 2 | All Maps","name_short":"dal-2","host":"dal-1.us.uncletopia.com","port":27025,"enabled":true,"region":"us-central","cc":"us","latitude":32.779167,"longitude":-96.80889,"reserved":0,"last_update":"0001-01-01T00:00:00Z","name_a2s":"Uncletopia | Dallas | 2 | All Maps","protocol":17,"map":"pl_upward","folder":"tf","game":"Team Fortress","app_id":440,"player_count":24,"max_players":24,"Bots":0,"server_type":"Dedicated","server_os":"Linux","password":true,"vac":true,"version":"7742253","steam_id":85568392924469988,"keywords":["nocrits","nodmgspread","payload","uncletopia"],"game_id":440,"stv_port":27026,"stv_name":"Uncletopia | Dallas | 2 | All Maps | STV","players":[{"user_id":469,"name":"MrLeftTurn","steam_id":76561198856743969,"connected_time":200000000000,"state":"active","ping":131},{"user_id":430,"name":"punkey","steam_id":76561198193213691,"connected_time":3861000000000,"state":"active","ping":47},{"user_id":462,"name":"Watatsuki no Yorihime","steam_id":76561198063315650,"connected_time":341000000000,"state":"active","ping":78},{"user_id":458,"name":"Phillip Jeffries","steam_id":76561198064052174,"connected_time":402000000000,"state":"active","ping":90},{"user_id":459,"name":"AverageRundownJoe.ttv","steam_id":76561198059359620,"connected_time":401000000000,"state":"active","ping":91},{"user_id":420,"name":"Winter Turtle","steam_id":76561199013760076,"connected_time":4092000000000,"state":"active","ping":75},{"user_id":460,"name":"Fred","steam_id":76561197983870604,"connected_time":381000000000,"state":"active","ping":70},{"user_id":436,"name":"[δ] Delta","steam_id":76561198287190116,"connected_time":3219000000000,"state":"active","ping":60},{"user_id":442,"name":"Carcino","steam_id":76561198006170253,"connected_time":1932000000000,"state":"active","ping":70},{"user_id":461,"name":"puke","steam_id":76561197999279693,"connected_time":357000000000,"state":"active","ping":71},{"user_id":464,"name":"hey beautiful!","steam_id":76561198224614084,"connected_time":318000000000,"state":"active","ping":90},{"user_id":445,"name":"Beeveelution","steam_id":76561198331526301,"connected_time":1680000000000,"state":"active","ping":84},{"user_id":451,"name":"Johnny Metrocop","steam_id":76561199068981957,"connected_time":1111000000000,"state":"active","ping":77},{"user_id":465,"name":"StarWither","steam_id":76561198383264295,"connected_time":314000000000,"state":"active","ping":101},{"user_id":455,"name":"soup brain","steam_id":76561198072515851,"connected_time":744000000000,"state":"active","ping":79},{"user_id":466,"name":"your wickedness is cringe","steam_id":76561198016826181,"connected_time":305000000000,"state":"active","ping":77},{"user_id":305,"name":"Reyloko","steam_id":76561198172480913,"connected_time":12340000000000,"state":"active","ping":71},{"user_id":452,"name":"Knightly Knight","steam_id":76561198399569659,"connected_time":1109000000000,"state":"active","ping":64},{"user_id":471,"name":"gangstalker","steam_id":76561198363267009,"connected_time":126000000000,"state":"active","ping":46},{"user_id":467,"name":"SumTingWong","steam_id":76561198119286222,"connected_time":279000000000,"state":"active","ping":67},{"user_id":470,"name":"Rudy","steam_id":76561198013456828,"connected_time":192000000000,"state":"active","ping":76},{"user_id":472,"name":"BUFF THE SCORCH SHOT","steam_id":76561198042899484,"connected_time":100000000000,"state":"active","ping":125},{"user_id":450,"name":"ThouArtToFiddy","steam_id":76561198145577306,"connected_time":1196000000000,"state":"active","ping":84},{"user_id":457,"name":"Lumen","steam_id":76561197985372319,"connected_time":453000000000,"state":"active","ping":80}]},{"server_id":5,"name":"Uncletopia | Frankfurt | 1 | All Maps","name_short":"frk-1","host":"frk-1.de.uncletopia.com","port":27015,"enabled":true,"region":"eu","cc":"de","latitude":50.110924,"longitude":8.682127,"reserved":0,"last_update":"0001-01-01T00:00:00Z","name_a2s":"Uncletopia | Frankfurt | 1 | All Maps","protocol":17,"map":"pl_borneo","folder":"tf","game":"Team Fortress","app_id":440,"player_count":0,"max_players":24,"Bots":0,"server_type":"Dedicated","server_os":"Linux","password":true,"vac":true,"version":"7742253","steam_id":85568392924469989,"keywords":["nocrits","nodmgspread","payload","uncletopia"],"game_id":440,"stv_port":27016,"stv_name":"Uncletopia | Frankfurt | 1 | All Maps | STV","players":null},{"server_id":110,"name":"Uncletopia | Frankfurt | 2 | All Maps","name_short":"frk-2","host":"frk-1.de.uncletopia.com","port":27025,"enabled":true,"region":"eu","cc":"de","latitude":50.110924,"longitude":8.682127,"reserved":0,"last_update":"0001-01-01T00:00:00Z","name_a2s":"Uncletopia | Frankfurt | 2 | All Maps","protocol":17,"map":"pl_swiftwater_final1","folder":"tf","game":"Team Fortress","app_id":440,"player_count":0,"max_players":24,"Bots":0,"server_type":"Dedicated","server_os":"Linux","password":true,"vac":true,"version":"7742253","steam_id":85568392924469990,"keywords":["nocrits","nodmgspread","payload","uncletopia"],"game_id":440,"stv_port":27026,"stv_name":"Uncletopia | Frankfurt | 2 | All Maps | STV","players":null},{"server_id":308,"name":"Uncletopia | Frankfurt | 3 | All Maps","name_short":"frk-3","host":"frk-1.de.uncletopia.com","port":27035,"enabled":true,"region":"eu","cc":"de","latitude":50.110924,"longitude":8.682127,"reserved":0,"last_update":"0001-01-01T00:00:00Z","name_a2s":"Uncletopia | Frankfurt | 3 | All Maps","protocol":17,"map":"cp_dustbowl","folder":"tf","game":"Team Fortress","app_id":440,"player_count":0,"max_players":24,"Bots":0,"server_type":"Dedicated","server_os":"Linux","password":true,"vac":true,"version":"7742253","steam_id":85568392924504274,"keywords":["cp","nocrits","nodmgspread","uncletopia"],"game_id":440,"stv_port":27036,"stv_name":"Uncletopia | Frankfurt | 3 | All Maps | STV","players":null},{"server_id":309,"name":"Uncletopia | Frankfurt | 4 | All Maps","name_short":"frk-4","host":"frk-1.de.uncletopia.com","port":27045,"enabled":true,"region":"eu","cc":"de","latitude":50.110924,"longitude":8.682127,"reserved":0,"last_update":"0001-01-01T00:00:00Z","name_a2s":"Uncletopia | Frankfurt | 4 | All Maps","protocol":17,"map":"cp_sunshine","folder":"tf","game":"Team Fortress","app_id":440,"player_count":0,"max_players":24,"Bots":0,"server_type":"Dedicated","server_os":"Linux","password":true,"vac":true,"version":"7742253","steam_id":85568392924504275,"keywords":["cp","nocrits","nodmgspread","uncletopia"],"game_id":440,"stv_port":27046,"stv_name":"Uncletopia | Frankfurt | 4 | All Maps | STV","players":null},{"server_id":310,"name":"Uncletopia | Frankfurt | 5 | All Maps","name_short":"frk-5","host":"frk-1.de.uncletopia.com","port":27055,"enabled":true,"region":"eu","cc":"de","latitude":50.110924,"longitude":8.682127,"reserved":0,"last_update":"0001-01-01T00:00:00Z","name_a2s":"Uncletopia | Frankfurt | 5 | All Maps","protocol":17,"map":"koth_highpass","folder":"tf","game":"Team Fortress","app_id":440,"player_count":0,"max_players":24,"Bots":0,"server_type":"Dedicated","server_os":"Linux","password":true,"vac":true,"version":"7742253","steam_id":85568392924504277,"keywords":["cp","nocrits","nodmgspread","uncletopia"],"game_id":440,"stv_port":27056,"stv_name":"Uncletopia | Frankfurt | 5 | All Maps | STV","players":null},{"server_id":311,"name":"Uncletopia | Frankfurt | 6 | All Maps","name_short":"frk-6","host":"frk-1.de.uncletopia.com","port":27065,"enabled":true,"region":"eu","cc":"de","latitude":50.110924,"longitude":8.682127,"reserved":0,"last_update":"0001-01-01T00:00:00Z","name_a2s":"Uncletopia | Frankfurt | 6 | All Maps","protocol":17,"map":"koth_lakeside_final","folder":"tf","game":"Team Fortress","app_id":440,"player_count":0,"max_players":24,"Bots":0,"server_type":"Dedicated","server_os":"Linux","password":true,"vac":true,"version":"7742253","steam_id":85568392924504278,"keywords":["cp","nocrits","nodmgspread","uncletopia"],"game_id":440,"stv_port":27066,"stv_name":"Uncletopia | Frankfurt | 6 | All Maps | STV","players":null},{"server_id":23,"name":"Uncletopia | Frankfurt | 7 | Stopwatch Beta","name_short":"frk-7","host":"frk-1.de.uncletopia.com","port":27075,"enabled":true,"region":"eu","cc":"de","latitude":50.110924,"longitude":8.682127,"reserved":0,"last_update":"0001-01-01T00:00:00Z","name_a2s":"Uncletopia | Frankfurt | 7 | Stopwatch Beta","protocol":17,"map":"pl_badwater","folder":"tf","game":"Team Fortress","app_id":440,"player_count":1,"max_players":24,"Bots":0,"server_type":"Dedicated","server_os":"Linux","password":true,"vac":true,"version":"7742253","steam_id":85568392924742827,"keywords":["nocrits","nodmgspread","payload","uncletopia"],"game_id":440,"stv_port":27076,"stv_name":"Uncletopia | Frankfurt | 7 | Stopwatch Beta | STV","players":[{"user_id":3,"name":"Mushroomboy","steam_id":76561198277374416,"connected_time":174000000000,"state":"connecting","ping":0}]},{"server_id":24,"name":"Uncletopia | Frankfurt | 8 | Community","name_short":"frk-8","host":"frk-1.de.uncletopia.com","port":27085,"enabled":true,"region":"eu","cc":"de","latitude":50.110924,"longitude":8.682127,"reserved":0,"last_update":"0001-01-01T00:00:00Z","name_a2s":"Uncletopia | Frankfurt | 8 | Community","protocol":17,"map":"koth_cascade","folder":"tf","game":"Team Fortress","app_id":440,"player_count":0,"max_players":24,"Bots":0,"server_type":"Dedicated","server_os":"Linux","password":true,"vac":true,"version":"7742253","steam_id":85568392924742828,"keywords":["cp","nocrits","nodmgspread","uncletopia"],"game_id":440,"stv_port":27086,"stv_name":"Uncletopia | Frankfurt | 8 | Community | STV","players":null},{"server_id":202,"name":"Uncletopia | Hong Kong | 1 | All Maps","name_short":"hgk-1","host":"hgk-1.hk.uncletopia.com","port":27015,"enabled":true,"region":"asia","cc":"hk","latitude":22.302711,"longitude":114.177216,"reserved":0,"last_update":"0001-01-01T00:00:00Z","name_a2s":"Uncletopia | Hong Kong | 1 | All Maps","protocol":17,"map":"cp_process_final","folder":"tf","game":"Team Fortress","app_id":440,"player_count":25,"max_players":24,"Bots":0,"server_type":"Dedicated","server_os":"Linux","password":true,"vac":true,"version":"7742253","steam_id":85568392924494504,"keywords":["cp","nocrits","nodmgspread","uncletopia"],"game_id":440,"stv_port":27016,"stv_name":"Uncletopia | Hong Kong | 1 | All Maps | STV","players":[{"user_id":276,"name":"JayJ","steam_id":76561198324008555,"connected_time":805000000000,"state":"active","ping":55},{"user_id":121,"name":":D","steam_id":76561198009692495,"connected_time":8671000000000,"state":"active","ping":77},{"user_id":205,"name":"-exus1ai","steam_id":76561198136906917,"connected_time":2483000000000,"state":"active","ping":65},{"user_id":175,"name":"Lu","steam_id":76561198320532821,"connected_time":5284000000000,"state":"active","ping":58},{"user_id":278,"name":"Beef Wellington","steam_id":76561197995635241,"connected_time":736000000000,"state":"active","ping":111},{"user_id":212,"name":"thanks and have fun","steam_id":76561198748035294,"connected_time":1976000000000,"state":"active","ping":110},{"user_id":201,"name":"ocha お茶 전통차","steam_id":76561199224096189,"connected_time":2603000000000,"state":"active","ping":86},{"user_id":196,"name":"meelee","steam_id":76561199227871384,"connected_time":3464000000000,"state":"active","ping":57},{"user_id":202,"name":"old chunk of coal","steam_id":76561197990537324,"connected_time":2601000000000,"state":"active","ping":147},{"user_id":213,"name":"worntag","steam_id":76561199056960214,"connected_time":1950000000000,"state":"active","ping":140},{"user_id":293,"name":"trillionaire grindset sigma","steam_id":76561198160089663,"connected_time":261000000000,"state":"active","ping":81},{"user_id":275,"name":"cube","steam_id":76561198132354269,"connected_time":826000000000,"state":"active","ping":120},{"user_id":214,"name":"bad at everything","steam_id":76561199378524169,"connected_time":1920000000000,"state":"active","ping":68},{"user_id":203,"name":"heronthebird","steam_id":76561198964411581,"connected_time":2596000000000,"state":"active","ping":76},{"user_id":211,"name":"sáu thiện nhân","steam_id":76561199373637717,"connected_time":1991000000000,"state":"active","ping":105},{"user_id":298,"name":"Missile","steam_id":76561198375891540,"connected_time":157000000000,"state":"active","ping":73},{"user_id":191,"name":"P","steam_id":76561198304514505,"connected_time":3880000000000,"state":"active","ping":79},{"user_id":169,"name":"qb","steam_id":76561198412329672,"connected_time":5911000000000,"state":"active","ping":90},{"user_id":279,"name":"Likes","steam_id":76561198012769267,"connected_time":706000000000,"state":"active","ping":105},{"user_id":207,"name":"포말양홍원이센스칸예","steam_id":76561199443938682,"connected_time":2020000000000,"state":"active","ping":105},{"user_id":280,"name":"cjjakeypaul","steam_id":76561199126245431,"connected_time":624000000000,"state":"active","ping":114},{"user_id":91,"name":"Urotsuki","steam_id":76561198074339034,"connected_time":10036000000000,"state":"active","ping":77},{"user_id":164,"name":"Violezine","steam_id":76561199000502615,"connected_time":6470000000000,"state":"active","ping":83},{"user_id":210,"name":"Cá Tháng 4","steam_id":76561198047162026,"connected_time":1996000000000,"state":"active","ping":74},{"user_id":305,"name":"big","steam_id":76561199071192186,"connected_time":5000000000,"state":"spawning","ping":85}]},{"server_id":1,"name":"Uncletopia | Los Angeles | 1 | All Maps","name_short":"lax-1","host":"lax-1.us.uncletopia.com","port":27015,"enabled":true,"region":"us-west","cc":"us","latitude":33.94279,"longitude":-118.41004,"reserved":0,"last_update":"0001-01-01T00:00:00Z","name_a2s":"Uncletopia | Los Angeles | 1 | All Maps","protocol":17,"map":"koth_lakeside_final","folder":"tf","game":"Team Fortress","app_id":440,"player_count":0,"max_players":24,"Bots":0,"server_type":"Dedicated","server_os":"Linux","password":true,"vac":true,"version":"7742253","steam_id":85568392924469991,"keywords":["cp","nocrits","nodmgspread","uncletopia"],"game_id":440,"stv_port":27016,"stv_name":"Uncletopia | Los Angeles | 1 | All Maps | STV","players":null},{"server_id":112,"name":"Uncletopia | Los Angeles | 2 | All Maps","name_short":"lax-2","host":"lax-1.us.uncletopia.com","port":27025,"enabled":true,"region":"us-west","cc":"us","latitude":33.94279,"longitude":-118.41004,"reserved":0,"last_update":"0001-01-01T00:00:00Z","name_a2s":"Uncletopia | Los Angeles | 2 | All Maps","protocol":17,"map":"pl_badwater","folder":"tf","game":"Team Fortress","app_id":440,"player_count":18,"max_players":24,"Bots":0,"server_type":"Dedicated","server_os":"Linux","password":true,"vac":true,"version":"7742253","steam_id":85568392924469992,"keywords":["nocrits","nodmgspread","payload","uncletopia"],"game_id":440,"stv_port":27026,"stv_name":"Uncletopia | Los Angeles | 2 | All Maps | STV","players":[{"user_id":447,"name":"Doctor X (Michiko Daemon)","steam_id":76561199106264424,"connected_time":1131000000000,"state":"active","ping":107},{"user_id":356,"name":"Pyrotek⁴","steam_id":76561198072747672,"connected_time":8843000000000,"state":"active","ping":37},{"user_id":461,"name":"Homo Ejectus","steam_id":76561197968701952,"connected_time":48000000000,"state":"active","ping":78},{"user_id":462,"name":"jimmy outlaw","steam_id":76561198070380402,"connected_time":48000000000,"state":"active","ping":78},{"user_id":450,"name":"Leo","steam_id":76561198309760791,"connected_time":1117000000000,"state":"active","ping":100},{"user_id":452,"name":"player 2","steam_id":76561198158952440,"connected_time":1078000000000,"state":"active","ping":77},{"user_id":456,"name":"happer","steam_id":76561198018252253,"connected_time":948000000000,"state":"active","ping":56},{"user_id":446,"name":"Pog","steam_id":76561198957479336,"connected_time":1132000000000,"state":"active","ping":94},{"user_id":457,"name":"howtobepker","steam_id":76561198115053865,"connected_time":887000000000,"state":"active","ping":70},{"user_id":448,"name":"kebo","steam_id":76561198237159430,"connected_time":1127000000000,"state":"active","ping":49},{"user_id":463,"name":"fortzei","steam_id":76561198210920541,"connected_time":36000000000,"state":"connecting","ping":59},{"user_id":458,"name":"Qinxnix","steam_id":76561198091538771,"connected_time":513000000000,"state":"active","ping":68},{"user_id":454,"name":"Video game victim","steam_id":76561198308017082,"connected_time":1042000000000,"state":"active","ping":66},{"user_id":455,"name":"HELP ME!!!!!!!!!!!!!!!!!!!!","steam_id":76561198069229523,"connected_time":1035000000000,"state":"active","ping":61},{"user_id":402,"name":"master_minion","steam_id":76561198170693990,"connected_time":6469000000000,"state":"active","ping":47},{"user_id":404,"name":"a festive sooley","steam_id":76561198134500189,"connected_time":6423000000000,"state":"active","ping":111},{"user_id":449,"name":"i ate atomic bomb","steam_id":76561198150406851,"connected_time":1122000000000,"state":"active","ping":49},{"user_id":460,"name":"puffer","steam_id":76561199049164456,"connected_time":364000000000,"state":"active","ping":62}]},{"server_id":324,"name":"Uncletopia | Los Angeles | 3 | All Maps","name_short":"lax-3","host":"lax-1.us.uncletopia.com","port":27035,"enabled":true,"region":"us-west","cc":"us","latitude":33.94279,"longitude":-118.41004,"reserved":0,"last_update":"0001-01-01T00:00:00Z","name_a2s":"Uncletopia | Los Angeles | 3 | All Maps","protocol":17,"map":"pl_badwater","folder":"tf","game":"Team Fortress","app_id":440,"player_count":24,"max_players":24,"Bots":0,"server_type":"Dedicated","server_os":"Linux","password":true,"vac":true,"version":"7742253","steam_id":85568392924510198,"keywords":["nocrits","nodmgspread","payload","uncletopia"],"game_id":440,"stv_port":27036,"stv_name":"Uncletopia | Los Angeles | 3 | All Maps | STV","players":[{"user_id":239,"name":"trackball gaming","steam_id":76561198057371485,"connected_time":735000000000,"state":"active","ping":39},{"user_id":219,"name":"THANOPOD!!!!!!!!!!","steam_id":76561198201875359,"connected_time":2476000000000,"state":"active","ping":128},{"user_id":242,"name":"Sad Sapling","steam_id":76561198075612150,"connected_time":504000000000,"state":"active","ping":54},{"user_id":151,"name":"autumn","steam_id":76561198036901822,"connected_time":7524000000000,"state":"active","ping":75},{"user_id":205,"name":"Large Man","steam_id":76561198880396651,"connected_time":4343000000000,"state":"active","ping":126},{"user_id":156,"name":"Mitty","steam_id":76561198014177684,"connected_time":6976000000000,"state":"active","ping":56},{"user_id":195,"name":"The Robot Menace","steam_id":76561198043390413,"connected_time":4652000000000,"state":"active","ping":81},{"user_id":250,"name":"Sergeant Sear","steam_id":76561197963477221,"connected_time":284000000000,"state":"active","ping":48},{"user_id":217,"name":"El Gato Paranoico","steam_id":76561198116567116,"connected_time":2731000000000,"state":"active","ping":90},{"user_id":158,"name":"「Jimbo Reference」","steam_id":76561198016078541,"connected_time":6890000000000,"state":"active","ping":54},{"user_id":252,"name":"TheBrocklobster","steam_id":76561198039682984,"connected_time":171000000000,"state":"active","ping":53},{"user_id":234,"name":"poey","steam_id":76561198865346767,"connected_time":1158000000000,"state":"active","ping":51},{"user_id":241,"name":"PandaWithHat2313","steam_id":76561199116285411,"connected_time":545000000000,"state":"active","ping":51},{"user_id":213,"name":"macaroli","steam_id":76561198969523979,"connected_time":2900000000000,"state":"active","ping":52},{"user_id":243,"name":"Super crak 202 9","steam_id":76561199176207530,"connected_time":493000000000,"state":"active","ping":62},{"user_id":244,"name":"ENERGY GRENADE","steam_id":76561198015793754,"connected_time":490000000000,"state":"active","ping":41},{"user_id":249,"name":"Antis","steam_id":76561198055790522,"connected_time":329000000000,"state":"active","ping":55},{"user_id":231,"name":"Watt Dafuq","steam_id":76561198194402925,"connected_time":1251000000000,"state":"active","ping":117},{"user_id":232,"name":"Battery_Included","steam_id":76561198067164431,"connected_time":1238000000000,"state":"active","ping":42},{"user_id":245,"name":"Project 101","steam_id":76561199013370349,"connected_time":450000000000,"state":"active","ping":96},{"user_id":253,"name":"SomethinS535","steam_id":76561198375850101,"connected_time":87000000000,"state":"active","ping":55},{"user_id":251,"name":"BigBubble42","steam_id":76561198136286123,"connected_time":240000000000,"state":"active","ping":123},{"user_id":222,"name":"John Wick's puppy","steam_id":76561198064662875,"connected_time":1864000000000,"state":"active","ping":56},{"user_id":237,"name":"RyInc","steam_id":76561198874261643,"connected_time":824000000000,"state":"active","ping":105}]},{"server_id":25,"name":"Uncletopia | Los Angeles | 4 | Stopwatch Beta","name_short":"lax-4","host":"lax-1.us.uncletopia.com","port":27045,"enabled":true,"region":"us-west","cc":"us","latitude":33.94279,"longitude":-118.41004,"reserved":0,"last_update":"0001-01-01T00:00:00Z","name_a2s":"Uncletopia | Los Angeles | 4 | Stopwatch Beta","protocol":17,"map":"pl_borneo","folder":"tf","game":"Team Fortress","app_id":440,"player_count":0,"max_players":24,"Bots":0,"server_type":"Dedicated","server_os":"Linux","password":true,"vac":true,"version":"7742253","steam_id":85568392924510199,"keywords":["nocrits","nodmgspread","payload","uncletopia"],"game_id":440,"stv_port":27046,"stv_name":"Uncletopia | Los Angeles | 4 | Stopwatch Beta | STV","players":null},{"server_id":11,"name":"Uncletopia | London | 1 | All Maps","name_short":"lon-1","host":"lon-1.uk.uncletopia.com","port":27015,"enabled":true,"region":"eu","cc":"gb","latitude":51.509865,"longitude":-0.118092,"reserved":0,"last_update":"0001-01-01T00:00:00Z","name_a2s":"Uncletopia | London | 1 | All Maps","protocol":17,"map":"cp_altitude","folder":"tf","game":"Team Fortress","app_id":440,"player_count":0,"max_players":24,"Bots":0,"server_type":"Dedicated","server_os":"Linux","password":true,"vac":true,"version":"7742253","steam_id":85568392924367362,"keywords":["cp","nocrits","nodmgspread","uncletopia"],"game_id":440,"stv_port":27016,"stv_name":"Uncletopia | London | 1 | All Maps | STV","players":null},{"server_id":114,"name":"Uncletopia | London | 2 | All Maps","name_short":"lon-2","host":"lon-1.uk.uncletopia.com","port":27025,"enabled":true,"region":"eu","cc":"gb","latitude":51.509865,"longitude":-0.118092,"reserved":0,"last_update":"0001-01-01T00:00:00Z","name_a2s":"Uncletopia | London | 2 | All Maps","protocol":17,"map":"koth_harvest_final","folder":"tf","game":"Team Fortress","app_id":440,"player_count":13,"max_players":24,"Bots":0,"server_type":"Dedicated","server_os":"Linux","password":true,"vac":true,"version":"7742253","steam_id":85568392924470941,"keywords":["cp","nocrits","nodmgspread","uncletopia"],"game_id":440,"stv_port":27026,"stv_name":"Uncletopia | London | 2 | All Maps | STV","players":[{"user_id":24,"name":"Radiculit","steam_id":76561198379290066,"connected_time":305000000000,"state":"active","ping":128},{"user_id":21,"name":"Zombi3","steam_id":76561198326290621,"connected_time":596000000000,"state":"active","ping":64},{"user_id":5,"name":"Pinroe","steam_id":76561198968160899,"connected_time":947000000000,"state":"active","ping":62},{"user_id":19,"name":"mordecai","steam_id":76561198000689264,"connected_time":833000000000,"state":"active","ping":90},{"user_id":8,"name":"IKARUS","steam_id":76561198850898422,"connected_time":931000000000,"state":"active","ping":74},{"user_id":9,"name":"Martoro","steam_id":76561199022278314,"connected_time":930000000000,"state":"active","ping":48},{"user_id":10,"name":"parrot","steam_id":76561198029873185,"connected_time":930000000000,"state":"active","ping":57},{"user_id":11,"name":"BONK","steam_id":76561199120275042,"connected_time":926000000000,"state":"active","ping":63},{"user_id":25,"name":"bapo","steam_id":76561198077640006,"connected_time":158000000000,"state":"active","ping":45},{"user_id":13,"name":"zLowNemesis","steam_id":76561198870863407,"connected_time":915000000000,"state":"active","ping":87},{"user_id":23,"name":"AntiVolt","steam_id":76561198108768295,"connected_time":518000000000,"state":"active","ping":74},{"user_id":15,"name":"Pinkchup","steam_id":76561198106802803,"connected_time":885000000000,"state":"active","ping":87},{"user_id":16,"name":"Stragnov☆","steam_id":76561198074702465,"connected_time":866000000000,"state":"active","ping":64}]},{"server_id":320,"name":"Uncletopia | London | 3 | All Maps","name_short":"lon-3","host":"lon-1.uk.uncletopia.com","port":27035,"enabled":true,"region":"eu","cc":"gb","latitude":51.509865,"longitude":-0.118092,"reserved":0,"last_update":"0001-01-01T00:00:00Z","name_a2s":"Uncletopia | London | 3 | All Maps","protocol":17,"map":"pl_upward","folder":"tf","game":"Team Fortress","app_id":440,"player_count":0,"max_players":24,"Bots":0,"server_type":"Dedicated","server_os":"Linux","password":true,"vac":true,"version":"7742253","steam_id":85568392924510192,"keywords":["nocrits","nodmgspread","payload","uncletopia"],"game_id":440,"stv_port":27036,"stv_name":"Uncletopia | London | 3 | All Maps | STV","players":null},{"server_id":321,"name":"Uncletopia | London | 4 | All Maps","name_short":"lon-4","host":"lon-1.uk.uncletopia.com","port":27045,"enabled":true,"region":"eu","cc":"gb","latitude":51.509865,"longitude":-0.118092,"reserved":0,"last_update":"0001-01-01T00:00:00Z","name_a2s":"Uncletopia | London | 4 | All Maps","protocol":17,"map":"koth_highpass","folder":"tf","game":"Team Fortress","app_id":440,"player_count":0,"max_players":24,"Bots":0,"server_type":"Dedicated","server_os":"Linux","password":true,"vac":true,"version":"7742253","steam_id":85568392924510193,"keywords":["cp","nocrits","nodmgspread","uncletopia"],"game_id":440,"stv_port":27046,"stv_name":"Uncletopia | London | 4 | All Maps | STV","players":null},{"server_id":21,"name":"Uncletopia | London | 5 | All Maps","name_short":"lon-5","host":"lon-1.uk.uncletopia.com","port":27055,"enabled":true,"region":"eu","cc":"gb","latitude":51.509865,"longitude":-0.118092,"reserved":0,"last_update":"0001-01-01T00:00:00Z","name_a2s":"Uncletopia | London | 5 | All Maps","protocol":17,"map":"pl_frontier_final","folder":"tf","game":"Team Fortress","app_id":440,"player_count":0,"max_players":24,"Bots":0,"server_type":"Dedicated","server_os":"Linux","password":true,"vac":true,"version":"7742253","steam_id":85568392924742829,"keywords":["nocrits","nodmgspread","payload","uncletopia"],"game_id":440,"stv_port":27056,"stv_name":"Uncletopia | London | 5 | All Maps | STV","players":null},{"server_id":22,"name":"Uncletopia | London | 6 | All Maps","name_short":"lon-6","host":"lon-1.uk.uncletopia.com","port":27065,"enabled":true,"region":"eu","cc":"gb","latitude":51.509865,"longitude":-0.118092,"reserved":0,"last_update":"0001-01-01T00:00:00Z","name_a2s":"Uncletopia | London | 6 | All Maps","protocol":17,"map":"pl_borneo","folder":"tf","game":"Team Fortress","app_id":440,"player_count":1,"max_players":24,"Bots":0,"server_type":"Dedicated","server_os":"Linux","password":true,"vac":true,"version":"7742253","steam_id":85568392924742830,"keywords":["nocrits","nodmgspread","payload","uncletopia"],"game_id":440,"stv_port":27066,"stv_name":"Uncletopia | London | 6 | All Maps | STV","players":[{"user_id":3,"name":"Mushroomboy","steam_id":76561198277374416,"connected_time":162000000000,"state":"active","ping":151}]},{"server_id":40,"name":"Uncletopia | London | 7 | No Payload","name_short":"lon-7","host":"lon-1.uk.uncletopia.com","port":27075,"enabled":true,"region":"eu","cc":"gb","latitude":51.509865,"longitude":-0.118092,"reserved":0,"last_update":"0001-01-01T00:00:00Z","name_a2s":"Uncletopia | London | 7 | No Payload","protocol":17,"map":"koth_viaduct","folder":"tf","game":"Team Fortress","app_id":440,"player_count":0,"max_players":24,"Bots":0,"server_type":"Dedicated","server_os":"Linux","password":true,"vac":true,"version":"7742253","steam_id":85568392924964314,"keywords":["cp","nocrits","nodmgspread","uncletopia"],"game_id":440,"stv_port":27076,"stv_name":"Uncletopia | London | 7 | No Payload | STV","players":null},{"server_id":41,"name":"Uncletopia | London | 8 | Community","name_short":"lon-8","host":"lon-1.uk.uncletopia.com","port":27085,"enabled":true,"region":"eu","cc":"gb","latitude":51.509865,"longitude":-0.118092,"reserved":0,"last_update":"0001-01-01T00:00:00Z","name_a2s":"Uncletopia | London | 8 | Community","protocol":17,"map":"cp_altitude","folder":"tf","game":"Team Fortress","app_id":440,"player_count":0,"max_players":24,"Bots":0,"server_type":"Dedicated","server_os":"Linux","password":true,"vac":true,"version":"7742253","steam_id":85568392924964315,"keywords":["cp","nocrits","nodmgspread","uncletopia"],"game_id":440,"stv_port":27086,"stv_name":"Uncletopia | London | 8 | Community | STV","players":null},{"server_id":300,"name":"Uncletopia | Montréal | 1 | All Maps","name_short":"mtl-1","host":"mtl-1.ca.uncletopia.com","port":27015,"enabled":true,"region":"us-east","cc":"ca","latitude":45.50889,"longitude":-73.56167,"reserved":0,"last_update":"0001-01-01T00:00:00Z","name_a2s":"Uncletopia | Montréal | 1 | All Maps","protocol":17,"map":"pl_snowycoast","folder":"tf","game":"Team Fortress","app_id":440,"player_count":0,"max_players":24,"Bots":0,"server_type":"Dedicated","server_os":"Linux","password":true,"vac":true,"version":"7742253","steam_id":85568392924500087,"keywords":["nocrits","nodmgspread","payload","uncletopia"],"game_id":440,"stv_port":27016,"stv_name":"Uncletopia | Montréal | 1 | All Maps | STV","players":null},{"server_id":301,"name":"Uncletopia | Montréal | 2 | All Maps","name_short":"mtl-2","host":"mtl-1.ca.uncletopia.com","port":27025,"enabled":true,"region":"us-east","cc":"ca","latitude":45.50889,"longitude":-73.56167,"reserved":0,"last_update":"0001-01-01T00:00:00Z","name_a2s":"Uncletopia | Montréal | 2 | All Maps","protocol":17,"map":"koth_highpass","folder":"tf","game":"Team Fortress","app_id":440,"player_count":0,"max_players":24,"Bots":0,"server_type":"Dedicated","server_os":"Linux","password":true,"vac":true,"version":"7742253","steam_id":85568392924500088,"keywords":["cp","nocrits","nodmgspread","uncletopia"],"game_id":440,"stv_port":27026,"stv_name":"Uncletopia | Montréal | 2 | All Maps | STV","players":null},{"server_id":302,"name":"Uncletopia | Montréal | 3 | All Maps","name_short":"mtl-3","host":"mtl-1.ca.uncletopia.com","port":27035,"enabled":true,"region":"us-east","cc":"ca","latitude":45.50889,"longitude":-73.56167,"reserved":0,"last_update":"0001-01-01T00:00:00Z","name_a2s":"Uncletopia | Montréal | 3 | All Maps","protocol":17,"map":"pl_barnblitz","folder":"tf","game":"Team Fortress","app_id":440,"player_count":17,"max_players":24,"Bots":0,"server_type":"Dedicated","server_os":"Linux","password":true,"vac":true,"version":"7742253","steam_id":85568392924500089,"keywords":["nocrits","nodmgspread","payload","uncletopia"],"game_id":440,"stv_port":27036,"stv_name":"Uncletopia | Montréal | 3 | All Maps | STV","players":[{"user_id":134,"name":"StarManMatt","steam_id":76561198125513574,"connected_time":821000000000,"state":"active","ping":113},{"user_id":137,"name":"burial","steam_id":76561198069431694,"connected_time":552000000000,"state":"active","ping":60},{"user_id":122,"name":"rxqd","steam_id":76561198076586089,"connected_time":1194000000000,"state":"active","ping":77},{"user_id":138,"name":"The Brain of Death","steam_id":76561199079208233,"connected_time":152000000000,"state":"active","ping":110},{"user_id":95,"name":"JoeShmo29","steam_id":76561198218745481,"connected_time":3084000000000,"state":"active","ping":56},{"user_id":110,"name":"Gelidus","steam_id":76561198817304634,"connected_time":2355000000000,"state":"active","ping":90},{"user_id":136,"name":"hobokinman80","steam_id":76561198138876660,"connected_time":591000000000,"state":"active","ping":62},{"user_id":139,"name":"vyx","steam_id":76561198037205391,"connected_time":150000000000,"state":"active","ping":48},{"user_id":140,"name":"really hot sexy mom (real)","steam_id":76561198044696803,"connected_time":21000000000,"state":"active","ping":53},{"user_id":141,"name":"ΛZZY","steam_id":76561198078364016,"connected_time":15000000000,"state":"spawning","ping":59},{"user_id":113,"name":"Bacon","steam_id":76561198016585383,"connected_time":2271000000000,"state":"active","ping":74},{"user_id":114,"name":"Trey","steam_id":76561198208069087,"connected_time":2258000000000,"state":"active","ping":118},{"user_id":37,"name":"tomboytysen","steam_id":76561198149641643,"connected_time":6268000000000,"state":"active","ping":61},{"user_id":97,"name":"mrsanto15","steam_id":76561199311793955,"connected_time":3019000000000,"state":"active","ping":53},{"user_id":130,"name":"﷽﷽﷽﷽﷽﷽﷽﷽﷽﷽","steam_id":76561198233511028,"connected_time":1078000000000,"state":"active","ping":82},{"user_id":100,"name":"man","steam_id":76561199365643094,"connected_time":2950000000000,"state":"active","ping":101},{"user_id":133,"name":"simplyhere141","steam_id":76561199204117948,"connected_time":1027000000000,"state":"active","ping":49}]},{"server_id":303,"name":"Uncletopia | Montréal | 4 | No Payload","name_short":"mtl-4","host":"mtl-1.ca.uncletopia.com","port":27045,"enabled":true,"region":"us-east","cc":"ca","latitude":45.50889,"longitude":-73.56167,"reserved":0,"last_update":"0001-01-01T00:00:00Z","name_a2s":"Uncletopia | Montréal | 4 | No Payload","protocol":17,"map":"koth_nucleus","folder":"tf","game":"Team Fortress","app_id":440,"player_count":0,"max_players":24,"Bots":0,"server_type":"Dedicated","server_os":"Linux","password":true,"vac":true,"version":"7742253","steam_id":85568392924500090,"keywords":["cp","nocrits","nodmgspread","uncletopia"],"game_id":440,"stv_port":27046,"stv_name":"Uncletopia | Montréal | 4 | No Payload | STV","players":null},{"server_id":13,"name":"Uncletopia | New York City | 1 | All Maps","name_short":"nyc-1","host":"nyc-1.us.uncletopia.com","port":27015,"enabled":true,"region":"us-east","cc":"us","latitude":40.73061,"longitude":-73.93524,"reserved":0,"last_update":"0001-01-01T00:00:00Z","name_a2s":"Uncletopia | New York City | 1 | All Maps","protocol":17,"map":"koth_highpass","folder":"tf","game":"Team Fortress","app_id":440,"player_count":0,"max_players":24,"Bots":0,"server_type":"Dedicated","server_os":"Linux","password":true,"vac":true,"version":"7742253","steam_id":85568392924469993,"keywords":["cp","nocrits","nodmgspread","uncletopia"],"game_id":440,"stv_port":27016,"stv_name":"Uncletopia | New York City | 1 | All Maps | STV","players":null},{"server_id":14,"name":"Uncletopia | New York City | 2 | All Maps","name_short":"nyc-2","host":"nyc-1.us.uncletopia.com","port":27025,"enabled":true,"region":"us-east","cc":"us","latitude":40.73061,"longitude":-73.93524,"reserved":0,"last_update":"0001-01-01T00:00:00Z","name_a2s":"Uncletopia | New York City | 2 | All Maps","protocol":17,"map":"pl_swiftwater_final1","folder":"tf","game":"Team Fortress","app_id":440,"player_count":24,"max_players":24,"Bots":0,"server_type":"Dedicated","server_os":"Linux","password":true,"vac":true,"version":"7742253","steam_id":85568392924469994,"keywords":["nocrits","nodmgspread","payload","uncletopia"],"game_id":440,"stv_port":27026,"stv_name":"Uncletopia | New York City | 2 | All Maps | STV","players":[{"user_id":736,"name":"HondurasFan9","steam_id":76561199030493166,"connected_time":4392000000000,"state":"active","ping":111},{"user_id":772,"name":"TransInclusiveRadicalMisogynist","steam_id":76561198165208572,"connected_time":591000000000,"state":"active","ping":66},{"user_id":771,"name":"Cliff Gremlin","steam_id":76561198409907417,"connected_time":633000000000,"state":"active","ping":112},{"user_id":769,"name":"kb","steam_id":76561198115914109,"connected_time":900000000000,"state":"active","ping":57},{"user_id":654,"name":"cyan","steam_id":76561198019387213,"connected_time":10545000000000,"state":"active","ping":61},{"user_id":755,"name":"Ronin Grinch","steam_id":76561198041439581,"connected_time":2710000000000,"state":"active","ping":55},{"user_id":748,"name":"Dark Clementine","steam_id":76561199061604280,"connected_time":3362000000000,"state":"active","ping":64},{"user_id":776,"name":"Karma's Camera","steam_id":76561198059385185,"connected_time":455000000000,"state":"active","ping":60},{"user_id":774,"name":"Shmoopy","steam_id":76561198030459152,"connected_time":539000000000,"state":"active","ping":75},{"user_id":735,"name":"Oshel","steam_id":76561198388097417,"connected_time":4401000000000,"state":"active","ping":77},{"user_id":777,"name":"Lucy","steam_id":76561198424603937,"connected_time":447000000000,"state":"active","ping":52},{"user_id":775,"name":"EH666_","steam_id":76561198797048088,"connected_time":536000000000,"state":"active","ping":85},{"user_id":768,"name":"weedcat","steam_id":76561198346054736,"connected_time":984000000000,"state":"active","ping":60},{"user_id":743,"name":"Oni.Exe","steam_id":76561198856806147,"connected_time":4035000000000,"state":"active","ping":64},{"user_id":726,"name":"Horrizan","steam_id":76561197965028480,"connected_time":5946000000000,"state":"active","ping":79},{"user_id":783,"name":"Do Moose go Moo?","steam_id":76561198073550620,"connected_time":20000000000,"state":"active","ping":60},{"user_id":738,"name":"Ballin \u0026 Can't Get Up","steam_id":76561198047394013,"connected_time":4366000000000,"state":"active","ping":61},{"user_id":784,"name":"totalhipstercrusher","steam_id":76561198061738700,"connected_time":8000000000,"state":"active","ping":95},{"user_id":770,"name":"Braamklauw","steam_id":76561198283287697,"connected_time":664000000000,"state":"active","ping":119},{"user_id":649,"name":"Bee_Pirate","steam_id":76561199000599111,"connected_time":11095000000000,"state":"active","ping":77},{"user_id":732,"name":"MYCHEMICALROMANCEENJOYER2","steam_id":76561198278655467,"connected_time":5249000000000,"state":"active","ping":44},{"user_id":753,"name":"tethys","steam_id":76561199022899220,"connected_time":3305000000000,"state":"active","ping":47},{"user_id":780,"name":"aversa","steam_id":76561198840460101,"connected_time":440000000000,"state":"active","ping":55},{"user_id":754,"name":"festive jester","steam_id":76561198079609974,"connected_time":3299000000000,"state":"active","ping":124}]},{"server_id":15,"name":"Uncletopia | New York City | 3 | Stopwatch Beta","name_short":"nyc-3","host":"nyc-1.us.uncletopia.com","port":27035,"enabled":true,"region":"us-east","cc":"us","latitude":40.73061,"longitude":-73.93524,"reserved":0,"last_update":"0001-01-01T00:00:00Z","name_a2s":"Uncletopia | New York City | 3 | Stopwatch Beta","protocol":17,"map":"workshop/pl_vigil_rc9.ugc1266210012","folder":"tf","game":"Team Fortress","app_id":440,"player_count":0,"max_players":24,"Bots":0,"server_type":"Dedicated","server_os":"Linux","password":true,"vac":true,"version":"7742253","steam_id":85568392924742820,"keywords":["nocrits","nodmgspread","payload","uncletopia"],"game_id":440,"stv_port":27036,"stv_name":"Uncletopia | New York City | 3 | Stopwatch Beta | STV","players":null},{"server_id":16,"name":"Uncletopia | New York City | 4 | Community","name_short":"nyc-4","host":"nyc-1.us.uncletopia.com","port":27045,"enabled":true,"region":"us-east","cc":"us","latitude":40.73061,"longitude":-73.93524,"reserved":0,"last_update":"0001-01-01T00:00:00Z","name_a2s":"Uncletopia | New York City | 4 | Community","protocol":17,"map":"workshop/pl_eruption_b9a.ugc2807898013","folder":"tf","game":"Team Fortress","app_id":440,"player_count":3,"max_players":24,"Bots":0,"server_type":"Dedicated","server_os":"Linux","password":true,"vac":true,"version":"7742253","steam_id":85568392924742821,"keywords":["nocrits","nodmgspread","payload","uncletopia"],"game_id":440,"stv_port":27046,"stv_name":"Uncletopia | New York City | 4 | Community | STV","players":[{"user_id":30,"name":"Liudovik7007","steam_id":76561199361354500,"connected_time":2699000000000,"state":"active","ping":57},{"user_id":33,"name":"trubbabubba","steam_id":76561198095118127,"connected_time":1634000000000,"state":"active","ping":86},{"user_id":35,"name":"redcheeseburger","steam_id":76561198059452248,"connected_time":1293000000000,"state":"active","ping":55}]},{"server_id":142,"name":"Uncletopia | São Paulo | 1 | All Maps","name_short":"sao-1","host":"sao-1.br.uncletopia.com","port":27015,"enabled":true,"region":"sa","cc":"br","latitude":-23.533773,"longitude":-46.62529,"reserved":0,"last_update":"0001-01-01T00:00:00Z","name_a2s":"Uncletopia | São Paulo | 1 | All Maps","protocol":17,"map":"koth_lakeside_final","folder":"tf","game":"Team Fortress","app_id":440,"player_count":4,"max_players":24,"Bots":0,"server_type":"Dedicated","server_os":"Linux","password":true,"vac":true,"version":"7742253","steam_id":85568392924469996,"keywords":["cp","nocrits","nodmgspread","uncletopia"],"game_id":440,"stv_port":27016,"stv_name":"Uncletopia | São Paulo | 1 | All Maps | STV","players":[{"user_id":115,"name":"DogePlayer","steam_id":76561198304552173,"connected_time":5871000000000,"state":"active","ping":72},{"user_id":116,"name":"Gerente","steam_id":76561198190567717,"connected_time":5857000000000,"state":"active","ping":57},{"user_id":117,"name":"Gaming","steam_id":76561199072778609,"connected_time":5551000000000,"state":"active","ping":45},{"user_id":119,"name":"Pendrive is Insane","steam_id":76561199427354854,"connected_time":327000000000,"state":"active","ping":42}]},{"server_id":143,"name":"Uncletopia | São Paulo | 2 | All Maps","name_short":"sao-2","host":"sao-2.br.uncletopia.com","port":27015,"enabled":true,"region":"sa","cc":"br","latitude":-23.533773,"longitude":-46.62529,"reserved":0,"last_update":"0001-01-01T00:00:00Z","name_a2s":"Uncletopia | São Paulo | 2 | All Maps","protocol":17,"map":"pl_barnblitz","folder":"tf","game":"Team Fortress","app_id":440,"player_count":0,"max_players":24,"Bots":0,"server_type":"Dedicated","server_os":"Linux","password":true,"vac":true,"version":"7742253","steam_id":85568392924485349,"keywords":["nocrits","nodmgspread","payload","uncletopia"],"game_id":440,"stv_port":27016,"stv_name":"Uncletopia | São Paulo | 2 | All Maps | STV","players":null},{"server_id":7,"name":"Uncletopia | Seattle | 1 | All Maps","name_short":"sea-1","host":"sea-1.us.uncletopia.com","port":27015,"enabled":true,"region":"us-west","cc":"us","latitude":47.608013,"longitude":-122.33517,"reserved":0,"last_update":"0001-01-01T00:00:00Z","name_a2s":"Uncletopia | Seattle | 1 | All Maps","protocol":17,"map":"pl_borneo","folder":"tf","game":"Team Fortress","app_id":440,"player_count":23,"max_players":24,"Bots":0,"server_type":"Dedicated","server_os":"Linux","password":true,"vac":true,"version":"7742253","steam_id":85568392924469997,"keywords":["nocrits","nodmgspread","payload","uncletopia"],"game_id":440,"stv_port":27016,"stv_name":"Uncletopia | Seattle | 1 | All Maps | STV","players":[{"user_id":761,"name":"Greskrendtregk","steam_id":76561197969553142,"connected_time":787000000000,"state":"active","ping":55},{"user_id":764,"name":"Uncle Ulysses","steam_id":76561198043929070,"connected_time":668000000000,"state":"active","ping":71},{"user_id":737,"name":"Csquared","steam_id":76561198169038599,"connected_time":2273000000000,"state":"active","ping":93},{"user_id":773,"name":"en.wikipedia.org/wiki/Nae_Nae","steam_id":76561198418288939,"connected_time":103000000000,"state":"active","ping":67},{"user_id":671,"name":"Mignyanne :3","steam_id":76561198048754056,"connected_time":8716000000000,"state":"active","ping":73},{"user_id":728,"name":"Ayayahuasca","steam_id":76561199002906056,"connected_time":2520000000000,"state":"active","ping":47},{"user_id":747,"name":"Brocklee","steam_id":76561198189330642,"connected_time":1317000000000,"state":"active","ping":82},{"user_id":739,"name":"Snoogs","steam_id":76561198444880931,"connected_time":2135000000000,"state":"active","ping":126},{"user_id":738,"name":"Pneumo.","steam_id":76561197987911883,"connected_time":2220000000000,"state":"active","ping":53},{"user_id":766,"name":"Grim","steam_id":76561198158911860,"connected_time":555000000000,"state":"active","ping":58},{"user_id":743,"name":"SofaKing","steam_id":76561198176691859,"connected_time":1790000000000,"state":"active","ping":53},{"user_id":731,"name":"Sniff","steam_id":76561198010270922,"connected_time":2485000000000,"state":"active","ping":45},{"user_id":718,"name":"spenca","steam_id":76561198025371154,"connected_time":3860000000000,"state":"active","ping":77},{"user_id":772,"name":"Defeat","steam_id":76561198065203818,"connected_time":305000000000,"state":"active","ping":36},{"user_id":685,"name":"jungus","steam_id":76561198129862008,"connected_time":7832000000000,"state":"active","ping":80},{"user_id":768,"name":"Frank","steam_id":76561198126681511,"connected_time":446000000000,"state":"active","ping":82},{"user_id":775,"name":"non_ai","steam_id":76561198270951938,"connected_time":78000000000,"state":"active","ping":118},{"user_id":708,"name":"Fh","steam_id":76561198000903511,"connected_time":4943000000000,"state":"active","ping":71},{"user_id":724,"name":"eraser cat","steam_id":76561199045570463,"connected_time":2543000000000,"state":"active","ping":42},{"user_id":776,"name":"orthotic horse shoes","steam_id":76561198083242298,"connected_time":29000000000,"state":"active","ping":122},{"user_id":712,"name":"mu","steam_id":76561197997530228,"connected_time":4475000000000,"state":"active","ping":64},{"user_id":746,"name":"Arsonist Goose","steam_id":76561198147441830,"connected_time":1426000000000,"state":"active","ping":78}]},{"server_id":119,"name":"Uncletopia | Seattle | 2 | All Maps","name_short":"sea-2","host":"sea-1.us.uncletopia.com","port":27025,"enabled":true,"region":"us-west","cc":"us","latitude":47.608013,"longitude":-122.33517,"reserved":0,"last_update":"0001-01-01T00:00:00Z","name_a2s":"Uncletopia | Seattle | 2 | All Maps","protocol":17,"map":"cp_altitude","folder":"tf","game":"Team Fortress","app_id":440,"player_count":23,"max_players":24,"Bots":0,"server_type":"Dedicated","server_os":"Linux","password":true,"vac":true,"version":"7742253","steam_id":85568392924469998,"keywords":["cp","nocrits","nodmgspread","uncletopia"],"game_id":440,"stv_port":27026,"stv_name":"Uncletopia | Seattle | 2 | All Maps | STV","players":[{"user_id":463,"name":"Optimore","steam_id":76561198047662990,"connected_time":4945000000000,"state":"active","ping":76},{"user_id":528,"name":"American freedom bird","steam_id":76561198366142388,"connected_time":372000000000,"state":"active","ping":82},{"user_id":498,"name":"Schnitz","steam_id":76561198265484253,"connected_time":2421000000000,"state":"active","ping":84},{"user_id":517,"name":"(Edited)","steam_id":76561198201657342,"connected_time":1750000000000,"state":"active","ping":110},{"user_id":532,"name":"Isopentyl Ethanoate","steam_id":76561198116389072,"connected_time":159000000000,"state":"active","ping":63},{"user_id":499,"name":"Yoozer","steam_id":76561198420257694,"connected_time":2410000000000,"state":"active","ping":82},{"user_id":513,"name":"jj874181","steam_id":76561199455124144,"connected_time":1921000000000,"state":"active","ping":96},{"user_id":524,"name":"BEASTxGODx420","steam_id":76561198184814466,"connected_time":898000000000,"state":"active","ping":46},{"user_id":491,"name":"Farmer From The Barnyard","steam_id":76561198138054595,"connected_time":2715000000000,"state":"active","ping":105},{"user_id":508,"name":"BlargBeta","steam_id":76561198042458309,"connected_time":2113000000000,"state":"active","ping":92},{"user_id":495,"name":"weebsaucey","steam_id":76561199310639403,"connected_time":2606000000000,"state":"active","ping":115},{"user_id":501,"name":"gamer gunk","steam_id":76561198858328080,"connected_time":2391000000000,"state":"active","ping":70},{"user_id":520,"name":"NGsterson","steam_id":76561198162108154,"connected_time":1459000000000,"state":"active","ping":51},{"user_id":503,"name":"cornshot","steam_id":76561198043496387,"connected_time":2266000000000,"state":"active","ping":78},{"user_id":530,"name":"Popeyes Employee","steam_id":76561198157341489,"connected_time":301000000000,"state":"active","ping":82},{"user_id":506,"name":"Big Dragon, Thick Wagon","steam_id":76561198040425096,"connected_time":2199000000000,"state":"active","ping":113},{"user_id":507,"name":"Robert M. Slackson, DDS","steam_id":76561197963562896,"connected_time":2160000000000,"state":"active","ping":67},{"user_id":509,"name":"Orion Gobbo","steam_id":76561198033522518,"connected_time":2086000000000,"state":"active","ping":79},{"user_id":533,"name":"All 24 Pokémon movies at once","steam_id":76561198164738311,"connected_time":149000000000,"state":"active","ping":101},{"user_id":512,"name":"Fire_box41238","steam_id":76561199185673650,"connected_time":1946000000000,"state":"active","ping":51},{"user_id":514,"name":"Wormy Getting Coal","steam_id":76561198054539200,"connected_time":1915000000000,"state":"active","ping":54},{"user_id":515,"name":"magunyamu","steam_id":76561198823083676,"connected_time":1839000000000,"state":"active","ping":94},{"user_id":519,"name":"Genius Meme","steam_id":76561198162911254,"connected_time":1703000000000,"state":"active","ping":63}]},{"server_id":406,"name":"Uncletopia | Seattle | 3 | Stopwatch Beta","name_short":"sea-3","host":"sea-1.us.uncletopia.com","port":27035,"enabled":true,"region":"us-west","cc":"us","latitude":47.608013,"longitude":-122.33517,"reserved":0,"last_update":"0001-01-01T00:00:00Z","name_a2s":"Uncletopia | Seattle | 3 | Stopwatch Beta","protocol":17,"map":"workshop/koth_ramjam_rc1.ugc459778887","folder":"tf","game":"Team Fortress","app_id":440,"player_count":20,"max_players":24,"Bots":0,"server_type":"Dedicated","server_os":"Linux","password":true,"vac":true,"version":"7742253","steam_id":85568392924515217,"keywords":["cp","nocrits","nodmgspread","uncletopia"],"game_id":440,"stv_port":27036,"stv_name":"Uncletopia | Seattle | 3 | Stopwatch Beta | STV","players":[{"user_id":169,"name":"Arbiter Soul","steam_id":76561198067798973,"connected_time":2034000000000,"state":"active","ping":93},{"user_id":149,"name":"Grognak","steam_id":76561198044710527,"connected_time":3009000000000,"state":"active","ping":46},{"user_id":184,"name":"Klitz Penischmidt","steam_id":76561198050582941,"connected_time":1169000000000,"state":"active","ping":103},{"user_id":150,"name":"RipHunter77","steam_id":76561198272973014,"connected_time":2996000000000,"state":"active","ping":81},{"user_id":193,"name":"LizardKiller33","steam_id":76561198172310638,"connected_time":964000000000,"state":"active","ping":49},{"user_id":206,"name":"gato","steam_id":76561198097588802,"connected_time":125000000000,"state":"active","ping":150},{"user_id":191,"name":"Chirp","steam_id":76561198968407875,"connected_time":991000000000,"state":"active","ping":46},{"user_id":109,"name":"Van","steam_id":76561198073518712,"connected_time":5754000000000,"state":"active","ping":55},{"user_id":140,"name":"EvenCoinApple","steam_id":76561198987947291,"connected_time":3606000000000,"state":"active","ping":89},{"user_id":207,"name":"Mom","steam_id":76561198207936000,"connected_time":35000000000,"state":"active","ping":83},{"user_id":179,"name":"TinnCann","steam_id":76561198370910909,"connected_time":1314000000000,"state":"active","ping":110},{"user_id":182,"name":"Kronk","steam_id":76561198063092125,"connected_time":1269000000000,"state":"active","ping":121},{"user_id":194,"name":"buford-_-buford","steam_id":76561198348280674,"connected_time":889000000000,"state":"active","ping":85},{"user_id":192,"name":"oil","steam_id":76561198099980149,"connected_time":977000000000,"state":"active","ping":74},{"user_id":195,"name":"Kewlbeyblader","steam_id":76561199102005597,"connected_time":880000000000,"state":"active","ping":63},{"user_id":202,"name":"Tezla","steam_id":76561198091180274,"connected_time":529000000000,"state":"active","ping":46},{"user_id":200,"name":"john kebab sunday","steam_id":76561198026674465,"connected_time":680000000000,"state":"active","ping":110},{"user_id":201,"name":"the bong james","steam_id":76561198010372082,"connected_time":654000000000,"state":"active","ping":125},{"user_id":203,"name":"Frongus","steam_id":76561197979056451,"connected_time":449000000000,"state":"active","ping":47},{"user_id":204,"name":"self sufficient kitten","steam_id":76561197960592612,"connected_time":426000000000,"state":"active","ping":45}]},{"server_id":17,"name":"Uncletopia | San Francisco | 1 | All Maps","name_short":"sfo-1","host":"sfo-1.us.uncletopia.com","port":27015,"enabled":true,"region":"us-west","cc":"us","latitude":37.77397,"longitude":-122.4313,"reserved":0,"last_update":"0001-01-01T00:00:00Z","name_a2s":"Uncletopia | San Francisco | 1 | All Maps","protocol":17,"map":"cp_sunshine","folder":"tf","game":"Team Fortress","app_id":440,"player_count":0,"max_players":24,"Bots":0,"server_type":"Dedicated","server_os":"Linux","password":true,"vac":true,"version":"7742253","steam_id":85568392924469999,"keywords":["cp","nocrits","nodmgspread","uncletopia"],"game_id":440,"stv_port":27016,"stv_name":"Uncletopia | San Francisco | 1 | All Maps | STV","players":null},{"server_id":18,"name":"Uncletopia | San Francisco | 2 | All Maps","name_short":"sfo-2","host":"sfo-1.us.uncletopia.com","port":27025,"enabled":true,"region":"us-west","cc":"us","latitude":37.77397,"longitude":-122.4313,"reserved":0,"last_update":"0001-01-01T00:00:00Z","name_a2s":"Uncletopia | San Francisco | 2 | All Maps","protocol":17,"map":"koth_highpass","folder":"tf","game":"Team Fortress","app_id":440,"player_count":0,"max_players":24,"Bots":0,"server_type":"Dedicated","server_os":"Linux","password":true,"vac":true,"version":"7742253","steam_id":85568392924470000,"keywords":["cp","nocrits","nodmgspread","uncletopia"],"game_id":440,"stv_port":27026,"stv_name":"Uncletopia | San Francisco | 2 | All Maps | STV","players":null},{"server_id":19,"name":"Uncletopia | San Francisco | 3 | Stopwatch Beta","name_short":"sfo-3","host":"sfo-1.us.uncletopia.com","port":27035,"enabled":true,"region":"us-west","cc":"us","latitude":37.77397,"longitude":-122.4313,"reserved":0,"last_update":"0001-01-01T00:00:00Z","name_a2s":"Uncletopia | San Francisco | 3 | Stopwatch Beta","protocol":17,"map":"workshop/pl_vigil_rc9.ugc1266210012","folder":"tf","game":"Team Fortress","app_id":440,"player_count":0,"max_players":24,"Bots":0,"server_type":"Dedicated","server_os":"Linux","password":true,"vac":true,"version":"7742253","steam_id":85568392924742824,"keywords":["nocrits","nodmgspread","payload","uncletopia"],"game_id":440,"stv_port":27036,"stv_name":"Uncletopia | San Francisco | 3 | Stopwatch Beta | STV","players":null},{"server_id":20,"name":"Uncletopia | San Francisco | 4 | Community","name_short":"sfo-4","host":"sfo-1.us.uncletopia.com","port":27045,"enabled":true,"region":"us-west","cc":"us","latitude":37.77397,"longitude":-122.4313,"reserved":0,"last_update":"0001-01-01T00:00:00Z","name_a2s":"Uncletopia | San Francisco | 4 | Community","protocol":17,"map":"workshop/koth_ashville_final.ugc2130459942","folder":"tf","game":"Team Fortress","app_id":440,"player_count":0,"max_players":24,"Bots":0,"server_type":"Dedicated","server_os":"Linux","password":true,"vac":true,"version":"7742253","steam_id":85568392924742826,"keywords":["cp","nocrits","nodmgspread","uncletopia"],"game_id":440,"stv_port":27046,"stv_name":"Uncletopia | San Francisco | 4 | Community | STV","players":null},{"server_id":141,"name":"Uncletopia | Sydney | 1 | All Maps","name_short":"syd-1","host":"syd-1.au.uncletopia.com","port":27015,"enabled":true,"region":"au","cc":"au","latitude":-33.865143,"longitude":151.2099,"reserved":0,"last_update":"0001-01-01T00:00:00Z","name_a2s":"Uncletopia | Sydney | 1 | All Maps","protocol":17,"map":"cp_sunshine","folder":"tf","game":"Team Fortress","app_id":440,"player_count":0,"max_players":24,"Bots":0,"server_type":"Dedicated","server_os":"Linux","password":true,"vac":true,"version":"7742253","steam_id":85568392924470001,"keywords":["cp","nocrits","nodmgspread","uncletopia"],"game_id":440,"stv_port":27016,"stv_name":"Uncletopia | Sydney | 1 | All Maps | STV","players":null},{"server_id":123,"name":"Uncletopia | Sydney | 2 | All Maps","name_short":"syd-2","host":"syd-1.au.uncletopia.com","port":27025,"enabled":true,"region":"au","cc":"au","latitude":-33.865143,"longitude":151.2099,"reserved":0,"last_update":"0001-01-01T00:00:00Z","name_a2s":"Uncletopia | Sydney | 2 | All Maps","protocol":17,"map":"pl_badwater","folder":"tf","game":"Team Fortress","app_id":440,"player_count":21,"max_players":24,"Bots":0,"server_type":"Dedicated","server_os":"Linux","password":true,"vac":true,"version":"7742253","steam_id":85568392924470002,"keywords":["nocrits","nodmgspread","payload","uncletopia"],"game_id":440,"stv_port":27026,"stv_name":"Uncletopia | Sydney | 2 | All Maps | STV","players":[{"user_id":395,"name":"MR Martian","steam_id":76561198157854561,"connected_time":1231000000000,"state":"active","ping":90},{"user_id":394,"name":"Qwerty","steam_id":76561199157092367,"connected_time":1385000000000,"state":"active","ping":74},{"user_id":396,"name":"LeoJoeD","steam_id":76561198161848749,"connected_time":755000000000,"state":"active","ping":37},{"user_id":397,"name":"billabong jim","steam_id":76561198887985240,"connected_time":689000000000,"state":"active","ping":96},{"user_id":417,"name":"the coolest karlos","steam_id":76561198956180767,"connected_time":3000000000,"state":"spawning","ping":49},{"user_id":399,"name":"BilboSwaggins79","steam_id":76561198984446872,"connected_time":552000000000,"state":"active","ping":46},{"user_id":401,"name":"A KFC RatChicken","steam_id":76561198157727540,"connected_time":285000000000,"state":"active","ping":38},{"user_id":402,"name":"Rodman","steam_id":76561198073532116,"connected_time":274000000000,"state":"active","ping":97},{"user_id":415,"name":"Ahealthykneecap","steam_id":76561198155704496,"connected_time":43000000000,"state":"active","ping":77},{"user_id":404,"name":"Mouse Balls","steam_id":76561199037470627,"connected_time":228000000000,"state":"active","ping":100},{"user_id":405,"name":"テクス","steam_id":76561199287509002,"connected_time":162000000000,"state":"active","ping":53},{"user_id":407,"name":"blaze","steam_id":76561198241303512,"connected_time":127000000000,"state":"active","ping":58},{"user_id":408,"name":"gon","steam_id":76561198059906626,"connected_time":127000000000,"state":"active","ping":66},{"user_id":409,"name":"krandlez` (Any/All)","steam_id":76561198044839726,"connected_time":118000000000,"state":"active","ping":43},{"user_id":410,"name":"ziah","steam_id":76561198159375596,"connected_time":105000000000,"state":"active","ping":51},{"user_id":411,"name":"Anisawrus","steam_id":76561198026339834,"connected_time":105000000000,"state":"active","ping":50},{"user_id":412,"name":"April","steam_id":76561198848287180,"connected_time":76000000000,"state":"active","ping":50},{"user_id":413,"name":"uncle fungus","steam_id":76561199089531604,"connected_time":68000000000,"state":"active","ping":51},{"user_id":414,"name":"Commander Vox","steam_id":76561198431191735,"connected_time":58000000000,"state":"active","ping":328},{"user_id":416,"name":"guy","steam_id":76561198019294407,"connected_time":21000000000,"state":"active","ping":46},{"user_id":418,"name":"Entitledhonking","steam_id":76561199138125936,"connected_time":2000000000,"state":"spawning","ping":278}]},{"server_id":395,"name":"Uncletopia | Sydney | 3 | All Maps","name_short":"syd-3","host":"syd-1.au.uncletopia.com","port":27035,"enabled":true,"region":"au","cc":"au","latitude":-33.865143,"longitude":151.2099,"reserved":0,"last_update":"0001-01-01T00:00:00Z","name_a2s":"Uncletopia | Sydney | 3 | All Maps","protocol":17,"map":"koth_viaduct","folder":"tf","game":"Team Fortress","app_id":440,"player_count":0,"max_players":24,"Bots":0,"server_type":"Dedicated","server_os":"Linux","password":true,"vac":true,"version":"7742253","steam_id":85568392925194467,"keywords":["cp","nocrits","nodmgspread","uncletopia"],"game_id":440,"stv_port":27036,"stv_name":"Uncletopia | Sydney | 3 | All Maps | STV","players":null},{"server_id":396,"name":"Uncletopia | Sydney | 4 | All Maps","name_short":"syd-4","host":"syd-1.au.uncletopia.com","port":27045,"enabled":true,"region":"au","cc":"au","latitude":-33.865143,"longitude":151.2099,"reserved":0,"last_update":"0001-01-01T00:00:00Z","name_a2s":"Uncletopia | Sydney | 4 | All Maps","protocol":17,"map":"cp_mountainlab","folder":"tf","game":"Team Fortress","app_id":440,"player_count":0,"max_players":24,"Bots":0,"server_type":"Dedicated","server_os":"Linux","password":true,"vac":true,"version":"7742253","steam_id":85568392925397958,"keywords":["cp","nocrits","nodmgspread","uncletopia"],"game_id":440,"stv_port":27046,"stv_name":"Uncletopia | Sydney | 4 | All Maps | STV","players":null},{"server_id":58,"name":"Uncletopia | Sydney | 5 | Stopwatch Beta","name_short":"syd-5","host":"syd-1.au.uncletopia.com","port":27055,"enabled":true,"region":"au","cc":"au","latitude":-33.865143,"longitude":151.2099,"reserved":0,"last_update":"0001-01-01T00:00:00Z","name_a2s":"Uncletopia | Sydney | 5 | Stopwatch Beta","protocol":17,"map":"workshop/cp_process_f11.ugc2302948105","folder":"tf","game":"Team Fortress","app_id":440,"player_count":0,"max_players":24,"Bots":0,"server_type":"Dedicated","server_os":"Linux","password":true,"vac":true,"version":"7742253","steam_id":85568392925397959,"keywords":["cp","nocrits","nodmgspread","uncletopia"],"game_id":440,"stv_port":27056,"stv_name":"Uncletopia | Sydney | 5 | Stopwatch Beta | STV","players":null},{"server_id":59,"name":"Uncletopia | Sydney | 6 | Community","name_short":"syd-6","host":"syd-1.au.uncletopia.com","port":27065,"enabled":true,"region":"au","cc":"au","latitude":-33.865143,"longitude":151.2099,"reserved":0,"last_update":"0001-01-01T00:00:00Z","name_a2s":"Uncletopia | Sydney | 6 | Community","protocol":17,"map":"workshop/koth_slaughter_rc1.ugc1712845210","folder":"tf","game":"Team Fortress","app_id":440,"player_count":1,"max_players":24,"Bots":0,"server_type":"Dedicated","server_os":"Linux","password":true,"vac":true,"version":"7742253","steam_id":85568392925397960,"keywords":["cp","nocrits","nodmgspread","uncletopia"],"game_id":440,"stv_port":27066,"stv_name":"Uncletopia | Sydney | 6 | Community | STV","players":[{"user_id":35,"name":"FlynnRain","steam_id":76561199229332018,"connected_time":1079000000000,"state":"active","ping":50}]},{"server_id":49,"name":"Uncletopia | Warsaw | 1 | All Maps","name_short":"waw-1","host":"waw-1.pl.uncletopia.com","port":27015,"enabled":true,"region":"eu","cc":"pl","latitude":52.2297,"longitude":21.017532,"reserved":0,"last_update":"0001-01-01T00:00:00Z","name_a2s":"","protocol":0,"map":"","folder":"","game":"","app_id":0,"player_count":0,"max_players":0,"Bots":0,"server_type":"","server_os":"","password":false,"vac":false,"version":"","steam_id":0,"keywords":null,"game_id":0,"stv_port":0,"stv_name":"","players":null},{"server_id":50,"name":"Uncletopia | Warsaw | 2 | All Maps","name_short":"waw-2","host":"waw-1.pl.uncletopia.com","port":27025,"enabled":true,"region":"eu","cc":"pl","latitude":52.2297,"longitude":21.017532,"reserved":0,"last_update":"0001-01-01T00:00:00Z","name_a2s":"Uncletopia | Warsaw | 2 | All Maps","protocol":17,"map":"pl_upward","folder":"tf","game":"Team Fortress","app_id":440,"player_count":0,"max_players":24,"Bots":0,"server_type":"Dedicated","server_os":"Linux","password":true,"vac":true,"version":"7742253","steam_id":85568392925397851,"keywords":["nocrits","nodmgspread","payload","uncletopia"],"game_id":440,"stv_port":27026,"stv_name":"Uncletopia | Warsaw | 2 | All Maps | STV","players":null},{"server_id":51,"name":"Uncletopia | Warsaw | 3 | All Maps","name_short":"waw-3","host":"waw-1.pl.uncletopia.com","port":27035,"enabled":true,"region":"eu","cc":"pl","latitude":52.2297,"longitude":21.017532,"reserved":0,"last_update":"0001-01-01T00:00:00Z","name_a2s":"Uncletopia | Warsaw | 3 | All Maps","protocol":17,"map":"koth_lakeside_final","folder":"tf","game":"Team Fortress","app_id":440,"player_count":0,"max_players":24,"Bots":0,"server_type":"Dedicated","server_os":"Linux","password":true,"vac":true,"version":"7742253","steam_id":85568392925397852,"keywords":["cp","nocrits","nodmgspread","uncletopia"],"game_id":440,"stv_port":27036,"stv_name":"Uncletopia | Warsaw | 3 | All Maps | STV","players":null},{"server_id":52,"name":"Uncletopia | Warsaw | 4 | All Maps","name_short":"waw-4","host":"waw-1.pl.uncletopia.com","port":27045,"enabled":true,"region":"eu","cc":"pl","latitude":52.2297,"longitude":21.017532,"reserved":0,"last_update":"0001-01-01T00:00:00Z","name_a2s":"Uncletopia | Warsaw | 4 | All Maps","protocol":17,"map":"pl_upward","folder":"tf","game":"Team Fortress","app_id":440,"player_count":0,"max_players":24,"Bots":0,"server_type":"Dedicated","server_os":"Linux","password":true,"vac":true,"version":"7742253","steam_id":85568392925397853,"keywords":["nocrits","nodmgspread","payload","uncletopia"],"game_id":440,"stv_port":27046,"stv_name":"Uncletopia | Warsaw | 4 | All Maps | STV","players":null},{"server_id":53,"name":"Uncletopia | Warsaw | 5 | Stopwatch Beta","name_short":"waw-5","host":"waw-1.pl.uncletopia.com","port":27055,"enabled":true,"region":"eu","cc":"pl","latitude":52.2297,"longitude":21.017532,"reserved":0,"last_update":"0001-01-01T00:00:00Z","name_a2s":"Uncletopia | Warsaw | 5 | Stopwatch Beta","protocol":17,"map":"pl_swiftwater_final1","folder":"tf","game":"Team Fortress","app_id":440,"player_count":0,"max_players":24,"Bots":0,"server_type":"Dedicated","server_os":"Linux","password":true,"vac":true,"version":"7742253","steam_id":85568392925397854,"keywords":["nocrits","nodmgspread","payload","uncletopia"],"game_id":440,"stv_port":27056,"stv_name":"Uncletopia | Warsaw | 5 | Stopwatch Beta | STV","players":null},{"server_id":54,"name":"Uncletopia | Warsaw | 6 | Community","name_short":"waw-6","host":"waw-1.pl.uncletopia.com","port":27065,"enabled":true,"region":"eu","cc":"pl","latitude":52.2297,"longitude":21.017532,"reserved":0,"last_update":"0001-01-01T00:00:00Z","name_a2s":"Uncletopia | Warsaw | 6 | Community","protocol":17,"map":"koth_highpass","folder":"tf","game":"Team Fortress","app_id":440,"player_count":0,"max_players":24,"Bots":0,"server_type":"Dedicated","server_os":"Linux","password":true,"vac":true,"version":"7742253","steam_id":85568392925397856,"keywords":["cp","nocrits","nodmgspread","uncletopia"],"game_id":440,"stv_port":27066,"stv_name":"Uncletopia | Warsaw | 6 | Community | STV","players":null}]}