{"status":true,"message":"","result":[{"server_id":9,"name":"Uncletopia | Atlanta | 1 | All Maps","name_short":"atl-1","host":"atl-1.us.uncletopia.com","port":27015,"enabled":true,"region":"us-east","cc":"us","latitude":33.753746,"longitude":-84.38633,"reserved":0,"last_update":"0001-01-01T00:00:00Z","name_a2s":"Uncletopia | Atlanta | 1 | All Maps","protocol":17,"map":"cp_dustbowl","folder":"tf","game":"Team Fortress","app_id":440,"player_count":24,"max_players":24,"Bots":0,"server_type":"Dedicated","server_os":"Linux","password":true,"vac":true,"version":"7882260","steam_id":85568392924469982,"keywords":["cp","nocrits","nodmgspread","uncletopia"],"game_id":440,"stv_port":27016,"stv_name":"Uncletopia | Atlanta | 1 | All Maps | STV","players":[{"user_id":230,"name":"Isopentyl Ethanoate","steam_id":76561198116389072,"connected_time":3946000000000,"state":"active","ping":116},{"user_id":231,"name":"Day","steam_id":76561198346908503,"connected_time":3944000000000,"state":"active","ping":62},{"user_id":264,"name":"Spiderfight1","steam_id":76561199189991528,"connected_time":1436000000000,"state":"active","ping":74},{"user_id":253,"name":"drone 4","steam_id":76561198072124799,"connected_time":2826000000000,"state":"active","ping":98},{"user_id":277,"name":"Kite","steam_id":76561199060915563,"connected_time":628000000000,"state":"active","ping":74},{"user_id":266,"name":"TheRealMud","steam_id":76561198138312993,"connected_time":1014000000000,"state":"active","ping":80},{"user_id":271,"name":"Live at Red Rocks '22","steam_id":76561198007464245,"connected_time":806000000000,"state":"active","ping":60},{"user_id":263,"name":"CHIKN","steam_id":76561198277792665,"connected_time":1536000000000,"state":"active","ping":111},{"user_id":282,"name":"Calcium Deficiency!","steam_id":76561198079508469,"connected_time":580000000000,"state":"active","ping":49},{"user_id":262,"name":"Boop","steam_id":76561198376703875,"connected_time":1820000000000,"state":"active","ping":74},{"user_id":279,"name":"Kasodani Kyouko","steam_id":76561198023178589,"connected_time":622000000000,"state":"active","ping":95},{"user_id":256,"name":"WALRUS","steam_id":76561198927517471,"connected_time":2801000000000,"state":"active","ping":54},{"user_id":289,"name":"ðŸ¤¨","steam_id":76561199365672047,"connected_time":291000000000,"state":"active","ping":72},{"user_id":255,"name":"Hivemind Queen","steam_id":76561198170408057,"connected_time":2815000000000,"state":"active","ping":46},{"user_id":194,"name":"Fever Dreams","steam_id":76561198116614620,"connected_time":6665000000000,"state":"active","ping":71},{"user_id":195,"name":"Antifa Supersoldier","steam_id":76561198141816516,"connected_time":6656000000000,"state":"active","ping":76},{"user_id":284,"name":"drone 2","steam_id":76561198402994885,"connected_time":527000000000,"state":"active","ping":79},{"user_id":252,"name":"drone 1","steam_id":76561198089463603,"connected_time":3246000000000,"state":"active","ping":118},{"user_id":265,"name":"Frajer","steam_id":76561198059129680,"connected_time":1425000000000,"state":"active","ping":83},{"user_id":268,"name":"VulcanProductions","steam_id":76561198164963560,"connected_time":991000000000,"state":"active","ping":77},{"user_id":260,"name":"Yoloisnotded","steam_id":76561198995043589,"connected_time":2154000000000,"state":"active","ping":84},{"user_id":292,"name":"Just PYE","steam_id":76561199439622967,"connected_time":262000000000,"state":"active","ping":72},{"user_id":286,"name":"Gruncle PUXXY's Penitent Pedos","steam_id":76561197995465137,"connected_time":515000000000,"state":"active","ping":69},{"user_id":287,"name":"drone 3","steam_id":76561197998740399,"connected_time":507000000000,"state":"active","ping":67}]},{"server_id":104,"name":"Uncletopia | Atlanta | 2 | All Maps","name_short":"atl-2","host":"atl-1.us.uncletopia.com","port":27025,"enabled":true,"region":"us-east","cc":"us","latitude":33.753746,"longitude":-84.38633,"reserved":0,"last_update":"0001-01-01T00:00:00Z","name_a2s":"Uncletopia | Atlanta | 2 | All Maps","protocol":17,"map":"pl_borneo","folder":"tf","game":"Team Fortress","app_id":440,"player_count":24,"max_players":24,"Bots":0,"server_type":"Dedicated","server_os":"Linux","password":true,"vac":true,"version":"7882260","steam_id":85568392924469983,"keywords":["nocrits","nodmgspread","payload","uncletopia"],"game_id":440,"stv_port":27026,"stv_name":"Uncletopia | Atlanta | 2 | All Maps | STV","players":[{"user_id":255,"name":"gamers aren't real","steam_id":76561198113748347,"connected_time":728000000000,"state":"active","ping":91},{"user_id":197,"name":"1 2 Oatmeal","steam_id":76561197999318398,"connected_time":4160000000000,"state":"active","ping":128},{"user_id":222,"name":"pikapika","steam_id":76561198106844042,"connected_time":2695000000000,"state":"active","ping":75},{"user_id":269,"name":"mepng","steam_id":76561199018758598,"connected_time":337000000000,"state":"active","ping":75},{"user_id":249,"name":"Zawsy","steam_id":76561198345426052,"connected_time":1015000000000,"state":"active","ping":75},{"user_id":257,"name":"KDoomo","steam_id":76561198326462587,"connected_time":594000000000,"state":"active","ping":98},{"user_id":274,"name":"MR. BEEEEEEEEEEAAAAAAAAAST","steam_id":76561198205346760,"connected_time":163000000000,"state":"active","ping":70},{"user_id":225,"name":"s71nk3y / Stinky / Apestoso","steam_id":76561198060954715,"connected_time":2630000000000,"state":"active","ping":60},{"user_id":248,"name":"Night of the Living Boobsâ„¢","steam_id":76561198086447265,"connected_time":1068000000000,"state":"active","ping":100},{"user_id":200,"name":"xFactr","steam_id":76561198129007422,"connected_time":3886000000000,"state":"active","ping":61},{"user_id":258,"name":"Bugc97","steam_id":76561198007662645,"connected_time":548000000000,"state":"active","ping":84},{"user_id":252,"name":"ðŸ’ž Kumi ðŸ’ž","steam_id":76561198057036113,"connected_time":880000000000,"state":"active","ping":78},{"user_id":259,"name":"Dbullet","steam_id":76561198127000982,"connected_time":540000000000,"state":"active","ping":71},{"user_id":260,"name":"boof","steam_id":76561198053901968,"connected_time":527000000000,"state":"active","ping":94},{"user_id":275,"name":"Mops","steam_id":76561198058213741,"connected_time":62000000000,"state":"active","ping":67},{"user_id":263,"name":"wafflehamster2000","steam_id":76561198849161820,"connected_time":451000000000,"state":"active","ping":94},{"user_id":273,"name":"Quietsharp","steam_id":76561198277968438,"connected_time":282000000000,"state":"active","ping":96},{"user_id":265,"name":"noah","steam_id":76561198173310157,"connected_time":389000000000,"state":"active","ping":66},{"user_id":266,"name":"SmugÂ´s","steam_id":76561198071493707,"connected_time":388000000000,"state":"active","ping":121},{"user_id":195,"name":"hightower npc","steam_id":76561198097588802,"connected_time":4296000000000,"state":"active","ping":64},{"user_id":267,"name":"BigDeac","steam_id":76561198091237274,"connected_time":385000000000,"state":"active","ping":83},{"user_id":270,"name":"ungr8t","steam_id":76561198063521721,"connected_time":334000000000,"state":"active","ping":70},{"user_id":271,"name":"Where The F**K I Am?","steam_id":76561197986530028,"connected_time":334000000000,"state":"active","ping":110},{"user_id":272,"name":"Not a Gamer","steam_id":76561198032114539,"connected_time":317000000000,"state":"active","ping":115}]},{"server_id":400,"name":"Uncletopia | Atlanta | 3 | Community","name_short":"atl-3","host":"atl-1.us.uncletopia.com","port":27035,"enabled":true,"region":"us-east","cc":"us","latitude":33.753746,"longitude":-84.38633,"reserved":0,"last_update":"0001-01-01T00:00:00Z","name_a2s":"Uncletopia | Atlanta | 3 | Community","protocol":17,"map":"workshop/cp_croissant_final.ugc458840209","folder":"tf","game":"Team Fortress","app_id":440,"player_count":0,"max_players":24,"Bots":0,"server_type":"Dedicated","server_os":"Linux","password":true,"vac":true,"version":"7882260","steam_id":85568392924515187,"keywords":["cp","nocrits","nodmgspread","uncletopia"],"game_id":440,"stv_port":27036,"stv_name":"Uncletopia | Atlanta | 3 | Community | STV","players":null},{"server_id":401,"name":"Uncletopia | Atlanta | 4 | No Payload","name_short":"atl-4","host":"atl-1.us.uncletopia.com","port":27045,"enabled":true,"region":"us-east","cc":"us","latitude":33.753746,"longitude":-84.38633,"reserved":0,"last_update":"0001-01-01T00:00:00Z","name_a2s":"","protocol":0,"map":"","folder":"","game":"","app_id":0,"player_count":0,"max_players":0,"Bots":0,"server_type":"","server_os":"","password":false,"vac":false,"version":"","steam_id":0,"keywords":null,"game_id":0,"stv_port":0,"stv_name":"","players":null},{"server_id":2,"name":"Uncletopia | Chicago | 1 | All Maps","name_short":"chi-1","host":"chi-1.us.uncletopia.com","port":27015,"enabled":true,"region":"us-central","cc":"us","latitude":41.881832,"longitude":-87.62318,"reserved":0,"last_update":"0001-01-01T00:00:00Z","name_a2s":"Uncletopia | Chicago | 1 | All Maps","protocol":17,"map":"koth_highpass","folder":"tf","game":"Team Fortress","app_id":440,"player_count":0,"max_players":24,"Bots":0,"server_type":"Dedicated","server_os":"Linux","password":true,"vac":true,"version":"7882260","steam_id":85568392924469984,"keywords":["cp","nocrits","nodmgspread","uncletopia"],"game_id":440,"stv_port":27016,"stv_name":"Uncletopia | Chicago | 1 | All Maps | STV","players":null},{"server_id":106,"name":"Uncletopia | Chicago | 2 | All Maps","name_short":"chi-2","host":"chi-1.us.uncletopia.com","port":27025,"enabled":true,"region":"us-central","cc":"us","latitude":41.881832,"longitude":-87.62318,"reserved":0,"last_update":"0001-01-01T00:00:00Z","name_a2s":"Uncletopia | Chicago | 2 | All Maps","protocol":17,"map":"pl_barnblitz","folder":"tf","game":"Team Fortress","app_id":440,"player_count":24,"max_players":24,"Bots":0,"server_type":"Dedicated","server_os":"Linux","password":true,"vac":true,"version":"7882260","steam_id":85568392924469985,"keywords":["nocrits","nodmgspread","payload","uncletopia"],"game_id":440,"stv_port":27026,"stv_name":"Uncletopia | Chicago | 2 | All Maps | STV","players":[{"user_id":246,"name":"Baby gaming","steam_id":76561198867319323,"connected_time":2019000000000,"state":"active","ping":62},{"user_id":252,"name":"bennyboy","steam_id":76561198005546941,"connected_time":1513000000000,"state":"active","ping":97},{"user_id":253,"name":"jfcc","steam_id":76561198043195127,"connected_time":1492000000000,"state":"active","ping":56},{"user_id":278,"name":"eats goatbussy","steam_id":76561199002386599,"connected_time":103000000000,"state":"active","ping":75},{"user_id":251,"name":"|AG| Level","steam_id":76561198063633592,"connected_time":1590000000000,"state":"active","ping":78},{"user_id":254,"name":"ursa","steam_id":76561198025394298,"connected_time":1478000000000,"state":"active","ping":60},{"user_id":260,"name":"Mr. Dickâ„¢","steam_id":76561198047309044,"connected_time":1162000000000,"state":"active","ping":56},{"user_id":211,"name":"AzuriousAlex","steam_id":76561198158026405,"connected_time":6216000000000,"state":"active","ping":81},{"user_id":255,"name":"shi","steam_id":76561198162989738,"connected_time":1472000000000,"state":"active","ping":66},{"user_id":256,"name":"Lilac","steam_id":76561198977523626,"connected_time":1440000000000,"state":"active","ping":76},{"user_id":237,"name":"hashmap","steam_id":76561198043794014,"connected_time":3246000000000,"state":"active","ping":48},{"user_id":261,"name":"Discourse","steam_id":76561198984286678,"connected_time":1149000000000,"state":"active","ping":54},{"user_id":273,"name":"Xii","steam_id":76561198860209947,"connected_time":235000000000,"state":"active","ping":56},{"user_id":275,"name":"Professor Sex","steam_id":76561198396414319,"connected_time":221000000000,"state":"active","ping":104},{"user_id":263,"name":"evdoke","steam_id":76561198044555219,"connected_time":971000000000,"state":"active","ping":56},{"user_id":209,"name":"Questking1","steam_id":76561198328107634,"connected_time":6303000000000,"state":"active","ping":62},{"user_id":276,"name":"segway cop","steam_id":76561198225609936,"connected_time":181000000000,"state":"active","ping":59},{"user_id":264,"name":"fapasaurusrex","steam_id":76561197994951255,"connected_time":882000000000,"state":"active","ping":69},{"user_id":279,"name":"goatbussy","steam_id":76561198402791683,"connected_time":77000000000,"state":"active","ping":98},{"user_id":266,"name":"Josuke HigashiSkata","steam_id":76561198013111648,"connected_time":837000000000,"state":"active","ping":54},{"user_id":280,"name":"Enderkill777","steam_id":76561198876915153,"connected_time":61000000000,"state":"active","ping":103},{"user_id":281,"name":"watchfull","steam_id":76561198433266742,"connected_time":42000000000,"state":"active","ping":219},{"user_id":268,"name":"Krancky","steam_id":76561198037754361,"connected_time":785000000000,"state":"active","ping":86},{"user_id":269,"name":"Myolio_Mayo","steam_id":76561198066223435,"connected_time":765000000000,"state":"active","ping":63}]},{"server_id":402,"name":"Uncletopia | Chicago | 3 | All Maps","name_short":"chi-3","host":"chi-1.us.uncletopia.com","port":27035,"enabled":true,"region":"us-central","cc":"us","latitude":41.881832,"longitude":-87.62318,"reserved":0,"last_update":"0001-01-01T00:00:00Z","name_a2s":"Uncletopia | Chicago | 3 | All Maps","protocol":17,"map":"pl_swiftwater_final1","folder":"tf","game":"Team Fortress","app_id":440,"player_count":24,"max_players":24,"Bots":0,"server_type":"Dedicated","server_os":"Linux","password":true,"vac":true,"version":"7882260","steam_id":85568392924515191,"keywords":["nocrits","nodmgspread","payload","uncletopia"],"game_id":440,"stv_port":27036,"stv_name":"Uncletopia | Chicago | 3 | All Maps | STV","players":[{"user_id":259,"name":"PurplePond","steam_id":76561199062421006,"connected_time":289000000000,"state":"active","ping":53},{"user_id":225,"name":"dweamy","steam_id":76561198119181880,"connected_time":4484000000000,"state":"active","ping":79},{"user_id":261,"name":"Leon","steam_id":76561198950938712,"connected_time":224000000000,"state":"active","ping":84},{"user_id":262,"name":"SuperRPGgamer","steam_id":76561198288017834,"connected_time":61000000000,"state":"active","ping":126},{"user_id":211,"name":"TheCheeseWizard","steam_id":76561198058931315,"connected_time":5189000000000,"state":"active","ping":57},{"user_id":239,"name":"tobexlol","steam_id":76561198803717994,"connected_time":2489000000000,"state":"active","ping":106},{"user_id":213,"name":"Bree Van de Kamp","steam_id":76561197991503576,"connected_time":5051000000000,"state":"active","ping":70},{"user_id":247,"name":"Jel1440","steam_id":76561198179045366,"connected_time":2231000000000,"state":"active","ping":47},{"user_id":224,"name":"californjoe","steam_id":76561197965047795,"connected_time":4530000000000,"state":"active","ping":99},{"user_id":255,"name":"Gabinator32","steam_id":76561198872467183,"connected_time":500000000000,"state":"active","ping":48},{"user_id":240,"name":"Ket","steam_id":76561198241951244,"connected_time":2363000000000,"state":"active","ping":62},{"user_id":260,"name":"beleaguered harlot","steam_id":76561198036884600,"connected_time":280000000000,"state":"active","ping":68},{"user_id":253,"name":"RarestGuide","steam_id":76561198050338923,"connected_time":527000000000,"state":"active","ping":71},{"user_id":236,"name":"StarLy","steam_id":76561198174428289,"connected_time":3477000000000,"state":"active","ping":74},{"user_id":251,"name":"Cdesmondd","steam_id":76561198072774462,"connected_time":1390000000000,"state":"active","ping":65},{"user_id":263,"name":"Five","steam_id":76561198026640473,"connected_time":31000000000,"state":"active","ping":72},{"user_id":193,"name":"Elias","steam_id":76561198106431732,"connected_time":7193000000000,"state":"active","ping":36},{"user_id":244,"name":"JellyRoll Jerry","steam_id":76561198037149474,"connected_time":2261000000000,"state":"active","ping":104},{"user_id":233,"name":"Whargolflorp","steam_id":76561197992030133,"connected_time":3549000000000,"state":"active","ping":45},{"user_id":245,"name":"ZBaldTop","steam_id":76561199396318132,"connected_time":2255000000000,"state":"active","ping":49},{"user_id":257,"name":"soijak enjoier","steam_id":76561198025553902,"connected_time":332000000000,"state":"active","ping":45},{"user_id":174,"name":"Festive Conch Shell","steam_id":76561198042072993,"connected_time":8528000000000,"state":"active","ping":68},{"user_id":178,"name":"Festive Syntax Error","steam_id":76561198101567629,"connected_time":8246000000000,"state":"active","ping":69}]},{"server_id":403,"name":"Uncletopia | Chicago | 4 | All Maps","name_short":"chi-4","host":"chi-1.us.uncletopia.com","port":27045,"enabled":true,"region":"us-central","cc":"us","latitude":41.881832,"longitude":-87.62318,"reserved":0,"last_update":"0001-01-01T00:00:00Z","name_a2s":"Uncletopia | Chicago | 4 | All Maps","protocol":17,"map":"pl_frontier_final","folder":"tf","game":"Team Fortress","app_id":440,"player_count":0,"max_players":24,"Bots":0,"server_type":"Dedicated","server_os":"Linux","password":true,"vac":true,"version":"7882260","steam_id":85568392924515193,"keywords":["nocrits","nodmgspread","payload","uncletopia"],"game_id":440,"stv_port":27046,"stv_name":"Uncletopia | Chicago | 4 | All Maps | STV","players":null},{"server_id":36,"name":"Uncletopia | Chicago | 5 | All Maps","name_short":"chi-5","host":"chi-2.us.uncletopia.com","port":27015,"enabled":true,"region":"us-central","cc":"us","latitude":41.881832,"longitude":-87.62318,"reserved":0,"last_update":"0001-01-01T00:00:00Z","name_a2s":"Uncletopia | Chicago | 5 | All Maps","protocol":17,"map":"pl_swiftwater_final1","folder":"tf","game":"Team Fortress","app_id":440,"player_count":2,"max_players":24,"Bots":0,"server_type":"Dedicated","server_os":"Linux","password":true,"vac":true,"version":"7882260","steam_id":85568392924866362,"keywords":["nocrits","nodmgspread","payload","uncletopia"],"game_id":440,"stv_port":27016,"stv_name":"Uncletopia | Chicago | 5 | All Maps | STV","players":[{"user_id":196,"name":"Hammerhead","steam_id":76561198897122890,"connected_time":7743000000000,"state":"active","ping":50},{"user_id":247,"name":"Goober","steam_id":76561198988863807,"connected_time":3079000000000,"state":"active","ping":72}]},{"server_id":37,"name":"Uncletopia | Chicago | 6 | All Maps","name_short":"chi-6","host":"chi-2.us.uncletopia.com","port":27025,"enabled":true,"region":"us-central","cc":"us","latitude":41.881832,"longitude":-87.62318,"reserved":0,"last_update":"0001-01-01T00:00:00Z","name_a2s":"Uncletopia | Chicago | 6 | All Maps","protocol":17,"map":"pl_pier","folder":"tf","game":"Team Fortress","app_id":440,"player_count":24,"max_players":24,"Bots":0,"server_type":"Dedicated","server_os":"Linux","password":true,"vac":true,"version":"7882260","steam_id":85568392924866363,"keywords":["nocrits","nodmgspread","payload","uncletopia"],"game_id":440,"stv_port":27026,"stv_name":"Uncletopia | Chicago | 6 | All Maps | STV","players":[{"user_id":185,"name":"frank","steam_id":76561198137777483,"connected_time":677000000000,"state":"active","ping":69},{"user_id":147,"name":"Smokey","steam_id":76561198071523590,"connected_time":3876000000000,"state":"active","ping":77},{"user_id":189,"name":"Belloq","steam_id":76561198060279052,"connected_time":330000000000,"state":"active","ping":49},{"user_id":60,"name":"bomb bomb bomb","steam_id":76561198207881077,"connected_time":11781000000000,"state":"active","ping":76},{"user_id":27,"name":"[DEEP] Danmar33","steam_id":76561198056453091,"connected_time":13249000000000,"state":"active","ping":53},{"user_id":182,"name":"natalie","steam_id":76561198388123421,"connected_time":1011000000000,"state":"active","ping":105},{"user_id":186,"name":"3-13","steam_id":76561198063929021,"connected_time":670000000000,"state":"active","ping":69},{"user_id":159,"name":"Chiki","steam_id":76561198063590320,"connected_time":2991000000000,"state":"active","ping":61},{"user_id":177,"name":"k3nny11","steam_id":76561198182533757,"connected_time":1120000000000,"state":"active","ping":70},{"user_id":178,"name":"Ad3ptus","steam_id":76561198272045750,"connected_time":1094000000000,"state":"active","ping":87},{"user_id":179,"name":"God","steam_id":76561198131089513,"connected_time":1042000000000,"state":"active","ping":58},{"user_id":180,"name":"mountain*âœ©â€§â‚ŠËš","steam_id":76561198078395002,"connected_time":1038000000000,"state":"active","ping":60},{"user_id":190,"name":"Yeshie","steam_id":76561198080214214,"connected_time":325000000000,"state":"active","ping":41},{"user_id":134,"name":"Bow_","steam_id":76561198109608134,"connected_time":4576000000000,"state":"active","ping":80},{"user_id":181,"name":"Thrackzog","steam_id":76561198183203745,"connected_time":1031000000000,"state":"active","ping":58},{"user_id":191,"name":"Fantastic","steam_id":76561198079088978,"connected_time":317000000000,"state":"active","ping":46},{"user_id":166,"name":"*****setget","steam_id":76561198118824188,"connected_time":2747000000000,"state":"active","ping":121},{"user_id":122,"name":"Musica Universalis","steam_id":76561198184794174,"connected_time":5970000000000,"state":"active","ping":89},{"user_id":192,"name":"Chinny","steam_id":76561198159950565,"connected_time":288000000000,"state":"active","ping":81},{"user_id":183,"name":"honk","steam_id":76561198050398028,"connected_time":958000000000,"state":"active","ping":53},{"user_id":184,"name":"DoubleTee","steam_id":76561198018980347,"connected_time":955000000000,"state":"active","ping":82},{"user_id":193,"name":"Smittywerbenjager-manjenson","steam_id":76561198067060742,"connected_time":284000000000,"state":"active","ping":69},{"user_id":197,"name":"Menthol Cop","steam_id":76561198179817985,"connected_time":67000000000,"state":"active","ping":89},{"user_id":195,"name":"sbd","steam_id":76561198012945016,"connected_time":244000000000,"state":"active","ping":46}]},{"server_id":38,"name":"Uncletopia | Chicago | 7 | Stopwatch Beta","name_short":"chi-7","host":"chi-2.us.uncletopia.com","port":27035,"enabled":true,"region":"us-central","cc":"us","latitude":41.881832,"longitude":-87.62318,"reserved":0,"last_update":"0001-01-01T00:00:00Z","name_a2s":"Uncletopia | Chicago | 7 | Stopwatch Beta","protocol":17,"map":"pl_swiftwater_final1","folder":"tf","game":"Team Fortress","app_id":440,"player_count":0,"max_players":24,"Bots":0,"server_type":"Dedicated","server_os":"Linux","password":true,"vac":true,"version":"7882260","steam_id":85568392924866364,"keywords":["nocrits","nodmgspread","payload","uncletopia"],"game_id":440,"stv_port":27036,"stv_name":"Uncletopia | Chicago | 7 | Stopwatch Beta | STV","players":null},{"server_id":39,"name":"Uncletopia | Chicago | 8 | Community","name_short":"chi-8","host":"chi-2.us.uncletopia.com","port":27045,"enabled":true,"region":"us-central","cc":"us","latitude":41.881832,"longitude":-87.62318,"reserved":0,"last_update":"0001-01-01T00:00:00Z","name_a2s":"Uncletopia | Chicago | 8 | Community","protocol":17,"map":"workshop/cp_caldera_rc2.ugc2834196889","folder":"tf","game":"Team Fortress","app_id":440,"player_count":0,"max_players":24,"Bots":0,"server_type":"Dedicated","server_os":"Linux","password":true,"vac":true,"version":"7882260","steam_id":85568392924866365,"keywords":["cp","nocrits","nodmgspread","uncletopia"],"game_id":440,"stv_port":27046,"stv_name":"Uncletopia | Chicago | 8 | Community | STV","players":null},{"server_id":8,"name":"Uncletopia | Dallas | 1 | All Maps","name_short":"dal-1","host":"dal-1.us.uncletopia.com","port":27015,"enabled":true,"region":"us-central","cc":"us","latitude":32.779167,"longitude":-96.80889,"reserved":0,"last_update":"0001-01-01T00:00:00Z","name_a2s":"Uncletopia | Dallas | 1 | All Maps","protocol":17,"map":"pl_borneo","folder":"tf","game":"Team Fortress","app_id":440,"player_count":24,"max_players":24,"Bots":0,"server_type":"Dedicated","server_os":"Linux","password":true,"vac":true,"version":"7882260","steam_id":85568392924469986,"keywords":["nocrits","nodmgspread","payload","uncletopia"],"game_id":440,"stv_port":27016,"stv_name":"Uncletopia | Dallas | 1 | All Maps | STV","players":[{"user_id":297,"name":"Jupiter One","steam_id":76561198282752086,"connected_time":603000000000,"state":"active","ping":72},{"user_id":301,"name":"raya","steam_id":76561198051504581,"connected_time":416000000000,"state":"active","ping":43},{"user_id":299,"name":"golia","steam_id":76561198000264266,"connected_time":483000000000,"state":"active","ping":89},{"user_id":269,"name":"substance","steam_id":76561198050103868,"connected_time":2197000000000,"state":"active","ping":114},{"user_id":242,"name":"Salad gaming (real)","steam_id":76561198298310744,"connected_time":3907000000000,"state":"active","ping":120},{"user_id":302,"name":"A Straw","steam_id":76561199367935846,"connected_time":253000000000,"state":"active","ping":72},{"user_id":246,"name":"ArnoldGamingï¾ Ù´","steam_id":76561198040140247,"connected_time":3340000000000,"state":"active","ping":104},{"user_id":244,"name":"elyktsorb","steam_id":76561198158964488,"connected_time":3342000000000,"state":"active","ping":74},{"user_id":266,"name":"Capra-Cabra","steam_id":76561198298837805,"connected_time":2442000000000,"state":"active","ping":100},{"user_id":290,"name":"(TPT) Ghost","steam_id":76561198123262873,"connected_time":1140000000000,"state":"active","ping":93},{"user_id":303,"name":"_Ati","steam_id":76561198339777801,"connected_time":121000000000,"state":"active","ping":84},{"user_id":274,"name":"Kiribachi","steam_id":76561198040877219,"connected_time":2112000000000,"state":"active","ping":76},{"user_id":245,"name":"LooperDooper","steam_id":76561198162464484,"connected_time":3342000000000,"state":"active","ping":98},{"user_id":278,"name":"Hyp3r","steam_id":76561198190188630,"connected_time":1753000000000,"state":"active","ping":53},{"user_id":275,"name":"Isildur","steam_id":76561198125947844,"connected_time":2075000000000,"state":"active","ping":90},{"user_id":238,"name":"Lowvast","steam_id":76561198068455981,"connected_time":4005000000000,"state":"active","ping":68},{"user_id":241,"name":"lokm","steam_id":76561198030374238,"connected_time":3939000000000,"state":"active","ping":89},{"user_id":294,"name":"JaredTheReal","steam_id":76561198372449718,"connected_time":969000000000,"state":"active","ping":50},{"user_id":282,"name":"Project_Counter","steam_id":76561198152786076,"connected_time":1546000000000,"state":"active","ping":54},{"user_id":276,"name":"Master John Thursday","steam_id":76561197987593154,"connected_time":1958000000000,"state":"active","ping":51},{"user_id":291,"name":"Knower","steam_id":76561198036213722,"connected_time":1115000000000,"state":"active","ping":86},{"user_id":281,"name":"Dive(z)","steam_id":76561198140843225,"connected_time":1575000000000,"state":"active","ping":88},{"user_id":300,"name":"cringeass nae-nae girl","steam_id":76561198108753857,"connected_time":470000000000,"state":"active","ping":70},{"user_id":243,"name":"SKW14","steam_id":76561198215425735,"connected_time":3884000000000,"state":"active","ping":75}]},{"server_id":108,"name":"Uncletopia | Dallas | 2 | All Maps","name_short":"dal-2","host":"dal-1.us.uncletopia.com","port":27025,"enabled":true,"region":"us-central","cc":"us","latitude":32.779167,"longitude":-96.80889,"reserved":0,"last_update":"0001-01-01T00:00:00Z","name_a2s":"Uncletopia | Dallas | 2 | All Maps","protocol":17,"map":"cp_gullywash_final1","folder":"tf","game":"Team Fortress","app_id":440,"player_count":20,"max_players":24,"Bots":0,"server_type":"Dedicated","server_os":"Linux","password":true,"vac":true,"version":"7882260","steam_id":85568392924469988,"keywords":["cp","nocrits","nodmgspread","uncletopia"],"game_id":440,"stv_port":27026,"stv_name":"Uncletopia | Dallas | 2 | All Maps | STV","players":[{"user_id":252,"name":"goblino","steam_id":76561198068260422,"connected_time":1049000000000,"state":"active","ping":66},{"user_id":253,"name":"Mr. Positive","steam_id":76561198147725777,"connected_time":1027000000000,"state":"active","ping":81},{"user_id":261,"name":"ShapedSilver","steam_id":76561199073305310,"connected_time":771000000000,"state":"active","ping":45},{"user_id":231,"name":"goat gaming","steam_id":76561198068982017,"connected_time":2096000000000,"state":"active","ping":64},{"user_id":228,"name":"Elm","steam_id":76561198127972568,"connected_time":2146000000000,"state":"active","ping":90},{"user_id":249,"name":"ElZeto","steam_id":76561198252322622,"connected_time":1346000000000,"state":"active","ping":99},{"user_id":262,"name":"pontiff","steam_id":76561198304265800,"connected_time":762000000000,"state":"active","ping":73},{"user_id":236,"name":"bobbymcbobington","steam_id":76561199089411172,"connected_time":1937000000000,"state":"active","ping":120},{"user_id":269,"name":"Magnus","steam_id":76561198061634483,"connected_time":634000000000,"state":"active","ping":71},{"user_id":233,"name":"DiscoTraveler","steam_id":76561199240168088,"connected_time":2058000000000,"state":"active","ping":79},{"user_id":234,"name":"vincy","steam_id":76561198003539813,"connected_time":2037000000000,"state":"active","ping":74},{"user_id":256,"name":"Phantom__Cobra","steam_id":76561198850713083,"connected_time":978000000000,"state":"active","ping":57},{"user_id":212,"name":"blue dream","steam_id":76561198048992536,"connected_time":3912000000000,"state":"active","ping":55},{"user_id":266,"name":"zpalmtree","steam_id":76561198134307620,"connected_time":700000000000,"state":"active","ping":90},{"user_id":260,"name":"themadlad67","steam_id":76561199309554436,"connected_time":833000000000,"state":"active","ping":96},{"user_id":264,"name":"herb","steam_id":76561198185980055,"connected_time":725000000000,"state":"active","ping":75},{"user_id":265,"name":"spids","steam_id":76561198041133528,"connected_time":725000000000,"state":"active","ping":81},{"user_id":268,"name":"turtle","steam_id":76561198112673874,"connected_time":643000000000,"state":"active","ping":87},{"user_id":198,"name":"Manic","steam_id":76561198128149670,"connected_time":5003000000000,"state":"active","ping":46},{"user_id":245,"name":"BLANKE","steam_id":76561198129610485,"connected_time":1655000000000,"state":"active","ping":51}]},{"server_id":5,"name":"Uncletopia | Frankfurt | 1 | All Maps","name_short":"frk-1","host":"frk-1.de.uncletopia.com","port":27015,"enabled":true,"region":"eu","cc":"de","latitude":50.110924,"longitude":8.682127,"reserved":0,"last_update":"0001-01-01T00:00:00Z","name_a2s":"Uncletopia | Frankfurt | 1 | All Maps","protocol":17,"map":"cp_process_final","folder":"tf","game":"Team Fortress","app_id":440,"player_count":0,"max_players":24,"Bots":0,"server_type":"Dedicated","server_os":"Linux","password":true,"vac":true,"version":"7882260","steam_id":85568392924469989,"keywords":["cp","nocrits","nodmgspread","uncletopia"],"game_id":440,"stv_port":27016,"stv_name":"Uncletopia | Frankfurt | 1 | All Maps | STV","players":null},{"server_id":110,"name":"Uncletopia | Frankfurt | 2 | All Maps","name_short":"frk-2","host":"frk-1.de.uncletopia.com","port":27025,"enabled":true,"region":"eu","cc":"de","latitude":50.110924,"longitude":8.682127,"reserved":0,"last_update":"0001-01-01T00:00:00Z","name_a2s":"Uncletopia | Frankfurt | 2 | All Maps","protocol":17,"map":"pl_swiftwater_final1","folder":"tf","game":"Team Fortress","app_id":440,"player_count":0,"max_players":24,"Bots":0,"server_type":"Dedicated","server_os":"Linux","password":true,"vac":true,"version":"7882260","steam_id":85568392924469990,"keywords":["nocrits","nodmgspread","payload","uncletopia"],"game_id":440,"stv_port":27026,"stv_name":"Uncletopia | Frankfurt | 2 | All Maps | STV","players":null},{"server_id":308,"name":"Uncletopia | Frankfurt | 3 | All Maps","name_short":"frk-3","host":"frk-1.de.uncletopia.com","port":27035,"enabled":true,"region":"eu","cc":"de","latitude":50.110924,"longitude":8.682127,"reserved":0,"last_update":"0001-01-01T00:00:00Z","name_a2s":"Uncletopia | Frankfurt | 3 | All Maps","protocol":17,"map":"pl_snowycoast","folder":"tf","game":"Team Fortress","app_id":440,"player_count":0,"max_players":24,"Bots":0,"server_type":"Dedicated","server_os":"Linux","password":true,"vac":true,"version":"7882260","steam_id":85568392924504274,"keywords":["nocrits","nodmgspread","payload","uncletopia"],"game_id":440,"stv_port":27036,"stv_name":"Uncletopia | Frankfurt | 3 | All Maps | STV","players":null},{"server_id":309,"name":"Uncletopia | Frankfurt | 4 | All Maps","name_short":"frk-4","host":"frk-1.de.uncletopia.com","port":27045,"enabled":true,"region":"eu","cc":"de","latitude":50.110924,"longitude":8.682127,"reserved":0,"last_update":"0001-01-01T00:00:00Z","name_a2s":"Uncletopia | Frankfurt | 4 | All Maps","protocol":17,"map":"pl_badwater","folder":"tf","game":"Team Fortress","app_id":440,"player_count":0,"max_players":24,"Bots":0,"server_type":"Dedicated","server_os":"Linux","password":true,"vac":true,"version":"7882260","steam_id":85568392924504275,"keywords":["nocrits","nodmgspread","payload","uncletopia"],"game_id":440,"stv_port":27046,"stv_name":"Uncletopia | Frankfurt | 4 | All Maps | STV","players":null},{"server_id":310,"name":"Uncletopia | Frankfurt | 5 | All Maps","name_short":"frk-5","host":"frk-1.de.uncletopia.com","port":27055,"enabled":true,"region":"eu","cc":"de","latitude":50.110924,"longitude":8.682127,"reserved":0,"last_update":"0001-01-01T00:00:00Z","name_a2s":"Uncletopia | Frankfurt | 5 | All Maps","protocol":17,"map":"cp_mountainlab","folder":"tf","game":"Team Fortress","app_id":440,"player_count":0,"max_players":24,"Bots":0,"server_type":"Dedicated","server_os":"Linux","password":true,"vac":true,"version":"7882260","steam_id":85568392924504277,"keywords":["cp","nocrits","nodmgspread","uncletopia"],"game_id":440,"stv_port":27056,"stv_name":"Uncletopia | Frankfurt | 5 | All Maps | STV","players":null},{"server_id":311,"name":"Uncletopia | Frankfurt | 6 | All Maps","name_short":"frk-6","host":"frk-1.de.uncletopia.com","port":27065,"enabled":true,"region":"eu","cc":"de","latitude":50.110924,"longitude":8.682127,"reserved":0,"last_update":"0001-01-01T00:00:00Z","name_a2s":"Uncletopia | Frankfurt | 6 | All Maps","protocol":17,"map":"pl_badwater","folder":"tf","game":"Team Fortress","app_id":440,"player_count":0,"max_players":24,"Bots":0,"server_type":"Dedicated","server_os":"Linux","password":true,"vac":true,"version":"7882260","steam_id":85568392924504278,"keywords":["nocrits","nodmgspread","payload","uncletopia"],"game_id":440,"stv_port":27066,"stv_name":"Uncletopia | Frankfurt | 6 | All Maps | STV","players":null},{"server_id":23,"name":"Uncletopia | Frankfurt | 7 | Stopwatch Beta","name_short":"frk-7","host":"frk-1.de.uncletopia.com","port":27075,"enabled":true,"region":"eu","cc":"de","latitude":50.110924,"longitude":8.682127,"reserved":0,"last_update":"0001-01-01T00:00:00Z","name_a2s":"Uncletopia | Frankfurt | 7 | Stopwatch Beta","protocol":17,"map":"cp_dustbowl","folder":"tf","game":"Team Fortress","app_id":440,"player_count":0,"max_players":24,"Bots":0,"server_type":"Dedicated","server_os":"Linux","password":true,"vac":true,"version":"7882260","steam_id":85568392924742827,"keywords":["cp","nocrits","nodmgspread","uncletopia"],"game_id":440,"stv_port":27076,"stv_name":"Uncletopia | Frankfurt | 7 | Stopwatch Beta | STV","players":null},{"server_id":24,"name":"Uncletopia | Frankfurt | 8 | Community","name_short":"frk-8","host":"frk-1.de.uncletopia.com","port":27085,"enabled":true,"region":"eu","cc":"de","latitude":50.110924,"longitude":8.682127,"reserved":0,"last_update":"0001-01-01T00:00:00Z","name_a2s":"Uncletopia | Frankfurt | 8 | Community","protocol":17,"map":"koth_cascade","folder":"tf","game":"Team Fortress","app_id":440,"player_count":0,"max_players":24,"Bots":0,"server_type":"Dedicated","server_os":"Linux","password":true,"vac":true,"version":"7882260","steam_id":85568392924742828,"keywords":["cp","nocrits","nodmgspread","uncletopia"],"game_id":440,"stv_port":27086,"stv_name":"Uncletopia | Frankfurt | 8 | Community | STV","players":null},{"server_id":202,"name":"Uncletopia | Hong Kong | 1 | All Maps","name_short":"hgk-1","host":"hgk-1.hk.uncletopia.com","port":27015,"enabled":true,"region":"asia","cc":"hk","latitude":22.302711,"longitude":114.177216,"reserved":0,"last_update":"0001-01-01T00:00:00Z","name_a2s":"Uncletopia | Hong Kong | 1 | All Maps","protocol":17,"map":"pl_swiftwater_final1","folder":"tf","game":"Team Fortress","app_id":440,"player_count":0,"max_players":24,"Bots":0,"server_type":"Dedicated","server_os":"Linux","password":true,"vac":true,"version":"7882260","steam_id":85568392924494504,"keywords":["nocrits","nodmgspread","payload","uncletopia"],"game_id":440,"stv_port":27016,"stv_name":"Uncletopia | Hong Kong | 1 | All Maps | STV","players":null},{"server_id":1,"name":"Uncletopia | Los Angeles | 1 | All Maps","name_short":"lax-1","host":"lax-1.us.uncletopia.com","port":27015,"enabled":true,"region":"us-west","cc":"us","latitude":33.94279,"longitude":-118.41004,"reserved":0,"last_update":"0001-01-01T00:00:00Z","name_a2s":"Uncletopia | Los Angeles | 1 | All Maps","protocol":17,"map":"pl_upward","folder":"tf","game":"Team Fortress","app_id":440,"player_count":19,"max_players":24,"Bots":0,"server_type":"Dedicated","server_os":"Linux","password":true,"vac":true,"version":"7882260","steam_id":85568392924469991,"keywords":["nocrits","nodmgspread","payload","uncletopia"],"game_id":440,"stv_port":27016,"stv_name":"Uncletopia | Los Angeles | 1 | All Maps | STV","players":[{"user_id":218,"name":"Ian","steam_id":76561198159334435,"connected_time":55000000000,"state":"active","ping":170},{"user_id":219,"name":"[S]Mr. X [No Monitor]","steam_id":76561197963746035,"connected_time":10000000000,"state":"active","ping":127},{"user_id":213,"name":"st4rb0y^*","steam_id":76561198337487263,"connected_time":413000000000,"state":"active","ping":46},{"user_id":220,"name":"bottle","steam_id":76561198451812135,"connected_time":8000000000,"state":"spawning","ping":134},{"user_id":212,"name":"â›§Alkahestry","steam_id":76561198109641497,"connected_time":450000000000,"state":"active","ping":36},{"user_id":96,"name":"sleepymutt","steam_id":76561197993595294,"connected_time":11465000000000,"state":"active","ping":47},{"user_id":217,"name":"SmallErection","steam_id":76561198071770147,"connected_time":86000000000,"state":"active","ping":89},{"user_id":209,"name":"yosh.wav","steam_id":76561199127755834,"connected_time":629000000000,"state":"active","ping":74},{"user_id":183,"name":"Shamrock Shake Oct.10.2020 @8pm","steam_id":76561198833313201,"connected_time":3023000000000,"state":"active","ping":80},{"user_id":206,"name":"Logan likes to pee himself","steam_id":76561198029612812,"connected_time":738000000000,"state":"active","ping":57},{"user_id":15,"name":"Platinum","steam_id":76561198052463484,"connected_time":19819000000000,"state":"active","ping":46},{"user_id":214,"name":"sheogorath_the_mad","steam_id":76561198371837556,"connected_time":412000000000,"state":"active","ping":62},{"user_id":199,"name":"catrinaisahuman","steam_id":76561198281355729,"connected_time":1172000000000,"state":"active","ping":79},{"user_id":210,"name":"PillCosby","steam_id":76561199396184696,"connected_time":616000000000,"state":"active","ping":74},{"user_id":201,"name":"Clagger","steam_id":76561198066701092,"connected_time":1028000000000,"state":"active","ping":69},{"user_id":202,"name":"Crustacean Daddy","steam_id":76561198993807061,"connected_time":981000000000,"state":"active","ping":42},{"user_id":215,"name":"L","steam_id":76561198046074220,"connected_time":397000000000,"state":"active","ping":32},{"user_id":184,"name":"squids a Grandmaster","steam_id":76561199200296010,"connected_time":2977000000000,"state":"active","ping":89},{"user_id":211,"name":"Seriously Bruh","steam_id":76561198070408485,"connected_time":609000000000,"state":"active","ping":76}]},{"server_id":112,"name":"Uncletopia | Los Angeles | 2 | All Maps","name_short":"lax-2","host":"lax-1.us.uncletopia.com","port":27025,"enabled":true,"region":"us-west","cc":"us","latitude":33.94279,"longitude":-118.41004,"reserved":0,"last_update":"0001-01-01T00:00:00Z","name_a2s":"Uncletopia | Los Angeles | 2 | All Maps","protocol":17,"map":"cp_yukon_final","folder":"tf","game":"Team Fortress","app_id":440,"player_count":24,"max_players":24,"Bots":0,"server_type":"Dedicated","server_os":"Linux","password":true,"vac":true,"version":"7882260","steam_id":85568392924469992,"keywords":["cp","nocrits","nodmgspread","uncletopia"],"game_id":440,"stv_port":27026,"stv_name":"Uncletopia | Los Angeles | 2 | All Maps | STV","players":[{"user_id":218,"name":"LovingKindne2z","steam_id":76561199064932372,"connected_time":747000000000,"state":"active","ping":45},{"user_id":229,"name":"cilo","steam_id":76561198046163502,"connected_time":127000000000,"state":"active","ping":70},{"user_id":198,"name":"madi's sexy and crunchy pickle\ufffd","steam_id":76561198361917585,"connected_time":2066000000000,"state":"active","ping":56},{"user_id":228,"name":"Technic","steam_id":76561198200302281,"connected_time":140000000000,"state":"active","ping":55},{"user_id":196,"name":"Uluyo","steam_id":76561198065857148,"connected_time":2152000000000,"state":"active","ping":65},{"user_id":170,"name":"gaming ground_atclicker","steam_id":76561198233978116,"connected_time":4178000000000,"state":"active","ping":76},{"user_id":235,"name":"Achy_Blitz","steam_id":76561198090433209,"connected_time":19000000000,"state":"spawning","ping":135},{"user_id":189,"name":"vioxynteris","steam_id":76561198161428666,"connected_time":2778000000000,"state":"active","ping":32},{"user_id":230,"name":"NÃ©miscau","steam_id":76561198257979613,"connected_time":124000000000,"state":"active","ping":90},{"user_id":231,"name":"BBOSensei","steam_id":76561198071548190,"connected_time":122000000000,"state":"active","ping":112},{"user_id":171,"name":"dean of admissions, Cope univer","steam_id":76561198070136627,"connected_time":4169000000000,"state":"active","ping":45},{"user_id":207,"name":"willâ€™s extra large baguette\ufffd\ufffd","steam_id":76561199095395177,"connected_time":1627000000000,"state":"active","ping":100},{"user_id":122,"name":"insane jester","steam_id":76561198079609974,"connected_time":7144000000000,"state":"active","ping":59},{"user_id":217,"name":"John Wick's puppy","steam_id":76561198064662875,"connected_time":1119000000000,"state":"active","ping":54},{"user_id":220,"name":"Hawf","steam_id":76561197998364880,"connected_time":703000000000,"state":"active","ping":133},{"user_id":221,"name":"Genius Meme","steam_id":76561198162911254,"connected_time":701000000000,"state":"active","ping":86},{"user_id":225,"name":"Fudgie Wudgie","steam_id":76561198032622237,"connected_time":455000000000,"state":"active","ping":72},{"user_id":232,"name":"foura","steam_id":76561198181972739,"connected_time":120000000000,"state":"active","ping":92},{"user_id":233,"name":"hemaglox","steam_id":76561198023187633,"connected_time":81000000000,"state":"active","ping":75},{"user_id":236,"name":"FI LO","steam_id":76561198976530881,"connected_time":2000000000,"state":"spawning","ping":27},{"user_id":224,"name":"a chicken","steam_id":76561198313121580,"connected_time":568000000000,"state":"active","ping":62},{"user_id":200,"name":"Snapcaster","steam_id":76561199127590316,"connected_time":2064000000000,"state":"active","ping":59},{"user_id":212,"name":"elmzerolt","steam_id":76561198827730994,"connected_time":1540000000000,"state":"active","ping":45},{"user_id":227,"name":"Grassman (Cc)","steam_id":76561198026488532,"connected_time":162000000000,"state":"active","ping":57}]},{"server_id":324,"name":"Uncletopia | Los Angeles | 3 | All Maps","name_short":"lax-3","host":"lax-1.us.uncletopia.com","port":27035,"enabled":true,"region":"us-west","cc":"us","latitude":33.94279,"longitude":-118.41004,"reserved":0,"last_update":"0001-01-01T00:00:00Z","name_a2s":"Uncletopia | Los Angeles | 3 | All Maps","protocol":17,"map":"cp_dustbowl","folder":"tf","game":"Team Fortress","app_id":440,"player_count":21,"max_players":24,"Bots":0,"server_type":"Dedicated","server_os":"Linux","password":true,"vac":true,"version":"7882260","steam_id":85568392924510198,"keywords":["cp","nocrits","nodmgspread","uncletopia"],"game_id":440,"stv_port":27036,"stv_name":"Uncletopia | Los Angeles | 3 | All Maps | STV","players":[{"user_id":214,"name":"Pyrolimited","steam_id":76561198195455657,"connected_time":1845000000000,"state":"active","ping":70},{"user_id":228,"name":"Da Wizard","steam_id":76561198842482031,"connected_time":1404000000000,"state":"active","ping":99},{"user_id":215,"name":"Walmus","steam_id":76561198111416393,"connected_time":1815000000000,"state":"active","ping":49},{"user_id":232,"name":"TeCon","steam_id":76561198049127236,"connected_time":756000000000,"state":"active","ping":51},{"user_id":237,"name":"Rabblerouser","steam_id":76561198127930963,"connected_time":388000000000,"state":"active","ping":85},{"user_id":245,"name":"SneekiCheekiQbone","steam_id":76561198045077980,"connected_time":126000000000,"state":"active","ping":40},{"user_id":217,"name":"mrhazman","steam_id":76561198040467069,"connected_time":1732000000000,"state":"active","ping":84},{"user_id":236,"name":"Johnson, Navin R.","steam_id":76561197961107982,"connected_time":458000000000,"state":"active","ping":98},{"user_id":44,"name":"Truffles","steam_id":76561198095868800,"connected_time":15442000000000,"state":"active","ping":97},{"user_id":247,"name":"wlfgng","steam_id":76561198316639499,"connected_time":42000000000,"state":"active","ping":35},{"user_id":209,"name":"MonkeyNobody","steam_id":76561199451266605,"connected_time":2092000000000,"state":"active","ping":55},{"user_id":173,"name":"Big Oz","steam_id":76561198970897660,"connected_time":4141000000000,"state":"active","ping":119},{"user_id":157,"name":"Thunder","steam_id":76561198097721532,"connected_time":5509000000000,"state":"active","ping":45},{"user_id":118,"name":"Grand","steam_id":76561198290143399,"connected_time":9335000000000,"state":"active","ping":90},{"user_id":221,"name":"lyraaaaaaaaaaa","steam_id":76561198259331758,"connected_time":1596000000000,"state":"active","ping":100},{"user_id":211,"name":"Noxus","steam_id":76561199009820852,"connected_time":2026000000000,"state":"active","ping":80},{"user_id":178,"name":"Stick","steam_id":76561198001509374,"connected_time":4044000000000,"state":"active","ping":64},{"user_id":244,"name":"unlikelycure","steam_id":76561199174450788,"connected_time":163000000000,"state":"active","ping":123},{"user_id":184,"name":"doozy","steam_id":76561198033106776,"connected_time":3864000000000,"state":"active","ping":116},{"user_id":203,"name":"miguelrodriguez2013","steam_id":76561198269253587,"connected_time":2562000000000,"state":"active","ping":59},{"user_id":226,"name":"HeroOfTime","steam_id":76561199096218001,"connected_time":1504000000000,"state":"active","ping":51}]},{"server_id":25,"name":"Uncletopia | Los Angeles | 4 | Stopwatch Beta","name_short":"lax-4","host":"lax-1.us.uncletopia.com","port":27045,"enabled":true,"region":"us-west","cc":"us","latitude":33.94279,"longitude":-118.41004,"reserved":0,"last_update":"0001-01-01T00:00:00Z","name_a2s":"Uncletopia | Los Angeles | 4 | Stopwatch Beta","protocol":17,"map":"koth_lakeside_final","folder":"tf","game":"Team Fortress","app_id":440,"player_count":0,"max_players":24,"Bots":0,"server_type":"Dedicated","server_os":"Linux","password":true,"vac":true,"version":"7882260","steam_id":85568392924510199,"keywords":["cp","nocrits","nodmgspread","uncletopia"],"game_id":440,"stv_port":27046,"stv_name":"Uncletopia | Los Angeles | 4 | Stopwatch Beta | STV","players":null},{"server_id":11,"name":"Uncletopia | London | 1 | All Maps","name_short":"lon-1","host":"lon-1.uk.uncletopia.com","port":27015,"enabled":true,"region":"eu","cc":"gb","latitude":51.509865,"longitude":-0.118092,"reserved":0,"last_update":"0001-01-01T00:00:00Z","name_a2s":"Uncletopia | London | 1 | All Maps","protocol":17,"map":"pl_badwater","folder":"tf","game":"Team Fortress","app_id":440,"player_count":4,"max_players":24,"Bots":0,"server_type":"Dedicated","server_os":"Linux","password":true,"vac":true,"version":"7882260","steam_id":85568392924367362,"keywords":["nocrits","nodmgspread","payload","uncletopia"],"game_id":440,"stv_port":27016,"stv_name":"Uncletopia | London | 1 | All Maps | STV","players":[{"user_id":3,"name":"ultra lox","steam_id":76561199427318825,"connected_time":1518000000000,"state":"active","ping":163},{"user_id":4,"name":"shotgunplayer2004","steam_id":76561198382281653,"connected_time":1513000000000,"state":"active","ping":75},{"user_id":9,"name":"Rui","steam_id":76561198263735498,"connected_time":797000000000,"state":"active","ping":91},{"user_id":7,"name":"Destinys","steam_id":76561198056132894,"connected_time":862000000000,"state":"active","ping":70}]},{"server_id":114,"name":"Uncletopia | London | 2 | All Maps","name_short":"lon-2","host":"lon-1.uk.uncletopia.com","port":27025,"enabled":true,"region":"eu","cc":"gb","latitude":51.509865,"longitude":-0.118092,"reserved":0,"last_update":"0001-01-01T00:00:00Z","name_a2s":"Uncletopia | London | 2 | All Maps","protocol":17,"map":"pl_swiftwater_final1","folder":"tf","game":"Team Fortress","app_id":440,"player_count":0,"max_players":24,"Bots":0,"server_type":"Dedicated","server_os":"Linux","password":true,"vac":true,"version":"7882260","steam_id":85568392924470941,"keywords":["nocrits","nodmgspread","payload","uncletopia"],"game_id":440,"stv_port":27026,"stv_name":"Uncletopia | London | 2 | All Maps | STV","players":null},{"server_id":320,"name":"Uncletopia | London | 3 | All Maps","name_short":"lon-3","host":"lon-1.uk.uncletopia.com","port":27035,"enabled":true,"region":"eu","cc":"gb","latitude":51.509865,"longitude":-0.118092,"reserved":0,"last_update":"0001-01-01T00:00:00Z","name_a2s":"Uncletopia | London | 3 | All Maps","protocol":17,"map":"koth_highpass","folder":"tf","game":"Team Fortress","app_id":440,"player_count":0,"max_players":24,"Bots":0,"server_type":"Dedicated","server_os":"Linux","password":true,"vac":true,"version":"7882260","steam_id":85568392924510192,"keywords":["cp","nocrits","nodmgspread","uncletopia"],"game_id":440,"stv_port":27036,"stv_name":"Uncletopia | London | 3 | All Maps | STV","players":null},{"server_id":321,"name":"Uncletopia | London | 4 | All Maps","name_short":"lon-4","host":"lon-1.uk.uncletopia.com","port":27045,"enabled":true,"region":"eu","cc":"gb","latitude":51.509865,"longitude":-0.118092,"reserved":0,"last_update":"0001-01-01T00:00:00Z","name_a2s":"Uncletopia | London | 4 | All Maps","protocol":17,"map":"pl_upward","folder":"tf","game":"Team Fortress","app_id":440,"player_count":0,"max_players":24,"Bots":0,"server_type":"Dedicated","server_os":"Linux","password":true,"vac":true,"version":"7882260","steam_id":85568392924510193,"keywords":["nocrits","nodmgspread","payload","uncletopia"],"game_id":440,"stv_port":27046,"stv_name":"Uncletopia | London | 4 | All Maps | STV","players":null},{"server_id":21,"name":"Uncletopia | London | 5 | All Maps","name_short":"lon-5","host":"lon-1.uk.uncletopia.com","port":27055,"enabled":true,"region":"eu","cc":"gb","latitude":51.509865,"longitude":-0.118092,"reserved":0,"last_update":"0001-01-01T00:00:00Z","name_a2s":"Uncletopia | London | 5 | All Maps","protocol":17,"map":"pl_frontier_final","folder":"tf","game":"Team Fortress","app_id":440,"player_count":0,"max_players":24,"Bots":0,"server_type":"Dedicated","server_os":"Linux","password":true,"vac":true,"version":"7882260","steam_id":85568392924742829,"keywords":["nocrits","nodmgspread","payload","uncletopia"],"game_id":440,"stv_port":27056,"stv_name":"Uncletopia | London | 5 | All Maps | STV","players":null},{"server_id":22,"name":"Uncletopia | London | 6 | All Maps","name_short":"lon-6","host":"lon-1.uk.uncletopia.com","port":27065,"enabled":true,"region":"eu","cc":"gb","latitude":51.509865,"longitude":-0.118092,"reserved":0,"last_update":"0001-01-01T00:00:00Z","name_a2s":"Uncletopia | London | 6 | All Maps","protocol":17,"map":"cp_altitude","folder":"tf","game":"Team Fortress","app_id":440,"player_count":0,"max_players":24,"Bots":0,"server_type":"Dedicated","server_os":"Linux","password":true,"vac":true,"version":"7882260","steam_id":85568392924742830,"keywords":["cp","nocrits","nodmgspread","uncletopia"],"game_id":440,"stv_port":27066,"stv_name":"Uncletopia | London | 6 | All Maps | STV","players":null},{"server_id":40,"name":"Uncletopia | London | 7 | No Payload","name_short":"lon-7","host":"lon-1.uk.uncletopia.com","port":27075,"enabled":true,"region":"eu","cc":"gb","latitude":51.509865,"longitude":-0.118092,"reserved":0,"last_update":"0001-01-01T00:00:00Z","name_a2s":"Uncletopia | London | 7 | No Payload","protocol":17,"map":"pl_pier","folder":"tf","game":"Team Fortress","app_id":440,"player_count":0,"max_players":24,"Bots":0,"server_type":"Dedicated","server_os":"Linux","password":true,"vac":true,"version":"7882260","steam_id":85568392924964314,"keywords":["nocrits","nodmgspread","payload","uncletopia"],"game_id":440,"stv_port":27076,"stv_name":"Uncletopia | London | 7 | No Payload | STV","players":null},{"server_id":41,"name":"Uncletopia | London | 8 | Community","name_short":"lon-8","host":"lon-1.uk.uncletopia.com","port":27085,"enabled":true,"region":"eu","cc":"gb","latitude":51.509865,"longitude":-0.118092,"reserved":0,"last_update":"0001-01-01T00:00:00Z","name_a2s":"Uncletopia | London | 8 | Community","protocol":17,"map":"pl_swiftwater_final1","folder":"tf","game":"Team Fortress","app_id":440,"player_count":0,"max_players":24,"Bots":0,"server_type":"Dedicated","server_os":"Linux","password":true,"vac":true,"version":"7882260","steam_id":85568392924964315,"keywords":["nocrits","nodmgspread","payload","uncletopia"],"game_id":440,"stv_port":27086,"stv_name":"Uncletopia | London | 8 | Community | STV","players":null},{"server_id":300,"name":"Uncletopia | MontrÃ©al | 1 | All Maps","name_short":"mtl-1","host":"mtl-1.ca.uncletopia.com","port":27015,"enabled":true,"region":"us-east","cc":"ca","latitude":45.50889,"longitude":-73.56167,"reserved":0,"last_update":"0001-01-01T00:00:00Z","name_a2s":"Uncletopia | MontrÃ©al | 1 | All Maps","protocol":17,"map":"koth_viaduct","folder":"tf","game":"Team Fortress","app_id":440,"player_count":0,"max_players":24,"Bots":0,"server_type":"Dedicated","server_os":"Linux","password":true,"vac":true,"version":"7882260","steam_id":85568392924500087,"keywords":["cp","nocrits","nodmgspread","uncletopia"],"game_id":440,"stv_port":27016,"stv_name":"Uncletopia | MontrÃ©al | 1 | All Maps | STV","players":null},{"server_id":301,"name":"Uncletopia | MontrÃ©al | 2 | All Maps","name_short":"mtl-2","host":"mtl-1.ca.uncletopia.com","port":27025,"enabled":true,"region":"us-east","cc":"ca","latitude":45.50889,"longitude":-73.56167,"reserved":0,"last_update":"0001-01-01T00:00:00Z","name_a2s":"Uncletopia | MontrÃ©al | 2 | All Maps","protocol":17,"map":"koth_cascade","folder":"tf","game":"Team Fortress","app_id":440,"player_count":0,"max_players":24,"Bots":0,"server_type":"Dedicated","server_os":"Linux","password":true,"vac":true,"version":"7882260","steam_id":85568392924500088,"keywords":["cp","nocrits","nodmgspread","uncletopia"],"game_id":440,"stv_port":27026,"stv_name":"Uncletopia | MontrÃ©al | 2 | All Maps | STV","players":null},{"server_id":302,"name":"Uncletopia | MontrÃ©al | 3 | All Maps","name_short":"mtl-3","host":"mtl-1.ca.uncletopia.com","port":27035,"enabled":true,"region":"us-east","cc":"ca","latitude":45.50889,"longitude":-73.56167,"reserved":0,"last_update":"0001-01-01T00:00:00Z","name_a2s":"Uncletopia | MontrÃ©al | 3 | All Maps","protocol":17,"map":"cp_dustbowl","folder":"tf","game":"Team Fortress","app_id":440,"player_count":2,"max_players":24,"Bots":0,"server_type":"Dedicated","server_os":"Linux","password":true,"vac":true,"version":"7882260","steam_id":85568392924500089,"keywords":["cp","nocrits","nodmgspread","uncletopia"],"game_id":440,"stv_port":27036,"stv_name":"Uncletopia | MontrÃ©al | 3 | All Maps | STV","players":[{"user_id":268,"name":"TheNeonSpark","steam_id":76561199147939995,"connected_time":323000000000,"state":"active","ping":60},{"user_id":269,"name":"KARMA888","steam_id":76561199251193959,"connected_time":159000000000,"state":"spawning","ping":409}]},{"server_id":303,"name":"Uncletopia | MontrÃ©al | 4 | No Payload","name_short":"mtl-4","host":"mtl-1.ca.uncletopia.com","port":27045,"enabled":true,"region":"us-east","cc":"ca","latitude":45.50889,"longitude":-73.56167,"reserved":0,"last_update":"0001-01-01T00:00:00Z","name_a2s":"Uncletopia | MontrÃ©al | 4 | No Payload","protocol":17,"map":"cp_altitude","folder":"tf","game":"Team Fortress","app_id":440,"player_count":0,"max_players":24,"Bots":0,"server_type":"Dedicated","server_os":"Linux","password":true,"vac":true,"version":"7882260","steam_id":85568392924500090,"keywords":["cp","nocrits","nodmgspread","uncletopia"],"game_id":440,"stv_port":27046,"stv_name":"Uncletopia | MontrÃ©al | 4 | No Payload | STV","players":null},{"server_id":13,"name":"Uncletopia | New York City | 1 | All Maps","name_short":"nyc-1","host":"nyc-1.us.uncletopia.com","port":27015,"enabled":true,"region":"us-east","cc":"us","latitude":40.73061,"longitude":-73.93524,"reserved":0,"last_update":"0001-01-01T00:00:00Z","name_a2s":"Uncletopia | New York City | 1 | All Maps","protocol":17,"map":"pl_barnblitz","folder":"tf","game":"Team Fortress","app_id":440,"player_count":18,"max_players":24,"Bots":0,"server_type":"Dedicated","server_os":"Linux","password":true,"vac":true,"version":"7882260","steam_id":85568392924469993,"keywords":["nocrits","nodmgspread","payload","uncletopia"],"game_id":440,"stv_port":27016,"stv_name":"Uncletopia | New York City | 1 | All Maps | STV","players":[{"user_id":268,"name":"dig","steam_id":76561198050061475,"connected_time":4402000000000,"state":"active","ping":58},{"user_id":290,"name":"blythe","steam_id":76561198066812433,"connected_time":1852000000000,"state":"active","ping":111},{"user_id":295,"name":"Bzamo","steam_id":76561198039883392,"connected_time":1417000000000,"state":"active","ping":51},{"user_id":214,"name":"stella","steam_id":76561197993839636,"connected_time":7601000000000,"state":"active","ping":182},{"user_id":241,"name":"Marshall","steam_id":76561198042570322,"connected_time":5727000000000,"state":"active","ping":77},{"user_id":299,"name":"IMYS","steam_id":76561198096223200,"connected_time":759000000000,"state":"active","ping":44},{"user_id":288,"name":"on1on (fried)","steam_id":76561197995304137,"connected_time":2094000000000,"state":"active","ping":163},{"user_id":278,"name":"mak","steam_id":76561198071535971,"connected_time":3328000000000,"state":"spawning","ping":108},{"user_id":286,"name":"Ludcmorais","steam_id":76561198359217809,"connected_time":2510000000000,"state":"spawning","ping":160},{"user_id":267,"name":"the Sourdough c0re","steam_id":76561198796569026,"connected_time":4531000000000,"state":"spawning","ping":514},{"user_id":287,"name":"Voodo133","steam_id":76561198042670351,"connected_time":2330000000000,"state":"active","ping":87},{"user_id":261,"name":"Makina","steam_id":76561198057475567,"connected_time":4909000000000,"state":"active","ping":132},{"user_id":297,"name":"Aireoh","steam_id":76561198097178603,"connected_time":1195000000000,"state":"active","ping":52},{"user_id":285,"name":"SpecialForce19","steam_id":76561198120974644,"connected_time":2657000000000,"state":"active","ping":55},{"user_id":249,"name":"Pizza","steam_id":76561198118748364,"connected_time":5455000000000,"state":"active","ping":75},{"user_id":298,"name":"monke","steam_id":76561198308289194,"connected_time":920000000000,"state":"spawning","ping":68},{"user_id":275,"name":"Linguine","steam_id":76561198097858825,"connected_time":3503000000000,"state":"spawning","ping":97},{"user_id":276,"name":"gnomer","steam_id":76561198046926728,"connected_time":3493000000000,"state":"spawning","ping":111}]},{"server_id":14,"name":"Uncletopia | New York City | 2 | All Maps","name_short":"nyc-2","host":"nyc-1.us.uncletopia.com","port":27025,"enabled":true,"region":"us-east","cc":"us","latitude":40.73061,"longitude":-73.93524,"reserved":0,"last_update":"0001-01-01T00:00:00Z","name_a2s":"Uncletopia | New York City | 2 | All Maps","protocol":17,"map":"pl_pier","folder":"tf","game":"Team Fortress","app_id":440,"player_count":24,"max_players":24,"Bots":0,"server_type":"Dedicated","server_os":"Linux","password":true,"vac":true,"version":"7882260","steam_id":85568392924469994,"keywords":["nocrits","nodmgspread","payload","uncletopia"],"game_id":440,"stv_port":27026,"stv_name":"Uncletopia | New York City | 2 | All Maps | STV","players":[{"user_id":212,"name":"Chin","steam_id":76561198247426906,"connected_time":2429000000000,"state":"active","ping":60},{"user_id":247,"name":"Jaquio","steam_id":76561198143770288,"connected_time":322000000000,"state":"active","ping":89},{"user_id":245,"name":"Ekuseebia","steam_id":76561198037504112,"connected_time":515000000000,"state":"active","ping":87},{"user_id":242,"name":"HammerHead","steam_id":76561197975668646,"connected_time":794000000000,"state":"active","ping":94},{"user_id":246,"name":"Rix FPV","steam_id":76561198299320893,"connected_time":381000000000,"state":"active","ping":89},{"user_id":217,"name":"teaf","steam_id":76561198406252824,"connected_time":2246000000000,"state":"active","ping":114},{"user_id":185,"name":"Vintage TV","steam_id":76561198800334545,"connected_time":5349000000000,"state":"active","ping":102},{"user_id":216,"name":"Bottom-Fragging Dog Witch","steam_id":76561198103496593,"connected_time":2275000000000,"state":"active","ping":61},{"user_id":188,"name":"Horrizan","steam_id":76561197965028480,"connected_time":5264000000000,"state":"active","ping":87},{"user_id":214,"name":"KBoneski â™¡","steam_id":76561198307409065,"connected_time":2405000000000,"state":"active","ping":124},{"user_id":230,"name":"nori_420 (mute)","steam_id":76561199117134203,"connected_time":1498000000000,"state":"active","ping":126},{"user_id":219,"name":"ScrockCat","steam_id":76561198012882208,"connected_time":2234000000000,"state":"active","ping":121},{"user_id":235,"name":"Rat King (Deposed)","steam_id":76561198271907916,"connected_time":1236000000000,"state":"active","ping":46},{"user_id":244,"name":"Major_Pippy","steam_id":76561198004482878,"connected_time":529000000000,"state":"active","ping":120},{"user_id":209,"name":"L_J","steam_id":76561198331514963,"connected_time":2877000000000,"state":"active","ping":52},{"user_id":238,"name":"dw","steam_id":76561198418306144,"connected_time":1052000000000,"state":"active","ping":64},{"user_id":237,"name":"Gary","steam_id":76561198133309753,"connected_time":1121000000000,"state":"active","ping":56},{"user_id":205,"name":"goldgardian","steam_id":76561198319471339,"connected_time":3249000000000,"state":"active","ping":93},{"user_id":249,"name":"Shitty Trolldier","steam_id":76561198148724163,"connected_time":48000000000,"state":"active","ping":115},{"user_id":227,"name":"RagingRoosevelt","steam_id":76561197985483153,"connected_time":1579000000000,"state":"active","ping":115},{"user_id":228,"name":"noblehallett","steam_id":76561197990994280,"connected_time":1574000000000,"state":"active","ping":127},{"user_id":243,"name":"soupy","steam_id":76561197974283797,"connected_time":548000000000,"state":"active","ping":61},{"user_id":231,"name":"ilikecorn78","steam_id":76561198838784551,"connected_time":1496000000000,"state":"active","ping":82},{"user_id":240,"name":"Terror-Billy #SaveTF2","steam_id":76561198328141870,"connected_time":858000000000,"state":"active","ping":71}]},{"server_id":15,"name":"Uncletopia | New York City | 3 | Stopwatch Beta","name_short":"nyc-3","host":"nyc-1.us.uncletopia.com","port":27035,"enabled":true,"region":"us-east","cc":"us","latitude":40.73061,"longitude":-73.93524,"reserved":0,"last_update":"0001-01-01T00:00:00Z","name_a2s":"Uncletopia | New York City | 3 | Stopwatch Beta","protocol":17,"map":"workshop/koth_ramjam_rc1.ugc459778887","folder":"tf","game":"Team Fortress","app_id":440,"player_count":0,"max_players":24,"Bots":0,"server_type":"Dedicated","server_os":"Linux","password":true,"vac":true,"version":"7882260","steam_id":85568392924742820,"keywords":["cp","nocrits","nodmgspread","uncletopia"],"game_id":440,"stv_port":27036,"stv_name":"Uncletopia | New York City | 3 | Stopwatch Beta | STV","players":null},{"server_id":16,"name":"Uncletopia | New York City | 4 | Community","name_short":"nyc-4","host":"nyc-1.us.uncletopia.com","port":27045,"enabled":true,"region":"us-east","cc":"us","latitude":40.73061,"longitude":-73.93524,"reserved":0,"last_update":"0001-01-01T00:00:00Z","name_a2s":"Uncletopia | New York City | 4 | Community","protocol":17,"map":"workshop/cp_indulge.ugc528106646","folder":"tf","game":"Team Fortress","app_id":440,"player_count":0,"max_players":24,"Bots":0,"server_type":"Dedicated","server_os":"Linux","password":true,"vac":true,"version":"7882260","steam_id":85568392924742821,"keywords":["cp","nocrits","nodmgspread","uncletopia"],"game_id":440,"stv_port":27046,"stv_name":"Uncletopia | New York City | 4 | Community | STV","players":null},{"server_id":142,"name":"Uncletopia | SÃ£o Paulo | 1 | All Maps","name_short":"sao-1","host":"sao-1.br.uncletopia.com","port":27015,"enabled":true,"region":"sa","cc":"br","latitude":-23.533773,"longitude":-46.62529,"reserved":0,"last_update":"0001-01-01T00:00:00Z","name_a2s":"Uncletopia | SÃ£o Paulo | 1 | All Maps","protocol":17,"map":"koth_lakeside_final","folder":"tf","game":"Team Fortress","app_id":440,"player_count":0,"max_players":24,"Bots":0,"server_type":"Dedicated","server_os":"Linux","password":true,"vac":true,"version":"7882260","steam_id":85568392924469996,"keywords":["cp","nocrits","nodmgspread","uncletopia"],"game_id":440,"stv_port":27016,"stv_name":"Uncletopia | SÃ£o Paulo | 1 | All Maps | STV","players":null},{"server_id":143,"name":"Uncletopia | SÃ£o Paulo | 2 | All Maps","name_short":"sao-2","host":"sao-2.br.uncletopia.com","port":27015,"enabled":true,"region":"sa","cc":"br","latitude":-23.533773,"longitude":-46.62529,"reserved":0,"last_update":"0001-01-01T00:00:00Z","name_a2s":"Uncletopia | SÃ£o Paulo | 2 | All Maps","protocol":17,"map":"pl_pier","folder":"tf","game":"Team Fortress","app_id":440,"player_count":0,"max_players":24,"Bots":0,"server_type":"Dedicated","server_os":"Linux","password":true,"vac":true,"version":"7882260","steam_id":85568392924485349,"keywords":["nocrits","nodmgspread","payload","uncletopia"],"game_id":440,"stv_port":27016,"stv_name":"Uncletopia | SÃ£o Paulo | 2 | All Maps | STV","players":null},{"server_id":7,"name":"Uncletopia | Seattle | 1 | All Maps","name_short":"sea-1","host":"sea-1.us.uncletopia.com","port":27015,"enabled":true,"region":"us-west","cc":"us","latitude":47.608013,"longitude":-122.33517,"reserved":0,"last_update":"0001-01-01T00:00:00Z","name_a2s":"Uncletopia | Seattle | 1 | All Maps","protocol":17,"map":"cp_process_final","folder":"tf","game":"Team Fortress","app_id":440,"player_count":24,"max_players":24,"Bots":0,"server_type":"Dedicated","server_os":"Linux","password":true,"vac":true,"version":"7882260","steam_id":85568392924469997,"keywords":["cp","nocrits","nodmgspread","uncletopia"],"game_id":440,"stv_port":27016,"stv_name":"Uncletopia | Seattle | 1 | All Maps | STV","players":[{"user_id":247,"name":"mango cafe","steam_id":76561198142328193,"connected_time":3861000000000,"state":"active","ping":51},{"user_id":178,"name":"enzo gorlami","steam_id":76561198107941274,"connected_time":8479000000000,"state":"active","ping":76},{"user_id":263,"name":"Rain","steam_id":76561198065612273,"connected_time":2389000000000,"state":"active","ping":48},{"user_id":266,"name":"Bloom","steam_id":76561199065581662,"connected_time":1287000000000,"state":"active","ping":101},{"user_id":267,"name":"iphone 7 plus","steam_id":76561198335836405,"connected_time":1287000000000,"state":"active","ping":73},{"user_id":274,"name":"JustVinn","steam_id":76561198076181564,"connected_time":174000000000,"state":"active","ping":85},{"user_id":146,"name":"The King of Piss World","steam_id":76561198082806956,"connected_time":11088000000000,"state":"active","ping":123},{"user_id":269,"name":"rat gets the cheese","steam_id":76561198031234032,"connected_time":1280000000000,"state":"active","ping":100},{"user_id":252,"name":"Pete","steam_id":76561199252738580,"connected_time":3360000000000,"state":"active","ping":73},{"user_id":261,"name":"bbbbb","steam_id":76561198095480838,"connected_time":2574000000000,"state":"active","ping":47},{"user_id":250,"name":"Goat","steam_id":76561198130683707,"connected_time":3651000000000,"state":"active","ping":111},{"user_id":243,"name":"BraxBird","steam_id":76561199262535082,"connected_time":3905000000000,"state":"active","ping":90},{"user_id":227,"name":"â™¥haunti","steam_id":76561199235580556,"connected_time":5145000000000,"state":"active","ping":45},{"user_id":273,"name":"soup","steam_id":76561198043209046,"connected_time":836000000000,"state":"active","ping":87},{"user_id":104,"name":"â¤ Ashley â¤","steam_id":76561198056428303,"connected_time":15265000000000,"state":"active","ping":75},{"user_id":262,"name":"Vile","steam_id":76561198085615710,"connected_time":2573000000000,"state":"active","ping":94},{"user_id":268,"name":"Simplicity","steam_id":76561198005224796,"connected_time":1283000000000,"state":"active","ping":67},{"user_id":25,"name":"Dreysidel","steam_id":76561198056496183,"connected_time":19596000000000,"state":"active","ping":128},{"user_id":264,"name":"COCK CONFIDENCE","steam_id":76561198343731774,"connected_time":1941000000000,"state":"active","ping":123},{"user_id":237,"name":"Power Jake","steam_id":76561198051510260,"connected_time":4988000000000,"state":"active","ping":60},{"user_id":254,"name":"Tazzz","steam_id":76561198280897107,"connected_time":3164000000000,"state":"active","ping":225},{"user_id":265,"name":"https://en.wikipedia.org/","steam_id":76561198261326806,"connected_time":1891000000000,"state":"active","ping":73},{"user_id":271,"name":"Willy Wonker","steam_id":76561198082944789,"connected_time":1073000000000,"state":"active","ping":83},{"user_id":133,"name":"self sufficient kitten","steam_id":76561197960592612,"connected_time":12296000000000,"state":"active","ping":61}]},{"server_id":119,"name":"Uncletopia | Seattle | 2 | All Maps","name_short":"sea-2","host":"sea-1.us.uncletopia.com","port":27025,"enabled":true,"region":"us-west","cc":"us","latitude":47.608013,"longitude":-122.33517,"reserved":0,"last_update":"0001-01-01T00:00:00Z","name_a2s":"Uncletopia | Seattle | 2 | All Maps","protocol":17,"map":"pl_pier","folder":"tf","game":"Team Fortress","app_id":440,"player_count":24,"max_players":24,"Bots":0,"server_type":"Dedicated","server_os":"Linux","password":true,"vac":true,"version":"7882260","steam_id":85568392924469998,"keywords":["nocrits","nodmgspread","payload","uncletopia"],"game_id":440,"stv_port":27026,"stv_name":"Uncletopia | Seattle | 2 | All Maps | STV","players":[{"user_id":255,"name":"Gary, 40, soul sucking 9-5","steam_id":76561198073812888,"connected_time":1109000000000,"state":"active","ping":35},{"user_id":272,"name":"Hawksgamer","steam_id":76561198152405941,"connected_time":213000000000,"state":"active","ping":60},{"user_id":254,"name":"HANKTHETANK(TheFinalBoss)","steam_id":76561199178575029,"connected_time":1124000000000,"state":"active","ping":125},{"user_id":253,"name":"Jface1221","steam_id":76561198188082091,"connected_time":1134000000000,"state":"active","ping":72},{"user_id":257,"name":"Finkly","steam_id":76561198049828110,"connected_time":1017000000000,"state":"active","ping":45},{"user_id":270,"name":"i love macdonad","steam_id":76561198975706117,"connected_time":300000000000,"state":"active","ping":76},{"user_id":269,"name":"strbry","steam_id":76561198155133601,"connected_time":625000000000,"state":"active","ping":49},{"user_id":241,"name":"toilet mafia","steam_id":76561198844273999,"connected_time":2239000000000,"state":"active","ping":44},{"user_id":242,"name":"General Fisticuffs","steam_id":76561198255721392,"connected_time":2203000000000,"state":"active","ping":110},{"user_id":185,"name":"Nitro","steam_id":76561198044877244,"connected_time":7145000000000,"state":"active","ping":90},{"user_id":260,"name":"Artyom","steam_id":76561198152149679,"connected_time":934000000000,"state":"active","ping":40},{"user_id":273,"name":"Submissive and Bee-dable","steam_id":76561198023818494,"connected_time":213000000000,"state":"active","ping":119},{"user_id":278,"name":"The Bombinomicon","steam_id":76561198209881263,"connected_time":40000000000,"state":"active","ping":83},{"user_id":274,"name":"cofferhead","steam_id":76561199191108449,"connected_time":211000000000,"state":"active","ping":112},{"user_id":271,"name":"h","steam_id":76561198868164815,"connected_time":296000000000,"state":"active","ping":56},{"user_id":263,"name":"Maid 'n' China","steam_id":76561198423392976,"connected_time":882000000000,"state":"active","ping":74},{"user_id":264,"name":"Mr8bittripper","steam_id":76561198133894229,"connected_time":867000000000,"state":"active","ping":48},{"user_id":277,"name":"a pair of jeans","steam_id":76561198043558709,"connected_time":167000000000,"state":"active","ping":50},{"user_id":202,"name":"Tibetan Pop Star","steam_id":76561198844903984,"connected_time":5878000000000,"state":"active","ping":88},{"user_id":247,"name":"lamadre07","steam_id":76561198067337453,"connected_time":2137000000000,"state":"active","ping":124},{"user_id":266,"name":"H4V0C","steam_id":76561199129350925,"connected_time":845000000000,"state":"active","ping":62},{"user_id":252,"name":"SvicidalBug","steam_id":76561198221390504,"connected_time":1275000000000,"state":"active","ping":69},{"user_id":236,"name":"Day Man","steam_id":76561198067154807,"connected_time":2669000000000,"state":"active","ping":49},{"user_id":276,"name":"Florist","steam_id":76561198009121060,"connected_time":202000000000,"state":"active","ping":59}]},{"server_id":406,"name":"Uncletopia | Seattle | 3 | Stopwatch Beta","name_short":"sea-3","host":"sea-1.us.uncletopia.com","port":27035,"enabled":true,"region":"us-west","cc":"us","latitude":47.608013,"longitude":-122.33517,"reserved":0,"last_update":"0001-01-01T00:00:00Z","name_a2s":"Uncletopia | Seattle | 3 | Stopwatch Beta","protocol":17,"map":"koth_lakeside_final","folder":"tf","game":"Team Fortress","app_id":440,"player_count":0,"max_players":24,"Bots":0,"server_type":"Dedicated","server_os":"Linux","password":true,"vac":true,"version":"7882260","steam_id":85568392924515217,"keywords":["cp","nocrits","nodmgspread","uncletopia"],"game_id":440,"stv_port":27036,"stv_name":"Uncletopia | Seattle | 3 | Stopwatch Beta | STV","players":null},{"server_id":17,"name":"Uncletopia | San Francisco | 1 | All Maps","name_short":"sfo-1","host":"sfo-1.us.uncletopia.com","port":27015,"enabled":true,"region":"us-west","cc":"us","latitude":37.77397,"longitude":-122.4313,"reserved":0,"last_update":"0001-01-01T00:00:00Z","name_a2s":"Uncletopia | San Francisco | 1 | All Maps","protocol":17,"map":"cp_process_final","folder":"tf","game":"Team Fortress","app_id":440,"player_count":0,"max_players":24,"Bots":0,"server_type":"Dedicated","server_os":"Linux","password":true,"vac":true,"version":"7757534","steam_id":85568392924469999,"keywords":["cp","nocrits","nodmgspread","uncletopia"],"game_id":440,"stv_port":27016,"stv_name":"Uncletopia | San Francisco | 1 | All Maps | STV","players":null},{"server_id":18,"name":"Uncletopia | San Francisco | 2 | All Maps","name_short":"sfo-2","host":"sfo-1.us.uncletopia.com","port":27025,"enabled":true,"region":"us-west","cc":"us","latitude":37.77397,"longitude":-122.4313,"reserved":0,"last_update":"0001-01-01T00:00:00Z","name_a2s":"Uncletopia | San Francisco | 2 | All Maps","protocol":17,"map":"koth_highpass","folder":"tf","game":"Team Fortress","app_id":440,"player_count":0,"max_players":24,"Bots":0,"server_type":"Dedicated","server_os":"Linux","password":true,"vac":true,"version":"7757534","steam_id":85568392924470000,"keywords":["cp","nocrits","nodmgspread","uncletopia"],"game_id":440,"stv_port":27026,"stv_name":"Uncletopia | San Francisco | 2 | All Maps | STV","players":null},{"server_id":19,"name":"Uncletopia | San Francisco | 3 | Stopwatch Beta","name_short":"sfo-3","host":"sfo-1.us.uncletopia.com","port":27035,"enabled":true,"region":"us-west","cc":"us","latitude":37.77397,"longitude":-122.4313,"reserved":0,"last_update":"0001-01-01T00:00:00Z","name_a2s":"Uncletopia | San Francisco | 3 | Stopwatch Beta","protocol":17,"map":"koth_lakeside_final","folder":"tf","game":"Team Fortress","app_id":440,"player_count":0,"max_players":24,"Bots":0,"server_type":"Dedicated","server_os":"Linux","password":true,"vac":true,"version":"7757534","steam_id":85568392924742824,"keywords":["cp","nocrits","nodmgspread","uncletopia"],"game_id":440,"stv_port":27036,"stv_name":"Uncletopia | San Francisco | 3 | Stopwatch Beta | STV","players":null},{"server_id":20,"name":"Uncletopia | San Francisco | 4 | Community","name_short":"sfo-4","host":"sfo-1.us.uncletopia.com","port":27045,"enabled":true,"region":"us-west","cc":"us","latitude":37.77397,"longitude":-122.4313,"reserved":0,"last_update":"0001-01-01T00:00:00Z","name_a2s":"Uncletopia | San Francisco | 4 | Community","protocol":17,"map":"cp_altitude","folder":"tf","game":"Team Fortress","app_id":440,"player_count":0,"max_players":24,"Bots":0,"server_type":"Dedicated","server_os":"Linux","password":true,"vac":true,"version":"7757534","steam_id":85568392924742826,"keywords":["cp","nocrits","nodmgspread","uncletopia"],"game_id":440,"stv_port":27046,"stv_name":"Uncletopia | San Francisco | 4 | Community | STV","players":null},{"server_id":141,"name":"Uncletopia | Sydney | 1 | All Maps","name_short":"syd-1","host":"syd-1.au.uncletopia.com","port":27015,"enabled":true,"region":"au","cc":"au","latitude":-33.865143,"longitude":151.2099,"reserved":0,"last_update":"0001-01-01T00:00:00Z","name_a2s":"Uncletopia | Sydney | 1 | All Maps","protocol":17,"map":"pl_pier","folder":"tf","game":"Team Fortress","app_id":440,"player_count":20,"max_players":24,"Bots":0,"server_type":"Dedicated","server_os":"Linux","password":true,"vac":true,"version":"7882260","steam_id":85568392924470001,"keywords":["nocrits","nodmgspread","payload","uncletopia"],"game_id":440,"stv_port":27016,"stv_name":"Uncletopia | Sydney | 1 | All Maps | STV","players":[{"user_id":143,"name":"$TheMan$","steam_id":76561198134849763,"connected_time":1623000000000,"state":"active","ping":53},{"user_id":171,"name":"Judgement Kazzy","steam_id":76561199122334686,"connected_time":381000000000,"state":"active","ping":84},{"user_id":177,"name":"NollReed","steam_id":76561198098501571,"connected_time":0,"state":"spawning","ping":26},{"user_id":172,"name":"TrashGaming420","steam_id":76561198106039590,"connected_time":326000000000,"state":"active","ping":48},{"user_id":176,"name":"tictac13","steam_id":76561199204659365,"connected_time":54000000000,"state":"active","ping":68},{"user_id":126,"name":"Arro","steam_id":76561198084990929,"connected_time":2575000000000,"state":"active","ping":93},{"user_id":155,"name":"weezer","steam_id":76561199439508788,"connected_time":655000000000,"state":"active","ping":62},{"user_id":163,"name":"DragRiper","steam_id":76561198050917553,"connected_time":500000000000,"state":"active","ping":50},{"user_id":157,"name":"SubHam","steam_id":76561198071578622,"connected_time":562000000000,"state":"active","ping":71},{"user_id":164,"name":"Wisey","steam_id":76561198120829189,"connected_time":478000000000,"state":"active","ping":60},{"user_id":159,"name":"Muon","steam_id":76561198031870803,"connected_time":525000000000,"state":"active","ping":53},{"user_id":175,"name":"saudi ambassador messi","steam_id":76561198031293430,"connected_time":75000000000,"state":"active","ping":83},{"user_id":111,"name":"FrOStY","steam_id":76561198088155805,"connected_time":3483000000000,"state":"active","ping":90},{"user_id":165,"name":"Jdn","steam_id":76561198293079232,"connected_time":478000000000,"state":"active","ping":59},{"user_id":167,"name":"Snake101","steam_id":76561198418910767,"connected_time":463000000000,"state":"active","ping":55},{"user_id":168,"name":"Rashid Of The Dank Memes","steam_id":76561198281398078,"connected_time":455000000000,"state":"active","ping":62},{"user_id":169,"name":"Mario","steam_id":76561198828095685,"connected_time":442000000000,"state":"active","ping":64},{"user_id":60,"name":"JodelkÃ¶nig Franzl (unmute pls)","steam_id":76561198007667830,"connected_time":6698000000000,"state":"active","ping":45},{"user_id":170,"name":"Sinister80s","steam_id":76561198343540472,"connected_time":416000000000,"state":"active","ping":74},{"user_id":174,"name":"ben","steam_id":76561198223331996,"connected_time":225000000000,"state":"active","ping":68}]},{"server_id":123,"name":"Uncletopia | Sydney | 2 | All Maps","name_short":"syd-2","host":"syd-1.au.uncletopia.com","port":27025,"enabled":true,"region":"au","cc":"au","latitude":-33.865143,"longitude":151.2099,"reserved":0,"last_update":"0001-01-01T00:00:00Z","name_a2s":"Uncletopia | Sydney | 2 | All Maps","protocol":17,"map":"pl_snowycoast","folder":"tf","game":"Team Fortress","app_id":440,"player_count":0,"max_players":24,"Bots":0,"server_type":"Dedicated","server_os":"Linux","password":true,"vac":true,"version":"7882260","steam_id":85568392924470002,"keywords":["nocrits","nodmgspread","payload","uncletopia"],"game_id":440,"stv_port":27026,"stv_name":"Uncletopia | Sydney | 2 | All Maps | STV","players":null},{"server_id":395,"name":"Uncletopia | Sydney | 3 | All Maps","name_short":"syd-3","host":"syd-1.au.uncletopia.com","port":27035,"enabled":true,"region":"au","cc":"au","latitude":-33.865143,"longitude":151.2099,"reserved":0,"last_update":"0001-01-01T00:00:00Z","name_a2s":"Uncletopia | Sydney | 3 | All Maps","protocol":17,"map":"cp_snakewater_final1","folder":"tf","game":"Team Fortress","app_id":440,"player_count":0,"max_players":24,"Bots":0,"server_type":"Dedicated","server_os":"Linux","password":true,"vac":true,"version":"7882260","steam_id":85568392925194467,"keywords":["cp","nocrits","nodmgspread","uncletopia"],"game_id":440,"stv_port":27036,"stv_name":"Uncletopia | Sydney | 3 | All Maps | STV","players":null},{"server_id":396,"name":"Uncletopia | Sydney | 4 | All Maps","name_short":"syd-4","host":"syd-1.au.uncletopia.com","port":27045,"enabled":true,"region":"au","cc":"au","latitude":-33.865143,"longitude":151.2099,"reserved":0,"last_update":"0001-01-01T00:00:00Z","name_a2s":"Uncletopia | Sydney | 4 | All Maps","protocol":17,"map":"cp_sunshine","folder":"tf","game":"Team Fortress","app_id":440,"player_count":0,"max_players":24,"Bots":0,"server_type":"Dedicated","server_os":"Linux","password":true,"vac":true,"version":"7882260","steam_id":85568392925397958,"keywords":["cp","nocrits","nodmgspread","uncletopia"],"game_id":440,"stv_port":27046,"stv_name":"Uncletopia | Sydney | 4 | All Maps | STV","players":null},{"server_id":58,"name":"Uncletopia | Sydney | 5 | Stopwatch Beta","name_short":"syd-5","host":"syd-1.au.uncletopia.com","port":27055,"enabled":true,"region":"au","cc":"au","latitude":-33.865143,"longitude":151.2099,"reserved":0,"last_update":"0001-01-01T00:00:00Z","name_a2s":"Uncletopia | Sydney | 5 | Stopwatch Beta","protocol":17,"map":"cp_snakewater_final1","folder":"tf","game":"Team Fortress","app_id":440,"player_count":0,"max_players":24,"Bots":0,"server_type":"Dedicated","server_os":"Linux","password":true,"vac":true,"version":"7882260","steam_id":85568392925397959,"keywords":["cp","nocrits","nodmgspread","uncletopia"],"game_id":440,"stv_port":27056,"stv_name":"Uncletopia | Sydney | 5 | Stopwatch Beta | STV","players":null},{"server_id":59,"name":"Uncletopia | Sydney | 6 | Community","name_short":"syd-6","host":"syd-1.au.uncletopia.com","port":27065,"enabled":true,"region":"au","cc":"au","latitude":-33.865143,"longitude":151.2099,"reserved":0,"last_update":"0001-01-01T00:00:00Z","name_a2s":"Uncletopia | Sydney | 6 | Community","protocol":17,"map":"pl_snowycoast","folder":"tf","game":"Team Fortress","app_id":440,"player_count":0,"max_players":24,"Bots":0,"server_type":"Dedicated","server_os":"Linux","password":true,"vac":true,"version":"7882260","steam_id":85568392925397960,"keywords":["nocrits","nodmgspread","payload","uncletopia"],"game_id":440,"stv_port":27066,"stv_name":"Uncletopia | Sydney | 6 | Community | STV","players":null},{"server_id":49,"name":"Uncletopia | Warsaw | 1 | All Maps","name_short":"waw-1","host":"waw-1.pl.uncletopia.com","port":27015,"enabled":true,"region":"eu","cc":"pl","latitude":52.2297,"longitude":21.017532,"reserved":0,"last_update":"0001-01-01T00:00:00Z","name_a2s":"","protocol":0,"map":"","folder":"","game":"","app_id":0,"player_count":0,"max_players":0,"Bots":0,"server_type":"","server_os":"","password":false,"vac":false,"version":"","steam_id":0,"keywords":null,"game_id":0,"stv_port":0,"stv_name":"","players":null},{"server_id":50,"name":"Uncletopia | Warsaw | 2 | All Maps","name_short":"waw-2","host":"waw-1.pl.uncletopia.com","port":27025,"enabled":true,"region":"eu","cc":"pl","latitude":52.2297,"longitude":21.017532,"reserved":0,"last_update":"0001-01-01T00:00:00Z","name_a2s":"Uncletopia | Warsaw | 2 | All Maps","protocol":17,"map":"pl_swiftwater_final1","folder":"tf","game":"Team Fortress","app_id":440,"player_count":0,"max_players":24,"Bots":0,"server_type":"Dedicated","server_os":"Linux","password":true,"vac":true,"version":"7882260","steam_id":85568392925397851,"keywords":["nocrits","nodmgspread","payload","uncletopia"],"game_id":440,"stv_port":27026,"stv_name":"Uncletopia | Warsaw | 2 | All Maps | STV","players":null},{"server_id":51,"name":"Uncletopia | Warsaw | 3 | All Maps","name_short":"waw-3","host":"waw-1.pl.uncletopia.com","port":27035,"enabled":true,"region":"eu","cc":"pl","latitude":52.2297,"longitude":21.017532,"reserved":0,"last_update":"0001-01-01T00:00:00Z","name_a2s":"Uncletopia | Warsaw | 3 | All Maps","protocol":17,"map":"koth_viaduct","folder":"tf","game":"Team Fortress","app_id":440,"player_count":0,"max_players":24,"Bots":0,"server_type":"Dedicated","server_os":"Linux","password":true,"vac":true,"version":"7882260","steam_id":85568392925397852,"keywords":["cp","nocrits","nodmgspread","uncletopia"],"game_id":440,"stv_port":27036,"stv_name":"Uncletopia | Warsaw | 3 | All Maps | STV","players":null},{"server_id":52,"name":"Uncletopia | Warsaw | 4 | All Maps","name_short":"waw-4","host":"waw-1.pl.uncletopia.com","port":27045,"enabled":true,"region":"eu","cc":"pl","latitude":52.2297,"longitude":21.017532,"reserved":0,"last_update":"0001-01-01T00:00:00Z","name_a2s":"Uncletopia | Warsaw | 4 | All Maps","protocol":17,"map":"koth_highpass","folder":"tf","game":"Team Fortress","app_id":440,"player_count":0,"max_players":24,"Bots":0,"server_type":"Dedicated","server_os":"Linux","password":true,"vac":true,"version":"7882260","steam_id":85568392925397853,"keywords":["cp","nocrits","nodmgspread","uncletopia"],"game_id":440,"stv_port":27046,"stv_name":"Uncletopia | Warsaw | 4 | All Maps | STV","players":null},{"server_id":53,"name":"Uncletopia | Warsaw | 5 | Stopwatch Beta","name_short":"waw-5","host":"waw-1.pl.uncletopia.com","port":27055,"enabled":true,"region":"eu","cc":"pl","latitude":52.2297,"longitude":21.017532,"reserved":0,"last_update":"0001-01-01T00:00:00Z","name_a2s":"Uncletopia | Warsaw | 5 | Stopwatch Beta","protocol":17,"map":"cp_mountainlab","folder":"tf","game":"Team Fortress","app_id":440,"player_count":0,"max_players":24,"Bots":0,"server_type":"Dedicated","server_os":"Linux","password":true,"vac":true,"version":"7882260","steam_id":85568392925397854,"keywords":["cp","nocrits","nodmgspread","uncletopia"],"game_id":440,"stv_port":27056,"stv_name":"Uncletopia | Warsaw | 5 | Stopwatch Beta | STV","players":null},{"server_id":54,"name":"Uncletopia | Warsaw | 6 | Community","name_short":"waw-6","host":"waw-1.pl.uncletopia.com","port":27065,"enabled":true,"region":"eu","cc":"pl","latitude":52.2297,"longitude":21.017532,"reserved":0,"last_update":"0001-01-01T00:00:00Z","name_a2s":"Uncletopia | Warsaw | 6 | Community","protocol":17,"map":"koth_viaduct","folder":"tf","game":"Team Fortress","app_id":440,"player_count":0,"max_players":24,"Bots":0,"server_type":"Dedicated","server_os":"Linux","password":true,"vac":true,"version":"7882260","steam_id":85568392925397856,"keywords":["cp","nocrits","nodmgspread","uncletopia"],"game_id":440,"stv_port":27066,"stv_name":"Uncletopia | Warsaw | 6 | Community | STV","players":null}]}