{"status":true,"message":"","result":[{"server_id":9,"name":"Uncletopia | Atlanta | 1 | All Maps","name_short":"atl-1","host":"atl-1.us.uncletopia.com","port":27015,"enabled":true,"region":"us-east","cc":"us","latitude":33.753746,"longitude":-84.38633,"reserved":0,"last_update":"0001-01-01T00:00:00Z","name_a2s":"Uncletopia | Atlanta | 1 | All Maps","protocol":17,"map":"cp_altitude","folder":"tf","game":"Team Fortress","app_id":440,"player_count":25,"max_players":24,"Bots":0,"server_type":"Dedicated","server_os":"Linux","password":true,"vac":true,"version":"7708610","steam_id":85568392924469982,"keywords":["cp","nocrits","nodmgspread","uncletopia"],"game_id":440,"stv_port":27016,"stv_name":"Uncletopia | Atlanta | 1 | All Maps | STV","players":[{"user_id":146,"name":"ALT1 | schizo","steam_id":76561198016121536,"connected_time":7845000000000,"state":"active","ping":93},{"user_id":260,"name":"Minion Bob","steam_id":76561198023938170,"connected_time":1290000000000,"state":"active","ping":104},{"user_id":243,"name":"Walmart Employee","steam_id":76561198840373909,"connected_time":2345000000000,"state":"active","ping":66},{"user_id":272,"name":"rachel","steam_id":76561198052588144,"connected_time":361000000000,"state":"active","ping":71},{"user_id":264,"name":"A Festive G J W","steam_id":76561198123359692,"connected_time":733000000000,"state":"active","ping":53},{"user_id":266,"name":"GlassesMann","steam_id":76561198970055773,"connected_time":533000000000,"state":"active","ping":48},{"user_id":230,"name":"Dixxy","steam_id":76561198010760019,"connected_time":3734000000000,"state":"active","ping":63},{"user_id":236,"name":"Nyle","steam_id":76561198045652639,"connected_time":3016000000000,"state":"active","ping":112},{"user_id":210,"name":"Save your wifi","steam_id":76561198286147372,"connected_time":4178000000000,"state":"active","ping":59},{"user_id":172,"name":"sansa musa","steam_id":76561198163723555,"connected_time":5754000000000,"state":"active","ping":76},{"user_id":169,"name":"Bunt","steam_id":76561198124477567,"connected_time":5892000000000,"state":"active","ping":45},{"user_id":267,"name":"Mr.Oxiclean","steam_id":76561198144729009,"connected_time":490000000000,"state":"active","ping":50},{"user_id":269,"name":"Dode","steam_id":76561198065157200,"connected_time":426000000000,"state":"active","ping":83},{"user_id":242,"name":"Sample Text |Ham Mafia|","steam_id":76561198860212406,"connected_time":2457000000000,"state":"active","ping":76},{"user_id":268,"name":"The Sinister Potion","steam_id":76561198131280715,"connected_time":485000000000,"state":"active","ping":73},{"user_id":259,"name":"Mr. Ruckus","steam_id":76561198339566190,"connected_time":1342000000000,"state":"active","ping":80},{"user_id":261,"name":"Spy_Is_Pye","steam_id":76561199439622967,"connected_time":1260000000000,"state":"active","ping":66},{"user_id":257,"name":"Quelfa","steam_id":76561199013444208,"connected_time":1527000000000,"state":"active","ping":54},{"user_id":246,"name":"Cuttle's Fish","steam_id":76561198280483257,"connected_time":2123000000000,"state":"active","ping":88},{"user_id":211,"name":"Koishi Komeiji","steam_id":76561198063315650,"connected_time":4150000000000,"state":"active","ping":110},{"user_id":276,"name":"Malir","steam_id":76561198058307899,"connected_time":262000000000,"state":"active","ping":100},{"user_id":271,"name":"Binky Den","steam_id":76561198164035863,"connected_time":393000000000,"state":"active","ping":79},{"user_id":274,"name":"Dr. Large","steam_id":76561198114236108,"connected_time":285000000000,"state":"active","ping":45},{"user_id":275,"name":"twitch.tv/Yoshi21 | TF2Pugs.com","steam_id":76561198002516729,"connected_time":279000000000,"state":"active","ping":54},{"user_id":279,"name":"barry from jetpack joyride","steam_id":76561198881575174,"connected_time":139000000000,"state":"active","ping":188}]},{"server_id":400,"name":"Uncletopia | Atlanta | 3 | All Maps","name_short":"atl-3","host":"atl-1.us.uncletopia.com","port":27035,"enabled":true,"region":"us-east","cc":"us","latitude":33.753746,"longitude":-84.38633,"reserved":0,"last_update":"0001-01-01T00:00:00Z","name_a2s":"Uncletopia | Atlanta | 3 | All Maps","protocol":17,"map":"cp_snakewater_final1","folder":"tf","game":"Team Fortress","app_id":440,"player_count":0,"max_players":24,"Bots":0,"server_type":"Dedicated","server_os":"Linux","password":true,"vac":true,"version":"7708610","steam_id":85568392924515187,"keywords":["cp","nocrits","nodmgspread","uncletopia"],"game_id":440,"stv_port":27036,"stv_name":"Uncletopia | Atlanta | 3 | All Maps | STV","players":null},{"server_id":401,"name":"Uncletopia | Atlanta | 4 | No Payload","name_short":"atl-4","host":"atl-1.us.uncletopia.com","port":27045,"enabled":true,"region":"us-east","cc":"us","latitude":33.753746,"longitude":-84.38633,"reserved":0,"last_update":"0001-01-01T00:00:00Z","name_a2s":"Uncletopia | Atlanta | 4 | No Payload","protocol":17,"map":"pl_snowycoast","folder":"tf","game":"Team Fortress","app_id":440,"player_count":0,"max_players":24,"Bots":0,"server_type":"Dedicated","server_os":"Linux","password":true,"vac":true,"version":"7708610","steam_id":85568392924515188,"keywords":["nocrits","nodmgspread","payload","uncletopia"],"game_id":440,"stv_port":27046,"stv_name":"Uncletopia | Atlanta | 4 | No Payload | STV","players":null},{"server_id":2,"name":"Uncletopia | Chicago | 1 | All Maps","name_short":"chi-1","host":"chi-1.us.uncletopia.com","port":27015,"enabled":true,"region":"us-central","cc":"us","latitude":41.881832,"longitude":-87.62318,"reserved":0,"last_update":"0001-01-01T00:00:00Z","name_a2s":"Uncletopia | Chicago | 1 | All Maps","protocol":17,"map":"pl_upward","folder":"tf","game":"Team Fortress","app_id":440,"player_count":24,"max_players":24,"Bots":0,"server_type":"Dedicated","server_os":"Linux","password":true,"vac":true,"version":"7708610","steam_id":85568392924469984,"keywords":["nocrits","nodmgspread","payload","uncletopia"],"game_id":440,"stv_port":27016,"stv_name":"Uncletopia | Chicago | 1 | All Maps | STV","players":[{"user_id":67,"name":"SuperFresh","steam_id":76561198200723198,"connected_time":4141000000000,"state":"active","ping":85},{"user_id":9,"name":"ButterScotch","steam_id":76561199389314894,"connected_time":8468000000000,"state":"active","ping":68},{"user_id":112,"name":"Jackie_Lope","steam_id":76561198048297412,"connected_time":388000000000,"state":"active","ping":49},{"user_id":99,"name":"What are you doing?!","steam_id":76561198405248691,"connected_time":1987000000000,"state":"active","ping":110},{"user_id":110,"name":"Phroliax","steam_id":76561198207075529,"connected_time":402000000000,"state":"active","ping":125},{"user_id":114,"name":"DefectiveWarhead","steam_id":76561198067746049,"connected_time":271000000000,"state":"active","ping":117},{"user_id":76,"name":"Merchants of Misery","steam_id":76561199188142396,"connected_time":3405000000000,"state":"active","ping":76},{"user_id":91,"name":"MissRaptor","steam_id":76561198105613110,"connected_time":2321000000000,"state":"active","ping":60},{"user_id":72,"name":"TheBombMann 3","steam_id":76561199074865638,"connected_time":3836000000000,"state":"active","ping":75},{"user_id":104,"name":"A Pyro Main","steam_id":76561198421760112,"connected_time":851000000000,"state":"active","ping":51},{"user_id":106,"name":"Egyptian amogus","steam_id":76561198320353510,"connected_time":828000000000,"state":"active","ping":135},{"user_id":29,"name":"TheBombMann★","steam_id":76561198119505880,"connected_time":7166000000000,"state":"active","ping":83},{"user_id":79,"name":"motorized bar of soap","steam_id":76561198882404753,"connected_time":3126000000000,"state":"active","ping":76},{"user_id":83,"name":"Squatchamo","steam_id":76561198012968239,"connected_time":2703000000000,"state":"active","ping":85},{"user_id":92,"name":"Whorenet","steam_id":76561198090433209,"connected_time":2280000000000,"state":"active","ping":89},{"user_id":44,"name":"MuffinMubby","steam_id":76561198076810541,"connected_time":6611000000000,"state":"active","ping":83},{"user_id":101,"name":"Poo Man","steam_id":76561199187453885,"connected_time":1568000000000,"state":"active","ping":61},{"user_id":94,"name":"Blitzy","steam_id":76561198149472890,"connected_time":2164000000000,"state":"active","ping":75},{"user_id":108,"name":"NautilusShell","steam_id":76561198061289498,"connected_time":438000000000,"state":"active","ping":65},{"user_id":107,"name":"Juanelo","steam_id":76561199096390505,"connected_time":741000000000,"state":"active","ping":80},{"user_id":109,"name":"RawLawson","steam_id":76561198398752800,"connected_time":432000000000,"state":"active","ping":68},{"user_id":98,"name":"ratie","steam_id":76561198059399661,"connected_time":2058000000000,"state":"active","ping":85},{"user_id":87,"name":"Bombman 2","steam_id":76561199000599111,"connected_time":2518000000000,"state":"active","ping":81},{"user_id":105,"name":"Zubats |TAOZ|","steam_id":76561198041819445,"connected_time":850000000000,"state":"active","ping":55}]},{"server_id":106,"name":"Uncletopia | Chicago | 2 | All Maps","name_short":"chi-2","host":"chi-1.us.uncletopia.com","port":27025,"enabled":true,"region":"us-central","cc":"us","latitude":41.881832,"longitude":-87.62318,"reserved":0,"last_update":"0001-01-01T00:00:00Z","name_a2s":"Uncletopia | Chicago | 2 | All Maps","protocol":17,"map":"cp_mossrock","folder":"tf","game":"Team Fortress","app_id":440,"player_count":24,"max_players":24,"Bots":0,"server_type":"Dedicated","server_os":"Linux","password":true,"vac":true,"version":"7708610","steam_id":85568392924469985,"keywords":["cp","nocrits","nodmgspread","uncletopia"],"game_id":440,"stv_port":27026,"stv_name":"Uncletopia | Chicago | 2 | All Maps | STV","players":[{"user_id":7,"name":"Rornir","steam_id":76561198081829615,"connected_time":3282000000000,"state":"active","ping":35},{"user_id":58,"name":"Cooki","steam_id":76561198051705314,"connected_time":982000000000,"state":"active","ping":63},{"user_id":63,"name":"jae are","steam_id":76561198027906463,"connected_time":730000000000,"state":"active","ping":59},{"user_id":10,"name":"Jolly Crowbar","steam_id":76561199105488936,"connected_time":2999000000000,"state":"active","ping":142},{"user_id":11,"name":"a shrieking cloud of bats","steam_id":76561198151363063,"connected_time":2997000000000,"state":"active","ping":80},{"user_id":12,"name":"PeptoBismol135","steam_id":76561198135387121,"connected_time":2978000000000,"state":"active","ping":67},{"user_id":52,"name":"Plite","steam_id":76561198350781760,"connected_time":1319000000000,"state":"active","ping":60},{"user_id":59,"name":"McNamJam","steam_id":76561198028128686,"connected_time":973000000000,"state":"active","ping":91},{"user_id":79,"name":"Stran","steam_id":76561198143389308,"connected_time":30000000000,"state":"active","ping":102},{"user_id":66,"name":"do you remember poptropica?","steam_id":76561199025227085,"connected_time":629000000000,"state":"active","ping":65},{"user_id":73,"name":"mr ploobmeister","steam_id":76561198128908529,"connected_time":435000000000,"state":"active","ping":80},{"user_id":46,"name":"Thequirka","steam_id":76561198968058652,"connected_time":2113000000000,"state":"active","ping":94},{"user_id":77,"name":"Stark","steam_id":76561198132871151,"connected_time":71000000000,"state":"active","ping":75},{"user_id":22,"name":"coffee bagel","steam_id":76561198141198352,"connected_time":2759000000000,"state":"active","ping":45},{"user_id":23,"name":"Esteban Delsin","steam_id":76561198433519639,"connected_time":2742000000000,"state":"active","ping":115},{"user_id":75,"name":"PrinceGrotle","steam_id":76561198206131603,"connected_time":155000000000,"state":"active","ping":60},{"user_id":34,"name":"IncogNeeto","steam_id":76561199091278006,"connected_time":2425000000000,"state":"active","ping":106},{"user_id":55,"name":"Splarvis","steam_id":76561198007792525,"connected_time":1250000000000,"state":"active","ping":130},{"user_id":36,"name":"ThatOneNerdOnline","steam_id":76561198325823407,"connected_time":2401000000000,"state":"active","ping":54},{"user_id":76,"name":"Drilly22","steam_id":76561198068838338,"connected_time":147000000000,"state":"active","ping":91},{"user_id":56,"name":"Nerd Killer","steam_id":76561198037072888,"connected_time":1231000000000,"state":"active","ping":50},{"user_id":68,"name":"William Wallace","steam_id":76561199343316814,"connected_time":597000000000,"state":"active","ping":66},{"user_id":71,"name":"McGangBang","steam_id":76561198862379865,"connected_time":519000000000,"state":"active","ping":57},{"user_id":78,"name":"mobe","steam_id":76561198121633820,"connected_time":71000000000,"state":"active","ping":105}]},{"server_id":402,"name":"Uncletopia | Chicago | 3 | All Maps","name_short":"chi-3","host":"chi-1.us.uncletopia.com","port":27035,"enabled":true,"region":"us-central","cc":"us","latitude":41.881832,"longitude":-87.62318,"reserved":0,"last_update":"0001-01-01T00:00:00Z","name_a2s":"Uncletopia | Chicago | 3 | All Maps","protocol":17,"map":"plr_pipeline","folder":"tf","game":"Team Fortress","app_id":440,"player_count":23,"max_players":24,"Bots":0,"server_type":"Dedicated","server_os":"Linux","password":true,"vac":true,"version":"7708610","steam_id":85568392924515191,"keywords":["nocrits","nodmgspread","payload","uncletopia"],"game_id":440,"stv_port":27036,"stv_name":"Uncletopia | Chicago | 3 | All Maps | STV","players":[{"user_id":304,"name":"IPlayGamez","steam_id":76561198041387508,"connected_time":2387000000000,"state":"active","ping":61},{"user_id":269,"name":"InvalidVertex","steam_id":76561198060352651,"connected_time":4302000000000,"state":"active","ping":51},{"user_id":336,"name":"Hentai Lord","steam_id":76561199030449654,"connected_time":333000000000,"state":"spawning","ping":81},{"user_id":315,"name":"earthbound393","steam_id":76561199444276547,"connected_time":1686000000000,"state":"active","ping":132},{"user_id":308,"name":"czarchasm","steam_id":76561198055712749,"connected_time":2198000000000,"state":"active","ping":74},{"user_id":331,"name":"BOTBOT","steam_id":76561198271928618,"connected_time":913000000000,"state":"active","ping":80},{"user_id":340,"name":"Mythical Lag","steam_id":76561198347031281,"connected_time":101000000000,"state":"active","ping":74},{"user_id":307,"name":"Scary Perry","steam_id":76561198237464516,"connected_time":2293000000000,"state":"active","ping":155},{"user_id":332,"name":"Omni Monky","steam_id":76561198083975292,"connected_time":644000000000,"state":"active","ping":83},{"user_id":326,"name":"dankalopacus","steam_id":76561198099254868,"connected_time":1123000000000,"state":"active","ping":100},{"user_id":341,"name":"The Bravest of Warriors","steam_id":76561198048289242,"connected_time":58000000000,"state":"active","ping":98},{"user_id":342,"name":"SouerLuigi","steam_id":76561198261896480,"connected_time":47000000000,"state":"active","ping":68},{"user_id":330,"name":"battle clown","steam_id":76561198045788371,"connected_time":1045000000000,"state":"active","ping":60},{"user_id":339,"name":"Berry Dragon","steam_id":76561198044250797,"connected_time":157000000000,"state":"active","ping":65},{"user_id":272,"name":"I_Am_Lazy","steam_id":76561199030283067,"connected_time":4075000000000,"state":"active","ping":79},{"user_id":324,"name":"็","steam_id":76561199372405984,"connected_time":1201000000000,"state":"active","ping":119},{"user_id":247,"name":"QuickToTheBatCave","steam_id":76561198060762959,"connected_time":5544000000000,"state":"active","ping":63},{"user_id":335,"name":"Mason","steam_id":76561198125358775,"connected_time":441000000000,"state":"active","ping":99},{"user_id":321,"name":"Suwako Moriya","steam_id":76561199013167718,"connected_time":1400000000000,"state":"active","ping":64},{"user_id":313,"name":"jan kili","steam_id":76561198289894834,"connected_time":1747000000000,"state":"active","ping":78},{"user_id":292,"name":"jerma enthusiast","steam_id":76561198359466264,"connected_time":2863000000000,"state":"active","ping":72},{"user_id":325,"name":"Wilhelmktx","steam_id":76561198158102295,"connected_time":1195000000000,"state":"active","ping":48},{"user_id":334,"name":"catgirl giantess in heat","steam_id":76561198439042583,"connected_time":456000000000,"state":"active","ping":80}]},{"server_id":403,"name":"Uncletopia | Chicago | 4 | All Maps","name_short":"chi-4","host":"chi-1.us.uncletopia.com","port":27045,"enabled":true,"region":"us-central","cc":"us","latitude":41.881832,"longitude":-87.62318,"reserved":0,"last_update":"0001-01-01T00:00:00Z","name_a2s":"Uncletopia | Chicago | 4 | All Maps","protocol":17,"map":"cp_5gorge","folder":"tf","game":"Team Fortress","app_id":440,"player_count":24,"max_players":24,"Bots":0,"server_type":"Dedicated","server_os":"Linux","password":true,"vac":true,"version":"7708610","steam_id":85568392924515193,"keywords":["cp","nocrits","nodmgspread","uncletopia"],"game_id":440,"stv_port":27046,"stv_name":"Uncletopia | Chicago | 4 | All Maps | STV","players":[{"user_id":28,"name":"Viennetta","steam_id":76561198044088335,"connected_time":1053000000000,"state":"active","ping":77},{"user_id":4,"name":"BassmanCalibre","steam_id":76561198083440914,"connected_time":3934000000000,"state":"active","ping":67},{"user_id":29,"name":"Bandit","steam_id":76561198328421159,"connected_time":962000000000,"state":"active","ping":66},{"user_id":44,"name":"Loogey03","steam_id":76561198155483586,"connected_time":405000000000,"state":"active","ping":58},{"user_id":16,"name":"neptune","steam_id":76561198383404869,"connected_time":2667000000000,"state":"active","ping":120},{"user_id":24,"name":"LegendaryMister151","steam_id":76561198064890524,"connected_time":1279000000000,"state":"active","ping":97},{"user_id":20,"name":"BlockBurst","steam_id":76561199220851075,"connected_time":1443000000000,"state":"active","ping":84},{"user_id":23,"name":"Protato","steam_id":76561198061182563,"connected_time":1292000000000,"state":"active","ping":59},{"user_id":25,"name":"Puro","steam_id":76561199440523721,"connected_time":1261000000000,"state":"active","ping":94},{"user_id":33,"name":"wiiblob","steam_id":76561198109106242,"connected_time":806000000000,"state":"active","ping":138},{"user_id":48,"name":"K2f","steam_id":76561198049600563,"connected_time":276000000000,"state":"active","ping":105},{"user_id":31,"name":"confused","steam_id":76561198018654093,"connected_time":856000000000,"state":"active","ping":60},{"user_id":32,"name":"GrimGryphon","steam_id":76561198169899963,"connected_time":848000000000,"state":"active","ping":48},{"user_id":35,"name":"Fly Man","steam_id":76561198201036790,"connected_time":741000000000,"state":"active","ping":73},{"user_id":38,"name":"Im already Tarcer","steam_id":76561198256886614,"connected_time":583000000000,"state":"active","ping":93},{"user_id":37,"name":"Atlas Fugged :DD","steam_id":76561198018753989,"connected_time":589000000000,"state":"active","ping":108},{"user_id":41,"name":"Locar","steam_id":76561198365417023,"connected_time":514000000000,"state":"active","ping":80},{"user_id":42,"name":"Jun Manjoume","steam_id":76561198124040126,"connected_time":502000000000,"state":"active","ping":67},{"user_id":43,"name":"FlashyLily","steam_id":76561198110050476,"connected_time":459000000000,"state":"active","ping":98},{"user_id":45,"name":"Dr. Nobotnik","steam_id":76561198357339092,"connected_time":391000000000,"state":"active","ping":92},{"user_id":46,"name":"Money Collector","steam_id":76561198046249467,"connected_time":387000000000,"state":"active","ping":59},{"user_id":47,"name":"koompa_stomp","steam_id":76561198073081735,"connected_time":370000000000,"state":"active","ping":96},{"user_id":49,"name":"Labastta","steam_id":76561198360946437,"connected_time":275000000000,"state":"active","ping":68},{"user_id":50,"name":"Sneed's United","steam_id":76561198041344737,"connected_time":259000000000,"state":"active","ping":61}]},{"server_id":36,"name":"Uncletopia | Chicago | 5 | All Maps","name_short":"chi-5","host":"chi-2.us.uncletopia.com","port":27015,"enabled":true,"region":"us-central","cc":"us","latitude":41.881832,"longitude":-87.62318,"reserved":0,"last_update":"0001-01-01T00:00:00Z","name_a2s":"Uncletopia | Chicago | 5 | All Maps","protocol":17,"map":"pl_swiftwater_final1","folder":"tf","game":"Team Fortress","app_id":440,"player_count":0,"max_players":24,"Bots":0,"server_type":"Dedicated","server_os":"Linux","password":true,"vac":true,"version":"7708610","steam_id":85568392924866362,"keywords":["nocrits","nodmgspread","payload","uncletopia"],"game_id":440,"stv_port":27016,"stv_name":"Uncletopia | Chicago | 5 | All Maps | STV","players":null},{"server_id":37,"name":"Uncletopia | Chicago | 6 | All Maps","name_short":"chi-6","host":"chi-2.us.uncletopia.com","port":27025,"enabled":true,"region":"us-central","cc":"us","latitude":41.881832,"longitude":-87.62318,"reserved":0,"last_update":"0001-01-01T00:00:00Z","name_a2s":"Uncletopia | Chicago | 6 | All Maps","protocol":17,"map":"koth_viaduct","folder":"tf","game":"Team Fortress","app_id":440,"player_count":0,"max_players":24,"Bots":0,"server_type":"Dedicated","server_os":"Linux","password":true,"vac":true,"version":"7708610","steam_id":85568392924866363,"keywords":["cp","nocrits","nodmgspread","uncletopia"],"game_id":440,"stv_port":27026,"stv_name":"Uncletopia | Chicago | 6 | All Maps | STV","players":null},{"server_id":38,"name":"Uncletopia | Chicago | 7 | Stopwatch (test)","name_short":"chi-7","host":"chi-2.us.uncletopia.com","port":27035,"enabled":true,"region":"us-central","cc":"us","latitude":41.881832,"longitude":-87.62318,"reserved":0,"last_update":"0001-01-01T00:00:00Z","name_a2s":"Uncletopia | Chicago | 7 | Stopwatch (test)","protocol":17,"map":"pl_swiftwater_final1","folder":"tf","game":"Team Fortress","app_id":440,"player_count":0,"max_players":24,"Bots":0,"server_type":"Dedicated","server_os":"Linux","password":true,"vac":true,"version":"7708610","steam_id":85568392924866364,"keywords":["nocrits","nodmgspread","payload","uncletopia"],"game_id":440,"stv_port":27036,"stv_name":"Uncletopia | Chicago | 7 | Stopwatch (test) | STV","players":null},{"server_id":39,"name":"Uncletopia | Chicago | 8 | Community","name_short":"chi-8","host":"chi-2.us.uncletopia.com","port":27045,"enabled":true,"region":"us-central","cc":"us","latitude":41.881832,"longitude":-87.62318,"reserved":0,"last_update":"0001-01-01T00:00:00Z","name_a2s":"Uncletopia | Chicago | 8 | Community","protocol":17,"map":"pl_barnblitz","folder":"tf","game":"Team Fortress","app_id":440,"player_count":0,"max_players":24,"Bots":0,"server_type":"Dedicated","server_os":"Linux","password":true,"vac":true,"version":"7708610","steam_id":85568392924866365,"keywords":["nocrits","nodmgspread","payload","uncletopia"],"game_id":440,"stv_port":27046,"stv_name":"Uncletopia | Chicago | 8 | Community | STV","players":null},{"server_id":8,"name":"Uncletopia | Dallas | 1 | All Maps","name_short":"dal-1","host":"dal-1.us.uncletopia.com","port":27015,"enabled":true,"region":"us-central","cc":"us","latitude":32.779167,"longitude":-96.80889,"reserved":0,"last_update":"0001-01-01T00:00:00Z","name_a2s":"Uncletopia | Dallas | 1 | All Maps","protocol":17,"map":"koth_viaduct","folder":"tf","game":"Team Fortress","app_id":440,"player_count":0,"max_players":24,"Bots":0,"server_type":"Dedicated","server_os":"Linux","password":true,"vac":true,"version":"7708610","steam_id":85568392924469986,"keywords":["cp","nocrits","nodmgspread","uncletopia"],"game_id":440,"stv_port":27016,"stv_name":"Uncletopia | Dallas | 1 | All Maps | STV","players":null},{"server_id":108,"name":"Uncletopia | Dallas | 2 | All Maps","name_short":"dal-2","host":"dal-1.us.uncletopia.com","port":27025,"enabled":true,"region":"us-central","cc":"us","latitude":32.779167,"longitude":-96.80889,"reserved":0,"last_update":"0001-01-01T00:00:00Z","name_a2s":"Uncletopia | Dallas | 2 | All Maps","protocol":17,"map":"koth_highpass","folder":"tf","game":"Team Fortress","app_id":440,"player_count":0,"max_players":24,"Bots":0,"server_type":"Dedicated","server_os":"Linux","password":true,"vac":true,"version":"7708610","steam_id":85568392924469988,"keywords":["cp","nocrits","nodmgspread","uncletopia"],"game_id":440,"stv_port":27026,"stv_name":"Uncletopia | Dallas | 2 | All Maps | STV","players":null},{"server_id":5,"name":"Uncletopia | Frankfurt | 1 | All Maps","name_short":"frk-1","host":"frk-1.de.uncletopia.com","port":27015,"enabled":true,"region":"eu","cc":"de","latitude":50.110924,"longitude":8.682127,"reserved":0,"last_update":"0001-01-01T00:00:00Z","name_a2s":"Uncletopia | Frankfurt | 1 | All Maps","protocol":17,"map":"pl_upward","folder":"tf","game":"Team Fortress","app_id":440,"player_count":24,"max_players":24,"Bots":0,"server_type":"Dedicated","server_os":"Linux","password":true,"vac":true,"version":"7708610","steam_id":85568392924469989,"keywords":["nocrits","nodmgspread","payload","uncletopia"],"game_id":440,"stv_port":27016,"stv_name":"Uncletopia | Frankfurt | 1 | All Maps | STV","players":[{"user_id":373,"name":"goofy goober","steam_id":76561198013237629,"connected_time":337000000000,"state":"active","ping":105},{"user_id":322,"name":"Gordon Birdman","steam_id":76561198013382324,"connected_time":2411000000000,"state":"active","ping":76},{"user_id":314,"name":"The brown part of the banana","steam_id":76561198323425034,"connected_time":2755000000000,"state":"active","ping":80},{"user_id":353,"name":"NiNYÃ","steam_id":76561197995685294,"connected_time":824000000000,"state":"active","ping":60},{"user_id":363,"name":"Piepsgedoodle","steam_id":76561198405764302,"connected_time":690000000000,"state":"active","ping":56},{"user_id":369,"name":"para","steam_id":76561197989877167,"connected_time":448000000000,"state":"active","ping":54},{"user_id":326,"name":"moser23","steam_id":76561197960543171,"connected_time":2140000000000,"state":"active","ping":44},{"user_id":330,"name":"Persephone \u003c3","steam_id":76561198045694137,"connected_time":1687000000000,"state":"active","ping":82},{"user_id":370,"name":"Sabour","steam_id":76561197963965445,"connected_time":408000000000,"state":"active","ping":61},{"user_id":374,"name":"pablo.gonzalez.2005","steam_id":76561198971389390,"connected_time":236000000000,"state":"active","ping":69},{"user_id":354,"name":"Doriian","steam_id":76561198071438810,"connected_time":781000000000,"state":"active","ping":83},{"user_id":315,"name":"X-tis","steam_id":76561198043837480,"connected_time":2696000000000,"state":"active","ping":76},{"user_id":367,"name":"outin","steam_id":76561198137734730,"connected_time":497000000000,"state":"active","ping":77},{"user_id":364,"name":"Atronic","steam_id":76561198354960567,"connected_time":592000000000,"state":"active","ping":57},{"user_id":356,"name":"Soya Suki","steam_id":76561197998106435,"connected_time":758000000000,"state":"active","ping":47},{"user_id":365,"name":"Bgm_","steam_id":76561198056452044,"connected_time":576000000000,"state":"active","ping":65},{"user_id":357,"name":"The 4th Doctor","steam_id":76561198191516706,"connected_time":750000000000,"state":"active","ping":62},{"user_id":347,"name":"AWP Bodyshot :) ❤","steam_id":76561198029928533,"connected_time":1114000000000,"state":"active","ping":47},{"user_id":336,"name":"Itai","steam_id":76561198804555329,"connected_time":1576000000000,"state":"active","ping":90},{"user_id":337,"name":"beurgeur","steam_id":76561198872426314,"connected_time":1575000000000,"state":"active","ping":46},{"user_id":350,"name":"'Tis but a scratch","steam_id":76561198118517671,"connected_time":1011000000000,"state":"active","ping":137},{"user_id":366,"name":"eel","steam_id":76561197982878739,"connected_time":537000000000,"state":"active","ping":75},{"user_id":362,"name":"123","steam_id":76561198074299986,"connected_time":698000000000,"state":"active","ping":87},{"user_id":375,"name":"azzy","steam_id":76561198061293740,"connected_time":176000000000,"state":"active","ping":80}]},{"server_id":110,"name":"Uncletopia | Frankfurt | 2 | All Maps","name_short":"frk-2","host":"frk-1.de.uncletopia.com","port":27025,"enabled":true,"region":"eu","cc":"de","latitude":50.110924,"longitude":8.682127,"reserved":0,"last_update":"0001-01-01T00:00:00Z","name_a2s":"Uncletopia | Frankfurt | 2 | All Maps","protocol":17,"map":"cp_altitude","folder":"tf","game":"Team Fortress","app_id":440,"player_count":0,"max_players":24,"Bots":0,"server_type":"Dedicated","server_os":"Linux","password":true,"vac":true,"version":"7708610","steam_id":85568392924469990,"keywords":["cp","nocrits","nodmgspread","uncletopia"],"game_id":440,"stv_port":27026,"stv_name":"Uncletopia | Frankfurt | 2 | All Maps | STV","players":null},{"server_id":308,"name":"Uncletopia | Frankfurt | 3 | All Maps","name_short":"frk-3","host":"frk-1.de.uncletopia.com","port":27035,"enabled":true,"region":"eu","cc":"de","latitude":50.110924,"longitude":8.682127,"reserved":0,"last_update":"0001-01-01T00:00:00Z","name_a2s":"Uncletopia | Frankfurt | 3 | All Maps","protocol":17,"map":"pl_barnblitz","folder":"tf","game":"Team Fortress","app_id":440,"player_count":24,"max_players":24,"Bots":0,"server_type":"Dedicated","server_os":"Linux","password":true,"vac":true,"version":"7708610","steam_id":85568392924504274,"keywords":["nocrits","nodmgspread","payload","uncletopia"],"game_id":440,"stv_port":27036,"stv_name":"Uncletopia | Frankfurt | 3 | All Maps | STV","players":[{"user_id":198,"name":"nah.","steam_id":76561199069489046,"connected_time":308000000000,"state":"active","ping":55},{"user_id":153,"name":"KLMWic","steam_id":76561198326277262,"connected_time":2501000000000,"state":"active","ping":76},{"user_id":201,"name":"century","steam_id":76561198091656119,"connected_time":230000000000,"state":"active","ping":53},{"user_id":202,"name":"links7890","steam_id":76561199322683109,"connected_time":206000000000,"state":"active","ping":89},{"user_id":146,"name":"yosif9993","steam_id":76561199294138972,"connected_time":2817000000000,"state":"active","ping":230},{"user_id":71,"name":"night.s","steam_id":76561198326287823,"connected_time":6979000000000,"state":"active","ping":163},{"user_id":190,"name":"2D","steam_id":76561199113659141,"connected_time":749000000000,"state":"active","ping":143},{"user_id":147,"name":"Razvan_Romanul","steam_id":76561199137773085,"connected_time":2788000000000,"state":"active","ping":70},{"user_id":183,"name":"Remyie","steam_id":76561198131031404,"connected_time":1395000000000,"state":"active","ping":101},{"user_id":177,"name":"Crazedspicy","steam_id":76561199004590962,"connected_time":1890000000000,"state":"active","ping":95},{"user_id":178,"name":"DeCypher","steam_id":76561198171992619,"connected_time":1775000000000,"state":"active","ping":65},{"user_id":156,"name":"Nyanzey","steam_id":76561198872362188,"connected_time":2427000000000,"state":"active","ping":48},{"user_id":169,"name":"ablexx","steam_id":76561199112671611,"connected_time":2229000000000,"state":"active","ping":68},{"user_id":118,"name":"KV0737 AKA ORANGE CHEESE BURGER","steam_id":76561198969195317,"connected_time":3963000000000,"state":"active","ping":77},{"user_id":159,"name":"Qwynt","steam_id":76561198365883029,"connected_time":2390000000000,"state":"active","ping":72},{"user_id":184,"name":"hushhx","steam_id":76561198216200092,"connected_time":1354000000000,"state":"active","ping":65},{"user_id":160,"name":"QuantumRange","steam_id":76561198435576260,"connected_time":2389000000000,"state":"active","ping":52},{"user_id":161,"name":"wise ukrainian shaman","steam_id":76561198989398023,"connected_time":2320000000000,"state":"active","ping":108},{"user_id":189,"name":"Birne","steam_id":76561198001335120,"connected_time":920000000000,"state":"active","ping":62},{"user_id":191,"name":"shirtokiya","steam_id":76561198963599425,"connected_time":572000000000,"state":"active","ping":49},{"user_id":172,"name":"Oceanic | tuesday maybe","steam_id":76561197979741827,"connected_time":2107000000000,"state":"active","ping":58},{"user_id":203,"name":"drwhut","steam_id":76561198070218857,"connected_time":170000000000,"state":"active","ping":57},{"user_id":196,"name":"COFFEE","steam_id":76561198869355986,"connected_time":316000000000,"state":"active","ping":65},{"user_id":188,"name":"♫ [IK]-MiKe ♫","steam_id":76561198065380540,"connected_time":971000000000,"state":"active","ping":63}]},{"server_id":309,"name":"Uncletopia | Frankfurt | 4 | All Maps","name_short":"frk-4","host":"frk-1.de.uncletopia.com","port":27045,"enabled":true,"region":"eu","cc":"de","latitude":50.110924,"longitude":8.682127,"reserved":0,"last_update":"0001-01-01T00:00:00Z","name_a2s":"Uncletopia | Frankfurt | 4 | All Maps","protocol":17,"map":"pl_swiftwater_final1","folder":"tf","game":"Team Fortress","app_id":440,"player_count":23,"max_players":24,"Bots":0,"server_type":"Dedicated","server_os":"Linux","password":true,"vac":true,"version":"7708610","steam_id":85568392924504275,"keywords":["nocrits","nodmgspread","payload","uncletopia"],"game_id":440,"stv_port":27046,"stv_name":"Uncletopia | Frankfurt | 4 | All Maps | STV","players":[{"user_id":158,"name":".EXE","steam_id":76561198197246753,"connected_time":1219000000000,"state":"active","ping":78},{"user_id":111,"name":"Hexagon","steam_id":76561198151205758,"connected_time":4766000000000,"state":"active","ping":49},{"user_id":122,"name":"jorj3821","steam_id":76561198844794367,"connected_time":3493000000000,"state":"active","ping":66},{"user_id":183,"name":"jan-anne-wiebe","steam_id":76561199077022985,"connected_time":639000000000,"state":"active","ping":59},{"user_id":184,"name":"Wheeler,Rawson","steam_id":76561198429658370,"connected_time":553000000000,"state":"active","ping":122},{"user_id":174,"name":"stonebum","steam_id":76561198057004606,"connected_time":934000000000,"state":"active","ping":64},{"user_id":152,"name":"Mr. Mundy","steam_id":76561198132008918,"connected_time":1403000000000,"state":"active","ping":78},{"user_id":187,"name":"MorVill","steam_id":76561198809859945,"connected_time":421000000000,"state":"active","ping":65},{"user_id":157,"name":"Phil","steam_id":76561198056877069,"connected_time":1245000000000,"state":"active","ping":48},{"user_id":189,"name":"Vince","steam_id":76561199103000131,"connected_time":383000000000,"state":"active","ping":60},{"user_id":148,"name":"Rat head","steam_id":76561198184360615,"connected_time":1770000000000,"state":"active","ping":90},{"user_id":149,"name":"Pastoss","steam_id":76561198379098260,"connected_time":1716000000000,"state":"active","ping":53},{"user_id":64,"name":"bigwish | bmod.tf","steam_id":76561197997859723,"connected_time":9292000000000,"state":"active","ping":72},{"user_id":188,"name":"Love the Subhuman Self","steam_id":76561198129828715,"connected_time":395000000000,"state":"active","ping":66},{"user_id":190,"name":"viziborju","steam_id":76561199145340529,"connected_time":378000000000,"state":"active","ping":79},{"user_id":161,"name":"Demoflower","steam_id":76561198827103130,"connected_time":1202000000000,"state":"active","ping":64},{"user_id":180,"name":"dddd","steam_id":76561198120894372,"connected_time":707000000000,"state":"active","ping":103},{"user_id":155,"name":"swallowed 10 pennies please hel","steam_id":76561198055816412,"connected_time":1278000000000,"state":"active","ping":61},{"user_id":90,"name":"Crimea a bridge","steam_id":76561198030898371,"connected_time":6832000000000,"state":"active","ping":76},{"user_id":163,"name":"Clitorina","steam_id":76561198077570815,"connected_time":1199000000000,"state":"active","ping":59},{"user_id":156,"name":"luma","steam_id":76561198081649669,"connected_time":1266000000000,"state":"active","ping":62},{"user_id":165,"name":"waffleburrito","steam_id":76561199094073836,"connected_time":1181000000000,"state":"active","ping":73},{"user_id":171,"name":"Fiendish Beandish","steam_id":76561198095237028,"connected_time":994000000000,"state":"active","ping":65}]},{"server_id":310,"name":"Uncletopia | Frankfurt | 5 | All Maps","name_short":"frk-5","host":"frk-1.de.uncletopia.com","port":27055,"enabled":true,"region":"eu","cc":"de","latitude":50.110924,"longitude":8.682127,"reserved":0,"last_update":"0001-01-01T00:00:00Z","name_a2s":"Uncletopia | Frankfurt | 5 | All Maps","protocol":17,"map":"pl_barnblitz","folder":"tf","game":"Team Fortress","app_id":440,"player_count":24,"max_players":24,"Bots":0,"server_type":"Dedicated","server_os":"Linux","password":true,"vac":true,"version":"7708610","steam_id":85568392924504277,"keywords":["nocrits","nodmgspread","payload","uncletopia"],"game_id":440,"stv_port":27056,"stv_name":"Uncletopia | Frankfurt | 5 | All Maps | STV","players":[{"user_id":107,"name":"nplt","steam_id":76561199028509134,"connected_time":532000000000,"state":"active","ping":85},{"user_id":104,"name":"Frank","steam_id":76561198086672774,"connected_time":798000000000,"state":"active","ping":63},{"user_id":115,"name":"solus control unit","steam_id":76561198131944941,"connected_time":393000000000,"state":"active","ping":64},{"user_id":108,"name":"eggslut","steam_id":76561198010752241,"connected_time":510000000000,"state":"active","ping":67},{"user_id":49,"name":"glyph","steam_id":76561197980736364,"connected_time":5010000000000,"state":"active","ping":76},{"user_id":112,"name":"vroom-vroom","steam_id":76561199190415509,"connected_time":427000000000,"state":"active","ping":77},{"user_id":85,"name":"gnarly business","steam_id":76561198832688767,"connected_time":2214000000000,"state":"active","ping":60},{"user_id":116,"name":"lordwiadron420","steam_id":76561198073309557,"connected_time":388000000000,"state":"active","ping":80},{"user_id":117,"name":"0xDEADBEEF","steam_id":76561199075416111,"connected_time":363000000000,"state":"active","ping":91},{"user_id":119,"name":"Some dude who plays tf2","steam_id":76561199257287496,"connected_time":234000000000,"state":"active","ping":136},{"user_id":120,"name":"adi","steam_id":76561199089289211,"connected_time":227000000000,"state":"active","ping":101},{"user_id":109,"name":"the real lancer from deltarune","steam_id":76561199078505144,"connected_time":451000000000,"state":"active","ping":64},{"user_id":100,"name":"Glᴉtch","steam_id":76561199058002606,"connected_time":948000000000,"state":"active","ping":60},{"user_id":75,"name":"PlebCord","steam_id":76561198120685803,"connected_time":2612000000000,"state":"active","ping":82},{"user_id":30,"name":"surny","steam_id":76561198044355417,"connected_time":5789000000000,"state":"active","ping":49},{"user_id":61,"name":"James ;)","steam_id":76561198123159605,"connected_time":3954000000000,"state":"active","ping":62},{"user_id":113,"name":"gorgie","steam_id":76561199032591040,"connected_time":414000000000,"state":"active","ping":83},{"user_id":121,"name":"Нечуй-Левицький","steam_id":76561198870926865,"connected_time":226000000000,"state":"active","ping":55},{"user_id":122,"name":"Larry Penus","steam_id":76561198207546233,"connected_time":187000000000,"state":"active","ping":60},{"user_id":124,"name":"Coworker","steam_id":76561199131260257,"connected_time":139000000000,"state":"active","ping":55},{"user_id":72,"name":"Hibiskus","steam_id":76561198139149114,"connected_time":2688000000000,"state":"active","ping":65},{"user_id":111,"name":"Charles Darwin","steam_id":76561197973496139,"connected_time":442000000000,"state":"active","ping":69},{"user_id":50,"name":"󠀡󠀡","steam_id":76561198406469995,"connected_time":4897000000000,"state":"active","ping":60},{"user_id":71,"name":"Cosmonaut","steam_id":76561198239514504,"connected_time":2767000000000,"state":"active","ping":58}]},{"server_id":311,"name":"Uncletopia | Frankfurt | 6 | All Maps","name_short":"frk-6","host":"frk-1.de.uncletopia.com","port":27065,"enabled":true,"region":"eu","cc":"de","latitude":50.110924,"longitude":8.682127,"reserved":0,"last_update":"0001-01-01T00:00:00Z","name_a2s":"Uncletopia | Frankfurt | 6 | All Maps","protocol":17,"map":"cp_process_final","folder":"tf","game":"Team Fortress","app_id":440,"player_count":10,"max_players":24,"Bots":0,"server_type":"Dedicated","server_os":"Linux","password":true,"vac":true,"version":"7708610","steam_id":85568392924504278,"keywords":["cp","nocrits","nodmgspread","uncletopia"],"game_id":440,"stv_port":27066,"stv_name":"Uncletopia | Frankfurt | 6 | All Maps | STV","players":[{"user_id":148,"name":"fogings","steam_id":76561198044165284,"connected_time":1283000000000,"state":"active","ping":31},{"user_id":174,"name":"Brainlet","steam_id":76561198862617163,"connected_time":303000000000,"state":"active","ping":65},{"user_id":176,"name":"Pruff","steam_id":76561198377084417,"connected_time":141000000000,"state":"active","ping":59},{"user_id":165,"name":"( ]KROAN[ )","steam_id":76561198022840710,"connected_time":531000000000,"state":"active","ping":77},{"user_id":163,"name":"TheFox.tf","steam_id":76561197996851702,"connected_time":577000000000,"state":"active","ping":61},{"user_id":113,"name":"ACG_Dubsy","steam_id":76561198797308565,"connected_time":4944000000000,"state":"active","ping":66},{"user_id":52,"name":"sharkmax12312","steam_id":76561198996008569,"connected_time":11839000000000,"state":"active","ping":70},{"user_id":171,"name":"cister0","steam_id":76561198130195469,"connected_time":415000000000,"state":"active","ping":76},{"user_id":157,"name":"NiceBird","steam_id":76561198072118644,"connected_time":1171000000000,"state":"active","ping":45},{"user_id":169,"name":"fas2roger","steam_id":76561198199226627,"connected_time":482000000000,"state":"active","ping":89}]},{"server_id":23,"name":"Uncletopia | Frankfurt | 7 | No Payload","name_short":"frk-7","host":"frk-1.de.uncletopia.com","port":27075,"enabled":true,"region":"eu","cc":"de","latitude":50.110924,"longitude":8.682127,"reserved":0,"last_update":"0001-01-01T00:00:00Z","name_a2s":"Uncletopia | Frankfurt | 7 | No Payload","protocol":17,"map":"koth_viaduct","folder":"tf","game":"Team Fortress","app_id":440,"player_count":0,"max_players":24,"Bots":0,"server_type":"Dedicated","server_os":"Linux","password":true,"vac":true,"version":"7708610","steam_id":85568392924742827,"keywords":["cp","nocrits","nodmgspread","uncletopia"],"game_id":440,"stv_port":27076,"stv_name":"Uncletopia | Frankfurt | 7 | No Payload | STV","players":null},{"server_id":24,"name":"Uncletopia | Frankfurt | 8 | Community","name_short":"frk-8","host":"frk-1.de.uncletopia.com","port":27085,"enabled":true,"region":"eu","cc":"de","latitude":50.110924,"longitude":8.682127,"reserved":0,"last_update":"0001-01-01T00:00:00Z","name_a2s":"Uncletopia | Frankfurt | 8 | Community","protocol":17,"map":"workshop/cp_overgrown_rc7b.ugc503939302","folder":"tf","game":"Team Fortress","app_id":440,"player_count":0,"max_players":24,"Bots":0,"server_type":"Dedicated","server_os":"Linux","password":true,"vac":true,"version":"7708610","steam_id":85568392924742828,"keywords":["cp","nocrits","nodmgspread","uncletopia"],"game_id":440,"stv_port":27086,"stv_name":"Uncletopia | Frankfurt | 8 | Community | STV","players":null},{"server_id":202,"name":"Uncletopia | Hong Kong | 1 | All Maps","name_short":"hgk-1","host":"hgk-1.hk.uncletopia.com","port":27015,"enabled":true,"region":"asia","cc":"hk","latitude":22.302711,"longitude":114.177216,"reserved":0,"last_update":"0001-01-01T00:00:00Z","name_a2s":"Uncletopia | Hong Kong | 1 | All Maps","protocol":17,"map":"koth_cascade","folder":"tf","game":"Team Fortress","app_id":440,"player_count":0,"max_players":24,"Bots":0,"server_type":"Dedicated","server_os":"Linux","password":true,"vac":true,"version":"7708610","steam_id":85568392924494504,"keywords":["cp","nocrits","nodmgspread","uncletopia"],"game_id":440,"stv_port":27016,"stv_name":"Uncletopia | Hong Kong | 1 | All Maps | STV","players":null},{"server_id":1,"name":"Uncletopia | Los Angeles | 1 | All Maps","name_short":"lax-1","host":"lax-1.us.uncletopia.com","port":27015,"enabled":true,"region":"us-west","cc":"us","latitude":33.94279,"longitude":-118.41004,"reserved":0,"last_update":"0001-01-01T00:00:00Z","name_a2s":"Uncletopia | Los Angeles | 1 | All Maps","protocol":17,"map":"cp_dustbowl","folder":"tf","game":"Team Fortress","app_id":440,"player_count":6,"max_players":24,"Bots":0,"server_type":"Dedicated","server_os":"Linux","password":true,"vac":true,"version":"7708610","steam_id":85568392924469991,"keywords":["cp","nocrits","nodmgspread","uncletopia"],"game_id":440,"stv_port":27016,"stv_name":"Uncletopia | Los Angeles | 1 | All Maps | STV","players":[{"user_id":105,"name":"Manx","steam_id":76561197977134062,"connected_time":1558000000000,"state":"active","ping":64},{"user_id":112,"name":"Schlame-O","steam_id":76561198042518365,"connected_time":699000000000,"state":"active","ping":45},{"user_id":115,"name":"frid","steam_id":76561198005806915,"connected_time":127000000000,"state":"active","ping":111},{"user_id":6,"name":"Noxus","steam_id":76561199009820852,"connected_time":11508000000000,"state":"active","ping":58},{"user_id":108,"name":"M.L.JEW","steam_id":76561198997375055,"connected_time":1177000000000,"state":"active","ping":115},{"user_id":8,"name":"Nibotshooter","steam_id":76561199284825579,"connected_time":11349000000000,"state":"active","ping":59}]},{"server_id":112,"name":"Uncletopia | Los Angeles | 2 | All Maps","name_short":"lax-2","host":"lax-1.us.uncletopia.com","port":27025,"enabled":true,"region":"us-west","cc":"us","latitude":33.94279,"longitude":-118.41004,"reserved":0,"last_update":"0001-01-01T00:00:00Z","name_a2s":"Uncletopia | Los Angeles | 2 | All Maps","protocol":17,"map":"pl_wutville_event","folder":"tf","game":"Team Fortress","app_id":440,"player_count":1,"max_players":24,"Bots":0,"server_type":"Dedicated","server_os":"Linux","password":true,"vac":true,"version":"7708610","steam_id":85568392924469992,"keywords":["nocrits","nodmgspread","payload","uncletopia"],"game_id":440,"stv_port":27026,"stv_name":"Uncletopia | Los Angeles | 2 | All Maps | STV","players":[{"user_id":3,"name":"The Potato Romancer","steam_id":76561198204197648,"connected_time":1434000000000,"state":"active","ping":50}]},{"server_id":324,"name":"Uncletopia | Los Angeles | 3 | All Maps","name_short":"lax-3","host":"lax-1.us.uncletopia.com","port":27035,"enabled":true,"region":"us-west","cc":"us","latitude":33.94279,"longitude":-118.41004,"reserved":0,"last_update":"0001-01-01T00:00:00Z","name_a2s":"Uncletopia | Los Angeles | 3 | All Maps","protocol":17,"map":"koth_viaduct","folder":"tf","game":"Team Fortress","app_id":440,"player_count":0,"max_players":24,"Bots":0,"server_type":"Dedicated","server_os":"Linux","password":true,"vac":true,"version":"7708610","steam_id":85568392924510198,"keywords":["cp","nocrits","nodmgspread","uncletopia"],"game_id":440,"stv_port":27036,"stv_name":"Uncletopia | Los Angeles | 3 | All Maps | STV","players":null},{"server_id":25,"name":"Uncletopia | Los Angeles | 4 | No Payload","name_short":"lax-4","host":"lax-1.us.uncletopia.com","port":27045,"enabled":true,"region":"us-west","cc":"us","latitude":33.94279,"longitude":-118.41004,"reserved":0,"last_update":"0001-01-01T00:00:00Z","name_a2s":"Uncletopia | Los Angeles | 4 | No Payload","protocol":17,"map":"cp_mountainlab","folder":"tf","game":"Team Fortress","app_id":440,"player_count":0,"max_players":24,"Bots":0,"server_type":"Dedicated","server_os":"Linux","password":true,"vac":true,"version":"7708610","steam_id":85568392924510199,"keywords":["cp","nocrits","nodmgspread","uncletopia"],"game_id":440,"stv_port":27046,"stv_name":"Uncletopia | Los Angeles | 4 | No Payload | STV","players":null},{"server_id":11,"name":"Uncletopia | London | 1 | All Maps","name_short":"lon-1","host":"lon-1.uk.uncletopia.com","port":27015,"enabled":true,"region":"eu","cc":"gb","latitude":51.509865,"longitude":-0.118092,"reserved":0,"last_update":"0001-01-01T00:00:00Z","name_a2s":"Uncletopia | London | 1 | All Maps","protocol":17,"map":"koth_sawmill","folder":"tf","game":"Team Fortress","app_id":440,"player_count":24,"max_players":24,"Bots":0,"server_type":"Dedicated","server_os":"Linux","password":true,"vac":true,"version":"7708610","steam_id":85568392924367362,"keywords":["cp","nocrits","nodmgspread","uncletopia"],"game_id":440,"stv_port":27016,"stv_name":"Uncletopia | London | 1 | All Maps | STV","players":[{"user_id":334,"name":"Kanny","steam_id":76561198058810184,"connected_time":238000000000,"state":"active","ping":55},{"user_id":281,"name":"Wyremingo","steam_id":76561198314337596,"connected_time":3095000000000,"state":"active","ping":104},{"user_id":325,"name":"Rabtez","steam_id":76561198846624101,"connected_time":787000000000,"state":"active","ping":122},{"user_id":322,"name":"Linus Mudrocket","steam_id":76561197979606110,"connected_time":924000000000,"state":"active","ping":50},{"user_id":329,"name":"mark feely got put in my zoot","steam_id":76561199117070934,"connected_time":525000000000,"state":"active","ping":44},{"user_id":308,"name":"Solid","steam_id":76561198357049292,"connected_time":1523000000000,"state":"active","ping":95},{"user_id":323,"name":"Chefatron","steam_id":76561198218808579,"connected_time":919000000000,"state":"active","ping":40},{"user_id":299,"name":"Tea","steam_id":76561198799243030,"connected_time":1759000000000,"state":"active","ping":51},{"user_id":296,"name":"TradeDown","steam_id":76561199016426691,"connected_time":1804000000000,"state":"active","ping":88},{"user_id":337,"name":"Lovelessvaccuum","steam_id":76561198079555422,"connected_time":138000000000,"state":"active","ping":42},{"user_id":326,"name":"let him cook.","steam_id":76561198210482280,"connected_time":720000000000,"state":"active","ping":58},{"user_id":285,"name":"KPhii","steam_id":76561198970587061,"connected_time":2581000000000,"state":"active","ping":56},{"user_id":300,"name":"Thesis","steam_id":76561199308784371,"connected_time":1757000000000,"state":"active","ping":53},{"user_id":312,"name":"excessive diarrhea","steam_id":76561198388750592,"connected_time":1404000000000,"state":"active","ping":61},{"user_id":289,"name":"Sorky","steam_id":76561198007502339,"connected_time":1908000000000,"state":"active","ping":74},{"user_id":327,"name":"Brain in a Jar","steam_id":76561197987679715,"connected_time":717000000000,"state":"active","ping":59},{"user_id":309,"name":"Laurence","steam_id":76561199026097466,"connected_time":1516000000000,"state":"active","ping":76},{"user_id":276,"name":"TheLogicult","steam_id":76561198072324306,"connected_time":3372000000000,"state":"active","ping":35},{"user_id":301,"name":"Bonca","steam_id":76561198137503531,"connected_time":1745000000000,"state":"active","ping":75},{"user_id":302,"name":"soil.dirt.earth","steam_id":76561198014377623,"connected_time":1742000000000,"state":"active","ping":55},{"user_id":331,"name":"Phoenix748","steam_id":76561198025765158,"connected_time":296000000000,"state":"active","ping":57},{"user_id":330,"name":"Mika","steam_id":76561199183780280,"connected_time":513000000000,"state":"active","ping":58},{"user_id":314,"name":"=flashpoint=","steam_id":76561197976774456,"connected_time":1396000000000,"state":"active","ping":47},{"user_id":336,"name":"w00sh","steam_id":76561198179463343,"connected_time":154000000000,"state":"active","ping":47}]},{"server_id":114,"name":"Uncletopia | London | 2 | All Maps","name_short":"lon-2","host":"lon-1.uk.uncletopia.com","port":27025,"enabled":true,"region":"eu","cc":"gb","latitude":51.509865,"longitude":-0.118092,"reserved":0,"last_update":"0001-01-01T00:00:00Z","name_a2s":"Uncletopia | London | 2 | All Maps","protocol":17,"map":"koth_cascade","folder":"tf","game":"Team Fortress","app_id":440,"player_count":4,"max_players":24,"Bots":0,"server_type":"Dedicated","server_os":"Linux","password":true,"vac":true,"version":"7708610","steam_id":85568392924470941,"keywords":["cp","nocrits","nodmgspread","uncletopia"],"game_id":440,"stv_port":27026,"stv_name":"Uncletopia | London | 2 | All Maps | STV","players":[{"user_id":22,"name":"Negu$","steam_id":76561198046590288,"connected_time":194000000000,"state":"active","ping":162},{"user_id":23,"name":"Vinyl :3","steam_id":76561197999631733,"connected_time":190000000000,"state":"active","ping":69},{"user_id":24,"name":"SliQster","steam_id":76561198036797969,"connected_time":190000000000,"state":"active","ping":72},{"user_id":25,"name":"Pagon","steam_id":76561197997804336,"connected_time":186000000000,"state":"active","ping":62}]},{"server_id":320,"name":"Uncletopia | London | 3 | All Maps","name_short":"lon-3","host":"lon-1.uk.uncletopia.com","port":27035,"enabled":true,"region":"eu","cc":"gb","latitude":51.509865,"longitude":-0.118092,"reserved":0,"last_update":"0001-01-01T00:00:00Z","name_a2s":"Uncletopia | London | 3 | All Maps","protocol":17,"map":"pl_barnblitz","folder":"tf","game":"Team Fortress","app_id":440,"player_count":24,"max_players":24,"Bots":0,"server_type":"Dedicated","server_os":"Linux","password":true,"vac":true,"version":"7708610","steam_id":85568392924510192,"keywords":["nocrits","nodmgspread","payload","uncletopia"],"game_id":440,"stv_port":27036,"stv_name":"Uncletopia | London | 3 | All Maps | STV","players":[{"user_id":382,"name":"i am bread","steam_id":76561199180277321,"connected_time":165000000000,"state":"active","ping":44},{"user_id":344,"name":"Roundabout","steam_id":76561198070080389,"connected_time":3303000000000,"state":"active","ping":165},{"user_id":370,"name":"SlwoFø","steam_id":76561198049663931,"connected_time":927000000000,"state":"active","ping":57},{"user_id":365,"name":"My name is Spencer, Di Spencer","steam_id":76561198152697674,"connected_time":1321000000000,"state":"active","ping":63},{"user_id":267,"name":"|Bobby|","steam_id":76561198154208319,"connected_time":7384000000000,"state":"active","ping":64},{"user_id":390,"name":"ribs","steam_id":76561198354735240,"connected_time":42000000000,"state":"spawning","ping":194},{"user_id":283,"name":"Healsl_t Puppu","steam_id":76561197991743380,"connected_time":6368000000000,"state":"active","ping":47},{"user_id":355,"name":"UltimateSlayer","steam_id":76561198384109309,"connected_time":2546000000000,"state":"active","ping":56},{"user_id":295,"name":"Lyra","steam_id":76561198043601838,"connected_time":5489000000000,"state":"active","ping":60},{"user_id":371,"name":"StefaNN","steam_id":76561198075273499,"connected_time":900000000000,"state":"active","ping":60},{"user_id":372,"name":"t.tv/LavenderJayJay04","steam_id":76561198966667657,"connected_time":876000000000,"state":"active","ping":49},{"user_id":352,"name":"dog","steam_id":76561198295237946,"connected_time":3046000000000,"state":"active","ping":153},{"user_id":384,"name":"CarbonPan","steam_id":76561198072169983,"connected_time":148000000000,"state":"active","ping":144},{"user_id":385,"name":"Tomfool","steam_id":76561197993256481,"connected_time":144000000000,"state":"active","ping":83},{"user_id":386,"name":"Mex","steam_id":76561198108279631,"connected_time":134000000000,"state":"active","ping":79},{"user_id":368,"name":"Maximalsound","steam_id":76561198068246502,"connected_time":1154000000000,"state":"active","ping":51},{"user_id":387,"name":"Michael","steam_id":76561198003146906,"connected_time":125000000000,"state":"active","ping":45},{"user_id":332,"name":"You're mum","steam_id":76561198053961616,"connected_time":3945000000000,"state":"active","ping":57},{"user_id":375,"name":"Gearslut","steam_id":76561198114601678,"connected_time":836000000000,"state":"active","ping":55},{"user_id":388,"name":"Sheerluck Holmes","steam_id":76561198051161936,"connected_time":119000000000,"state":"active","ping":46},{"user_id":347,"name":"Fox","steam_id":76561198079364100,"connected_time":3263000000000,"state":"active","ping":76},{"user_id":376,"name":"Stagred","steam_id":76561198055973266,"connected_time":791000000000,"state":"active","ping":135},{"user_id":389,"name":"r0la","steam_id":76561198128315340,"connected_time":118000000000,"state":"active","ping":77},{"user_id":367,"name":"blue mean-eyes","steam_id":76561198060105180,"connected_time":1307000000000,"state":"active","ping":68}]},{"server_id":321,"name":"Uncletopia | London | 4 | All Maps","name_short":"lon-4","host":"lon-1.uk.uncletopia.com","port":27045,"enabled":true,"region":"eu","cc":"gb","latitude":51.509865,"longitude":-0.118092,"reserved":0,"last_update":"0001-01-01T00:00:00Z","name_a2s":"Uncletopia | London | 4 | All Maps","protocol":17,"map":"pl_borneo","folder":"tf","game":"Team Fortress","app_id":440,"player_count":24,"max_players":24,"Bots":0,"server_type":"Dedicated","server_os":"Linux","password":true,"vac":true,"version":"7708610","steam_id":85568392924510193,"keywords":["nocrits","nodmgspread","payload","uncletopia"],"game_id":440,"stv_port":27046,"stv_name":"Uncletopia | London | 4 | All Maps | STV","players":[{"user_id":585,"name":"After8","steam_id":76561198090750865,"connected_time":2624000000000,"state":"active","ping":75},{"user_id":621,"name":"Tort","steam_id":76561198329646769,"connected_time":302000000000,"state":"active","ping":49},{"user_id":597,"name":"jingleboob","steam_id":76561198097507847,"connected_time":1991000000000,"state":"active","ping":92},{"user_id":572,"name":"Foonguz","steam_id":76561198834610534,"connected_time":2927000000000,"state":"active","ping":62},{"user_id":604,"name":"jankomit","steam_id":76561198043024857,"connected_time":1767000000000,"state":"active","ping":89},{"user_id":630,"name":"twitch.tv/biofun_","steam_id":76561198170609049,"connected_time":105000000000,"state":"active","ping":67},{"user_id":603,"name":"ToniGAM3S","steam_id":76561198128605351,"connected_time":1839000000000,"state":"active","ping":67},{"user_id":605,"name":"Udinese Dion","steam_id":76561198067931573,"connected_time":1763000000000,"state":"active","ping":70},{"user_id":602,"name":"Raivop","steam_id":76561197980854307,"connected_time":1933000000000,"state":"active","ping":87},{"user_id":607,"name":"beefy \u003c3","steam_id":76561198045347066,"connected_time":878000000000,"state":"active","ping":65},{"user_id":599,"name":"Kahvi","steam_id":76561198723244199,"connected_time":1964000000000,"state":"active","ping":75},{"user_id":622,"name":"Noob_with_source","steam_id":76561198870362103,"connected_time":294000000000,"state":"active","ping":57},{"user_id":615,"name":"Cheshireycat","steam_id":76561198067204908,"connected_time":528000000000,"state":"active","ping":60},{"user_id":629,"name":"The Guy","steam_id":76561199066895875,"connected_time":185000000000,"state":"active","ping":73},{"user_id":623,"name":"Cowboy Raphael","steam_id":76561198073392914,"connected_time":285000000000,"state":"active","ping":53},{"user_id":624,"name":"yusef","steam_id":76561198108481078,"connected_time":277000000000,"state":"active","ping":112},{"user_id":611,"name":"Ben UFO","steam_id":76561198001648348,"connected_time":611000000000,"state":"active","ping":52},{"user_id":616,"name":"makarov","steam_id":76561198363892870,"connected_time":498000000000,"state":"active","ping":64},{"user_id":561,"name":"lulu","steam_id":76561199147764133,"connected_time":3286000000000,"state":"active","ping":78},{"user_id":626,"name":"PermaFrost","steam_id":76561199008271062,"connected_time":268000000000,"state":"active","ping":98},{"user_id":627,"name":"the boss","steam_id":76561198353190790,"connected_time":267000000000,"state":"active","ping":63},{"user_id":628,"name":"Sgt. Kirk Lazarus","steam_id":76561198148723315,"connected_time":264000000000,"state":"active","ping":47},{"user_id":592,"name":"Benzo Fury","steam_id":76561198025259336,"connected_time":2286000000000,"state":"active","ping":43},{"user_id":596,"name":"Vershal Smershal","steam_id":76561198116223995,"connected_time":2031000000000,"state":"active","ping":56}]},{"server_id":21,"name":"Uncletopia | London | 5 | All Maps","name_short":"lon-5","host":"lon-1.uk.uncletopia.com","port":27055,"enabled":true,"region":"eu","cc":"gb","latitude":51.509865,"longitude":-0.118092,"reserved":0,"last_update":"0001-01-01T00:00:00Z","name_a2s":"Uncletopia | London | 5 | All Maps","protocol":17,"map":"pl_badwater","folder":"tf","game":"Team Fortress","app_id":440,"player_count":24,"max_players":24,"Bots":0,"server_type":"Dedicated","server_os":"Linux","password":true,"vac":true,"version":"7708610","steam_id":85568392924742829,"keywords":["nocrits","nodmgspread","payload","uncletopia"],"game_id":440,"stv_port":27056,"stv_name":"Uncletopia | London | 5 | All Maps | STV","players":[{"user_id":540,"name":"Paul Penix","steam_id":76561197996941396,"connected_time":951000000000,"state":"active","ping":53},{"user_id":526,"name":"Micheal","steam_id":76561198010791637,"connected_time":1465000000000,"state":"active","ping":59},{"user_id":509,"name":"fuo","steam_id":76561197995536944,"connected_time":2742000000000,"state":"active","ping":33},{"user_id":527,"name":"Joe","steam_id":76561198061717026,"connected_time":1322000000000,"state":"active","ping":47},{"user_id":523,"name":"Gardvord","steam_id":76561198120715753,"connected_time":1595000000000,"state":"active","ping":65},{"user_id":506,"name":"nedilya","steam_id":76561198039692077,"connected_time":2800000000000,"state":"active","ping":68},{"user_id":542,"name":"ciliorkun18","steam_id":76561198228942500,"connected_time":924000000000,"state":"active","ping":92},{"user_id":515,"name":"abigail","steam_id":76561198132932617,"connected_time":2390000000000,"state":"active","ping":61},{"user_id":539,"name":"mea culpa","steam_id":76561198064115286,"connected_time":958000000000,"state":"active","ping":68},{"user_id":541,"name":"Dr. Funkenstein","steam_id":76561197977816210,"connected_time":948000000000,"state":"active","ping":47},{"user_id":543,"name":":weary:","steam_id":76561198075539799,"connected_time":881000000000,"state":"active","ping":48},{"user_id":499,"name":"LOBZIK","steam_id":76561198114830120,"connected_time":3715000000000,"state":"active","ping":76},{"user_id":558,"name":"Gideon","steam_id":76561198045132575,"connected_time":274000000000,"state":"active","ping":43},{"user_id":544,"name":"zhern","steam_id":76561198027033926,"connected_time":851000000000,"state":"active","ping":56},{"user_id":545,"name":"Krabs","steam_id":76561198161679477,"connected_time":843000000000,"state":"active","ping":44},{"user_id":535,"name":"「◆Raku• 」","steam_id":76561198059283183,"connected_time":1043000000000,"state":"active","ping":88},{"user_id":546,"name":"ayuumi","steam_id":76561198796327257,"connected_time":781000000000,"state":"active","ping":61},{"user_id":555,"name":"FLOWER","steam_id":76561198043564060,"connected_time":318000000000,"state":"active","ping":58},{"user_id":559,"name":"Mr. Hunts","steam_id":76561197981910397,"connected_time":150000000000,"state":"active","ping":60},{"user_id":548,"name":"Mario","steam_id":76561198053838936,"connected_time":767000000000,"state":"active","ping":93},{"user_id":557,"name":"Dark Lord","steam_id":76561198047359132,"connected_time":302000000000,"state":"active","ping":74},{"user_id":549,"name":"AvocadoConstant","steam_id":76561198343031982,"connected_time":759000000000,"state":"active","ping":75},{"user_id":550,"name":"Żhąńßěñ Ķā§ęñøv","steam_id":76561198994666888,"connected_time":751000000000,"state":"active","ping":173},{"user_id":553,"name":"LinkfulVevo","steam_id":76561198881453997,"connected_time":440000000000,"state":"active","ping":44}]},{"server_id":22,"name":"Uncletopia | London | 6 | All Maps","name_short":"lon-6","host":"lon-1.uk.uncletopia.com","port":27065,"enabled":true,"region":"eu","cc":"gb","latitude":51.509865,"longitude":-0.118092,"reserved":0,"last_update":"0001-01-01T00:00:00Z","name_a2s":"Uncletopia | London | 6 | All Maps","protocol":17,"map":"pl_frontier_final","folder":"tf","game":"Team Fortress","app_id":440,"player_count":0,"max_players":24,"Bots":0,"server_type":"Dedicated","server_os":"Linux","password":true,"vac":true,"version":"7708610","steam_id":85568392924742830,"keywords":["nocrits","nodmgspread","payload","uncletopia"],"game_id":440,"stv_port":27066,"stv_name":"Uncletopia | London | 6 | All Maps | STV","players":null},{"server_id":40,"name":"Uncletopia | London | 7 | No Payload","name_short":"lon-7","host":"lon-1.uk.uncletopia.com","port":27075,"enabled":true,"region":"eu","cc":"gb","latitude":51.509865,"longitude":-0.118092,"reserved":0,"last_update":"0001-01-01T00:00:00Z","name_a2s":"Uncletopia | London | 7 | No Payload","protocol":17,"map":"koth_lakeside_final","folder":"tf","game":"Team Fortress","app_id":440,"player_count":0,"max_players":24,"Bots":0,"server_type":"Dedicated","server_os":"Linux","password":true,"vac":true,"version":"7708610","steam_id":85568392924964314,"keywords":["cp","nocrits","nodmgspread","uncletopia"],"game_id":440,"stv_port":27076,"stv_name":"Uncletopia | London | 7 | No Payload | STV","players":null},{"server_id":41,"name":"Uncletopia | London | 8 | Community","name_short":"lon-8","host":"lon-1.uk.uncletopia.com","port":27085,"enabled":true,"region":"eu","cc":"gb","latitude":51.509865,"longitude":-0.118092,"reserved":0,"last_update":"0001-01-01T00:00:00Z","name_a2s":"Uncletopia | London | 8 | Community","protocol":17,"map":"workshop/pl_fifthcurve_rc1.ugc648227046","folder":"tf","game":"Team Fortress","app_id":440,"player_count":0,"max_players":24,"Bots":0,"server_type":"Dedicated","server_os":"Linux","password":true,"vac":true,"version":"7708610","steam_id":85568392924964315,"keywords":["nocrits","nodmgspread","payload","uncletopia"],"game_id":440,"stv_port":27086,"stv_name":"Uncletopia | London | 8 | Community | STV","players":null},{"server_id":300,"name":"Uncletopia | Montréal | 1 | All Maps","name_short":"mtl-1","host":"mtl-1.ca.uncletopia.com","port":27015,"enabled":true,"region":"us-east","cc":"ca","latitude":45.50889,"longitude":-73.56167,"reserved":0,"last_update":"0001-01-01T00:00:00Z","name_a2s":"Uncletopia | Montréal | 1 | All Maps","protocol":17,"map":"pl_frontier_final","folder":"tf","game":"Team Fortress","app_id":440,"player_count":0,"max_players":24,"Bots":0,"server_type":"Dedicated","server_os":"Linux","password":true,"vac":true,"version":"7708610","steam_id":85568392924500087,"keywords":["nocrits","nodmgspread","payload","uncletopia"],"game_id":440,"stv_port":27016,"stv_name":"Uncletopia | Montréal | 1 | All Maps | STV","players":null},{"server_id":301,"name":"Uncletopia | Montréal | 2 | All Maps","name_short":"mtl-2","host":"mtl-1.ca.uncletopia.com","port":27025,"enabled":true,"region":"us-east","cc":"ca","latitude":45.50889,"longitude":-73.56167,"reserved":0,"last_update":"0001-01-01T00:00:00Z","name_a2s":"Uncletopia | Montréal | 2 | All Maps","protocol":17,"map":"pl_borneo","folder":"tf","game":"Team Fortress","app_id":440,"player_count":0,"max_players":24,"Bots":0,"server_type":"Dedicated","server_os":"Linux","password":true,"vac":true,"version":"7708610","steam_id":85568392924500088,"keywords":["nocrits","nodmgspread","payload","uncletopia"],"game_id":440,"stv_port":27026,"stv_name":"Uncletopia | Montréal | 2 | All Maps | STV","players":null},{"server_id":302,"name":"Uncletopia | Montréal | 3 | All Maps","name_short":"mtl-3","host":"mtl-1.ca.uncletopia.com","port":27035,"enabled":true,"region":"us-east","cc":"ca","latitude":45.50889,"longitude":-73.56167,"reserved":0,"last_update":"0001-01-01T00:00:00Z","name_a2s":"Uncletopia | Montréal | 3 | All Maps","protocol":17,"map":"cp_snakewater_final1","folder":"tf","game":"Team Fortress","app_id":440,"player_count":0,"max_players":24,"Bots":0,"server_type":"Dedicated","server_os":"Linux","password":true,"vac":true,"version":"7708610","steam_id":85568392924500089,"keywords":["cp","nocrits","nodmgspread","uncletopia"],"game_id":440,"stv_port":27036,"stv_name":"Uncletopia | Montréal | 3 | All Maps | STV","players":null},{"server_id":303,"name":"Uncletopia | Montréal | 4 | No Payload","name_short":"mtl-4","host":"mtl-1.ca.uncletopia.com","port":27045,"enabled":true,"region":"us-east","cc":"ca","latitude":45.50889,"longitude":-73.56167,"reserved":0,"last_update":"0001-01-01T00:00:00Z","name_a2s":"Uncletopia | Montréal | 4 | No Payload","protocol":17,"map":"cp_snakewater_final1","folder":"tf","game":"Team Fortress","app_id":440,"player_count":0,"max_players":24,"Bots":0,"server_type":"Dedicated","server_os":"Linux","password":true,"vac":true,"version":"7708610","steam_id":85568392924500090,"keywords":["cp","nocrits","nodmgspread","uncletopia"],"game_id":440,"stv_port":27046,"stv_name":"Uncletopia | Montréal | 4 | No Payload | STV","players":null},{"server_id":13,"name":"Uncletopia | New York City | 1 | All Maps","name_short":"nyc-1","host":"nyc-1.us.uncletopia.com","port":27015,"enabled":true,"region":"us-east","cc":"us","latitude":40.73061,"longitude":-73.93524,"reserved":0,"last_update":"0001-01-01T00:00:00Z","name_a2s":"Uncletopia | New York City | 1 | All Maps","protocol":17,"map":"pl_swiftwater_final1","folder":"tf","game":"Team Fortress","app_id":440,"player_count":0,"max_players":24,"Bots":0,"server_type":"Dedicated","server_os":"Linux","password":true,"vac":true,"version":"7708610","steam_id":85568392924469993,"keywords":["nocrits","nodmgspread","payload","uncletopia"],"game_id":440,"stv_port":27016,"stv_name":"Uncletopia | New York City | 1 | All Maps | STV","players":null},{"server_id":14,"name":"Uncletopia | New York City | 2 | All Maps","name_short":"nyc-2","host":"nyc-1.us.uncletopia.com","port":27025,"enabled":true,"region":"us-east","cc":"us","latitude":40.73061,"longitude":-73.93524,"reserved":0,"last_update":"0001-01-01T00:00:00Z","name_a2s":"Uncletopia | New York City | 2 | All Maps","protocol":17,"map":"pl_badwater","folder":"tf","game":"Team Fortress","app_id":440,"player_count":0,"max_players":24,"Bots":0,"server_type":"Dedicated","server_os":"Linux","password":true,"vac":true,"version":"7708610","steam_id":85568392924469994,"keywords":["nocrits","nodmgspread","payload","uncletopia"],"game_id":440,"stv_port":27026,"stv_name":"Uncletopia | New York City | 2 | All Maps | STV","players":null},{"server_id":15,"name":"Uncletopia | New York City | 3 | All Maps","name_short":"nyc-3","host":"nyc-1.us.uncletopia.com","port":27035,"enabled":true,"region":"us-east","cc":"us","latitude":40.73061,"longitude":-73.93524,"reserved":0,"last_update":"0001-01-01T00:00:00Z","name_a2s":"Uncletopia | New York City | 3 | All Maps","protocol":17,"map":"cp_mountainlab","folder":"tf","game":"Team Fortress","app_id":440,"player_count":0,"max_players":24,"Bots":0,"server_type":"Dedicated","server_os":"Linux","password":true,"vac":true,"version":"7708610","steam_id":85568392924742820,"keywords":["cp","nocrits","nodmgspread","uncletopia"],"game_id":440,"stv_port":27036,"stv_name":"Uncletopia | New York City | 3 | All Maps | STV","players":null},{"server_id":16,"name":"Uncletopia | New York City | 4 | Community","name_short":"nyc-4","host":"nyc-1.us.uncletopia.com","port":27045,"enabled":true,"region":"us-east","cc":"us","latitude":40.73061,"longitude":-73.93524,"reserved":0,"last_update":"0001-01-01T00:00:00Z","name_a2s":"Uncletopia | New York City | 4 | Community","protocol":17,"map":"pl_barnblitz","folder":"tf","game":"Team Fortress","app_id":440,"player_count":0,"max_players":24,"Bots":0,"server_type":"Dedicated","server_os":"Linux","password":true,"vac":true,"version":"7708610","steam_id":85568392924742821,"keywords":["nocrits","nodmgspread","payload","uncletopia"],"game_id":440,"stv_port":27046,"stv_name":"Uncletopia | New York City | 4 | Community | STV","players":null},{"server_id":142,"name":"Uncletopia | São Paulo | 1 | All Maps","name_short":"sao-1","host":"sao-1.br.uncletopia.com","port":27015,"enabled":true,"region":"sa","cc":"br","latitude":-23.533773,"longitude":-46.62529,"reserved":0,"last_update":"0001-01-01T00:00:00Z","name_a2s":"Uncletopia | São Paulo | 1 | All Maps","protocol":17,"map":"koth_sawmill","folder":"tf","game":"Team Fortress","app_id":440,"player_count":10,"max_players":24,"Bots":0,"server_type":"Dedicated","server_os":"Linux","password":true,"vac":true,"version":"7708610","steam_id":85568392924469996,"keywords":["cp","nocrits","nodmgspread","uncletopia"],"game_id":440,"stv_port":27016,"stv_name":"Uncletopia | São Paulo | 1 | All Maps | STV","players":[{"user_id":32,"name":"olavudante","steam_id":76561199385333299,"connected_time":5308000000000,"state":"active","ping":110},{"user_id":46,"name":"Sublime157","steam_id":76561198202847430,"connected_time":3081000000000,"state":"active","ping":74},{"user_id":66,"name":"siirtyaoliveira","steam_id":76561199176805537,"connected_time":904000000000,"state":"active","ping":46},{"user_id":38,"name":"Jasper","steam_id":76561198056759252,"connected_time":4601000000000,"state":"active","ping":65},{"user_id":68,"name":"(teu pai morreu O_O)","steam_id":76561199247537921,"connected_time":587000000000,"state":"active","ping":35},{"user_id":52,"name":"Joji","steam_id":76561199227687766,"connected_time":2100000000000,"state":"active","ping":45},{"user_id":58,"name":"space cowboy","steam_id":76561198384852263,"connected_time":1178000000000,"state":"active","ping":106},{"user_id":59,"name":"Architect","steam_id":76561198895061602,"connected_time":1159000000000,"state":"active","ping":102},{"user_id":71,"name":"RHD BRAZIL [\u003c O \u003e]","steam_id":76561198028190080,"connected_time":529000000000,"state":"active","ping":34},{"user_id":72,"name":"Jack el facha","steam_id":76561199407516281,"connected_time":505000000000,"state":"active","ping":424}]},{"server_id":143,"name":"Uncletopia | São Paulo | 2 | All Maps","name_short":"sao-2","host":"sao-2.br.uncletopia.com","port":27015,"enabled":true,"region":"sa","cc":"br","latitude":-23.533773,"longitude":-46.62529,"reserved":0,"last_update":"0001-01-01T00:00:00Z","name_a2s":"Uncletopia | São Paulo | 2 | All Maps","protocol":17,"map":"koth_viaduct","folder":"tf","game":"Team Fortress","app_id":440,"player_count":0,"max_players":24,"Bots":0,"server_type":"Dedicated","server_os":"Linux","password":true,"vac":true,"version":"7708610","steam_id":85568392924485349,"keywords":["cp","nocrits","nodmgspread","uncletopia"],"game_id":440,"stv_port":27016,"stv_name":"Uncletopia | São Paulo | 2 | All Maps | STV","players":null},{"server_id":7,"name":"Uncletopia | Seattle | 1 | All Maps","name_short":"sea-1","host":"sea-1.us.uncletopia.com","port":27015,"enabled":true,"region":"us-west","cc":"us","latitude":47.608013,"longitude":-122.33517,"reserved":0,"last_update":"0001-01-01T00:00:00Z","name_a2s":"Uncletopia | Seattle | 1 | All Maps","protocol":17,"map":"koth_cascade","folder":"tf","game":"Team Fortress","app_id":440,"player_count":0,"max_players":24,"Bots":0,"server_type":"Dedicated","server_os":"Linux","password":true,"vac":true,"version":"7708610","steam_id":85568392924469997,"keywords":["cp","nocrits","nodmgspread","uncletopia"],"game_id":440,"stv_port":27016,"stv_name":"Uncletopia | Seattle | 1 | All Maps | STV","players":null},{"server_id":119,"name":"Uncletopia | Seattle | 2 | All Maps","name_short":"sea-2","host":"sea-1.us.uncletopia.com","port":27025,"enabled":true,"region":"us-west","cc":"us","latitude":47.608013,"longitude":-122.33517,"reserved":0,"last_update":"0001-01-01T00:00:00Z","name_a2s":"Uncletopia | Seattle | 2 | All Maps","protocol":17,"map":"pl_pier","folder":"tf","game":"Team Fortress","app_id":440,"player_count":0,"max_players":24,"Bots":0,"server_type":"Dedicated","server_os":"Linux","password":true,"vac":true,"version":"7708610","steam_id":85568392924469998,"keywords":["nocrits","nodmgspread","payload","uncletopia"],"game_id":440,"stv_port":27026,"stv_name":"Uncletopia | Seattle | 2 | All Maps | STV","players":null},{"server_id":17,"name":"Uncletopia | San Francisco | 1 | All Maps","name_short":"sfo-1","host":"sfo-1.us.uncletopia.com","port":27015,"enabled":true,"region":"us-west","cc":"us","latitude":37.77397,"longitude":-122.4313,"reserved":0,"last_update":"0001-01-01T00:00:00Z","name_a2s":"Uncletopia | San Francisco | 1 | All Maps","protocol":17,"map":"pl_barnblitz","folder":"tf","game":"Team Fortress","app_id":440,"player_count":0,"max_players":24,"Bots":0,"server_type":"Dedicated","server_os":"Linux","password":true,"vac":true,"version":"7708610","steam_id":85568392924469999,"keywords":["nocrits","nodmgspread","payload","uncletopia"],"game_id":440,"stv_port":27016,"stv_name":"Uncletopia | San Francisco | 1 | All Maps | STV","players":null},{"server_id":18,"name":"Uncletopia | San Francisco | 2 | All Maps","name_short":"sfo-2","host":"sfo-1.us.uncletopia.com","port":27025,"enabled":true,"region":"us-west","cc":"us","latitude":37.77397,"longitude":-122.4313,"reserved":0,"last_update":"0001-01-01T00:00:00Z","name_a2s":"Uncletopia | San Francisco | 2 | All Maps","protocol":17,"map":"pl_upward","folder":"tf","game":"Team Fortress","app_id":440,"player_count":0,"max_players":24,"Bots":0,"server_type":"Dedicated","server_os":"Linux","password":true,"vac":true,"version":"7708610","steam_id":85568392924470000,"keywords":["nocrits","nodmgspread","payload","uncletopia"],"game_id":440,"stv_port":27026,"stv_name":"Uncletopia | San Francisco | 2 | All Maps | STV","players":null},{"server_id":19,"name":"Uncletopia | San Francisco | 3 | No Payload","name_short":"sfo-3","host":"sfo-1.us.uncletopia.com","port":27035,"enabled":true,"region":"us-west","cc":"us","latitude":37.77397,"longitude":-122.4313,"reserved":0,"last_update":"0001-01-01T00:00:00Z","name_a2s":"Uncletopia | San Francisco | 3 | No Payload","protocol":17,"map":"pl_borneo","folder":"tf","game":"Team Fortress","app_id":440,"player_count":0,"max_players":24,"Bots":0,"server_type":"Dedicated","server_os":"Linux","password":true,"vac":true,"version":"7708610","steam_id":85568392924742824,"keywords":["nocrits","nodmgspread","payload","uncletopia"],"game_id":440,"stv_port":27036,"stv_name":"Uncletopia | San Francisco | 3 | No Payload | STV","players":null},{"server_id":20,"name":"Uncletopia | San Francisco | 4 | Community","name_short":"sfo-4","host":"sfo-1.us.uncletopia.com","port":27045,"enabled":true,"region":"us-west","cc":"us","latitude":37.77397,"longitude":-122.4313,"reserved":0,"last_update":"0001-01-01T00:00:00Z","name_a2s":"Uncletopia | San Francisco | 4 | Community","protocol":17,"map":"pl_frontier_final","folder":"tf","game":"Team Fortress","app_id":440,"player_count":0,"max_players":24,"Bots":0,"server_type":"Dedicated","server_os":"Linux","password":true,"vac":true,"version":"7708610","steam_id":85568392924742826,"keywords":["nocrits","nodmgspread","payload","uncletopia"],"game_id":440,"stv_port":27046,"stv_name":"Uncletopia | San Francisco | 4 | Community | STV","players":null},{"server_id":141,"name":"Uncletopia | Sydney | 1 | All Maps","name_short":"syd-1","host":"syd-1.au.uncletopia.com","port":27015,"enabled":true,"region":"au","cc":"au","latitude":-33.865143,"longitude":151.2099,"reserved":0,"last_update":"0001-01-01T00:00:00Z","name_a2s":"Uncletopia | Sydney | 1 | All Maps","protocol":17,"map":"koth_cascade","folder":"tf","game":"Team Fortress","app_id":440,"player_count":0,"max_players":24,"Bots":0,"server_type":"Dedicated","server_os":"Linux","password":true,"vac":true,"version":"7708610","steam_id":85568392924470001,"keywords":["cp","nocrits","nodmgspread","uncletopia"],"game_id":440,"stv_port":27016,"stv_name":"Uncletopia | Sydney | 1 | All Maps | STV","players":null},{"server_id":123,"name":"Uncletopia | Sydney | 2 | All Maps","name_short":"syd-2","host":"syd-1.au.uncletopia.com","port":27025,"enabled":true,"region":"au","cc":"au","latitude":-33.865143,"longitude":151.2099,"reserved":0,"last_update":"0001-01-01T00:00:00Z","name_a2s":"Uncletopia | Sydney | 2 | All Maps","protocol":17,"map":"cp_dustbowl","folder":"tf","game":"Team Fortress","app_id":440,"player_count":0,"max_players":24,"Bots":0,"server_type":"Dedicated","server_os":"Linux","password":true,"vac":true,"version":"7708610","steam_id":85568392924470002,"keywords":["cp","nocrits","nodmgspread","uncletopia"],"game_id":440,"stv_port":27026,"stv_name":"Uncletopia | Sydney | 2 | All Maps | STV","players":null},{"server_id":395,"name":"Uncletopia | Sydney | 3 | All Maps","name_short":"syd-3","host":"syd-1.au.uncletopia.com","port":27035,"enabled":true,"region":"au","cc":"au","latitude":-33.865143,"longitude":151.2099,"reserved":0,"last_update":"0001-01-01T00:00:00Z","name_a2s":"Uncletopia | Sydney | 3 | All Maps","protocol":17,"map":"koth_cascade","folder":"tf","game":"Team Fortress","app_id":440,"player_count":0,"max_players":24,"Bots":0,"server_type":"Dedicated","server_os":"Linux","password":true,"vac":true,"version":"7708610","steam_id":85568392925194467,"keywords":["cp","nocrits","nodmgspread","uncletopia"],"game_id":440,"stv_port":27036,"stv_name":"Uncletopia | Sydney | 3 | All Maps | STV","players":null},{"server_id":396,"name":"Uncletopia | Sydney | 4 | All Maps","name_short":"syd-4","host":"syd-1.au.uncletopia.com","port":27045,"enabled":true,"region":"au","cc":"au","latitude":-33.865143,"longitude":151.2099,"reserved":0,"last_update":"0001-01-01T00:00:00Z","name_a2s":"Uncletopia | Sydney | 4 | All Maps","protocol":17,"map":"koth_viaduct","folder":"tf","game":"Team Fortress","app_id":440,"player_count":0,"max_players":24,"Bots":0,"server_type":"Dedicated","server_os":"Linux","password":true,"vac":true,"version":"7708610","steam_id":85568392925397958,"keywords":["cp","nocrits","nodmgspread","uncletopia"],"game_id":440,"stv_port":27046,"stv_name":"Uncletopia | Sydney | 4 | All Maps | STV","players":null},{"server_id":58,"name":"Uncletopia | Sydney | 5 | No Payload","name_short":"syd-5","host":"syd-1.au.uncletopia.com","port":27055,"enabled":true,"region":"au","cc":"au","latitude":-33.865143,"longitude":151.2099,"reserved":0,"last_update":"0001-01-01T00:00:00Z","name_a2s":"Uncletopia | Sydney | 5 | No Payload","protocol":17,"map":"plr_hightower","folder":"tf","game":"Team Fortress","app_id":440,"player_count":0,"max_players":24,"Bots":0,"server_type":"Dedicated","server_os":"Linux","password":true,"vac":true,"version":"7708610","steam_id":85568392925397959,"keywords":["nocrits","nodmgspread","payload","uncletopia"],"game_id":440,"stv_port":27056,"stv_name":"Uncletopia | Sydney | 5 | No Payload | STV","players":null},{"server_id":59,"name":"Uncletopia | Sydney | 6 | Community","name_short":"syd-6","host":"syd-1.au.uncletopia.com","port":27065,"enabled":true,"region":"au","cc":"au","latitude":-33.865143,"longitude":151.2099,"reserved":0,"last_update":"0001-01-01T00:00:00Z","name_a2s":"Uncletopia | Sydney | 6 | Community","protocol":17,"map":"workshop/koth_ashville_final.ugc2130459942","folder":"tf","game":"Team Fortress","app_id":440,"player_count":0,"max_players":24,"Bots":0,"server_type":"Dedicated","server_os":"Linux","password":true,"vac":true,"version":"7708610","steam_id":85568392925397960,"keywords":["cp","nocrits","nodmgspread","uncletopia"],"game_id":440,"stv_port":27066,"stv_name":"Uncletopia | Sydney | 6 | Community | STV","players":null},{"server_id":49,"name":"Uncletopia | Warsaw | 1 | All Maps","name_short":"waw-1","host":"waw-1.pl.uncletopia.com","port":27015,"enabled":true,"region":"eu","cc":"pl","latitude":52.2297,"longitude":21.017532,"reserved":0,"last_update":"0001-01-01T00:00:00Z","name_a2s":"Uncletopia | Warsaw | 1 | All Maps","protocol":17,"map":"cp_snakewater_final1","folder":"tf","game":"Team Fortress","app_id":440,"player_count":0,"max_players":24,"Bots":0,"server_type":"Dedicated","server_os":"Linux","password":true,"vac":true,"version":"7708610","steam_id":85568392925397850,"keywords":["cp","nocrits","nodmgspread","uncletopia"],"game_id":440,"stv_port":27016,"stv_name":"Uncletopia | Warsaw | 1 | All Maps | STV","players":null},{"server_id":50,"name":"Uncletopia | Warsaw | 2 | All Maps","name_short":"waw-2","host":"waw-1.pl.uncletopia.com","port":27025,"enabled":true,"region":"eu","cc":"pl","latitude":52.2297,"longitude":21.017532,"reserved":0,"last_update":"0001-01-01T00:00:00Z","name_a2s":"Uncletopia | Warsaw | 2 | All Maps","protocol":17,"map":"cp_snakewater_final1","folder":"tf","game":"Team Fortress","app_id":440,"player_count":13,"max_players":24,"Bots":0,"server_type":"Dedicated","server_os":"Linux","password":true,"vac":true,"version":"7708610","steam_id":85568392925397851,"keywords":["cp","nocrits","nodmgspread","uncletopia"],"game_id":440,"stv_port":27026,"stv_name":"Uncletopia | Warsaw | 2 | All Maps | STV","players":[{"user_id":52,"name":"DeepBlue","steam_id":76561198140075795,"connected_time":135000000000,"state":"active","ping":30},{"user_id":50,"name":"Fran","steam_id":76561199070516960,"connected_time":247000000000,"state":"active","ping":40},{"user_id":26,"name":"from the shadows","steam_id":76561198322217890,"connected_time":1195000000000,"state":"active","ping":242},{"user_id":53,"name":"ANDREIPVPXD","steam_id":76561198833482123,"connected_time":102000000000,"state":"active","ping":98},{"user_id":48,"name":"D *","steam_id":76561198086304421,"connected_time":322000000000,"state":"active","ping":106},{"user_id":54,"name":"eye of chutullu","steam_id":76561199107614434,"connected_time":84000000000,"state":"active","ping":99},{"user_id":49,"name":"Holiday Puncher","steam_id":76561198970762992,"connected_time":311000000000,"state":"active","ping":67},{"user_id":21,"name":"Caliban","steam_id":76561197999696839,"connected_time":1402000000000,"state":"active","ping":118},{"user_id":24,"name":"Mrforgetful","steam_id":76561198869654419,"connected_time":1316000000000,"state":"active","ping":70},{"user_id":27,"name":"Barbatruc","steam_id":76561198119019916,"connected_time":1084000000000,"state":"active","ping":86},{"user_id":28,"name":"Andreus","steam_id":76561199403926001,"connected_time":1067000000000,"state":"active","ping":87},{"user_id":41,"name":"ampekk`","steam_id":76561198299893189,"connected_time":671000000000,"state":"active","ping":69},{"user_id":32,"name":"hamude.alsarhan2011","steam_id":76561199259727736,"connected_time":1007000000000,"state":"active","ping":68}]},{"server_id":51,"name":"Uncletopia | Warsaw | 3 | All Maps","name_short":"waw-3","host":"waw-1.pl.uncletopia.com","port":27035,"enabled":true,"region":"eu","cc":"pl","latitude":52.2297,"longitude":21.017532,"reserved":0,"last_update":"0001-01-01T00:00:00Z","name_a2s":"Uncletopia | Warsaw | 3 | All Maps","protocol":17,"map":"koth_highpass","folder":"tf","game":"Team Fortress","app_id":440,"player_count":0,"max_players":24,"Bots":0,"server_type":"Dedicated","server_os":"Linux","password":true,"vac":true,"version":"7708610","steam_id":85568392925397852,"keywords":["cp","nocrits","nodmgspread","uncletopia"],"game_id":440,"stv_port":27036,"stv_name":"Uncletopia | Warsaw | 3 | All Maps | STV","players":null},{"server_id":52,"name":"Uncletopia | Warsaw | 4 | All Maps","name_short":"waw-4","host":"waw-1.pl.uncletopia.com","port":27045,"enabled":true,"region":"eu","cc":"pl","latitude":52.2297,"longitude":21.017532,"reserved":0,"last_update":"0001-01-01T00:00:00Z","name_a2s":"Uncletopia | Warsaw | 4 | All Maps","protocol":17,"map":"koth_cascade","folder":"tf","game":"Team Fortress","app_id":440,"player_count":0,"max_players":24,"Bots":0,"server_type":"Dedicated","server_os":"Linux","password":true,"vac":true,"version":"7708610","steam_id":85568392925397853,"keywords":["cp","nocrits","nodmgspread","uncletopia"],"game_id":440,"stv_port":27046,"stv_name":"Uncletopia | Warsaw | 4 | All Maps | STV","players":null},{"server_id":53,"name":"Uncletopia | Warsaw | 5 | No Payload","name_short":"waw-5","host":"waw-1.pl.uncletopia.com","port":27055,"enabled":true,"region":"eu","cc":"pl","latitude":52.2297,"longitude":21.017532,"reserved":0,"last_update":"0001-01-01T00:00:00Z","name_a2s":"Uncletopia | Warsaw | 5 | No Payload","protocol":17,"map":"pl_borneo","folder":"tf","game":"Team Fortress","app_id":440,"player_count":0,"max_players":24,"Bots":0,"server_type":"Dedicated","server_os":"Linux","password":true,"vac":true,"version":"7708610","steam_id":85568392925397854,"keywords":["nocrits","nodmgspread","payload","uncletopia"],"game_id":440,"stv_port":27056,"stv_name":"Uncletopia | Warsaw | 5 | No Payload | STV","players":null},{"server_id":54,"name":"Uncletopia | Warsaw | 6 | Community","name_short":"waw-6","host":"waw-1.pl.uncletopia.com","port":27065,"enabled":true,"region":"eu","cc":"pl","latitude":52.2297,"longitude":21.017532,"reserved":0,"last_update":"0001-01-01T00:00:00Z","name_a2s":"Uncletopia | Warsaw | 6 | Community","protocol":17,"map":"pl_swiftwater_final1","folder":"tf","game":"Team Fortress","app_id":440,"player_count":0,"max_players":24,"Bots":0,"server_type":"Dedicated","server_os":"Linux","password":true,"vac":true,"version":"7708610","steam_id":85568392925397856,"keywords":["nocrits","nodmgspread","payload","uncletopia"],"game_id":440,"stv_port":27066,"stv_name":"Uncletopia | Warsaw | 6 | Community | STV","players":null}]}