{"status":true,"message":"","result":[{"server_id":9,"name":"Uncletopia | Atlanta | 1 | All Maps","name_short":"atl-1","host":"atl-1.us.uncletopia.com","port":27015,"enabled":true,"region":"us-east","cc":"us","latitude":33.753746,"longitude":-84.38633,"reserved":0,"last_update":"0001-01-01T00:00:00Z","name_a2s":"Uncletopia | Atlanta | 1 | All Maps","protocol":17,"map":"cp_process_final","folder":"tf","game":"Team Fortress","app_id":440,"player_count":24,"max_players":24,"Bots":0,"server_type":"Dedicated","server_os":"Linux","password":true,"vac":true,"version":"7961495","steam_id":85568392924469982,"keywords":["cp","nocrits","nodmgspread","uncletopia"],"game_id":440,"stv_port":27016,"stv_name":"Uncletopia | Atlanta | 1 | All Maps | STV","players":[{"user_id":276,"name":"Kirby","steam_id":76561199161858008,"connected_time":4296000000000,"state":"active","ping":69},{"user_id":309,"name":"Neptune˖⁺｡˚⋆˙♥","steam_id":76561199054203198,"connected_time":1969000000000,"state":"active","ping":67},{"user_id":357,"name":"Kiss Master","steam_id":76561198289572271,"connected_time":71000000000,"state":"active","ping":60},{"user_id":300,"name":"b4nny sewer spot on process","steam_id":76561198982810452,"connected_time":2831000000000,"state":"active","ping":79},{"user_id":264,"name":"Lilith","steam_id":76561198125102885,"connected_time":5439000000000,"state":"active","ping":74},{"user_id":308,"name":"BLOW UP NEW JERSEY","steam_id":76561198364439575,"connected_time":1988000000000,"state":"active","ping":64},{"user_id":319,"name":"Sagoogoo","steam_id":76561198176061614,"connected_time":1021000000000,"state":"active","ping":84},{"user_id":314,"name":"GlingGlop95","steam_id":76561198386865528,"connected_time":1348000000000,"state":"active","ping":78},{"user_id":330,"name":"BSGNetwork","steam_id":76561198188006763,"connected_time":705000000000,"state":"active","ping":64},{"user_id":317,"name":"Spare(8)Ball","steam_id":76561197982432995,"connected_time":1045000000000,"state":"active","ping":112},{"user_id":301,"name":"femboy birb","steam_id":76561199198726572,"connected_time":2822000000000,"state":"active","ping":71},{"user_id":320,"name":"Red","steam_id":76561198001939529,"connected_time":1014000000000,"state":"active","ping":82},{"user_id":260,"name":"Cat Eyed Lin","steam_id":76561198887593337,"connected_time":5621000000000,"state":"active","ping":64},{"user_id":331,"name":"Heathcliff","steam_id":76561198044288534,"connected_time":562000000000,"state":"active","ping":75},{"user_id":288,"name":"Harbor Seal","steam_id":76561198162631724,"connected_time":3479000000000,"state":"active","ping":79},{"user_id":328,"name":"Mirelas","steam_id":76561198839360212,"connected_time":803000000000,"state":"active","ping":86},{"user_id":249,"name":"Silly Shark","steam_id":76561198130714378,"connected_time":6208000000000,"state":"active","ping":124},{"user_id":323,"name":"princess fern \u003c3333","steam_id":76561198881792140,"connected_time":999000000000,"state":"active","ping":73},{"user_id":324,"name":"Mr_Frosty","steam_id":76561199380389079,"connected_time":986000000000,"state":"active","ping":77},{"user_id":356,"name":"freyja","steam_id":76561198249206656,"connected_time":107000000000,"state":"active","ping":126},{"user_id":325,"name":"BoxPox7147","steam_id":76561199230349840,"connected_time":966000000000,"state":"active","ping":71},{"user_id":297,"name":"joe","steam_id":76561198045781320,"connected_time":3071000000000,"state":"active","ping":72},{"user_id":261,"name":"roberttorontoj","steam_id":76561199309106011,"connected_time":5618000000000,"state":"active","ping":90},{"user_id":326,"name":"Gustavo Fring","steam_id":76561198132807405,"connected_time":952000000000,"state":"active","ping":82}]},{"server_id":104,"name":"Uncletopia | Atlanta | 2 | All Maps","name_short":"atl-2","host":"atl-1.us.uncletopia.com","port":27025,"enabled":true,"region":"us-east","cc":"us","latitude":33.753746,"longitude":-84.38633,"reserved":0,"last_update":"0001-01-01T00:00:00Z","name_a2s":"Uncletopia | Atlanta | 2 | All Maps","protocol":17,"map":"pl_thundermountain","folder":"tf","game":"Team Fortress","app_id":440,"player_count":24,"max_players":24,"Bots":0,"server_type":"Dedicated","server_os":"Linux","password":true,"vac":true,"version":"7961495","steam_id":85568392924469983,"keywords":["nocrits","nodmgspread","payload","uncletopia"],"game_id":440,"stv_port":27026,"stv_name":"Uncletopia | Atlanta | 2 | All Maps | STV","players":[{"user_id":214,"name":"AcexPak","steam_id":76561199379459604,"connected_time":721000000000,"state":"active","ping":96},{"user_id":156,"name":"Gooper Blooper","steam_id":76561198067174070,"connected_time":3211000000000,"state":"active","ping":111},{"user_id":208,"name":"Mediocre Gaming","steam_id":76561199230467980,"connected_time":1073000000000,"state":"active","ping":83},{"user_id":132,"name":"Kzjytsugn","steam_id":76561198130241974,"connected_time":5319000000000,"state":"active","ping":106},{"user_id":191,"name":"Mask","steam_id":76561198877649728,"connected_time":1474000000000,"state":"active","ping":126},{"user_id":220,"name":"simply","steam_id":76561198215728721,"connected_time":2000000000,"state":"spawning","ping":43},{"user_id":212,"name":"Oopsie Daisy ❋","steam_id":76561198042144492,"connected_time":919000000000,"state":"active","ping":60},{"user_id":101,"name":"JustADuck","steam_id":76561198311260943,"connected_time":7988000000000,"state":"active","ping":51},{"user_id":169,"name":"Brown_Dream","steam_id":76561198975766145,"connected_time":1977000000000,"state":"active","ping":79},{"user_id":193,"name":"the nipple freezer","steam_id":76561198424865652,"connected_time":1425000000000,"state":"active","ping":45},{"user_id":171,"name":"\u003c blank \u003e","steam_id":76561199383789041,"connected_time":1949000000000,"state":"active","ping":179},{"user_id":114,"name":"rf","steam_id":76561198195359229,"connected_time":7183000000000,"state":"active","ping":105},{"user_id":211,"name":"You Don't Nomi.","steam_id":76561197969137836,"connected_time":1010000000000,"state":"active","ping":68},{"user_id":219,"name":"solar_dude","steam_id":76561198086429076,"connected_time":452000000000,"state":"active","ping":52},{"user_id":195,"name":"Oversharing Gaming","steam_id":76561198069735882,"connected_time":1381000000000,"state":"active","ping":56},{"user_id":196,"name":"mrbeast109385079350229083479082","steam_id":76561198370687830,"connected_time":1364000000000,"state":"active","ping":72},{"user_id":165,"name":"Sus:/","steam_id":76561199232156472,"connected_time":2595000000000,"state":"active","ping":85},{"user_id":158,"name":"Drilly22","steam_id":76561198068838338,"connected_time":3193000000000,"state":"active","ping":79},{"user_id":210,"name":"Foolie","steam_id":76561198291741747,"connected_time":1061000000000,"state":"active","ping":77},{"user_id":213,"name":"Duncan","steam_id":76561198042148095,"connected_time":855000000000,"state":"active","ping":67},{"user_id":217,"name":"Cybutter","steam_id":76561197985914609,"connected_time":484000000000,"state":"active","ping":73},{"user_id":218,"name":"Mommy's Good Boy","steam_id":76561198150601678,"connected_time":463000000000,"state":"active","ping":90},{"user_id":173,"name":"bookreader","steam_id":76561198978568007,"connected_time":1942000000000,"state":"active","ping":62},{"user_id":187,"name":"D(b) Hell","steam_id":76561198067869016,"connected_time":1547000000000,"state":"active","ping":65}]},{"server_id":400,"name":"Uncletopia | Atlanta | 3 | Stopwatch","name_short":"atl-3","host":"atl-1.us.uncletopia.com","port":27035,"enabled":true,"region":"us-east","cc":"us","latitude":33.753746,"longitude":-84.38633,"reserved":0,"last_update":"0001-01-01T00:00:00Z","name_a2s":"Uncletopia | Atlanta | 3 | Stopwatch","protocol":17,"map":"pl_swiftwater_final1","folder":"tf","game":"Team Fortress","app_id":440,"player_count":0,"max_players":24,"Bots":0,"server_type":"Dedicated","server_os":"Linux","password":true,"vac":true,"version":"7961495","steam_id":85568392924515187,"keywords":["nocrits","nodmgspread","payload","uncletopia"],"game_id":440,"stv_port":27036,"stv_name":"Uncletopia | Atlanta | 3 | Stopwatch | STV","players":null},{"server_id":401,"name":"Uncletopia | Atlanta | 4 | Community","name_short":"atl-4","host":"atl-1.us.uncletopia.com","port":27045,"enabled":true,"region":"us-east","cc":"us","latitude":33.753746,"longitude":-84.38633,"reserved":0,"last_update":"0001-01-01T00:00:00Z","name_a2s":"Uncletopia | Atlanta | 4 | Community","protocol":17,"map":"workshop/cp_snowbase_b21.ugc2081770490","folder":"tf","game":"Team Fortress","app_id":440,"player_count":0,"max_players":24,"Bots":0,"server_type":"Dedicated","server_os":"Linux","password":true,"vac":true,"version":"7961495","steam_id":85568392924515188,"keywords":["cp","nocrits","nodmgspread","uncletopia"],"game_id":440,"stv_port":27046,"stv_name":"Uncletopia | Atlanta | 4 | Community | STV","players":null},{"server_id":2,"name":"Uncletopia | Chicago | 1 | All Maps","name_short":"chi-1","host":"chi-1.us.uncletopia.com","port":27015,"enabled":true,"region":"us-central","cc":"us","latitude":41.881832,"longitude":-87.62318,"reserved":0,"last_update":"0001-01-01T00:00:00Z","name_a2s":"Uncletopia | Chicago | 1 | All Maps","protocol":17,"map":"cp_dustbowl","folder":"tf","game":"Team Fortress","app_id":440,"player_count":24,"max_players":24,"Bots":0,"server_type":"Dedicated","server_os":"Linux","password":true,"vac":true,"version":"7961495","steam_id":85568392924469984,"keywords":["cp","nocrits","nodmgspread","uncletopia"],"game_id":440,"stv_port":27016,"stv_name":"Uncletopia | Chicago | 1 | All Maps | STV","players":[{"user_id":395,"name":"Praise_to_the_Flashlight!","steam_id":76561199001728789,"connected_time":1777000000000,"state":"active","ping":60},{"user_id":369,"name":"You hate kissing boys,Don't you","steam_id":76561198996218460,"connected_time":4112000000000,"state":"active","ping":81},{"user_id":387,"name":"Window Licker #pride","steam_id":76561198386717007,"connected_time":3210000000000,"state":"active","ping":56},{"user_id":350,"name":"KSupes","steam_id":76561199131995067,"connected_time":5494000000000,"state":"active","ping":47},{"user_id":396,"name":"ุ","steam_id":76561198170624701,"connected_time":1580000000000,"state":"active","ping":75},{"user_id":351,"name":"mo ge - ko","steam_id":76561198056432756,"connected_time":5475000000000,"state":"active","ping":64},{"user_id":400,"name":"yELLow","steam_id":76561198178488195,"connected_time":1144000000000,"state":"active","ping":69},{"user_id":388,"name":"Space","steam_id":76561198350489754,"connected_time":3060000000000,"state":"active","ping":53},{"user_id":352,"name":"LofiWhore","steam_id":76561198126686695,"connected_time":5448000000000,"state":"active","ping":72},{"user_id":404,"name":"richard clock","steam_id":76561198048455671,"connected_time":243000000000,"state":"active","ping":59},{"user_id":397,"name":"Mellow Yellow","steam_id":76561198406276981,"connected_time":1523000000000,"state":"active","ping":43},{"user_id":405,"name":"joseph stalin","steam_id":76561199230441293,"connected_time":233000000000,"state":"active","ping":85},{"user_id":402,"name":"Kid named download","steam_id":76561199192074448,"connected_time":783000000000,"state":"active","ping":83},{"user_id":406,"name":"doku","steam_id":76561199186072324,"connected_time":165000000000,"state":"active","ping":56},{"user_id":374,"name":"MrKokonut","steam_id":76561198879575825,"connected_time":3742000000000,"state":"active","ping":59},{"user_id":371,"name":"MaineGameBoy","steam_id":76561198278698726,"connected_time":4099000000000,"state":"active","ping":102},{"user_id":377,"name":"Milkmur","steam_id":76561198210043821,"connected_time":3464000000000,"state":"active","ping":65},{"user_id":376,"name":"Sonic Mania 2 [100 Real Leaked","steam_id":76561198062764039,"connected_time":3587000000000,"state":"active","ping":50},{"user_id":403,"name":"Yezman","steam_id":76561198138857306,"connected_time":499000000000,"state":"active","ping":62},{"user_id":398,"name":"Stacks63bs","steam_id":76561198067797130,"connected_time":1505000000000,"state":"active","ping":87},{"user_id":252,"name":"Clean Lines","steam_id":76561197960691518,"connected_time":11859000000000,"state":"active","ping":54},{"user_id":373,"name":"WALKING GOPRO","steam_id":76561198186928885,"connected_time":3750000000000,"state":"active","ping":71},{"user_id":394,"name":"Mikhaila (She/Her)","steam_id":76561198065005979,"connected_time":1809000000000,"state":"active","ping":87},{"user_id":399,"name":"♥ Eve ♥","steam_id":76561199091329276,"connected_time":1504000000000,"state":"active","ping":61}]},{"server_id":106,"name":"Uncletopia | Chicago | 2 | All Maps","name_short":"chi-2","host":"chi-1.us.uncletopia.com","port":27025,"enabled":true,"region":"us-central","cc":"us","latitude":41.881832,"longitude":-87.62318,"reserved":0,"last_update":"0001-01-01T00:00:00Z","name_a2s":"Uncletopia | Chicago | 2 | All Maps","protocol":17,"map":"koth_harvest_final","folder":"tf","game":"Team Fortress","app_id":440,"player_count":23,"max_players":24,"Bots":0,"server_type":"Dedicated","server_os":"Linux","password":true,"vac":true,"version":"7961495","steam_id":85568392924469985,"keywords":["cp","nocrits","nodmgspread","uncletopia"],"game_id":440,"stv_port":27026,"stv_name":"Uncletopia | Chicago | 2 | All Maps | STV","players":[{"user_id":521,"name":"Kyle","steam_id":76561198150061073,"connected_time":4957000000000,"state":"active","ping":59},{"user_id":502,"name":"Vaudeville Villain","steam_id":76561197991063996,"connected_time":5710000000000,"state":"active","ping":55},{"user_id":574,"name":"Orange","steam_id":76561198282214019,"connected_time":650000000000,"state":"active","ping":81},{"user_id":569,"name":"I have no idea what I am doing?","steam_id":76561198093152207,"connected_time":1060000000000,"state":"active","ping":58},{"user_id":504,"name":"dak","steam_id":76561198076596506,"connected_time":5620000000000,"state":"active","ping":60},{"user_id":528,"name":"Qui-Bong Jinn","steam_id":76561198077264112,"connected_time":4095000000000,"state":"active","ping":61},{"user_id":582,"name":"Lobstyr","steam_id":76561198884406859,"connected_time":53000000000,"state":"active","ping":80},{"user_id":577,"name":"Andallfor","steam_id":76561198350143349,"connected_time":493000000000,"state":"active","ping":76},{"user_id":554,"name":"Ajax","steam_id":76561197962240140,"connected_time":2477000000000,"state":"active","ping":57},{"user_id":572,"name":"my name jeff","steam_id":76561198179816898,"connected_time":1000000000000,"state":"active","ping":78},{"user_id":557,"name":"Dr.BendyBones","steam_id":76561198048846641,"connected_time":2219000000000,"state":"active","ping":69},{"user_id":515,"name":"Vadenair","steam_id":76561198277100433,"connected_time":5388000000000,"state":"active","ping":92},{"user_id":580,"name":"Caesar846","steam_id":76561198082204655,"connected_time":425000000000,"state":"active","ping":71},{"user_id":581,"name":"KittySophie","steam_id":76561198072947773,"connected_time":181000000000,"state":"active","ping":52},{"user_id":573,"name":"what the freak","steam_id":76561198080754727,"connected_time":765000000000,"state":"active","ping":86},{"user_id":579,"name":"TheTerribleGamer","steam_id":76561198980895488,"connected_time":430000000000,"state":"active","ping":108},{"user_id":570,"name":"my mom","steam_id":76561199225201569,"connected_time":1058000000000,"state":"active","ping":61},{"user_id":510,"name":"Aster","steam_id":76561198037920420,"connected_time":5506000000000,"state":"active","ping":78},{"user_id":583,"name":"Gravity Bomb","steam_id":76561198190417719,"connected_time":20000000000,"state":"active","ping":39},{"user_id":547,"name":"BackToSchoolAds","steam_id":76561198870281128,"connected_time":2986000000000,"state":"active","ping":87},{"user_id":551,"name":"Pels","steam_id":76561198039580161,"connected_time":2908000000000,"state":"active","ping":123},{"user_id":542,"name":"fresco","steam_id":76561199101199477,"connected_time":3514000000000,"state":"active","ping":63},{"user_id":556,"name":"the zoo","steam_id":76561198013732450,"connected_time":2458000000000,"state":"active","ping":52}]},{"server_id":402,"name":"Uncletopia | Chicago | 3 | All Maps","name_short":"chi-3","host":"chi-1.us.uncletopia.com","port":27035,"enabled":true,"region":"us-central","cc":"us","latitude":41.881832,"longitude":-87.62318,"reserved":0,"last_update":"0001-01-01T00:00:00Z","name_a2s":"Uncletopia | Chicago | 3 | All Maps","protocol":17,"map":"pl_thundermountain","folder":"tf","game":"Team Fortress","app_id":440,"player_count":24,"max_players":24,"Bots":0,"server_type":"Dedicated","server_os":"Linux","password":true,"vac":true,"version":"7961495","steam_id":85568392924515191,"keywords":["nocrits","nodmgspread","payload","uncletopia"],"game_id":440,"stv_port":27036,"stv_name":"Uncletopia | Chicago | 3 | All Maps | STV","players":[{"user_id":382,"name":"Skip Hop Doo Bop","steam_id":76561199161571849,"connected_time":259000000000,"state":"active","ping":94},{"user_id":369,"name":"Panic Opossum","steam_id":76561198043838227,"connected_time":745000000000,"state":"active","ping":43},{"user_id":362,"name":"DeckofDragons","steam_id":76561198057398213,"connected_time":1667000000000,"state":"active","ping":78},{"user_id":383,"name":"chunk","steam_id":76561198134775401,"connected_time":245000000000,"state":"active","ping":54},{"user_id":372,"name":"a","steam_id":76561198131245396,"connected_time":615000000000,"state":"active","ping":60},{"user_id":370,"name":"I shovel mayonnaise in mouth","steam_id":76561199123118241,"connected_time":713000000000,"state":"active","ping":109},{"user_id":316,"name":"munch","steam_id":76561198820480684,"connected_time":5077000000000,"state":"active","ping":60},{"user_id":363,"name":"Menachem","steam_id":76561198041226420,"connected_time":1656000000000,"state":"active","ping":48},{"user_id":346,"name":"Dokkibai","steam_id":76561198355935693,"connected_time":3961000000000,"state":"active","ping":51},{"user_id":373,"name":"Peepster","steam_id":76561198297854733,"connected_time":607000000000,"state":"active","ping":73},{"user_id":374,"name":"Goobahgeherber","steam_id":76561199050193731,"connected_time":601000000000,"state":"active","ping":47},{"user_id":341,"name":"thecal","steam_id":76561198307893384,"connected_time":4227000000000,"state":"active","ping":47},{"user_id":384,"name":"y0","steam_id":76561198143894333,"connected_time":236000000000,"state":"active","ping":53},{"user_id":375,"name":"skullface","steam_id":76561198353704776,"connected_time":567000000000,"state":"active","ping":62},{"user_id":376,"name":"rickyrickyricky","steam_id":76561198041765918,"connected_time":563000000000,"state":"active","ping":86},{"user_id":338,"name":"winrarFanatic","steam_id":76561198026538317,"connected_time":4414000000000,"state":"active","ping":60},{"user_id":357,"name":"A/funny/dream","steam_id":76561198354481597,"connected_time":2453000000000,"state":"active","ping":91},{"user_id":378,"name":"bird who can't aim","steam_id":76561198062360755,"connected_time":425000000000,"state":"active","ping":52},{"user_id":342,"name":"Breakaway","steam_id":76561198089308523,"connected_time":4204000000000,"state":"active","ping":94},{"user_id":348,"name":"A Puppy","steam_id":76561198828184456,"connected_time":3737000000000,"state":"active","ping":60},{"user_id":385,"name":"lolosaur","steam_id":76561199186671167,"connected_time":206000000000,"state":"active","ping":114},{"user_id":379,"name":"chuck","steam_id":76561198102300433,"connected_time":423000000000,"state":"active","ping":75},{"user_id":368,"name":"Predicta","steam_id":76561198017630616,"connected_time":886000000000,"state":"active","ping":53},{"user_id":381,"name":"Dubious Adubio","steam_id":76561198442369067,"connected_time":399000000000,"state":"active","ping":70}]},{"server_id":403,"name":"Uncletopia | Chicago | 4 | All Maps","name_short":"chi-4","host":"chi-1.us.uncletopia.com","port":27045,"enabled":true,"region":"us-central","cc":"us","latitude":41.881832,"longitude":-87.62318,"reserved":0,"last_update":"0001-01-01T00:00:00Z","name_a2s":"Uncletopia | Chicago | 4 | All Maps","protocol":17,"map":"pl_barnblitz","folder":"tf","game":"Team Fortress","app_id":440,"player_count":24,"max_players":24,"Bots":0,"server_type":"Dedicated","server_os":"Linux","password":true,"vac":true,"version":"7961495","steam_id":85568392924515193,"keywords":["nocrits","nodmgspread","payload","uncletopia"],"game_id":440,"stv_port":27046,"stv_name":"Uncletopia | Chicago | 4 | All Maps | STV","players":[{"user_id":174,"name":"OaPG","steam_id":76561198213307033,"connected_time":871000000000,"state":"active","ping":162},{"user_id":180,"name":"bird feeder enthusiast","steam_id":76561199134895220,"connected_time":334000000000,"state":"active","ping":78},{"user_id":170,"name":"Haveltherock27","steam_id":76561199219844391,"connected_time":959000000000,"state":"active","ping":86},{"user_id":152,"name":"tgirl swag","steam_id":76561198128164970,"connected_time":1881000000000,"state":"active","ping":106},{"user_id":187,"name":"Cap-Coop","steam_id":76561198030901126,"connected_time":83000000000,"state":"active","ping":52},{"user_id":175,"name":"eotsu666","steam_id":76561199180399756,"connected_time":771000000000,"state":"active","ping":362},{"user_id":172,"name":"hyaz, +rep.","steam_id":76561199100342013,"connected_time":930000000000,"state":"active","ping":91},{"user_id":105,"name":"Shibo","steam_id":76561198168517216,"connected_time":4979000000000,"state":"active","ping":178},{"user_id":182,"name":"Chronos","steam_id":76561198126625623,"connected_time":204000000000,"state":"active","ping":71},{"user_id":179,"name":"Your Dad","steam_id":76561198060281192,"connected_time":450000000000,"state":"active","ping":100},{"user_id":162,"name":"Wiener Hole Paper Cut","steam_id":76561198000808203,"connected_time":1204000000000,"state":"active","ping":72},{"user_id":147,"name":"Sylvain","steam_id":76561198113385271,"connected_time":2166000000000,"state":"active","ping":75},{"user_id":144,"name":"BoyWithTheBeanie","steam_id":76561199435079308,"connected_time":2460000000000,"state":"active","ping":158},{"user_id":107,"name":"stink","steam_id":76561198099318923,"connected_time":4966000000000,"state":"active","ping":60},{"user_id":177,"name":"The Chimp","steam_id":76561199013458732,"connected_time":699000000000,"state":"active","ping":64},{"user_id":186,"name":"JACK BRUNO","steam_id":76561198027957690,"connected_time":180000000000,"state":"active","ping":104},{"user_id":173,"name":"Rukks","steam_id":76561197993918954,"connected_time":905000000000,"state":"active","ping":90},{"user_id":150,"name":"chud packer","steam_id":76561198051310816,"connected_time":2040000000000,"state":"active","ping":69},{"user_id":145,"name":"harold of rock salt kingdom","steam_id":76561199016285746,"connected_time":2458000000000,"state":"active","ping":82},{"user_id":178,"name":"Mug","steam_id":76561199282207802,"connected_time":577000000000,"state":"active","ping":82},{"user_id":133,"name":"Ganondorf","steam_id":76561198010421059,"connected_time":3153000000000,"state":"active","ping":55},{"user_id":168,"name":"Sexterminator","steam_id":76561199018767956,"connected_time":1111000000000,"state":"active","ping":55},{"user_id":138,"name":"YesMargaret","steam_id":76561198127971751,"connected_time":2784000000000,"state":"active","ping":67},{"user_id":185,"name":"echo","steam_id":76561198042511636,"connected_time":184000000000,"state":"active","ping":75}]},{"server_id":36,"name":"Uncletopia | Chicago | 5 | All Maps","name_short":"chi-5","host":"chi-2.us.uncletopia.com","port":27015,"enabled":true,"region":"us-central","cc":"us","latitude":41.881832,"longitude":-87.62318,"reserved":0,"last_update":"0001-01-01T00:00:00Z","name_a2s":"Uncletopia | Chicago | 5 | All Maps","protocol":17,"map":"pl_barnblitz","folder":"tf","game":"Team Fortress","app_id":440,"player_count":24,"max_players":24,"Bots":0,"server_type":"Dedicated","server_os":"Linux","password":true,"vac":true,"version":"7961495","steam_id":85568392924866362,"keywords":["nocrits","nodmgspread","payload","uncletopia"],"game_id":440,"stv_port":27016,"stv_name":"Uncletopia | Chicago | 5 | All Maps | STV","players":[{"user_id":223,"name":"phantom","steam_id":76561197963860777,"connected_time":827000000000,"state":"active","ping":45},{"user_id":219,"name":"DrCoeloCephalo","steam_id":76561198102666293,"connected_time":1039000000000,"state":"active","ping":77},{"user_id":200,"name":"filthy white trash","steam_id":76561198154176367,"connected_time":2343000000000,"state":"active","ping":77},{"user_id":174,"name":"DerpyNate","steam_id":76561198100249037,"connected_time":5172000000000,"state":"active","ping":46},{"user_id":224,"name":"Tombolo","steam_id":76561198217746877,"connected_time":825000000000,"state":"active","ping":124},{"user_id":214,"name":"Randumb","steam_id":76561199083286636,"connected_time":1103000000000,"state":"active","ping":59},{"user_id":110,"name":"Beebo, Son of Beebo","steam_id":76561198055948497,"connected_time":11465000000000,"state":"active","ping":54},{"user_id":196,"name":"totoro","steam_id":76561198210420871,"connected_time":2535000000000,"state":"active","ping":46},{"user_id":220,"name":"-Avh-","steam_id":76561198087593160,"connected_time":889000000000,"state":"active","ping":76},{"user_id":210,"name":"Amari","steam_id":76561198272446730,"connected_time":1854000000000,"state":"active","ping":77},{"user_id":195,"name":"Burger Man","steam_id":76561198197096574,"connected_time":3057000000000,"state":"active","ping":73},{"user_id":233,"name":"Weerk","steam_id":76561199209543551,"connected_time":13000000000,"state":"spawning","ping":90},{"user_id":230,"name":"Gamering_funy","steam_id":76561199006503777,"connected_time":645000000000,"state":"active","ping":59},{"user_id":232,"name":"HalfFoxyfan1","steam_id":76561199122382647,"connected_time":114000000000,"state":"active","ping":80},{"user_id":169,"name":"Hazeyboi","steam_id":76561198130687838,"connected_time":5660000000000,"state":"active","ping":45},{"user_id":215,"name":"Lullaby","steam_id":76561198061103166,"connected_time":1077000000000,"state":"active","ping":60},{"user_id":231,"name":"hammythegreat #SaveTF2","steam_id":76561198079526946,"connected_time":602000000000,"state":"active","ping":97},{"user_id":206,"name":"HumFreY","steam_id":76561198076639682,"connected_time":2177000000000,"state":"active","ping":76},{"user_id":227,"name":"Whoplops","steam_id":76561197977188933,"connected_time":807000000000,"state":"active","ping":90},{"user_id":175,"name":"Maximum Flame","steam_id":76561198073682529,"connected_time":5101000000000,"state":"active","ping":51},{"user_id":217,"name":"Freak","steam_id":76561198066585785,"connected_time":1064000000000,"state":"active","ping":82},{"user_id":201,"name":"MONKEY | videogamer1002","steam_id":76561198157110599,"connected_time":2314000000000,"state":"active","ping":143},{"user_id":218,"name":"Kumatora","steam_id":76561198137748378,"connected_time":1063000000000,"state":"active","ping":55},{"user_id":202,"name":"moosein","steam_id":76561198354272434,"connected_time":2309000000000,"state":"active","ping":98}]},{"server_id":37,"name":"Uncletopia | Chicago | 6 | All Maps","name_short":"chi-6","host":"chi-2.us.uncletopia.com","port":27025,"enabled":true,"region":"us-central","cc":"us","latitude":41.881832,"longitude":-87.62318,"reserved":0,"last_update":"0001-01-01T00:00:00Z","name_a2s":"Uncletopia | Chicago | 6 | All Maps","protocol":17,"map":"pl_barnblitz","folder":"tf","game":"Team Fortress","app_id":440,"player_count":24,"max_players":24,"Bots":0,"server_type":"Dedicated","server_os":"Linux","password":true,"vac":true,"version":"7961495","steam_id":85568392924866363,"keywords":["nocrits","nodmgspread","payload","uncletopia"],"game_id":440,"stv_port":27026,"stv_name":"Uncletopia | Chicago | 6 | All Maps | STV","players":[{"user_id":84,"name":"Chernov","steam_id":76561198014463424,"connected_time":1225000000000,"state":"active","ping":57},{"user_id":38,"name":"idiotloser","steam_id":76561198054390505,"connected_time":3534000000000,"state":"active","ping":52},{"user_id":82,"name":"pnut","steam_id":76561198043862737,"connected_time":1320000000000,"state":"active","ping":61},{"user_id":43,"name":"Kdash","steam_id":76561198043829155,"connected_time":3094000000000,"state":"active","ping":77},{"user_id":86,"name":"Killerkarate","steam_id":76561198067533929,"connected_time":819000000000,"state":"active","ping":54},{"user_id":94,"name":"SAUSAGE SLAPPER","steam_id":76561198030627003,"connected_time":391000000000,"state":"active","ping":70},{"user_id":71,"name":"Gaming","steam_id":76561198107080532,"connected_time":2307000000000,"state":"active","ping":70},{"user_id":79,"name":"Dark Lord","steam_id":76561198044199150,"connected_time":1476000000000,"state":"active","ping":87},{"user_id":88,"name":"Jpxfred","steam_id":76561199414783749,"connected_time":794000000000,"state":"active","ping":95},{"user_id":47,"name":"Hertz","steam_id":76561198245322982,"connected_time":2908000000000,"state":"active","ping":51},{"user_id":99,"name":"bologna forklift 2012","steam_id":76561198199061206,"connected_time":248000000000,"state":"active","ping":43},{"user_id":50,"name":"Psycho Raptor","steam_id":76561198325853767,"connected_time":2881000000000,"state":"active","ping":116},{"user_id":96,"name":"Dan","steam_id":76561199236719411,"connected_time":303000000000,"state":"active","ping":74},{"user_id":102,"name":"EnergyBolt30","steam_id":76561198925178957,"connected_time":131000000000,"state":"active","ping":93},{"user_id":101,"name":"acxeu","steam_id":76561198394435000,"connected_time":174000000000,"state":"active","ping":68},{"user_id":55,"name":"brisky","steam_id":76561198869675719,"connected_time":2802000000000,"state":"active","ping":66},{"user_id":77,"name":"Rornir","steam_id":76561198081829615,"connected_time":1805000000000,"state":"active","ping":39},{"user_id":95,"name":"unfortunatexd","steam_id":76561199500710251,"connected_time":370000000000,"state":"active","ping":76},{"user_id":85,"name":"crispylego_","steam_id":76561199453679719,"connected_time":862000000000,"state":"active","ping":130},{"user_id":92,"name":"Scoot the Burbs","steam_id":76561198079507179,"connected_time":644000000000,"state":"active","ping":78},{"user_id":89,"name":"Speedboat","steam_id":76561198094841559,"connected_time":792000000000,"state":"active","ping":54},{"user_id":104,"name":"big ol' buford","steam_id":76561198290675957,"connected_time":4000000000,"state":"spawning","ping":59},{"user_id":93,"name":"purple diesel","steam_id":76561197976548449,"connected_time":532000000000,"state":"active","ping":96},{"user_id":103,"name":"Skrubs","steam_id":76561198214165563,"connected_time":119000000000,"state":"active","ping":87}]},{"server_id":38,"name":"Uncletopia | Chicago | 7 | Stopwatch","name_short":"chi-7","host":"chi-2.us.uncletopia.com","port":27035,"enabled":true,"region":"us-central","cc":"us","latitude":41.881832,"longitude":-87.62318,"reserved":0,"last_update":"0001-01-01T00:00:00Z","name_a2s":"Uncletopia | Chicago | 7 | Stopwatch","protocol":17,"map":"koth_highpass","folder":"tf","game":"Team Fortress","app_id":440,"player_count":0,"max_players":24,"Bots":0,"server_type":"Dedicated","server_os":"Linux","password":true,"vac":true,"version":"7961495","steam_id":85568392924866364,"keywords":["cp","nocrits","nodmgspread","uncletopia"],"game_id":440,"stv_port":27036,"stv_name":"Uncletopia | Chicago | 7 | Stopwatch | STV","players":null},{"server_id":39,"name":"Uncletopia | Chicago | 8 | Community","name_short":"chi-8","host":"chi-2.us.uncletopia.com","port":27045,"enabled":true,"region":"us-central","cc":"us","latitude":41.881832,"longitude":-87.62318,"reserved":0,"last_update":"0001-01-01T00:00:00Z","name_a2s":"Uncletopia | Chicago | 8 | Community","protocol":17,"map":"workshop/pl_shoreleave_rc2.ugc1238849347","folder":"tf","game":"Team Fortress","app_id":440,"player_count":0,"max_players":24,"Bots":0,"server_type":"Dedicated","server_os":"Linux","password":true,"vac":true,"version":"7961495","steam_id":85568392924866365,"keywords":["nocrits","nodmgspread","payload","uncletopia"],"game_id":440,"stv_port":27046,"stv_name":"Uncletopia | Chicago | 8 | Community | STV","players":null},{"server_id":8,"name":"Uncletopia | Dallas | 1 | All Maps","name_short":"dal-1","host":"dal-1.us.uncletopia.com","port":27015,"enabled":true,"region":"us-central","cc":"us","latitude":32.779167,"longitude":-96.80889,"reserved":0,"last_update":"0001-01-01T00:00:00Z","name_a2s":"Uncletopia | Dallas | 1 | All Maps","protocol":17,"map":"pl_thundermountain","folder":"tf","game":"Team Fortress","app_id":440,"player_count":24,"max_players":24,"Bots":0,"server_type":"Dedicated","server_os":"Linux","password":true,"vac":true,"version":"7961495","steam_id":85568392924469986,"keywords":["nocrits","nodmgspread","payload","uncletopia"],"game_id":440,"stv_port":27016,"stv_name":"Uncletopia | Dallas | 1 | All Maps | STV","players":[{"user_id":214,"name":"( ͡° ͜ʖ ͡°)","steam_id":76561198982415497,"connected_time":1885000000000,"state":"active","ping":96},{"user_id":235,"name":"(TPT) Ghost","steam_id":76561198123262873,"connected_time":391000000000,"state":"active","ping":94},{"user_id":215,"name":"Zaid","steam_id":76561199142840666,"connected_time":1865000000000,"state":"active","ping":152},{"user_id":216,"name":"bigchungusgaming(real)","steam_id":76561198273392037,"connected_time":1855000000000,"state":"active","ping":91},{"user_id":232,"name":"Comrade","steam_id":76561199056721863,"connected_time":488000000000,"state":"active","ping":83},{"user_id":199,"name":"Kaestal","steam_id":76561198033174157,"connected_time":3312000000000,"state":"active","ping":55},{"user_id":207,"name":"Average","steam_id":76561199133007007,"connected_time":2880000000000,"state":"active","ping":70},{"user_id":217,"name":"Burny Sanders","steam_id":76561197961879048,"connected_time":1852000000000,"state":"active","ping":44},{"user_id":233,"name":"Ginnunga","steam_id":76561198000320083,"connected_time":487000000000,"state":"active","ping":91},{"user_id":128,"name":"Elias","steam_id":76561198106431732,"connected_time":8105000000000,"state":"active","ping":58},{"user_id":137,"name":"bashdzy","steam_id":76561199006087600,"connected_time":6880000000000,"state":"active","ping":68},{"user_id":228,"name":"Rhutebeer","steam_id":76561198018302761,"connected_time":1479000000000,"state":"active","ping":87},{"user_id":220,"name":"Darling","steam_id":76561198127525888,"connected_time":1832000000000,"state":"active","ping":52},{"user_id":148,"name":"Tako","steam_id":76561199264073138,"connected_time":6045000000000,"state":"active","ping":69},{"user_id":227,"name":"Imrgrim","steam_id":76561198135866481,"connected_time":1509000000000,"state":"active","ping":68},{"user_id":224,"name":"Amtyk","steam_id":76561197979130554,"connected_time":1654000000000,"state":"active","ping":88},{"user_id":226,"name":"SD","steam_id":76561198217410988,"connected_time":1534000000000,"state":"active","ping":75},{"user_id":229,"name":"TechnoBear2099","steam_id":76561198238863596,"connected_time":1452000000000,"state":"active","ping":46},{"user_id":222,"name":"[DATS➡] Sugar Meowth","steam_id":76561197995251793,"connected_time":1795000000000,"state":"active","ping":91},{"user_id":234,"name":"Prsm","steam_id":76561198053344995,"connected_time":459000000000,"state":"active","ping":77},{"user_id":221,"name":"Crombun","steam_id":76561198031559642,"connected_time":1827000000000,"state":"active","ping":79},{"user_id":166,"name":"Addicted2TheShindig","steam_id":76561198062459671,"connected_time":4719000000000,"state":"active","ping":87},{"user_id":230,"name":"The Horselords and Animal Gods","steam_id":76561197975094050,"connected_time":1439000000000,"state":"active","ping":85},{"user_id":231,"name":"THRONGLER","steam_id":76561198198563466,"connected_time":1001000000000,"state":"active","ping":43}]},{"server_id":108,"name":"Uncletopia | Dallas | 2 | All Maps","name_short":"dal-2","host":"dal-1.us.uncletopia.com","port":27025,"enabled":true,"region":"us-central","cc":"us","latitude":32.779167,"longitude":-96.80889,"reserved":0,"last_update":"0001-01-01T00:00:00Z","name_a2s":"Uncletopia | Dallas | 2 | All Maps","protocol":17,"map":"pl_barnblitz","folder":"tf","game":"Team Fortress","app_id":440,"player_count":24,"max_players":24,"Bots":0,"server_type":"Dedicated","server_os":"Linux","password":true,"vac":true,"version":"7961495","steam_id":85568392924469988,"keywords":["nocrits","nodmgspread","payload","uncletopia"],"game_id":440,"stv_port":27026,"stv_name":"Uncletopia | Dallas | 2 | All Maps | STV","players":[{"user_id":125,"name":"Crescent","steam_id":76561198095124633,"connected_time":1740000000000,"state":"active","ping":72},{"user_id":159,"name":"Engineer 2.6","steam_id":76561198239229696,"connected_time":105000000000,"state":"active","ping":92},{"user_id":116,"name":"allahsdroptop (Bag/Chaser)","steam_id":76561198133195238,"connected_time":2587000000000,"state":"active","ping":95},{"user_id":156,"name":"KiWii","steam_id":76561199013608864,"connected_time":250000000000,"state":"active","ping":60},{"user_id":160,"name":"Drapph","steam_id":76561199384213314,"connected_time":10000000000,"state":"active","ping":88},{"user_id":140,"name":":)","steam_id":76561198079892116,"connected_time":691000000000,"state":"active","ping":68},{"user_id":79,"name":"Pheonix Fel Dragon","steam_id":76561198164974227,"connected_time":5991000000000,"state":"active","ping":57},{"user_id":144,"name":"Kanye Asada","steam_id":76561198186678831,"connected_time":654000000000,"state":"active","ping":90},{"user_id":122,"name":"Frebresio","steam_id":76561198353493333,"connected_time":2097000000000,"state":"active","ping":95},{"user_id":120,"name":"Krissy","steam_id":76561197960848174,"connected_time":2207000000000,"state":"active","ping":88},{"user_id":152,"name":"shrigma","steam_id":76561198101301195,"connected_time":515000000000,"state":"active","ping":85},{"user_id":153,"name":"rico \"tristen\" suave","steam_id":76561198093252989,"connected_time":440000000000,"state":"active","ping":59},{"user_id":155,"name":"K2f","steam_id":76561198049600563,"connected_time":354000000000,"state":"active","ping":81},{"user_id":146,"name":"Ccpop123a","steam_id":76561198883889729,"connected_time":640000000000,"state":"active","ping":89},{"user_id":147,"name":"Gargathor the Entity Catcher","steam_id":76561198189429665,"connected_time":631000000000,"state":"active","ping":77},{"user_id":148,"name":"turnip","steam_id":76561197999375941,"connected_time":627000000000,"state":"active","ping":58},{"user_id":82,"name":"djjones1999","steam_id":76561199121937746,"connected_time":5809000000000,"state":"active","ping":81},{"user_id":157,"name":"fluffythemessiah","steam_id":76561199013202758,"connected_time":244000000000,"state":"active","ping":75},{"user_id":149,"name":"Transfem Bumblebee","steam_id":76561198119393205,"connected_time":621000000000,"state":"active","ping":55},{"user_id":123,"name":"shellaa","steam_id":76561198044124102,"connected_time":2080000000000,"state":"active","ping":49},{"user_id":150,"name":"Makowako","steam_id":76561199016565502,"connected_time":606000000000,"state":"active","ping":102},{"user_id":134,"name":"guy","steam_id":76561198163306561,"connected_time":1264000000000,"state":"active","ping":79},{"user_id":151,"name":"California Police Department","steam_id":76561199071151136,"connected_time":603000000000,"state":"active","ping":79},{"user_id":158,"name":"TrashPanda (she/her)","steam_id":76561198447864095,"connected_time":243000000000,"state":"active","ping":67}]},{"server_id":404,"name":"Uncletopia | Dallas | 3 | All Maps","name_short":"dal-3","host":"dal-1.us.uncletopia.com","port":27035,"enabled":true,"region":"us-central","cc":"us","latitude":32.779167,"longitude":-96.80889,"reserved":0,"last_update":"0001-01-01T00:00:00Z","name_a2s":"Uncletopia | Dallas | 3 | All Maps","protocol":17,"map":"koth_cascade","folder":"tf","game":"Team Fortress","app_id":440,"player_count":0,"max_players":24,"Bots":0,"server_type":"Dedicated","server_os":"Linux","password":true,"vac":true,"version":"7961495","steam_id":85568392924515219,"keywords":["cp","nocrits","nodmgspread","uncletopia"],"game_id":440,"stv_port":27036,"stv_name":"Uncletopia | Dallas | 3 | All Maps | STV","players":null},{"server_id":405,"name":"Uncletopia | Dallas | 4 | Community","name_short":"dal-4","host":"dal-1.us.uncletopia.com","port":27045,"enabled":true,"region":"us-central","cc":"us","latitude":32.779167,"longitude":-96.80889,"reserved":0,"last_update":"0001-01-01T00:00:00Z","name_a2s":"Uncletopia | Dallas | 4 | Community","protocol":17,"map":"workshop/koth_slaughter_rc1.ugc1712845210","folder":"tf","game":"Team Fortress","app_id":440,"player_count":0,"max_players":24,"Bots":0,"server_type":"Dedicated","server_os":"Linux","password":true,"vac":true,"version":"7961495","steam_id":85568392924515220,"keywords":["cp","nocrits","nodmgspread","uncletopia"],"game_id":440,"stv_port":27046,"stv_name":"Uncletopia | Dallas | 4 | Community | STV","players":null},{"server_id":5,"name":"Uncletopia | Frankfurt | 1 | All Maps","name_short":"frk-1","host":"frk-1.de.uncletopia.com","port":27015,"enabled":true,"region":"eu","cc":"de","latitude":50.110924,"longitude":8.682127,"reserved":0,"last_update":"0001-01-01T00:00:00Z","name_a2s":"Uncletopia | Frankfurt | 1 | All Maps","protocol":17,"map":"koth_highpass","folder":"tf","game":"Team Fortress","app_id":440,"player_count":0,"max_players":24,"Bots":0,"server_type":"Dedicated","server_os":"Linux","password":true,"vac":true,"version":"7961495","steam_id":85568392924469989,"keywords":["cp","nocrits","nodmgspread","uncletopia"],"game_id":440,"stv_port":27016,"stv_name":"Uncletopia | Frankfurt | 1 | All Maps | STV","players":null},{"server_id":110,"name":"Uncletopia | Frankfurt | 2 | All Maps","name_short":"frk-2","host":"frk-1.de.uncletopia.com","port":27025,"enabled":true,"region":"eu","cc":"de","latitude":50.110924,"longitude":8.682127,"reserved":0,"last_update":"0001-01-01T00:00:00Z","name_a2s":"Uncletopia | Frankfurt | 2 | All Maps","protocol":17,"map":"pl_borneo","folder":"tf","game":"Team Fortress","app_id":440,"player_count":24,"max_players":24,"Bots":0,"server_type":"Dedicated","server_os":"Linux","password":true,"vac":true,"version":"7961495","steam_id":85568392924469990,"keywords":["nocrits","nodmgspread","payload","uncletopia"],"game_id":440,"stv_port":27026,"stv_name":"Uncletopia | Frankfurt | 2 | All Maps | STV","players":[{"user_id":685,"name":"Tornado","steam_id":76561198025684320,"connected_time":745000000000,"state":"active","ping":59},{"user_id":598,"name":"thussu","steam_id":76561198890409949,"connected_time":5395000000000,"state":"active","ping":83},{"user_id":648,"name":"Skyrider of Spaceways","steam_id":76561197991678236,"connected_time":2139000000000,"state":"active","ping":134},{"user_id":662,"name":"officeboss","steam_id":76561198091440740,"connected_time":1881000000000,"state":"active","ping":107},{"user_id":675,"name":"Maoma112","steam_id":76561199012536447,"connected_time":993000000000,"state":"active","ping":84},{"user_id":674,"name":"The Lady","steam_id":76561198029895809,"connected_time":1120000000000,"state":"active","ping":75},{"user_id":651,"name":"Kamelåså","steam_id":76561198149072785,"connected_time":2090000000000,"state":"active","ping":79},{"user_id":686,"name":"TheEventGuy","steam_id":76561197972797744,"connected_time":303000000000,"state":"active","ping":58},{"user_id":664,"name":"MitraIDK","steam_id":76561198355718965,"connected_time":1840000000000,"state":"active","ping":62},{"user_id":641,"name":"else1","steam_id":76561197996558319,"connected_time":2757000000000,"state":"active","ping":76},{"user_id":677,"name":"gmem","steam_id":76561198070006725,"connected_time":979000000000,"state":"active","ping":62},{"user_id":655,"name":"Uselss Joe","steam_id":76561198275853629,"connected_time":2046000000000,"state":"active","ping":57},{"user_id":617,"name":"woop","steam_id":76561198985105074,"connected_time":4070000000000,"state":"active","ping":153},{"user_id":678,"name":"Lithe","steam_id":76561198097130024,"connected_time":963000000000,"state":"active","ping":64},{"user_id":666,"name":"Marker06","steam_id":76561198277310442,"connected_time":1619000000000,"state":"active","ping":61},{"user_id":679,"name":"Amandus","steam_id":76561198036281079,"connected_time":956000000000,"state":"active","ping":57},{"user_id":688,"name":"gLaczier","steam_id":76561198223899392,"connected_time":83000000000,"state":"active","ping":53},{"user_id":680,"name":"Kiogeki","steam_id":76561197996707843,"connected_time":956000000000,"state":"active","ping":59},{"user_id":670,"name":"say gex","steam_id":76561198265479349,"connected_time":1239000000000,"state":"active","ping":51},{"user_id":681,"name":"Crimson","steam_id":76561197987552332,"connected_time":945000000000,"state":"active","ping":44},{"user_id":612,"name":"Teezio","steam_id":76561198107617432,"connected_time":4344000000000,"state":"active","ping":58},{"user_id":682,"name":"clcraven","steam_id":76561198004637699,"connected_time":935000000000,"state":"active","ping":72},{"user_id":657,"name":"Frögg-Kät","steam_id":76561198263561004,"connected_time":2044000000000,"state":"active","ping":60},{"user_id":684,"name":"Niyaah","steam_id":76561198110209191,"connected_time":915000000000,"state":"active","ping":63}]},{"server_id":308,"name":"Uncletopia | Frankfurt | 3 | All Maps","name_short":"frk-3","host":"frk-1.de.uncletopia.com","port":27035,"enabled":true,"region":"eu","cc":"de","latitude":50.110924,"longitude":8.682127,"reserved":0,"last_update":"0001-01-01T00:00:00Z","name_a2s":"Uncletopia | Frankfurt | 3 | All Maps","protocol":17,"map":"pl_swiftwater_final1","folder":"tf","game":"Team Fortress","app_id":440,"player_count":24,"max_players":24,"Bots":0,"server_type":"Dedicated","server_os":"Linux","password":true,"vac":true,"version":"7961495","steam_id":85568392924504274,"keywords":["nocrits","nodmgspread","payload","uncletopia"],"game_id":440,"stv_port":27036,"stv_name":"Uncletopia | Frankfurt | 3 | All Maps | STV","players":[{"user_id":426,"name":"JcsP","steam_id":76561198014671123,"connected_time":180000000000,"state":"active","ping":113},{"user_id":414,"name":"Piellino","steam_id":76561198156873276,"connected_time":967000000000,"state":"active","ping":92},{"user_id":410,"name":"[F2P] MalCo","steam_id":76561197994930440,"connected_time":1251000000000,"state":"active","ping":47},{"user_id":411,"name":"Proto-arc","steam_id":76561198012776747,"connected_time":1144000000000,"state":"active","ping":60},{"user_id":415,"name":"f0x","steam_id":76561198072921704,"connected_time":710000000000,"state":"active","ping":45},{"user_id":345,"name":"I am real human","steam_id":76561199036865103,"connected_time":6215000000000,"state":"active","ping":88},{"user_id":398,"name":"mini-sentry","steam_id":76561198884712155,"connected_time":2909000000000,"state":"active","ping":177},{"user_id":374,"name":"phrög","steam_id":76561199230709660,"connected_time":4471000000000,"state":"active","ping":60},{"user_id":413,"name":"Jussukka","steam_id":76561198122894683,"connected_time":1057000000000,"state":"active","ping":101},{"user_id":304,"name":"Frozteen","steam_id":76561198280062997,"connected_time":9240000000000,"state":"active","ping":90},{"user_id":416,"name":"Lyncurion","steam_id":76561199260022725,"connected_time":691000000000,"state":"active","ping":79},{"user_id":425,"name":"Khvicha Kvaraskhelia","steam_id":76561198985309519,"connected_time":283000000000,"state":"active","ping":79},{"user_id":408,"name":"Pipper","steam_id":76561197970326616,"connected_time":1890000000000,"state":"active","ping":65},{"user_id":418,"name":"you","steam_id":76561198327672875,"connected_time":591000000000,"state":"active","ping":63},{"user_id":396,"name":"PUNK RECORDS","steam_id":76561197999954766,"connected_time":3021000000000,"state":"active","ping":50},{"user_id":427,"name":"grandpa gaming","steam_id":76561199094592508,"connected_time":153000000000,"state":"active","ping":55},{"user_id":379,"name":"etc","steam_id":76561197998394797,"connected_time":4013000000000,"state":"active","ping":56},{"user_id":403,"name":"Groucho","steam_id":76561198042888918,"connected_time":2646000000000,"state":"active","ping":57},{"user_id":361,"name":"Raymus","steam_id":76561198021330407,"connected_time":5086000000000,"state":"active","ping":45},{"user_id":386,"name":"Sprottel","steam_id":76561198362958293,"connected_time":3437000000000,"state":"active","ping":41},{"user_id":420,"name":"mentallyraged","steam_id":76561198402861468,"connected_time":479000000000,"state":"active","ping":57},{"user_id":404,"name":"W","steam_id":76561199501358967,"connected_time":2608000000000,"state":"active","ping":60},{"user_id":421,"name":"Sparkz","steam_id":76561198330190023,"connected_time":422000000000,"state":"active","ping":64},{"user_id":423,"name":"Kraken","steam_id":76561198203568537,"connected_time":358000000000,"state":"active","ping":80}]},{"server_id":309,"name":"Uncletopia | Frankfurt | 4 | All Maps","name_short":"frk-4","host":"frk-1.de.uncletopia.com","port":27045,"enabled":true,"region":"eu","cc":"de","latitude":50.110924,"longitude":8.682127,"reserved":0,"last_update":"0001-01-01T00:00:00Z","name_a2s":"Uncletopia | Frankfurt | 4 | All Maps","protocol":17,"map":"pl_frontier_final","folder":"tf","game":"Team Fortress","app_id":440,"player_count":0,"max_players":24,"Bots":0,"server_type":"Dedicated","server_os":"Linux","password":true,"vac":true,"version":"7961495","steam_id":85568392924504275,"keywords":["nocrits","nodmgspread","payload","uncletopia"],"game_id":440,"stv_port":27046,"stv_name":"Uncletopia | Frankfurt | 4 | All Maps | STV","players":null},{"server_id":310,"name":"Uncletopia | Frankfurt | 5 | All Maps","name_short":"frk-5","host":"frk-1.de.uncletopia.com","port":27055,"enabled":true,"region":"eu","cc":"de","latitude":50.110924,"longitude":8.682127,"reserved":0,"last_update":"0001-01-01T00:00:00Z","name_a2s":"Uncletopia | Frankfurt | 5 | All Maps","protocol":17,"map":"cp_process_final","folder":"tf","game":"Team Fortress","app_id":440,"player_count":23,"max_players":24,"Bots":0,"server_type":"Dedicated","server_os":"Linux","password":true,"vac":true,"version":"7961495","steam_id":85568392924504277,"keywords":["cp","nocrits","nodmgspread","uncletopia"],"game_id":440,"stv_port":27056,"stv_name":"Uncletopia | Frankfurt | 5 | All Maps | STV","players":[{"user_id":645,"name":"Vince","steam_id":76561199103000131,"connected_time":1630000000000,"state":"active","ping":46},{"user_id":623,"name":"Vershal Smershal","steam_id":76561198116223995,"connected_time":3963000000000,"state":"active","ping":57},{"user_id":624,"name":"crit hit!","steam_id":76561198112693639,"connected_time":3924000000000,"state":"active","ping":69},{"user_id":551,"name":"Just Navlis","steam_id":76561198090479609,"connected_time":10221000000000,"state":"active","ping":46},{"user_id":637,"name":"goop","steam_id":76561198190073005,"connected_time":2725000000000,"state":"active","ping":55},{"user_id":647,"name":"debil boywife","steam_id":76561198160047415,"connected_time":1359000000000,"state":"active","ping":91},{"user_id":574,"name":"agent youppii","steam_id":76561198055264447,"connected_time":8000000000000,"state":"active","ping":68},{"user_id":639,"name":"NIKOLAbree123","steam_id":76561198247037348,"connected_time":2202000000000,"state":"active","ping":78},{"user_id":648,"name":"glyph","steam_id":76561197980736364,"connected_time":1340000000000,"state":"active","ping":74},{"user_id":616,"name":"finbar","steam_id":76561198056812396,"connected_time":4388000000000,"state":"active","ping":73},{"user_id":626,"name":"SoapDictator","steam_id":76561198010540358,"connected_time":3742000000000,"state":"active","ping":74},{"user_id":655,"name":"sHIFTINGvORTEX","steam_id":76561198231648332,"connected_time":415000000000,"state":"active","ping":75},{"user_id":656,"name":"R8N - Obismal","steam_id":76561198007482714,"connected_time":262000000000,"state":"active","ping":66},{"user_id":649,"name":"corben","steam_id":76561198057360549,"connected_time":1305000000000,"state":"active","ping":62},{"user_id":629,"name":"wes","steam_id":76561198067000117,"connected_time":3718000000000,"state":"active","ping":60},{"user_id":600,"name":"Bajas","steam_id":76561198179339326,"connected_time":5501000000000,"state":"active","ping":75},{"user_id":538,"name":"xavier","steam_id":76561198076494034,"connected_time":11396000000000,"state":"active","ping":55},{"user_id":652,"name":"John Noob","steam_id":76561197999170026,"connected_time":722000000000,"state":"active","ping":87},{"user_id":653,"name":"Icarus300","steam_id":76561198015125766,"connected_time":624000000000,"state":"active","ping":75},{"user_id":582,"name":"powej","steam_id":76561198056381418,"connected_time":7492000000000,"state":"active","ping":45},{"user_id":631,"name":"nezolif","steam_id":76561198102030382,"connected_time":3708000000000,"state":"active","ping":65},{"user_id":632,"name":"dia","steam_id":76561198033281405,"connected_time":3701000000000,"state":"active","ping":85},{"user_id":539,"name":"hananamanna","steam_id":76561198006570285,"connected_time":11385000000000,"state":"active","ping":113}]},{"server_id":311,"name":"Uncletopia | Frankfurt | 6 | All Maps","name_short":"frk-6","host":"frk-1.de.uncletopia.com","port":27065,"enabled":true,"region":"eu","cc":"de","latitude":50.110924,"longitude":8.682127,"reserved":0,"last_update":"0001-01-01T00:00:00Z","name_a2s":"Uncletopia | Frankfurt | 6 | All Maps","protocol":17,"map":"pl_swiftwater_final1","folder":"tf","game":"Team Fortress","app_id":440,"player_count":20,"max_players":24,"Bots":0,"server_type":"Dedicated","server_os":"Linux","password":true,"vac":true,"version":"7961495","steam_id":85568392924504278,"keywords":["nocrits","nodmgspread","payload","uncletopia"],"game_id":440,"stv_port":27066,"stv_name":"Uncletopia | Frankfurt | 6 | All Maps | STV","players":[{"user_id":642,"name":"Em","steam_id":76561198057911246,"connected_time":658000000000,"state":"active","ping":70},{"user_id":643,"name":"disabled chimp","steam_id":76561198132062857,"connected_time":657000000000,"state":"active","ping":60},{"user_id":632,"name":"colorblindwizardlvl5","steam_id":76561199208988804,"connected_time":1261000000000,"state":"active","ping":172},{"user_id":617,"name":"jjvthou(NOtdRuNkMeswEaRss)","steam_id":76561199403071554,"connected_time":2598000000000,"state":"active","ping":156},{"user_id":639,"name":"NightOmega","steam_id":76561198323608522,"connected_time":874000000000,"state":"active","ping":44},{"user_id":654,"name":"plunj","steam_id":76561198056790920,"connected_time":263000000000,"state":"active","ping":53},{"user_id":552,"name":"Wildeshammer","steam_id":76561198132133702,"connected_time":7197000000000,"state":"active","ping":42},{"user_id":644,"name":"elf;.","steam_id":76561198042830349,"connected_time":657000000000,"state":"active","ping":95},{"user_id":636,"name":"heavy sings (real)","steam_id":76561199023804405,"connected_time":1109000000000,"state":"active","ping":66},{"user_id":655,"name":"Azza","steam_id":76561198332541326,"connected_time":239000000000,"state":"active","ping":78},{"user_id":638,"name":"zombiespira","steam_id":76561198977883996,"connected_time":979000000000,"state":"active","ping":70},{"user_id":645,"name":"torrent","steam_id":76561197982581690,"connected_time":654000000000,"state":"active","ping":58},{"user_id":646,"name":"rgb4","steam_id":76561198267916695,"connected_time":652000000000,"state":"active","ping":51},{"user_id":656,"name":"sneskottet","steam_id":76561197992154464,"connected_time":128000000000,"state":"active","ping":97},{"user_id":648,"name":"Gangwolf","steam_id":76561198043868575,"connected_time":385000000000,"state":"active","ping":53},{"user_id":592,"name":"Gaxkang","steam_id":76561198125768571,"connected_time":4117000000000,"state":"active","ping":66},{"user_id":649,"name":"bin","steam_id":76561198085163975,"connected_time":352000000000,"state":"active","ping":59},{"user_id":651,"name":"in space the raccoons liquify","steam_id":76561198031498341,"connected_time":317000000000,"state":"active","ping":70},{"user_id":652,"name":"tomydjoh","steam_id":76561198077421906,"connected_time":316000000000,"state":"active","ping":59},{"user_id":653,"name":"fawn","steam_id":76561198440195402,"connected_time":312000000000,"state":"active","ping":45}]},{"server_id":23,"name":"Uncletopia | Frankfurt | 7 | Stopwatch","name_short":"frk-7","host":"frk-1.de.uncletopia.com","port":27075,"enabled":true,"region":"eu","cc":"de","latitude":50.110924,"longitude":8.682127,"reserved":0,"last_update":"0001-01-01T00:00:00Z","name_a2s":"Uncletopia | Frankfurt | 7 | Stopwatch","protocol":17,"map":"workshop/pl_badwater_pro_v12.ugc2142942074","folder":"tf","game":"Team Fortress","app_id":440,"player_count":0,"max_players":24,"Bots":0,"server_type":"Dedicated","server_os":"Linux","password":true,"vac":true,"version":"7961495","steam_id":85568392924742827,"keywords":["nocrits","nodmgspread","payload","uncletopia"],"game_id":440,"stv_port":27076,"stv_name":"Uncletopia | Frankfurt | 7 | Stopwatch | STV","players":null},{"server_id":24,"name":"Uncletopia | Frankfurt | 8 | Community","name_short":"frk-8","host":"frk-1.de.uncletopia.com","port":27085,"enabled":true,"region":"eu","cc":"de","latitude":50.110924,"longitude":8.682127,"reserved":0,"last_update":"0001-01-01T00:00:00Z","name_a2s":"Uncletopia | Frankfurt | 8 | Community","protocol":17,"map":"workshop/cp_alloy_rc3.ugc592805587","folder":"tf","game":"Team Fortress","app_id":440,"player_count":0,"max_players":24,"Bots":0,"server_type":"Dedicated","server_os":"Linux","password":true,"vac":true,"version":"7961495","steam_id":85568392924742828,"keywords":["cp","nocrits","nodmgspread","uncletopia"],"game_id":440,"stv_port":27086,"stv_name":"Uncletopia | Frankfurt | 8 | Community | STV","players":null},{"server_id":202,"name":"Uncletopia | Hong Kong | 1 | All Maps","name_short":"hgk-1","host":"hgk-1.hk.uncletopia.com","port":27015,"enabled":true,"region":"asia","cc":"hk","latitude":22.302711,"longitude":114.177216,"reserved":0,"last_update":"0001-01-01T00:00:00Z","name_a2s":"Uncletopia | Hong Kong | 1 | All Maps","protocol":17,"map":"pl_frontier_final","folder":"tf","game":"Team Fortress","app_id":440,"player_count":0,"max_players":24,"Bots":0,"server_type":"Dedicated","server_os":"Linux","password":true,"vac":true,"version":"7961495","steam_id":85568392924494504,"keywords":["nocrits","nodmgspread","payload","uncletopia"],"game_id":440,"stv_port":27016,"stv_name":"Uncletopia | Hong Kong | 1 | All Maps | STV","players":null},{"server_id":1,"name":"Uncletopia | Los Angeles | 1 | All Maps","name_short":"lax-1","host":"lax-1.us.uncletopia.com","port":27015,"enabled":true,"region":"us-west","cc":"us","latitude":33.94279,"longitude":-118.41004,"reserved":0,"last_update":"0001-01-01T00:00:00Z","name_a2s":"Uncletopia | Los Angeles | 1 | All Maps","protocol":17,"map":"cp_steel","folder":"tf","game":"Team Fortress","app_id":440,"player_count":24,"max_players":24,"Bots":0,"server_type":"Dedicated","server_os":"Linux","password":true,"vac":true,"version":"7961495","steam_id":85568392924469991,"keywords":["cp","nocrits","nodmgspread","uncletopia"],"game_id":440,"stv_port":27016,"stv_name":"Uncletopia | Los Angeles | 1 | All Maps | STV","players":[{"user_id":231,"name":"shreklover69","steam_id":76561198054070811,"connected_time":1945000000000,"state":"active","ping":63},{"user_id":242,"name":"BlazedBunny","steam_id":76561198243610560,"connected_time":486000000000,"state":"active","ping":113},{"user_id":232,"name":"Keamy","steam_id":76561199471434875,"connected_time":1880000000000,"state":"active","ping":70},{"user_id":253,"name":"tek lintowe fan","steam_id":76561198206177593,"connected_time":29000000000,"state":"active","ping":36},{"user_id":241,"name":"cielael","steam_id":76561198043971956,"connected_time":860000000000,"state":"active","ping":48},{"user_id":224,"name":"rilby","steam_id":76561198132755619,"connected_time":3040000000000,"state":"active","ping":42},{"user_id":228,"name":"Gumpy","steam_id":76561198144747235,"connected_time":2534000000000,"state":"active","ping":78},{"user_id":235,"name":"Gardangle","steam_id":76561198394173831,"connected_time":1235000000000,"state":"active","ping":62},{"user_id":219,"name":"HumbDoe","steam_id":76561198065556553,"connected_time":3318000000000,"state":"active","ping":55},{"user_id":150,"name":"sobaka","steam_id":76561198116008934,"connected_time":8896000000000,"state":"active","ping":66},{"user_id":215,"name":"thekraken630","steam_id":76561199088410868,"connected_time":3664000000000,"state":"active","ping":56},{"user_id":247,"name":"lil uzi squirt","steam_id":76561198045926594,"connected_time":178000000000,"state":"active","ping":66},{"user_id":234,"name":"katze \u003c3","steam_id":76561198207796324,"connected_time":1603000000000,"state":"active","ping":81},{"user_id":254,"name":"Lysander Crow","steam_id":76561198214659356,"connected_time":22000000000,"state":"active","ping":62},{"user_id":246,"name":"Zenire","steam_id":76561199087298510,"connected_time":192000000000,"state":"active","ping":82},{"user_id":189,"name":"HopeTheNeko","steam_id":76561199159285465,"connected_time":5685000000000,"state":"active","ping":59},{"user_id":238,"name":"Mocha Josie","steam_id":76561198066452726,"connected_time":1080000000000,"state":"active","ping":84},{"user_id":161,"name":"triph","steam_id":76561198067196509,"connected_time":8484000000000,"state":"active","ping":38},{"user_id":229,"name":"Tmiracle","steam_id":76561198052375275,"connected_time":2522000000000,"state":"active","ping":48},{"user_id":237,"name":"Junior605","steam_id":76561198818786845,"connected_time":1187000000000,"state":"active","ping":115},{"user_id":230,"name":"Tele Co","steam_id":76561198041909269,"connected_time":2518000000000,"state":"active","ping":53},{"user_id":240,"name":"nzippy","steam_id":76561199048618678,"connected_time":1021000000000,"state":"active","ping":79},{"user_id":63,"name":"rat","steam_id":76561198130412963,"connected_time":16613000000000,"state":"active","ping":81},{"user_id":244,"name":"BiggestHistoryNerd","steam_id":76561198027677672,"connected_time":374000000000,"state":"active","ping":45}]},{"server_id":112,"name":"Uncletopia | Los Angeles | 2 | All Maps","name_short":"lax-2","host":"lax-1.us.uncletopia.com","port":27025,"enabled":true,"region":"us-west","cc":"us","latitude":33.94279,"longitude":-118.41004,"reserved":0,"last_update":"0001-01-01T00:00:00Z","name_a2s":"Uncletopia | Los Angeles | 2 | All Maps","protocol":17,"map":"cp_process_final","folder":"tf","game":"Team Fortress","app_id":440,"player_count":0,"max_players":24,"Bots":0,"server_type":"Dedicated","server_os":"Linux","password":true,"vac":true,"version":"7961495","steam_id":85568392924469992,"keywords":["cp","nocrits","nodmgspread","uncletopia"],"game_id":440,"stv_port":27026,"stv_name":"Uncletopia | Los Angeles | 2 | All Maps | STV","players":null},{"server_id":324,"name":"Uncletopia | Los Angeles | 3 | All Maps","name_short":"lax-3","host":"lax-1.us.uncletopia.com","port":27035,"enabled":true,"region":"us-west","cc":"us","latitude":33.94279,"longitude":-118.41004,"reserved":0,"last_update":"0001-01-01T00:00:00Z","name_a2s":"Uncletopia | Los Angeles | 3 | All Maps","protocol":17,"map":"cp_altitude","folder":"tf","game":"Team Fortress","app_id":440,"player_count":0,"max_players":24,"Bots":0,"server_type":"Dedicated","server_os":"Linux","password":true,"vac":true,"version":"7961495","steam_id":85568392924510198,"keywords":["cp","nocrits","nodmgspread","uncletopia"],"game_id":440,"stv_port":27036,"stv_name":"Uncletopia | Los Angeles | 3 | All Maps | STV","players":null},{"server_id":25,"name":"Uncletopia | Los Angeles | 4 | Stopwatch","name_short":"lax-4","host":"lax-1.us.uncletopia.com","port":27045,"enabled":true,"region":"us-west","cc":"us","latitude":33.94279,"longitude":-118.41004,"reserved":0,"last_update":"0001-01-01T00:00:00Z","name_a2s":"Uncletopia | Los Angeles | 4 | Stopwatch","protocol":17,"map":"pl_barnblitz","folder":"tf","game":"Team Fortress","app_id":440,"player_count":0,"max_players":24,"Bots":0,"server_type":"Dedicated","server_os":"Linux","password":true,"vac":true,"version":"7961495","steam_id":85568392924510199,"keywords":["nocrits","nodmgspread","payload","uncletopia"],"game_id":440,"stv_port":27046,"stv_name":"Uncletopia | Los Angeles | 4 | Stopwatch | STV","players":null},{"server_id":11,"name":"Uncletopia | London | 1 | All Maps","name_short":"lon-1","host":"lon-1.uk.uncletopia.com","port":27015,"enabled":true,"region":"eu","cc":"gb","latitude":51.509865,"longitude":-0.118092,"reserved":0,"last_update":"0001-01-01T00:00:00Z","name_a2s":"Uncletopia | London | 1 | All Maps","protocol":17,"map":"pl_upward","folder":"tf","game":"Team Fortress","app_id":440,"player_count":24,"max_players":24,"Bots":0,"server_type":"Dedicated","server_os":"Linux","password":true,"vac":true,"version":"7961495","steam_id":85568392924367362,"keywords":["nocrits","nodmgspread","payload","uncletopia"],"game_id":440,"stv_port":27016,"stv_name":"Uncletopia | London | 1 | All Maps | STV","players":[{"user_id":812,"name":"Minimi","steam_id":76561198873850443,"connected_time":1823000000000,"state":"active","ping":44},{"user_id":806,"name":"BreadBubbles","steam_id":76561198174332826,"connected_time":2955000000000,"state":"active","ping":61},{"user_id":658,"name":"KnugenIV","steam_id":76561198127091993,"connected_time":8598000000000,"state":"active","ping":56},{"user_id":597,"name":"Yelowchy","steam_id":76561198199416121,"connected_time":14203000000000,"state":"active","ping":72},{"user_id":799,"name":"so valid queen slay","steam_id":76561198190583242,"connected_time":3139000000000,"state":"active","ping":78},{"user_id":782,"name":"fluffy gurl :3","steam_id":76561198139632682,"connected_time":5207000000000,"state":"active","ping":91},{"user_id":787,"name":"sushii","steam_id":76561198297987372,"connected_time":4457000000000,"state":"active","ping":49},{"user_id":813,"name":"dec","steam_id":76561198009660168,"connected_time":1821000000000,"state":"active","ping":54},{"user_id":794,"name":"SOPHIIAA (DRINKING GAME PLAYER)","steam_id":76561198443798981,"connected_time":3219000000000,"state":"active","ping":74},{"user_id":566,"name":"whimsy.","steam_id":76561198878171763,"connected_time":17396000000000,"state":"active","ping":50},{"user_id":633,"name":"ein","steam_id":76561198152162834,"connected_time":11281000000000,"state":"active","ping":92},{"user_id":802,"name":"rigel_","steam_id":76561198148640847,"connected_time":3134000000000,"state":"active","ping":75},{"user_id":550,"name":"shooer!","steam_id":76561198110531281,"connected_time":18561000000000,"state":"active","ping":67},{"user_id":805,"name":"Black Tom","steam_id":76561198335730273,"connected_time":3101000000000,"state":"active","ping":64},{"user_id":735,"name":"⸸aura⸸","steam_id":76561198066258544,"connected_time":7398000000000,"state":"active","ping":63},{"user_id":816,"name":"beebo","steam_id":76561199120277007,"connected_time":870000000000,"state":"active","ping":170},{"user_id":779,"name":"gibb (official)","steam_id":76561198074097655,"connected_time":6644000000000,"state":"active","ping":62},{"user_id":810,"name":"Mei","steam_id":76561198363464483,"connected_time":2426000000000,"state":"active","ping":77},{"user_id":804,"name":"Chase","steam_id":76561198123487596,"connected_time":3125000000000,"state":"active","ping":85},{"user_id":653,"name":"sora","steam_id":76561198096547662,"connected_time":8629000000000,"state":"active","ping":54},{"user_id":814,"name":"Lyra","steam_id":76561198043601838,"connected_time":1321000000000,"state":"active","ping":60},{"user_id":661,"name":"Cabbch","steam_id":76561198045955679,"connected_time":8250000000000,"state":"active","ping":45},{"user_id":818,"name":"Dot","steam_id":76561198047299145,"connected_time":112000000000,"state":"active","ping":87},{"user_id":811,"name":"Kphi(i)","steam_id":76561198970587061,"connected_time":1834000000000,"state":"active","ping":61}]},{"server_id":114,"name":"Uncletopia | London | 2 | All Maps","name_short":"lon-2","host":"lon-1.uk.uncletopia.com","port":27025,"enabled":true,"region":"eu","cc":"gb","latitude":51.509865,"longitude":-0.118092,"reserved":0,"last_update":"0001-01-01T00:00:00Z","name_a2s":"Uncletopia | London | 2 | All Maps","protocol":17,"map":"cp_sunshine","folder":"tf","game":"Team Fortress","app_id":440,"player_count":0,"max_players":24,"Bots":0,"server_type":"Dedicated","server_os":"Linux","password":true,"vac":true,"version":"7961495","steam_id":85568392924470941,"keywords":["cp","nocrits","nodmgspread","uncletopia"],"game_id":440,"stv_port":27026,"stv_name":"Uncletopia | London | 2 | All Maps | STV","players":null},{"server_id":320,"name":"Uncletopia | London | 3 | All Maps","name_short":"lon-3","host":"lon-1.uk.uncletopia.com","port":27035,"enabled":true,"region":"eu","cc":"gb","latitude":51.509865,"longitude":-0.118092,"reserved":0,"last_update":"0001-01-01T00:00:00Z","name_a2s":"Uncletopia | London | 3 | All Maps","protocol":17,"map":"koth_viaduct","folder":"tf","game":"Team Fortress","app_id":440,"player_count":0,"max_players":24,"Bots":0,"server_type":"Dedicated","server_os":"Linux","password":true,"vac":true,"version":"7961495","steam_id":85568392924510192,"keywords":["cp","nocrits","nodmgspread","uncletopia"],"game_id":440,"stv_port":27036,"stv_name":"Uncletopia | London | 3 | All Maps | STV","players":null},{"server_id":321,"name":"Uncletopia | London | 4 | All Maps","name_short":"lon-4","host":"lon-1.uk.uncletopia.com","port":27045,"enabled":true,"region":"eu","cc":"gb","latitude":51.509865,"longitude":-0.118092,"reserved":0,"last_update":"0001-01-01T00:00:00Z","name_a2s":"Uncletopia | London | 4 | All Maps","protocol":17,"map":"pl_pier","folder":"tf","game":"Team Fortress","app_id":440,"player_count":21,"max_players":24,"Bots":0,"server_type":"Dedicated","server_os":"Linux","password":true,"vac":true,"version":"7961495","steam_id":85568392924510193,"keywords":["nocrits","nodmgspread","payload","uncletopia"],"game_id":440,"stv_port":27046,"stv_name":"Uncletopia | London | 4 | All Maps | STV","players":[{"user_id":745,"name":"zayd","steam_id":76561198895235231,"connected_time":724000000000,"state":"active","ping":55},{"user_id":723,"name":"mary","steam_id":76561198014828037,"connected_time":3292000000000,"state":"active","ping":53},{"user_id":757,"name":"Qdarks","steam_id":76561198013391340,"connected_time":250000000000,"state":"active","ping":131},{"user_id":734,"name":"Retard Gaming","steam_id":76561198103978102,"connected_time":2176000000000,"state":"active","ping":70},{"user_id":758,"name":"Feels Good","steam_id":76561198058030054,"connected_time":162000000000,"state":"active","ping":129},{"user_id":740,"name":"Arthur","steam_id":76561198066109166,"connected_time":1583000000000,"state":"active","ping":75},{"user_id":707,"name":"7oid","steam_id":76561198142074232,"connected_time":4313000000000,"state":"active","ping":96},{"user_id":746,"name":"Dean Craig Pelton From Communit","steam_id":76561198155010055,"connected_time":711000000000,"state":"active","ping":119},{"user_id":726,"name":"earmufti (ethan)","steam_id":76561198097112369,"connected_time":2731000000000,"state":"active","ping":59},{"user_id":752,"name":"NotChloe","steam_id":76561198080658092,"connected_time":282000000000,"state":"active","ping":60},{"user_id":750,"name":"randem_","steam_id":76561198338793755,"connected_time":493000000000,"state":"active","ping":42},{"user_id":749,"name":"bowchika wowa #SlavaUkraine","steam_id":76561198159564550,"connected_time":544000000000,"state":"active","ping":77},{"user_id":753,"name":"Stefman","steam_id":76561199025104038,"connected_time":273000000000,"state":"active","ping":41},{"user_id":762,"name":"Tomato","steam_id":76561199124472513,"connected_time":31000000000,"state":"active","ping":134},{"user_id":755,"name":"a succulent chinese meal","steam_id":76561198075539799,"connected_time":270000000000,"state":"active","ping":46},{"user_id":715,"name":"Enda","steam_id":76561198202980164,"connected_time":3797000000000,"state":"active","ping":109},{"user_id":756,"name":"DysphoricTrashPanda","steam_id":76561198377142897,"connected_time":255000000000,"state":"active","ping":45},{"user_id":759,"name":"moseley519","steam_id":76561198045485374,"connected_time":129000000000,"state":"active","ping":46},{"user_id":727,"name":"Elitepotatoz","steam_id":76561198063958525,"connected_time":2727000000000,"state":"active","ping":61},{"user_id":760,"name":"noot","steam_id":76561198148074472,"connected_time":116000000000,"state":"active","ping":44},{"user_id":729,"name":"jessieeeee","steam_id":76561198037875922,"connected_time":2713000000000,"state":"active","ping":45}]},{"server_id":21,"name":"Uncletopia | London | 5 | All Maps","name_short":"lon-5","host":"lon-1.uk.uncletopia.com","port":27055,"enabled":true,"region":"eu","cc":"gb","latitude":51.509865,"longitude":-0.118092,"reserved":0,"last_update":"0001-01-01T00:00:00Z","name_a2s":"Uncletopia | London | 5 | All Maps","protocol":17,"map":"pl_snowycoast","folder":"tf","game":"Team Fortress","app_id":440,"player_count":24,"max_players":24,"Bots":0,"server_type":"Dedicated","server_os":"Linux","password":true,"vac":true,"version":"7961495","steam_id":85568392924742829,"keywords":["nocrits","nodmgspread","payload","uncletopia"],"game_id":440,"stv_port":27056,"stv_name":"Uncletopia | London | 5 | All Maps | STV","players":[{"user_id":560,"name":"UnaSimpleBatata","steam_id":76561199008490451,"connected_time":419000000000,"state":"active","ping":91},{"user_id":548,"name":"ROX","steam_id":76561198272289320,"connected_time":916000000000,"state":"active","ping":58},{"user_id":552,"name":"Level 1 Noob","steam_id":76561198088586340,"connected_time":735000000000,"state":"active","ping":61},{"user_id":550,"name":"turbo shart","steam_id":76561198012351808,"connected_time":902000000000,"state":"active","ping":54},{"user_id":553,"name":"ashley","steam_id":76561198448551449,"connected_time":670000000000,"state":"active","ping":36},{"user_id":518,"name":"Mr. Squiddles","steam_id":76561198079385023,"connected_time":3240000000000,"state":"active","ping":64},{"user_id":554,"name":"Weegee","steam_id":76561198150308523,"connected_time":643000000000,"state":"active","ping":55},{"user_id":538,"name":"gαвє ησëℓ","steam_id":76561198067342352,"connected_time":1819000000000,"state":"active","ping":60},{"user_id":499,"name":"[Heavy Mandarin]","steam_id":76561198531978435,"connected_time":4008000000000,"state":"active","ping":53},{"user_id":546,"name":"Cranbury","steam_id":76561198079170457,"connected_time":1289000000000,"state":"active","ping":46},{"user_id":559,"name":"Gugu gaga","steam_id":76561198161822358,"connected_time":440000000000,"state":"active","ping":75},{"user_id":466,"name":"joachym","steam_id":76561198428579761,"connected_time":5559000000000,"state":"active","ping":71},{"user_id":520,"name":"the fucking rat","steam_id":76561198112115972,"connected_time":3211000000000,"state":"active","ping":75},{"user_id":513,"name":"Mr_Pulse_","steam_id":76561198095001602,"connected_time":3338000000000,"state":"active","ping":102},{"user_id":561,"name":"JujuBalu","steam_id":76561198207253071,"connected_time":236000000000,"state":"active","ping":34},{"user_id":542,"name":"Raccoon","steam_id":76561199189494190,"connected_time":1504000000000,"state":"active","ping":148},{"user_id":509,"name":"yuno appreciator","steam_id":76561198083286511,"connected_time":3472000000000,"state":"active","ping":38},{"user_id":556,"name":"osvaldo","steam_id":76561198088600319,"connected_time":502000000000,"state":"active","ping":44},{"user_id":557,"name":"horrors within my comprehension","steam_id":76561198363841749,"connected_time":501000000000,"state":"active","ping":84},{"user_id":511,"name":"dodge","steam_id":76561198085296668,"connected_time":3427000000000,"state":"active","ping":40},{"user_id":558,"name":"Gumi","steam_id":76561199128165746,"connected_time":491000000000,"state":"active","ping":138},{"user_id":515,"name":"LopsidedBunny","steam_id":76561198088713141,"connected_time":3331000000000,"state":"active","ping":69},{"user_id":534,"name":"Germanium_Ge","steam_id":76561198130561775,"connected_time":2120000000000,"state":"active","ping":56},{"user_id":535,"name":"azzy","steam_id":76561198061293740,"connected_time":2116000000000,"state":"active","ping":76}]},{"server_id":22,"name":"Uncletopia | London | 6 | All Maps","name_short":"lon-6","host":"lon-1.uk.uncletopia.com","port":27065,"enabled":true,"region":"eu","cc":"gb","latitude":51.509865,"longitude":-0.118092,"reserved":0,"last_update":"0001-01-01T00:00:00Z","name_a2s":"Uncletopia | London | 6 | All Maps","protocol":17,"map":"cp_sunshine","folder":"tf","game":"Team Fortress","app_id":440,"player_count":0,"max_players":24,"Bots":0,"server_type":"Dedicated","server_os":"Linux","password":true,"vac":true,"version":"7961495","steam_id":85568392924742830,"keywords":["cp","nocrits","nodmgspread","uncletopia"],"game_id":440,"stv_port":27066,"stv_name":"Uncletopia | London | 6 | All Maps | STV","players":null},{"server_id":40,"name":"Uncletopia | London | 7 | Stopwatch","name_short":"lon-7","host":"lon-1.uk.uncletopia.com","port":27075,"enabled":true,"region":"eu","cc":"gb","latitude":51.509865,"longitude":-0.118092,"reserved":0,"last_update":"0001-01-01T00:00:00Z","name_a2s":"Uncletopia | London | 7 | Stopwatch","protocol":17,"map":"koth_highpass","folder":"tf","game":"Team Fortress","app_id":440,"player_count":0,"max_players":24,"Bots":0,"server_type":"Dedicated","server_os":"Linux","password":true,"vac":true,"version":"7961495","steam_id":85568392924964314,"keywords":["cp","nocrits","nodmgspread","uncletopia"],"game_id":440,"stv_port":27076,"stv_name":"Uncletopia | London | 7 | Stopwatch | STV","players":null},{"server_id":41,"name":"Uncletopia | London | 8 | Community","name_short":"lon-8","host":"lon-1.uk.uncletopia.com","port":27085,"enabled":true,"region":"eu","cc":"gb","latitude":51.509865,"longitude":-0.118092,"reserved":0,"last_update":"0001-01-01T00:00:00Z","name_a2s":"Uncletopia | London | 8 | Community","protocol":17,"map":"workshop/koth_slaughter_rc1.ugc1712845210","folder":"tf","game":"Team Fortress","app_id":440,"player_count":0,"max_players":24,"Bots":0,"server_type":"Dedicated","server_os":"Linux","password":true,"vac":true,"version":"7961495","steam_id":85568392924964315,"keywords":["cp","nocrits","nodmgspread","uncletopia"],"game_id":440,"stv_port":27086,"stv_name":"Uncletopia | London | 8 | Community | STV","players":null},{"server_id":300,"name":"Uncletopia | Montréal | 1 | One Thousand Uncles","name_short":"mtl-1","host":"mtl-1.ca.uncletopia.com","port":27015,"enabled":true,"region":"us-east","cc":"ca","latitude":45.50889,"longitude":-73.56167,"reserved":0,"last_update":"0001-01-01T00:00:00Z","name_a2s":"","protocol":0,"map":"","folder":"","game":"","app_id":0,"player_count":3,"max_players":0,"Bots":0,"server_type":"","server_os":"","password":false,"vac":false,"version":"","steam_id":0,"keywords":null,"game_id":0,"stv_port":0,"stv_name":"","players":[{"user_id":197,"name":"doamgeo468","steam_id":76561199485287045,"connected_time":371000000000,"state":"active","ping":57},{"user_id":214,"name":"cpg","steam_id":76561198853515541,"connected_time":232000000000,"state":"active","ping":67},{"user_id":215,"name":"JACOB","steam_id":76561198211874895,"connected_time":169000000000,"state":"active","ping":58}]},{"server_id":301,"name":"Uncletopia | Montréal | 2 | One Thousand Uncles","name_short":"mtl-2","host":"mtl-1.ca.uncletopia.com","port":27025,"enabled":true,"region":"us-east","cc":"ca","latitude":45.50889,"longitude":-73.56167,"reserved":0,"last_update":"0001-01-01T00:00:00Z","name_a2s":"","protocol":0,"map":"","folder":"","game":"","app_id":0,"player_count":5,"max_players":0,"Bots":0,"server_type":"","server_os":"","password":false,"vac":false,"version":"","steam_id":0,"keywords":null,"game_id":0,"stv_port":0,"stv_name":"","players":[{"user_id":93,"name":"tfkillr","steam_id":76561199308986695,"connected_time":3607000000000,"state":"active","ping":73},{"user_id":111,"name":"Featherless Biped","steam_id":76561198034171721,"connected_time":2327000000000,"state":"active","ping":66},{"user_id":113,"name":"Flare Grylls","steam_id":76561199059253395,"connected_time":1576000000000,"state":"active","ping":60},{"user_id":114,"name":"gravid baby","steam_id":76561198318646867,"connected_time":1356000000000,"state":"active","ping":45},{"user_id":116,"name":"ricardomarte0414","steam_id":76561198817744897,"connected_time":550000000000,"state":"active","ping":63}]},{"server_id":302,"name":"Uncletopia | Montréal | 3 | One Thousand Uncles","name_short":"mtl-3","host":"mtl-1.ca.uncletopia.com","port":27035,"enabled":true,"region":"us-east","cc":"ca","latitude":45.50889,"longitude":-73.56167,"reserved":0,"last_update":"0001-01-01T00:00:00Z","name_a2s":"","protocol":0,"map":"","folder":"","game":"","app_id":0,"player_count":0,"max_players":0,"Bots":0,"server_type":"","server_os":"","password":false,"vac":false,"version":"","steam_id":0,"keywords":null,"game_id":0,"stv_port":0,"stv_name":"","players":null},{"server_id":13,"name":"Uncletopia | New York City | 1 | All Maps","name_short":"nyc-1","host":"nyc-1.us.uncletopia.com","port":27015,"enabled":true,"region":"us-east","cc":"us","latitude":40.73061,"longitude":-73.93524,"reserved":0,"last_update":"0001-01-01T00:00:00Z","name_a2s":"Uncletopia | New York City | 1 | All Maps","protocol":17,"map":"cp_dustbowl","folder":"tf","game":"Team Fortress","app_id":440,"player_count":24,"max_players":24,"Bots":0,"server_type":"Dedicated","server_os":"Linux","password":true,"vac":true,"version":"7961495","steam_id":85568392924469993,"keywords":["cp","nocrits","nodmgspread","uncletopia"],"game_id":440,"stv_port":27016,"stv_name":"Uncletopia | New York City | 1 | All Maps | STV","players":[{"user_id":485,"name":"grate_warior-232","steam_id":76561198073424589,"connected_time":258000000000,"state":"active","ping":60},{"user_id":464,"name":"Brawns","steam_id":76561198045190199,"connected_time":1442000000000,"state":"active","ping":69},{"user_id":486,"name":"Johnny Lawrence #JohnnyMaxxing","steam_id":76561199367141671,"connected_time":243000000000,"state":"active","ping":45},{"user_id":458,"name":"Sickduck Mcgee","steam_id":76561198028577159,"connected_time":2952000000000,"state":"active","ping":61},{"user_id":461,"name":"ndvr","steam_id":76561199379200102,"connected_time":2560000000000,"state":"active","ping":49},{"user_id":492,"name":"ArcticRescue","steam_id":76561198055362404,"connected_time":199000000000,"state":"active","ping":44},{"user_id":482,"name":"Cat_Gaben","steam_id":76561198308094558,"connected_time":546000000000,"state":"active","ping":69},{"user_id":498,"name":"What's My Age Again?","steam_id":76561198035304483,"connected_time":76000000000,"state":"active","ping":63},{"user_id":487,"name":"alex","steam_id":76561198095203229,"connected_time":237000000000,"state":"active","ping":72},{"user_id":459,"name":"David Blaine","steam_id":76561198980560578,"connected_time":2949000000000,"state":"active","ping":68},{"user_id":467,"name":"Churro Man","steam_id":76561198166868875,"connected_time":1373000000000,"state":"active","ping":44},{"user_id":488,"name":":3","steam_id":76561198083607304,"connected_time":225000000000,"state":"active","ping":56},{"user_id":489,"name":"Quixzy","steam_id":76561199351529514,"connected_time":223000000000,"state":"active","ping":68},{"user_id":490,"name":"Rang Reveiws","steam_id":76561198968587541,"connected_time":222000000000,"state":"active","ping":59},{"user_id":444,"name":"HAT-WEARING™ Maggot Gamer Cat","steam_id":76561197973992705,"connected_time":3272000000000,"state":"active","ping":121},{"user_id":462,"name":"taigaxx","steam_id":76561198202669250,"connected_time":1737000000000,"state":"active","ping":68},{"user_id":491,"name":"Fatal","steam_id":76561198061407587,"connected_time":215000000000,"state":"active","ping":91},{"user_id":493,"name":"boo_thefeared","steam_id":76561198127967685,"connected_time":189000000000,"state":"active","ping":119},{"user_id":499,"name":"Fishandfish","steam_id":76561198298483804,"connected_time":57000000000,"state":"active","ping":113},{"user_id":494,"name":"Rumble","steam_id":76561199170926322,"connected_time":188000000000,"state":"active","ping":76},{"user_id":484,"name":"Horse","steam_id":76561198332887086,"connected_time":268000000000,"state":"active","ping":45},{"user_id":495,"name":"dorian.","steam_id":76561198047979957,"connected_time":179000000000,"state":"active","ping":61},{"user_id":497,"name":"E44Man","steam_id":76561197968288140,"connected_time":93000000000,"state":"active","ping":69},{"user_id":450,"name":"epsilene","steam_id":76561198027468624,"connected_time":3057000000000,"state":"active","ping":45}]},{"server_id":14,"name":"Uncletopia | New York City | 2 | All Maps","name_short":"nyc-2","host":"nyc-1.us.uncletopia.com","port":27025,"enabled":true,"region":"us-east","cc":"us","latitude":40.73061,"longitude":-73.93524,"reserved":0,"last_update":"0001-01-01T00:00:00Z","name_a2s":"Uncletopia | New York City | 2 | All Maps","protocol":17,"map":"cp_process_final","folder":"tf","game":"Team Fortress","app_id":440,"player_count":24,"max_players":24,"Bots":0,"server_type":"Dedicated","server_os":"Linux","password":true,"vac":true,"version":"7961495","steam_id":85568392924469994,"keywords":["cp","nocrits","nodmgspread","uncletopia"],"game_id":440,"stv_port":27026,"stv_name":"Uncletopia | New York City | 2 | All Maps | STV","players":[{"user_id":308,"name":"Blade Racer","steam_id":76561198155896703,"connected_time":469000000000,"state":"active","ping":66},{"user_id":301,"name":"Vordt","steam_id":76561198040942866,"connected_time":562000000000,"state":"active","ping":49},{"user_id":302,"name":"arinet","steam_id":76561198052572890,"connected_time":560000000000,"state":"active","ping":42},{"user_id":293,"name":"yitz","steam_id":76561198375575841,"connected_time":1300000000000,"state":"active","ping":75},{"user_id":290,"name":"vanta","steam_id":76561198084317504,"connected_time":1519000000000,"state":"active","ping":63},{"user_id":300,"name":"PK","steam_id":76561198368722500,"connected_time":610000000000,"state":"active","ping":64},{"user_id":303,"name":"TTVPlumSmug","steam_id":76561198103960265,"connected_time":527000000000,"state":"active","ping":74},{"user_id":304,"name":"JohnsBriefcase","steam_id":76561198117657002,"connected_time":482000000000,"state":"active","ping":53},{"user_id":298,"name":"Sputnuts","steam_id":76561198236857310,"connected_time":664000000000,"state":"active","ping":45},{"user_id":281,"name":"gregoryhens","steam_id":76561199434318315,"connected_time":1770000000000,"state":"active","ping":170},{"user_id":260,"name":"Scum Knight | T.I.D.K.","steam_id":76561198282444763,"connected_time":2370000000000,"state":"active","ping":54},{"user_id":310,"name":"Dr. peppino spaghetti","steam_id":76561199121285443,"connected_time":305000000000,"state":"active","ping":46},{"user_id":282,"name":"zen","steam_id":76561198066485047,"connected_time":1688000000000,"state":"active","ping":45},{"user_id":288,"name":"yalu","steam_id":76561198224811504,"connected_time":1589000000000,"state":"active","ping":68},{"user_id":274,"name":"black tar estrogen","steam_id":76561198043911582,"connected_time":2025000000000,"state":"active","ping":48},{"user_id":305,"name":"Impressive, very nice","steam_id":76561198046775352,"connected_time":481000000000,"state":"active","ping":114},{"user_id":283,"name":"Big Bill Haywood","steam_id":76561198142290733,"connected_time":1682000000000,"state":"active","ping":61},{"user_id":299,"name":"el wiwi","steam_id":76561198857304367,"connected_time":663000000000,"state":"active","ping":74},{"user_id":306,"name":"Miner2495","steam_id":76561198445904523,"connected_time":479000000000,"state":"active","ping":71},{"user_id":268,"name":"Danitom","steam_id":76561198000717813,"connected_time":2117000000000,"state":"active","ping":90},{"user_id":311,"name":"b^uma","steam_id":76561198856016840,"connected_time":262000000000,"state":"active","ping":49},{"user_id":309,"name":"Agro | KritzKast","steam_id":76561197970498549,"connected_time":445000000000,"state":"active","ping":123},{"user_id":284,"name":"fitdrewd","steam_id":76561198839276719,"connected_time":1680000000000,"state":"active","ping":86},{"user_id":292,"name":"Bob","steam_id":76561199100437824,"connected_time":1342000000000,"state":"active","ping":101}]},{"server_id":15,"name":"Uncletopia | New York City | 3 | Stopwatch","name_short":"nyc-3","host":"nyc-1.us.uncletopia.com","port":27035,"enabled":true,"region":"us-east","cc":"us","latitude":40.73061,"longitude":-73.93524,"reserved":0,"last_update":"0001-01-01T00:00:00Z","name_a2s":"Uncletopia | New York City | 3 | Stopwatch","protocol":17,"map":"workshop/koth_ashville_final.ugc2130459942","folder":"tf","game":"Team Fortress","app_id":440,"player_count":0,"max_players":24,"Bots":0,"server_type":"Dedicated","server_os":"Linux","password":true,"vac":true,"version":"7961495","steam_id":85568392924742820,"keywords":["cp","nocrits","nodmgspread","uncletopia"],"game_id":440,"stv_port":27036,"stv_name":"Uncletopia | New York City | 3 | Stopwatch | STV","players":null},{"server_id":16,"name":"Uncletopia | New York City | 4 | Community","name_short":"nyc-4","host":"nyc-1.us.uncletopia.com","port":27045,"enabled":true,"region":"us-east","cc":"us","latitude":40.73061,"longitude":-73.93524,"reserved":0,"last_update":"0001-01-01T00:00:00Z","name_a2s":"Uncletopia | New York City | 4 | Community","protocol":17,"map":"workshop/koth_kemptown_rc1.ugc767410655","folder":"tf","game":"Team Fortress","app_id":440,"player_count":3,"max_players":24,"Bots":0,"server_type":"Dedicated","server_os":"Linux","password":true,"vac":true,"version":"7961495","steam_id":85568392924742821,"keywords":["cp","nocrits","nodmgspread","uncletopia"],"game_id":440,"stv_port":27046,"stv_name":"Uncletopia | New York City | 4 | Community | STV","players":[{"user_id":7,"name":"Requinou14","steam_id":76561199094836913,"connected_time":739000000000,"state":"active","ping":59},{"user_id":8,"name":"superbug3003","steam_id":76561198311447642,"connected_time":725000000000,"state":"active","ping":67},{"user_id":9,"name":"stivanaker","steam_id":76561198346276579,"connected_time":683000000000,"state":"active","ping":86}]},{"server_id":142,"name":"Uncletopia | São Paulo | 1 | All Maps","name_short":"sao-1","host":"sao-1.br.uncletopia.com","port":27015,"enabled":true,"region":"sa","cc":"br","latitude":-23.533773,"longitude":-46.62529,"reserved":0,"last_update":"0001-01-01T00:00:00Z","name_a2s":"Uncletopia | São Paulo | 1 | All Maps","protocol":17,"map":"cp_sunshine","folder":"tf","game":"Team Fortress","app_id":440,"player_count":0,"max_players":24,"Bots":0,"server_type":"Dedicated","server_os":"Linux","password":true,"vac":true,"version":"7961495","steam_id":85568392924469996,"keywords":["cp","nocrits","nodmgspread","uncletopia"],"game_id":440,"stv_port":27016,"stv_name":"Uncletopia | São Paulo | 1 | All Maps | STV","players":null},{"server_id":143,"name":"Uncletopia | São Paulo | 2 | Community","name_short":"sao-2","host":"sao-2.br.uncletopia.com","port":27015,"enabled":true,"region":"sa","cc":"br","latitude":-23.533773,"longitude":-46.62529,"reserved":0,"last_update":"0001-01-01T00:00:00Z","name_a2s":"Uncletopia | São Paulo | 2 | Community","protocol":17,"map":"workshop/koth_trenchfoot_ab1.ugc731436616","folder":"tf","game":"Team Fortress","app_id":440,"player_count":0,"max_players":24,"Bots":0,"server_type":"Dedicated","server_os":"Linux","password":true,"vac":true,"version":"7961495","steam_id":85568392924485349,"keywords":["cp","nocrits","nodmgspread","uncletopia"],"game_id":440,"stv_port":27016,"stv_name":"Uncletopia | São Paulo | 2 | Community | STV","players":null},{"server_id":7,"name":"Uncletopia | Seattle | 1 | All Maps","name_short":"sea-1","host":"sea-1.us.uncletopia.com","port":27015,"enabled":true,"region":"us-west","cc":"us","latitude":47.608013,"longitude":-122.33517,"reserved":0,"last_update":"0001-01-01T00:00:00Z","name_a2s":"Uncletopia | Seattle | 1 | All Maps","protocol":17,"map":"pl_pier","folder":"tf","game":"Team Fortress","app_id":440,"player_count":24,"max_players":24,"Bots":0,"server_type":"Dedicated","server_os":"Linux","password":true,"vac":true,"version":"7961495","steam_id":85568392924469997,"keywords":["nocrits","nodmgspread","payload","uncletopia"],"game_id":440,"stv_port":27016,"stv_name":"Uncletopia | Seattle | 1 | All Maps | STV","players":[{"user_id":465,"name":"Fh","steam_id":76561198000903511,"connected_time":950000000000,"state":"active","ping":61},{"user_id":454,"name":"CraftOfDoom","steam_id":76561198856919544,"connected_time":2067000000000,"state":"active","ping":59},{"user_id":442,"name":"Whimsy!","steam_id":76561197989578836,"connected_time":3007000000000,"state":"active","ping":60},{"user_id":427,"name":"greenpeace","steam_id":76561197983221708,"connected_time":5045000000000,"state":"active","ping":59},{"user_id":462,"name":"yowhatupitk","steam_id":76561199224530901,"connected_time":1065000000000,"state":"active","ping":46},{"user_id":443,"name":"Petey0712","steam_id":76561199401008981,"connected_time":3006000000000,"state":"active","ping":54},{"user_id":426,"name":"purple hatsune miku","steam_id":76561198108844158,"connected_time":5090000000000,"state":"active","ping":90},{"user_id":436,"name":"lukamine","steam_id":76561198166827208,"connected_time":4137000000000,"state":"active","ping":45},{"user_id":467,"name":"Greskrendtregk","steam_id":76561197969553142,"connected_time":472000000000,"state":"active","ping":49},{"user_id":466,"name":"Salazar9","steam_id":76561198049903973,"connected_time":519000000000,"state":"active","ping":53},{"user_id":464,"name":"Zetta","steam_id":76561198045710113,"connected_time":1003000000000,"state":"active","ping":82},{"user_id":444,"name":"Neb","steam_id":76561198883473473,"connected_time":3005000000000,"state":"active","ping":45},{"user_id":432,"name":"\u0026Femboy Friday (they/them)","steam_id":76561198027321950,"connected_time":4387000000000,"state":"active","ping":61},{"user_id":459,"name":"BolognaWithOlives","steam_id":76561198101262668,"connected_time":2047000000000,"state":"active","ping":101},{"user_id":435,"name":"Dongus","steam_id":76561197979056451,"connected_time":4344000000000,"state":"active","ping":50},{"user_id":468,"name":"ATHEIST TIL I REALIZED I AM GOD","steam_id":76561199190800520,"connected_time":134000000000,"state":"active","ping":41},{"user_id":440,"name":"tophawkyy","steam_id":76561199075934685,"connected_time":3712000000000,"state":"active","ping":88},{"user_id":437,"name":"Neco Arc","steam_id":76561198836051950,"connected_time":3877000000000,"state":"active","ping":109},{"user_id":453,"name":"*forges your documents* :3","steam_id":76561198134309750,"connected_time":2074000000000,"state":"active","ping":99},{"user_id":447,"name":"John Calibur","steam_id":76561197999986606,"connected_time":2683000000000,"state":"active","ping":66},{"user_id":446,"name":"Squids023","steam_id":76561199013031576,"connected_time":2911000000000,"state":"active","ping":73},{"user_id":451,"name":"Baltimore CA-68","steam_id":76561198313517179,"connected_time":2254000000000,"state":"active","ping":100},{"user_id":456,"name":"lfk thunderous prophet","steam_id":76561198131166135,"connected_time":2064000000000,"state":"active","ping":41},{"user_id":382,"name":"rat gets the cheese","steam_id":76561198031234032,"connected_time":10302000000000,"state":"active","ping":103}]},{"server_id":119,"name":"Uncletopia | Seattle | 2 | All Maps","name_short":"sea-2","host":"sea-1.us.uncletopia.com","port":27025,"enabled":true,"region":"us-west","cc":"us","latitude":47.608013,"longitude":-122.33517,"reserved":0,"last_update":"0001-01-01T00:00:00Z","name_a2s":"Uncletopia | Seattle | 2 | All Maps","protocol":17,"map":"pl_borneo","folder":"tf","game":"Team Fortress","app_id":440,"player_count":9,"max_players":24,"Bots":0,"server_type":"Dedicated","server_os":"Linux","password":true,"vac":true,"version":"7961495","steam_id":85568392924469998,"keywords":["nocrits","nodmgspread","payload","uncletopia"],"game_id":440,"stv_port":27026,"stv_name":"Uncletopia | Seattle | 2 | All Maps | STV","players":[{"user_id":18,"name":"Useless","steam_id":76561198116079299,"connected_time":1294000000000,"state":"active","ping":41},{"user_id":25,"name":"*The* Wardoug41","steam_id":76561198255780869,"connected_time":485000000000,"state":"active","ping":98},{"user_id":33,"name":"GreenApples","steam_id":76561198120559543,"connected_time":24000000000,"state":"active","ping":60},{"user_id":24,"name":"Jakeamonyt","steam_id":76561199375938174,"connected_time":707000000000,"state":"active","ping":99},{"user_id":26,"name":"Rude Dog","steam_id":76561197980385816,"connected_time":407000000000,"state":"active","ping":34},{"user_id":27,"name":"Fentanyl phyl","steam_id":76561198271995672,"connected_time":385000000000,"state":"active","ping":41},{"user_id":28,"name":"TheOnlyBrandon","steam_id":76561198133620881,"connected_time":370000000000,"state":"active","ping":92},{"user_id":29,"name":"Indefiable","steam_id":76561198219238953,"connected_time":351000000000,"state":"active","ping":48},{"user_id":32,"name":"Moisty Boi","steam_id":76561198032440248,"connected_time":207000000000,"state":"active","ping":59}]},{"server_id":406,"name":"Uncletopia | Seattle | 3 | Stopwatch","name_short":"sea-3","host":"sea-1.us.uncletopia.com","port":27035,"enabled":true,"region":"us-west","cc":"us","latitude":47.608013,"longitude":-122.33517,"reserved":0,"last_update":"0001-01-01T00:00:00Z","name_a2s":"Uncletopia | Seattle | 3 | Stopwatch","protocol":17,"map":"workshop/pl_badwater_pro_v12.ugc2142942074","folder":"tf","game":"Team Fortress","app_id":440,"player_count":0,"max_players":24,"Bots":0,"server_type":"Dedicated","server_os":"Linux","password":true,"vac":true,"version":"7961495","steam_id":85568392924515217,"keywords":["nocrits","nodmgspread","payload","uncletopia"],"game_id":440,"stv_port":27036,"stv_name":"Uncletopia | Seattle | 3 | Stopwatch | STV","players":null},{"server_id":17,"name":"Uncletopia | San Francisco | 1 | All Maps","name_short":"sfo-1","host":"sfo-1.us.uncletopia.com","port":27015,"enabled":true,"region":"us-west","cc":"us","latitude":37.77397,"longitude":-122.4313,"reserved":0,"last_update":"0001-01-01T00:00:00Z","name_a2s":"Uncletopia | San Francisco | 1 | All Maps","protocol":17,"map":"koth_viaduct","folder":"tf","game":"Team Fortress","app_id":440,"player_count":24,"max_players":24,"Bots":0,"server_type":"Dedicated","server_os":"Linux","password":true,"vac":true,"version":"7961495","steam_id":85568392924469999,"keywords":["cp","nocrits","nodmgspread","uncletopia"],"game_id":440,"stv_port":27016,"stv_name":"Uncletopia | San Francisco | 1 | All Maps | STV","players":[{"user_id":48,"name":"Ket","steam_id":76561198241951244,"connected_time":272000000000,"state":"active","ping":84},{"user_id":14,"name":"Pyrolimited","steam_id":76561198195455657,"connected_time":2377000000000,"state":"active","ping":65},{"user_id":15,"name":"Schmupp","steam_id":76561198150928115,"connected_time":2225000000000,"state":"active","ping":49},{"user_id":56,"name":"walrooos","steam_id":76561198024521839,"connected_time":75000000000,"state":"active","ping":48},{"user_id":17,"name":"Swimps","steam_id":76561199095494639,"connected_time":2180000000000,"state":"active","ping":132},{"user_id":46,"name":"hitscam yes sir","steam_id":76561198170381402,"connected_time":339000000000,"state":"active","ping":101},{"user_id":20,"name":"proud_asian","steam_id":76561198977973083,"connected_time":1958000000000,"state":"active","ping":96},{"user_id":23,"name":"mafia is mafia","steam_id":76561198042574722,"connected_time":1700000000000,"state":"active","ping":64},{"user_id":44,"name":"rhen","steam_id":76561198085256979,"connected_time":393000000000,"state":"active","ping":60},{"user_id":49,"name":"celestia ludenberg","steam_id":76561199196437823,"connected_time":236000000000,"state":"active","ping":73},{"user_id":26,"name":"Crusade","steam_id":76561199192979051,"connected_time":1268000000000,"state":"active","ping":137},{"user_id":36,"name":"Vapor Man","steam_id":76561198210173112,"connected_time":777000000000,"state":"active","ping":150},{"user_id":47,"name":"Wso1123","steam_id":76561198048040111,"connected_time":330000000000,"state":"active","ping":62},{"user_id":50,"name":"LILGI4THAW","steam_id":76561198403803842,"connected_time":216000000000,"state":"active","ping":83},{"user_id":42,"name":"Chafn","steam_id":76561197969386702,"connected_time":463000000000,"state":"active","ping":74},{"user_id":43,"name":"Type Three Dabeetus","steam_id":76561198062710038,"connected_time":435000000000,"state":"active","ping":61},{"user_id":45,"name":"Shampoodle","steam_id":76561199050344218,"connected_time":379000000000,"state":"active","ping":55},{"user_id":51,"name":"Spider_god","steam_id":76561199097791017,"connected_time":211000000000,"state":"active","ping":97},{"user_id":52,"name":"Randle of John","steam_id":76561198328210524,"connected_time":197000000000,"state":"active","ping":61},{"user_id":53,"name":"8BitWyatt","steam_id":76561198453336518,"connected_time":184000000000,"state":"active","ping":83},{"user_id":54,"name":"TheBrocklobster","steam_id":76561198039682984,"connected_time":184000000000,"state":"active","ping":77},{"user_id":55,"name":"Tyth","steam_id":76561198062543298,"connected_time":123000000000,"state":"active","ping":60},{"user_id":57,"name":"ashjd;jwa'flsdghkfa;hdljx","steam_id":76561198398383076,"connected_time":73000000000,"state":"active","ping":127},{"user_id":58,"name":"Grilled Jizo","steam_id":76561199250875340,"connected_time":58000000000,"state":"active","ping":81}]},{"server_id":18,"name":"Uncletopia | San Francisco | 2 | All Maps","name_short":"sfo-2","host":"sfo-1.us.uncletopia.com","port":27025,"enabled":true,"region":"us-west","cc":"us","latitude":37.77397,"longitude":-122.4313,"reserved":0,"last_update":"0001-01-01T00:00:00Z","name_a2s":"Uncletopia | San Francisco | 2 | All Maps","protocol":17,"map":"pl_frontier_final","folder":"tf","game":"Team Fortress","app_id":440,"player_count":0,"max_players":24,"Bots":0,"server_type":"Dedicated","server_os":"Linux","password":true,"vac":true,"version":"7961495","steam_id":85568392924470000,"keywords":["nocrits","nodmgspread","payload","uncletopia"],"game_id":440,"stv_port":27026,"stv_name":"Uncletopia | San Francisco | 2 | All Maps | STV","players":null},{"server_id":19,"name":"Uncletopia | San Francisco | 3 | Stopwatch","name_short":"sfo-3","host":"sfo-1.us.uncletopia.com","port":27035,"enabled":true,"region":"us-west","cc":"us","latitude":37.77397,"longitude":-122.4313,"reserved":0,"last_update":"0001-01-01T00:00:00Z","name_a2s":"Uncletopia | San Francisco | 3 | Stopwatch","protocol":17,"map":"workshop/koth_product_final.ugc454272353","folder":"tf","game":"Team Fortress","app_id":440,"player_count":2,"max_players":24,"Bots":0,"server_type":"Dedicated","server_os":"Linux","password":true,"vac":true,"version":"7961495","steam_id":85568392924742824,"keywords":["cp","nocrits","nodmgspread","uncletopia"],"game_id":440,"stv_port":27036,"stv_name":"Uncletopia | San Francisco | 3 | Stopwatch | STV","players":[{"user_id":11,"name":"Blake","steam_id":76561198884871311,"connected_time":257000000000,"state":"active","ping":84},{"user_id":12,"name":"NotAToaster","steam_id":76561198349938357,"connected_time":219000000000,"state":"active","ping":103}]},{"server_id":20,"name":"Uncletopia | San Francisco | 4 | Community","name_short":"sfo-4","host":"sfo-1.us.uncletopia.com","port":27045,"enabled":true,"region":"us-west","cc":"us","latitude":37.77397,"longitude":-122.4313,"reserved":0,"last_update":"0001-01-01T00:00:00Z","name_a2s":"Uncletopia | San Francisco | 4 | Community","protocol":17,"map":"workshop/pl_badwater_pro_v12.ugc2142942074","folder":"tf","game":"Team Fortress","app_id":440,"player_count":0,"max_players":24,"Bots":0,"server_type":"Dedicated","server_os":"Linux","password":true,"vac":true,"version":"7961495","steam_id":85568392924742826,"keywords":["nocrits","nodmgspread","payload","uncletopia"],"game_id":440,"stv_port":27046,"stv_name":"Uncletopia | San Francisco | 4 | Community | STV","players":null},{"server_id":141,"name":"Uncletopia | Sydney | 1 | All Maps","name_short":"syd-1","host":"syd-1.au.uncletopia.com","port":27015,"enabled":true,"region":"au","cc":"au","latitude":-33.865143,"longitude":151.2099,"reserved":0,"last_update":"0001-01-01T00:00:00Z","name_a2s":"Uncletopia | Sydney | 1 | All Maps","protocol":17,"map":"koth_viaduct","folder":"tf","game":"Team Fortress","app_id":440,"player_count":0,"max_players":24,"Bots":0,"server_type":"Dedicated","server_os":"Linux","password":true,"vac":true,"version":"7961495","steam_id":85568392924470001,"keywords":["cp","nocrits","nodmgspread","uncletopia"],"game_id":440,"stv_port":27016,"stv_name":"Uncletopia | Sydney | 1 | All Maps | STV","players":null},{"server_id":123,"name":"Uncletopia | Sydney | 2 | All Maps","name_short":"syd-2","host":"syd-1.au.uncletopia.com","port":27025,"enabled":true,"region":"au","cc":"au","latitude":-33.865143,"longitude":151.2099,"reserved":0,"last_update":"0001-01-01T00:00:00Z","name_a2s":"Uncletopia | Sydney | 2 | All Maps","protocol":17,"map":"koth_lakeside_final","folder":"tf","game":"Team Fortress","app_id":440,"player_count":0,"max_players":24,"Bots":0,"server_type":"Dedicated","server_os":"Linux","password":true,"vac":true,"version":"7961495","steam_id":85568392924470002,"keywords":["cp","nocrits","nodmgspread","uncletopia"],"game_id":440,"stv_port":27026,"stv_name":"Uncletopia | Sydney | 2 | All Maps | STV","players":null},{"server_id":395,"name":"Uncletopia | Sydney | 3 | All Maps","name_short":"syd-3","host":"syd-1.au.uncletopia.com","port":27035,"enabled":true,"region":"au","cc":"au","latitude":-33.865143,"longitude":151.2099,"reserved":0,"last_update":"0001-01-01T00:00:00Z","name_a2s":"Uncletopia | Sydney | 3 | All Maps","protocol":17,"map":"pl_frontier_final","folder":"tf","game":"Team Fortress","app_id":440,"player_count":0,"max_players":24,"Bots":0,"server_type":"Dedicated","server_os":"Linux","password":true,"vac":true,"version":"7961495","steam_id":85568392925194467,"keywords":["nocrits","nodmgspread","payload","uncletopia"],"game_id":440,"stv_port":27036,"stv_name":"Uncletopia | Sydney | 3 | All Maps | STV","players":null},{"server_id":396,"name":"Uncletopia | Sydney | 4 | All Maps","name_short":"syd-4","host":"syd-1.au.uncletopia.com","port":27045,"enabled":true,"region":"au","cc":"au","latitude":-33.865143,"longitude":151.2099,"reserved":0,"last_update":"0001-01-01T00:00:00Z","name_a2s":"Uncletopia | Sydney | 4 | All Maps","protocol":17,"map":"cp_process_final","folder":"tf","game":"Team Fortress","app_id":440,"player_count":0,"max_players":24,"Bots":0,"server_type":"Dedicated","server_os":"Linux","password":true,"vac":true,"version":"7961495","steam_id":85568392925397958,"keywords":["cp","nocrits","nodmgspread","uncletopia"],"game_id":440,"stv_port":27046,"stv_name":"Uncletopia | Sydney | 4 | All Maps | STV","players":null},{"server_id":58,"name":"Uncletopia | Sydney | 5 | Stopwatch","name_short":"syd-5","host":"syd-1.au.uncletopia.com","port":27055,"enabled":true,"region":"au","cc":"au","latitude":-33.865143,"longitude":151.2099,"reserved":0,"last_update":"0001-01-01T00:00:00Z","name_a2s":"Uncletopia | Sydney | 5 | Stopwatch","protocol":17,"map":"pl_frontier_final","folder":"tf","game":"Team Fortress","app_id":440,"player_count":0,"max_players":24,"Bots":0,"server_type":"Dedicated","server_os":"Linux","password":true,"vac":true,"version":"7961495","steam_id":85568392925397959,"keywords":["nocrits","nodmgspread","payload","uncletopia"],"game_id":440,"stv_port":27056,"stv_name":"Uncletopia | Sydney | 5 | Stopwatch | STV","players":null},{"server_id":59,"name":"Uncletopia | Sydney | 6 | Community","name_short":"syd-6","host":"syd-1.au.uncletopia.com","port":27065,"enabled":true,"region":"au","cc":"au","latitude":-33.865143,"longitude":151.2099,"reserved":0,"last_update":"0001-01-01T00:00:00Z","name_a2s":"Uncletopia | Sydney | 6 | Community","protocol":17,"map":"cp_sunshine","folder":"tf","game":"Team Fortress","app_id":440,"player_count":0,"max_players":24,"Bots":0,"server_type":"Dedicated","server_os":"Linux","password":true,"vac":true,"version":"7961495","steam_id":85568392925397960,"keywords":["cp","nocrits","nodmgspread","uncletopia"],"game_id":440,"stv_port":27066,"stv_name":"Uncletopia | Sydney | 6 | Community | STV","players":null},{"server_id":49,"name":"Uncletopia | Warsaw | 1 | One Thousand Uncles","name_short":"waw-1","host":"waw-1.pl.uncletopia.com","port":27015,"enabled":true,"region":"eu","cc":"pl","latitude":52.2297,"longitude":21.017532,"reserved":0,"last_update":"0001-01-01T00:00:00Z","name_a2s":"Uncletopia | Warsaw | 1 | One Thousand Uncles","protocol":17,"map":"pl_barnblitz","folder":"tf","game":"Team Fortress","app_id":440,"player_count":28,"max_players":32,"Bots":16,"server_type":"Dedicated","server_os":"Linux","password":true,"vac":true,"version":"7961495","steam_id":85568392925397850,"keywords":["alltalk","bots","danepve","increased_maxplayers","nocrits","norespawntime","payload","uncletopia"],"game_id":440,"stv_port":0,"stv_name":"","players":[{"user_id":563,"name":"joe8317","steam_id":76561199113974643,"connected_time":5228000000000,"state":"active","ping":208},{"user_id":629,"name":"jomamagotballs","steam_id":76561199472047957,"connected_time":110000000000,"state":"spawning","ping":329},{"user_id":593,"name":"Kotomin","steam_id":76561198009938954,"connected_time":4050000000000,"state":"active","ping":89},{"user_id":561,"name":"Valoxi","steam_id":76561197995042938,"connected_time":5437000000000,"state":"active","ping":68},{"user_id":575,"name":"WishMakers","steam_id":76561198061533565,"connected_time":4488000000000,"state":"active","ping":143},{"user_id":576,"name":"Joonkeh","steam_id":76561198144172575,"connected_time":4418000000000,"state":"active","ping":76},{"user_id":599,"name":"tadisab","steam_id":76561199484049632,"connected_time":2024000000000,"state":"active","ping":151},{"user_id":624,"name":"Busta","steam_id":76561199093760567,"connected_time":815000000000,"state":"active","ping":225},{"user_id":596,"name":"tekt","steam_id":76561198044554387,"connected_time":3400000000000,"state":"active","ping":119},{"user_id":618,"name":"duck_fetish","steam_id":76561199015909776,"connected_time":1518000000000,"state":"active","ping":91},{"user_id":621,"name":"git bash -er","steam_id":76561198072586494,"connected_time":979000000000,"state":"active","ping":68},{"user_id":622,"name":"Tispy","steam_id":76561199207410049,"connected_time":890000000000,"state":"active","ping":120}]},{"server_id":50,"name":"Uncletopia | Warsaw | 2 | One Thousand Uncles","name_short":"waw-2","host":"waw-1.pl.uncletopia.com","port":27025,"enabled":true,"region":"eu","cc":"pl","latitude":52.2297,"longitude":21.017532,"reserved":0,"last_update":"0001-01-01T00:00:00Z","name_a2s":"Uncletopia | Warsaw | 2 | One Thousand Uncles","protocol":17,"map":"cp_dustbowl","folder":"tf","game":"Team Fortress","app_id":440,"player_count":0,"max_players":32,"Bots":0,"server_type":"Dedicated","server_os":"Linux","password":true,"vac":true,"version":"7961495","steam_id":85568392925397851,"keywords":["alltalk","cp","danepve","increased_maxplayers","nocrits","norespawntime","uncletopia"],"game_id":440,"stv_port":0,"stv_name":"","players":null},{"server_id":51,"name":"Uncletopia | Warsaw | 3 | All Maps","name_short":"waw-3","host":"waw-1.pl.uncletopia.com","port":27035,"enabled":true,"region":"eu","cc":"pl","latitude":52.2297,"longitude":21.017532,"reserved":0,"last_update":"0001-01-01T00:00:00Z","name_a2s":"Uncletopia | Warsaw | 3 | All Maps","protocol":17,"map":"cp_gorge","folder":"tf","game":"Team Fortress","app_id":440,"player_count":0,"max_players":24,"Bots":0,"server_type":"Dedicated","server_os":"Linux","password":true,"vac":true,"version":"7961495","steam_id":85568392925397852,"keywords":["cp","nocrits","nodmgspread","uncletopia"],"game_id":440,"stv_port":27036,"stv_name":"Uncletopia | Warsaw | 3 | All Maps | STV","players":null},{"server_id":52,"name":"Uncletopia | Warsaw | 4 | All Maps","name_short":"waw-4","host":"waw-1.pl.uncletopia.com","port":27045,"enabled":true,"region":"eu","cc":"pl","latitude":52.2297,"longitude":21.017532,"reserved":0,"last_update":"0001-01-01T00:00:00Z","name_a2s":"Uncletopia | Warsaw | 4 | All Maps","protocol":17,"map":"cp_dustbowl","folder":"tf","game":"Team Fortress","app_id":440,"player_count":0,"max_players":24,"Bots":0,"server_type":"Dedicated","server_os":"Linux","password":true,"vac":true,"version":"7961495","steam_id":85568392925397853,"keywords":["cp","nocrits","nodmgspread","uncletopia"],"game_id":440,"stv_port":27046,"stv_name":"Uncletopia | Warsaw | 4 | All Maps | STV","players":null},{"server_id":53,"name":"Uncletopia | Warsaw | 5 | Stopwatch","name_short":"waw-5","host":"waw-1.pl.uncletopia.com","port":27055,"enabled":true,"region":"eu","cc":"pl","latitude":52.2297,"longitude":21.017532,"reserved":0,"last_update":"0001-01-01T00:00:00Z","name_a2s":"Uncletopia | Warsaw | 5 | Stopwatch","protocol":17,"map":"workshop/pl_vigil_rc10.ugc1266210012","folder":"tf","game":"Team Fortress","app_id":440,"player_count":0,"max_players":24,"Bots":0,"server_type":"Dedicated","server_os":"Linux","password":true,"vac":true,"version":"7961495","steam_id":85568392925397854,"keywords":["nocrits","nodmgspread","payload","uncletopia"],"game_id":440,"stv_port":27056,"stv_name":"Uncletopia | Warsaw | 5 | Stopwatch | STV","players":null},{"server_id":54,"name":"Uncletopia | Warsaw | 6 | Community","name_short":"waw-6","host":"waw-1.pl.uncletopia.com","port":27065,"enabled":true,"region":"eu","cc":"pl","latitude":52.2297,"longitude":21.017532,"reserved":0,"last_update":"0001-01-01T00:00:00Z","name_a2s":"Uncletopia | Warsaw | 6 | Community","protocol":17,"map":"workshop/koth_ramjam_rc1.ugc459778887","folder":"tf","game":"Team Fortress","app_id":440,"player_count":0,"max_players":24,"Bots":0,"server_type":"Dedicated","server_os":"Linux","password":true,"vac":true,"version":"7961495","steam_id":85568392925397856,"keywords":["cp","nocrits","nodmgspread","uncletopia"],"game_id":440,"stv_port":27066,"stv_name":"Uncletopia | Warsaw | 6 | Community | STV","players":null}]}