{"status":true,"message":"","result":[{"server_id":9,"name":"Uncletopia | Atlanta | 1 | All Maps","name_short":"atl-1","host":"atl-1.us.uncletopia.com","port":27015,"enabled":true,"region":"us-east","cc":"us","latitude":33.753746,"longitude":-84.38633,"reserved":0,"last_update":"0001-01-01T00:00:00Z","name_a2s":"Uncletopia | Atlanta | 1 | All Maps","protocol":17,"map":"koth_viaduct","folder":"tf","game":"Team Fortress","app_id":440,"player_count":23,"max_players":24,"Bots":0,"server_type":"Dedicated","server_os":"Linux","password":true,"vac":true,"version":"7961495","steam_id":85568392924469982,"keywords":["cp","nocrits","nodmgspread","uncletopia"],"game_id":440,"stv_port":27016,"stv_name":"Uncletopia | Atlanta | 1 | All Maps | STV","players":[{"user_id":532,"name":"Joshy","steam_id":76561198061405421,"connected_time":1803000000000,"state":"active","ping":75},{"user_id":546,"name":"jvnk","steam_id":76561198123331910,"connected_time":477000000000,"state":"active","ping":83},{"user_id":545,"name":"guy","steam_id":76561198079925551,"connected_time":622000000000,"state":"active","ping":74},{"user_id":520,"name":"Willy","steam_id":76561198046508940,"connected_time":2153000000000,"state":"active","ping":68},{"user_id":547,"name":"butterthoughts","steam_id":76561198025120284,"connected_time":462000000000,"state":"active","ping":75},{"user_id":509,"name":"Bunnyboy","steam_id":76561198298416058,"connected_time":2570000000000,"state":"active","ping":82},{"user_id":537,"name":"REALLINUSJEWTIP.","steam_id":76561198056647983,"connected_time":1300000000000,"state":"active","ping":86},{"user_id":481,"name":"indi","steam_id":76561198045917538,"connected_time":4530000000000,"state":"active","ping":77},{"user_id":440,"name":"Dr.Inkmix(femboy)","steam_id":76561198854070384,"connected_time":7871000000000,"state":"active","ping":104},{"user_id":548,"name":"Flint","steam_id":76561198066547582,"connected_time":461000000000,"state":"active","ping":97},{"user_id":460,"name":"ATL1 | cola","steam_id":76561198374390458,"connected_time":7386000000000,"state":"active","ping":62},{"user_id":553,"name":"Deep Peepus","steam_id":76561198205395757,"connected_time":151000000000,"state":"active","ping":75},{"user_id":516,"name":"ATL 1 | Save your wifi","steam_id":76561198286147372,"connected_time":2302000000000,"state":"active","ping":63},{"user_id":538,"name":"paisano","steam_id":76561198065575472,"connected_time":1298000000000,"state":"active","ping":60},{"user_id":550,"name":"TheArachnidGamer","steam_id":76561198304986752,"connected_time":370000000000,"state":"active","ping":85},{"user_id":494,"name":"The One True Luke","steam_id":76561198180891187,"connected_time":4128000000000,"state":"active","ping":76},{"user_id":523,"name":"Draglorr","steam_id":76561198118599417,"connected_time":2079000000000,"state":"active","ping":151},{"user_id":514,"name":"Jared","steam_id":76561198027210228,"connected_time":2327000000000,"state":"active","ping":81},{"user_id":544,"name":"Fumpo","steam_id":76561198206873365,"connected_time":694000000000,"state":"active","ping":86},{"user_id":554,"name":"gogurt","steam_id":76561199051096093,"connected_time":13000000000,"state":"active","ping":87},{"user_id":552,"name":"lu","steam_id":76561198080731872,"connected_time":336000000000,"state":"active","ping":76},{"user_id":525,"name":"hotsauce678","steam_id":76561199077425317,"connected_time":2065000000000,"state":"active","ping":97},{"user_id":529,"name":"BK (King Buford)","steam_id":76561198272057200,"connected_time":1977000000000,"state":"active","ping":117}]},{"server_id":104,"name":"Uncletopia | Atlanta | 2 | All Maps","name_short":"atl-2","host":"atl-1.us.uncletopia.com","port":27025,"enabled":true,"region":"us-east","cc":"us","latitude":33.753746,"longitude":-84.38633,"reserved":0,"last_update":"0001-01-01T00:00:00Z","name_a2s":"Uncletopia | Atlanta | 2 | All Maps","protocol":17,"map":"pl_borneo","folder":"tf","game":"Team Fortress","app_id":440,"player_count":24,"max_players":24,"Bots":0,"server_type":"Dedicated","server_os":"Linux","password":true,"vac":true,"version":"7961495","steam_id":85568392924469983,"keywords":["nocrits","nodmgspread","payload","uncletopia"],"game_id":440,"stv_port":27026,"stv_name":"Uncletopia | Atlanta | 2 | All Maps | STV","players":[{"user_id":376,"name":"Fix P4AU | P4U2を直す","steam_id":76561198269125450,"connected_time":1928000000000,"state":"active","ping":52},{"user_id":352,"name":"Dreamzapp","steam_id":76561199084936632,"connected_time":3009000000000,"state":"active","ping":115},{"user_id":407,"name":"summer time has come for frosty","steam_id":76561198830243167,"connected_time":85000000000,"state":"active","ping":75},{"user_id":363,"name":"CheetoSmoke7","steam_id":76561198095217273,"connected_time":2315000000000,"state":"active","ping":54},{"user_id":378,"name":"Van","steam_id":76561199122559900,"connected_time":1510000000000,"state":"active","ping":78},{"user_id":406,"name":"Antian","steam_id":76561198368683614,"connected_time":198000000000,"state":"active","ping":64},{"user_id":374,"name":"Silverstar","steam_id":76561198399525329,"connected_time":2023000000000,"state":"active","ping":63},{"user_id":388,"name":"milk acquired","steam_id":76561199155319821,"connected_time":995000000000,"state":"active","ping":112},{"user_id":377,"name":"Pumpkin","steam_id":76561198122135517,"connected_time":1866000000000,"state":"active","ping":77},{"user_id":396,"name":"Wey","steam_id":76561198089235065,"connected_time":611000000000,"state":"active","ping":81},{"user_id":405,"name":"confield","steam_id":76561198004322265,"connected_time":209000000000,"state":"active","ping":58},{"user_id":361,"name":"Dosux2","steam_id":76561198390916062,"connected_time":2347000000000,"state":"active","ping":147},{"user_id":399,"name":"Bigweld","steam_id":76561199251521656,"connected_time":510000000000,"state":"active","ping":110},{"user_id":390,"name":"Never Ovaryacting","steam_id":76561198158691254,"connected_time":922000000000,"state":"active","ping":47},{"user_id":369,"name":"slafflow","steam_id":76561199381012350,"connected_time":2157000000000,"state":"active","ping":92},{"user_id":408,"name":"Disco Fever","steam_id":76561198069532215,"connected_time":64000000000,"state":"active","ping":74},{"user_id":398,"name":"Family Guy Funny Moments","steam_id":76561198847752839,"connected_time":511000000000,"state":"active","ping":105},{"user_id":400,"name":"KASHI","steam_id":76561198045285049,"connected_time":487000000000,"state":"active","ping":80},{"user_id":404,"name":"Versuski","steam_id":76561198085193084,"connected_time":288000000000,"state":"active","ping":52},{"user_id":344,"name":"Mr. Squirt","steam_id":76561198174755679,"connected_time":4057000000000,"state":"active","ping":58},{"user_id":395,"name":"lalalemons","steam_id":76561198243965308,"connected_time":698000000000,"state":"active","ping":86},{"user_id":382,"name":"joemoe84g","steam_id":76561199141651280,"connected_time":1408000000000,"state":"active","ping":59},{"user_id":384,"name":"xFactr","steam_id":76561198129007422,"connected_time":1348000000000,"state":"active","ping":60},{"user_id":385,"name":"Pirus and Crips","steam_id":76561198395577807,"connected_time":1340000000000,"state":"active","ping":81}]},{"server_id":400,"name":"Uncletopia | Atlanta | 3 | Stopwatch","name_short":"atl-3","host":"atl-1.us.uncletopia.com","port":27035,"enabled":true,"region":"us-east","cc":"us","latitude":33.753746,"longitude":-84.38633,"reserved":0,"last_update":"0001-01-01T00:00:00Z","name_a2s":"Uncletopia | Atlanta | 3 | Stopwatch","protocol":17,"map":"workshop/koth_bagel_rc6.ugc2514036946","folder":"tf","game":"Team Fortress","app_id":440,"player_count":18,"max_players":24,"Bots":0,"server_type":"Dedicated","server_os":"Linux","password":true,"vac":true,"version":"7961495","steam_id":85568392924515187,"keywords":["cp","nocrits","nodmgspread","uncletopia"],"game_id":440,"stv_port":27036,"stv_name":"Uncletopia | Atlanta | 3 | Stopwatch | STV","players":[{"user_id":122,"name":"slipknot blimp disaster","steam_id":76561198018761740,"connected_time":2112000000000,"state":"active","ping":76},{"user_id":131,"name":"Captain Malarkey","steam_id":76561198869924281,"connected_time":1887000000000,"state":"active","ping":61},{"user_id":145,"name":"Grimprr","steam_id":76561198275816797,"connected_time":1134000000000,"state":"active","ping":64},{"user_id":102,"name":"Minislaughtr","steam_id":76561198044481155,"connected_time":3172000000000,"state":"active","ping":90},{"user_id":159,"name":"Bardic Monk","steam_id":76561198030088969,"connected_time":213000000000,"state":"active","ping":79},{"user_id":115,"name":"Jørdi","steam_id":76561198354986892,"connected_time":2527000000000,"state":"active","ping":165},{"user_id":112,"name":"craven","steam_id":76561198088191503,"connected_time":2810000000000,"state":"active","ping":61},{"user_id":136,"name":"mini-sentry","steam_id":76561198884712155,"connected_time":1761000000000,"state":"active","ping":66},{"user_id":104,"name":"tuz","steam_id":76561197979961213,"connected_time":3092000000000,"state":"active","ping":87},{"user_id":117,"name":"otwtomarsoffdabars(spacecore)","steam_id":76561199085974120,"connected_time":2473000000000,"state":"active","ping":70},{"user_id":160,"name":"charm","steam_id":76561198126751384,"connected_time":117000000000,"state":"active","ping":90},{"user_id":150,"name":"Almonicus","steam_id":76561198044401351,"connected_time":503000000000,"state":"active","ping":83},{"user_id":161,"name":"dodoS_20","steam_id":76561199368090811,"connected_time":40000000000,"state":"active","ping":80},{"user_id":155,"name":"MissXis","steam_id":76561198256277680,"connected_time":296000000000,"state":"active","ping":63},{"user_id":110,"name":"Casey Jones","steam_id":76561198132321084,"connected_time":2937000000000,"state":"active","ping":60},{"user_id":134,"name":"‡Jinxed♣Jester‡","steam_id":76561198203928756,"connected_time":1833000000000,"state":"active","ping":66},{"user_id":141,"name":"Santamen","steam_id":76561198119478199,"connected_time":1684000000000,"state":"active","ping":51},{"user_id":142,"name":"clown²","steam_id":76561199177136428,"connected_time":1499000000000,"state":"active","ping":58}]},{"server_id":401,"name":"Uncletopia | Atlanta | 4 | Community","name_short":"atl-4","host":"atl-1.us.uncletopia.com","port":27045,"enabled":true,"region":"us-east","cc":"us","latitude":33.753746,"longitude":-84.38633,"reserved":0,"last_update":"0001-01-01T00:00:00Z","name_a2s":"Uncletopia | Atlanta | 4 | Community","protocol":17,"map":"workshop/koth_kemptown_rc1.ugc767410655","folder":"tf","game":"Team Fortress","app_id":440,"player_count":0,"max_players":24,"Bots":0,"server_type":"Dedicated","server_os":"Linux","password":true,"vac":true,"version":"7961495","steam_id":85568392924515188,"keywords":["cp","nocrits","nodmgspread","uncletopia"],"game_id":440,"stv_port":27046,"stv_name":"Uncletopia | Atlanta | 4 | Community | STV","players":null},{"server_id":2,"name":"Uncletopia | Chicago | 1 | All Maps","name_short":"chi-1","host":"chi-1.us.uncletopia.com","port":27015,"enabled":true,"region":"us-central","cc":"us","latitude":41.881832,"longitude":-87.62318,"reserved":0,"last_update":"0001-01-01T00:00:00Z","name_a2s":"Uncletopia | Chicago | 1 | All Maps","protocol":17,"map":"pl_borneo","folder":"tf","game":"Team Fortress","app_id":440,"player_count":20,"max_players":24,"Bots":0,"server_type":"Dedicated","server_os":"Linux","password":true,"vac":true,"version":"7961495","steam_id":85568392924469984,"keywords":["nocrits","nodmgspread","payload","uncletopia"],"game_id":440,"stv_port":27016,"stv_name":"Uncletopia | Chicago | 1 | All Maps | STV","players":[{"user_id":521,"name":"thud.wav","steam_id":76561198879017672,"connected_time":141000000000,"state":"active","ping":54},{"user_id":476,"name":"Dongus","steam_id":76561197979056451,"connected_time":3051000000000,"state":"active","ping":90},{"user_id":523,"name":"Makima Enjoyer","steam_id":76561198852044774,"connected_time":65000000000,"state":"active","ping":121},{"user_id":522,"name":"ApertureB","steam_id":76561198019141379,"connected_time":134000000000,"state":"active","ping":56},{"user_id":524,"name":"Evertin","steam_id":76561198139080478,"connected_time":52000000000,"state":"active","ping":39},{"user_id":466,"name":"fancyfreak","steam_id":76561198326466375,"connected_time":3165000000000,"state":"active","ping":96},{"user_id":525,"name":"Jw. www.vaticancatholic.com","steam_id":76561198190170075,"connected_time":14000000000,"state":"active","ping":83},{"user_id":480,"name":"KBoneski ♡","steam_id":76561198307409065,"connected_time":2629000000000,"state":"active","ping":72},{"user_id":478,"name":"elyktsorb","steam_id":76561198158964488,"connected_time":2813000000000,"state":"active","ping":45},{"user_id":520,"name":"papi_00lopez","steam_id":76561198873402574,"connected_time":276000000000,"state":"active","ping":105},{"user_id":514,"name":"❤ Ashleyyy ❤","steam_id":76561198056428303,"connected_time":769000000000,"state":"active","ping":105},{"user_id":487,"name":"Uber","steam_id":76561198060564605,"connected_time":2351000000000,"state":"active","ping":56},{"user_id":489,"name":"KhorneBread ︻デ 一","steam_id":76561198097069958,"connected_time":2306000000000,"state":"active","ping":65},{"user_id":515,"name":"self sufficient kitten ♥","steam_id":76561197960592612,"connected_time":769000000000,"state":"active","ping":91},{"user_id":503,"name":"Siz","steam_id":76561198072962154,"connected_time":1486000000000,"state":"active","ping":61},{"user_id":519,"name":"Meerkat","steam_id":76561199245435539,"connected_time":325000000000,"state":"active","ping":85},{"user_id":508,"name":"ae","steam_id":76561198185490827,"connected_time":1183000000000,"state":"active","ping":82},{"user_id":500,"name":"Celestial Bodies","steam_id":76561198212572955,"connected_time":1602000000000,"state":"active","ping":78},{"user_id":495,"name":"Bookmark","steam_id":76561198210918443,"connected_time":2234000000000,"state":"active","ping":105},{"user_id":511,"name":"Mellow Yellow","steam_id":76561198406276981,"connected_time":827000000000,"state":"active","ping":52}]},{"server_id":106,"name":"Uncletopia | Chicago | 2 | All Maps","name_short":"chi-2","host":"chi-1.us.uncletopia.com","port":27025,"enabled":true,"region":"us-central","cc":"us","latitude":41.881832,"longitude":-87.62318,"reserved":0,"last_update":"0001-01-01T00:00:00Z","name_a2s":"Uncletopia | Chicago | 2 | All Maps","protocol":17,"map":"cp_dustbowl","folder":"tf","game":"Team Fortress","app_id":440,"player_count":24,"max_players":24,"Bots":0,"server_type":"Dedicated","server_os":"Linux","password":true,"vac":true,"version":"7961495","steam_id":85568392924469985,"keywords":["cp","nocrits","nodmgspread","uncletopia"],"game_id":440,"stv_port":27026,"stv_name":"Uncletopia | Chicago | 2 | All Maps | STV","players":[{"user_id":712,"name":"Grundle Thunder","steam_id":76561197960790338,"connected_time":4491000000000,"state":"active","ping":70},{"user_id":737,"name":"Toottoot","steam_id":76561197992404836,"connected_time":2116000000000,"state":"active","ping":45},{"user_id":674,"name":"Raving Rousseau","steam_id":76561198088831971,"connected_time":6708000000000,"state":"active","ping":89},{"user_id":629,"name":"runescape legend","steam_id":76561198077791373,"connected_time":10814000000000,"state":"active","ping":52},{"user_id":678,"name":"Fatpoob","steam_id":76561198056730096,"connected_time":6700000000000,"state":"active","ping":116},{"user_id":746,"name":"russames","steam_id":76561198007535911,"connected_time":856000000000,"state":"active","ping":55},{"user_id":686,"name":"Swist","steam_id":76561198110343996,"connected_time":6285000000000,"state":"active","ping":82},{"user_id":743,"name":"jneubauer1620","steam_id":76561199228634006,"connected_time":1027000000000,"state":"active","ping":45},{"user_id":688,"name":"Yotes","steam_id":76561198071893750,"connected_time":6229000000000,"state":"active","ping":71},{"user_id":661,"name":"Ganondorf","steam_id":76561198010421059,"connected_time":8913000000000,"state":"active","ping":45},{"user_id":738,"name":"evdoke","steam_id":76561198044555219,"connected_time":2102000000000,"state":"active","ping":60},{"user_id":736,"name":"Crλf227","steam_id":76561198196211121,"connected_time":2255000000000,"state":"active","ping":95},{"user_id":747,"name":"kicks","steam_id":76561199228854923,"connected_time":852000000000,"state":"active","ping":42},{"user_id":735,"name":"Who?","steam_id":76561199229661082,"connected_time":2322000000000,"state":"active","ping":60},{"user_id":753,"name":"chimpin","steam_id":76561198858089300,"connected_time":588000000000,"state":"active","ping":65},{"user_id":740,"name":"Fuck you","steam_id":76561198053870406,"connected_time":1662000000000,"state":"active","ping":68},{"user_id":739,"name":"demomanfan2008","steam_id":76561198077030486,"connected_time":1698000000000,"state":"active","ping":104},{"user_id":750,"name":"bobr","steam_id":76561198292896412,"connected_time":746000000000,"state":"active","ping":60},{"user_id":744,"name":"femboy gaming","steam_id":76561199084226553,"connected_time":994000000000,"state":"active","ping":62},{"user_id":748,"name":"Sock","steam_id":76561198315420000,"connected_time":836000000000,"state":"active","ping":56},{"user_id":720,"name":"Kuato","steam_id":76561198070591328,"connected_time":3800000000000,"state":"active","ping":58},{"user_id":749,"name":"Dwanor","steam_id":76561198039571887,"connected_time":770000000000,"state":"active","ping":74},{"user_id":745,"name":"Ser Draa","steam_id":76561198085447428,"connected_time":911000000000,"state":"active","ping":91},{"user_id":752,"name":"randymarsh004","steam_id":76561199078097804,"connected_time":608000000000,"state":"active","ping":71}]},{"server_id":402,"name":"Uncletopia | Chicago | 3 | All Maps","name_short":"chi-3","host":"chi-1.us.uncletopia.com","port":27035,"enabled":true,"region":"us-central","cc":"us","latitude":41.881832,"longitude":-87.62318,"reserved":0,"last_update":"0001-01-01T00:00:00Z","name_a2s":"Uncletopia | Chicago | 3 | All Maps","protocol":17,"map":"pl_borneo","folder":"tf","game":"Team Fortress","app_id":440,"player_count":25,"max_players":24,"Bots":0,"server_type":"Dedicated","server_os":"Linux","password":true,"vac":true,"version":"7961495","steam_id":85568392924515191,"keywords":["nocrits","nodmgspread","payload","uncletopia"],"game_id":440,"stv_port":27036,"stv_name":"Uncletopia | Chicago | 3 | All Maps | STV","players":[{"user_id":540,"name":"raduski","steam_id":76561198795699119,"connected_time":512000000000,"state":"active","ping":90},{"user_id":427,"name":"Zoramine Fae","steam_id":76561198346753422,"connected_time":9625000000000,"state":"active","ping":30},{"user_id":533,"name":"The Foreskin Knight","steam_id":76561197995525419,"connected_time":551000000000,"state":"active","ping":34},{"user_id":531,"name":"jumpingjacks","steam_id":76561197964839440,"connected_time":572000000000,"state":"active","ping":59},{"user_id":500,"name":"Little Skull Boi","steam_id":76561198093595888,"connected_time":3941000000000,"state":"active","ping":118},{"user_id":514,"name":"NinjagirlOH","steam_id":76561198964107245,"connected_time":2715000000000,"state":"active","ping":77},{"user_id":534,"name":"RokkitFrog","steam_id":76561198046465850,"connected_time":541000000000,"state":"active","ping":70},{"user_id":529,"name":"faceke","steam_id":76561198376277706,"connected_time":1066000000000,"state":"active","ping":35},{"user_id":535,"name":"Sammich","steam_id":76561198010543087,"connected_time":529000000000,"state":"active","ping":65},{"user_id":536,"name":"Light Perseveran","steam_id":76561198057589475,"connected_time":527000000000,"state":"active","ping":67},{"user_id":537,"name":"beep","steam_id":76561199096448766,"connected_time":526000000000,"state":"active","ping":59},{"user_id":512,"name":"NinjaboySC","steam_id":76561198157305426,"connected_time":2936000000000,"state":"active","ping":61},{"user_id":525,"name":"Colonel Knacker","steam_id":76561198151578423,"connected_time":1528000000000,"state":"active","ping":58},{"user_id":530,"name":"Bishop","steam_id":76561198033860186,"connected_time":587000000000,"state":"active","ping":75},{"user_id":513,"name":"twinbl0ck","steam_id":76561198157414556,"connected_time":2903000000000,"state":"active","ping":71},{"user_id":538,"name":"BaconWizard4","steam_id":76561198384591745,"connected_time":520000000000,"state":"active","ping":60},{"user_id":539,"name":"Cornelius","steam_id":76561198123447388,"connected_time":519000000000,"state":"active","ping":45},{"user_id":425,"name":"hearthian","steam_id":76561198113235260,"connected_time":10133000000000,"state":"active","ping":83},{"user_id":542,"name":"Nova Inferno","steam_id":76561197999305424,"connected_time":155000000000,"state":"active","ping":78},{"user_id":520,"name":"Michael Jordan of Drunk Driving","steam_id":76561198079758323,"connected_time":2119000000000,"state":"active","ping":71},{"user_id":543,"name":"Man Time","steam_id":76561198151147218,"connected_time":13000000000,"state":"spawning","ping":60},{"user_id":524,"name":"Sprinklingmydoughnut","steam_id":76561198168009092,"connected_time":1654000000000,"state":"active","ping":78},{"user_id":544,"name":"heiny :3","steam_id":76561197992551013,"connected_time":6000000000,"state":"spawning","ping":73},{"user_id":404,"name":"Mega_Man23","steam_id":76561198138341391,"connected_time":11062000000000,"state":"active","ping":61},{"user_id":476,"name":"Soda","steam_id":76561198219209367,"connected_time":6154000000000,"state":"active","ping":69}]},{"server_id":403,"name":"Uncletopia | Chicago | 4 | All Maps","name_short":"chi-4","host":"chi-1.us.uncletopia.com","port":27045,"enabled":true,"region":"us-central","cc":"us","latitude":41.881832,"longitude":-87.62318,"reserved":0,"last_update":"0001-01-01T00:00:00Z","name_a2s":"Uncletopia | Chicago | 4 | All Maps","protocol":17,"map":"cp_mountainlab","folder":"tf","game":"Team Fortress","app_id":440,"player_count":24,"max_players":24,"Bots":0,"server_type":"Dedicated","server_os":"Linux","password":true,"vac":true,"version":"7961495","steam_id":85568392924515193,"keywords":["cp","nocrits","nodmgspread","uncletopia"],"game_id":440,"stv_port":27046,"stv_name":"Uncletopia | Chicago | 4 | All Maps | STV","players":[{"user_id":298,"name":"Shadow","steam_id":76561198796731784,"connected_time":1246000000000,"state":"active","ping":45},{"user_id":296,"name":"Fuyutake","steam_id":76561199123206779,"connected_time":1496000000000,"state":"active","ping":60},{"user_id":299,"name":"Oily","steam_id":76561199452938420,"connected_time":1232000000000,"state":"active","ping":61},{"user_id":249,"name":"mm","steam_id":76561198841559088,"connected_time":3853000000000,"state":"active","ping":70},{"user_id":300,"name":"xanakin skywocker","steam_id":76561198347313393,"connected_time":1228000000000,"state":"active","ping":79},{"user_id":301,"name":"chrischrischris3018@yahoo.com","steam_id":76561198137316053,"connected_time":1213000000000,"state":"active","ping":66},{"user_id":310,"name":"OdysseusTMT","steam_id":76561198353947637,"connected_time":743000000000,"state":"active","ping":75},{"user_id":304,"name":"NUt","steam_id":76561198031007966,"connected_time":1202000000000,"state":"active","ping":84},{"user_id":302,"name":"Roako","steam_id":76561198121964786,"connected_time":1213000000000,"state":"active","ping":105},{"user_id":311,"name":"Recappy","steam_id":76561198282742764,"connected_time":42000000000,"state":"active","ping":79},{"user_id":272,"name":"Bug","steam_id":76561198279239047,"connected_time":3012000000000,"state":"active","ping":66},{"user_id":248,"name":"C₄H₈Cl₂SGamez","steam_id":76561198250471340,"connected_time":3910000000000,"state":"active","ping":57},{"user_id":284,"name":"Always Here for You","steam_id":76561198219252313,"connected_time":2505000000000,"state":"active","ping":67},{"user_id":258,"name":"Acuzik","steam_id":76561198045453400,"connected_time":3608000000000,"state":"active","ping":44},{"user_id":259,"name":"Braingoo Hex","steam_id":76561198083094783,"connected_time":3607000000000,"state":"active","ping":90},{"user_id":303,"name":"Pimpalicious Candy Cane Mane","steam_id":76561198212923948,"connected_time":1211000000000,"state":"active","ping":60},{"user_id":307,"name":"Henry","steam_id":76561199489203578,"connected_time":1187000000000,"state":"active","ping":98},{"user_id":270,"name":"Elias","steam_id":76561198106431732,"connected_time":3133000000000,"state":"active","ping":57},{"user_id":278,"name":"Slepii","steam_id":76561198881786224,"connected_time":2630000000000,"state":"active","ping":71},{"user_id":279,"name":"Dukino","steam_id":76561198008455368,"connected_time":2620000000000,"state":"active","ping":57},{"user_id":306,"name":"UrFriend","steam_id":76561198250805000,"connected_time":1202000000000,"state":"active","ping":79},{"user_id":308,"name":"buttmudd_jones","steam_id":76561198005954807,"connected_time":1165000000000,"state":"active","ping":81},{"user_id":285,"name":"LogicGate","steam_id":76561199189481990,"connected_time":2498000000000,"state":"active","ping":64},{"user_id":282,"name":"CherriKat","steam_id":76561198821297512,"connected_time":2579000000000,"state":"active","ping":107}]},{"server_id":36,"name":"Uncletopia | Chicago | 5 | All Maps","name_short":"chi-5","host":"chi-2.us.uncletopia.com","port":27015,"enabled":true,"region":"us-central","cc":"us","latitude":41.881832,"longitude":-87.62318,"reserved":0,"last_update":"0001-01-01T00:00:00Z","name_a2s":"Uncletopia | Chicago | 5 | All Maps","protocol":17,"map":"pl_goldrush","folder":"tf","game":"Team Fortress","app_id":440,"player_count":24,"max_players":24,"Bots":0,"server_type":"Dedicated","server_os":"Linux","password":true,"vac":true,"version":"7961495","steam_id":85568392924866362,"keywords":["nocrits","nodmgspread","payload","uncletopia"],"game_id":440,"stv_port":27016,"stv_name":"Uncletopia | Chicago | 5 | All Maps | STV","players":[{"user_id":750,"name":"The Idiot","steam_id":76561198049837377,"connected_time":2921000000000,"state":"active","ping":51},{"user_id":751,"name":"30day","steam_id":76561198219163831,"connected_time":2887000000000,"state":"active","ping":55},{"user_id":761,"name":"Fostrel","steam_id":76561198152160601,"connected_time":1205000000000,"state":"active","ping":66},{"user_id":754,"name":"Detective Dank™","steam_id":76561198195665690,"connected_time":2764000000000,"state":"active","ping":56},{"user_id":720,"name":"Swash","steam_id":76561197969421355,"connected_time":6695000000000,"state":"active","ping":58},{"user_id":753,"name":"Reiner","steam_id":76561199201762178,"connected_time":2865000000000,"state":"active","ping":64},{"user_id":707,"name":"hej","steam_id":76561197996366940,"connected_time":8330000000000,"state":"active","ping":61},{"user_id":733,"name":"DrMania82","steam_id":76561198113086878,"connected_time":4836000000000,"state":"active","ping":100},{"user_id":577,"name":"Bap","steam_id":76561198056717319,"connected_time":16746000000000,"state":"active","ping":54},{"user_id":758,"name":"Nobody","steam_id":76561198286486517,"connected_time":1547000000000,"state":"active","ping":65},{"user_id":762,"name":"A Puppy","steam_id":76561198828184456,"connected_time":1179000000000,"state":"active","ping":67},{"user_id":728,"name":"Gunkzilla","steam_id":76561198068228415,"connected_time":5568000000000,"state":"active","ping":62},{"user_id":715,"name":"MedRed™ #IATAH","steam_id":76561198002962970,"connected_time":7737000000000,"state":"active","ping":105},{"user_id":744,"name":"Seething Swine","steam_id":76561198079147566,"connected_time":4252000000000,"state":"active","ping":61},{"user_id":746,"name":"Tejo","steam_id":76561198200617911,"connected_time":3579000000000,"state":"active","ping":66},{"user_id":763,"name":"narrow.xyz","steam_id":76561198984736456,"connected_time":1176000000000,"state":"active","ping":95},{"user_id":748,"name":"Rein","steam_id":76561198300340427,"connected_time":2954000000000,"state":"active","ping":62},{"user_id":757,"name":"Weary","steam_id":76561198145767546,"connected_time":1913000000000,"state":"active","ping":65},{"user_id":765,"name":"TheOtherBrush","steam_id":76561199048222977,"connected_time":954000000000,"state":"active","ping":104},{"user_id":736,"name":"Der Krieger105","steam_id":76561197978384609,"connected_time":4794000000000,"state":"active","ping":78},{"user_id":760,"name":"CaptainPikachu","steam_id":76561198075667401,"connected_time":1519000000000,"state":"active","ping":73},{"user_id":738,"name":"Ikalpo","steam_id":76561198044686915,"connected_time":4741000000000,"state":"active","ping":98},{"user_id":712,"name":"Anthid","steam_id":76561198074493797,"connected_time":8123000000000,"state":"active","ping":73},{"user_id":668,"name":"Lia_Rein","steam_id":76561198151569597,"connected_time":11519000000000,"state":"active","ping":146}]},{"server_id":37,"name":"Uncletopia | Chicago | 6 | All Maps","name_short":"chi-6","host":"chi-2.us.uncletopia.com","port":27025,"enabled":true,"region":"us-central","cc":"us","latitude":41.881832,"longitude":-87.62318,"reserved":0,"last_update":"0001-01-01T00:00:00Z","name_a2s":"Uncletopia | Chicago | 6 | All Maps","protocol":17,"map":"cp_snakewater_final1","folder":"tf","game":"Team Fortress","app_id":440,"player_count":24,"max_players":24,"Bots":0,"server_type":"Dedicated","server_os":"Linux","password":true,"vac":true,"version":"7961495","steam_id":85568392924866363,"keywords":["cp","nocrits","nodmgspread","uncletopia"],"game_id":440,"stv_port":27026,"stv_name":"Uncletopia | Chicago | 6 | All Maps | STV","players":[{"user_id":300,"name":"harold of rock salt kingdom","steam_id":76561199016285746,"connected_time":218000000000,"state":"active","ping":93},{"user_id":291,"name":"eggo","steam_id":76561198028147388,"connected_time":665000000000,"state":"active","ping":74},{"user_id":271,"name":"dereck","steam_id":76561198283886556,"connected_time":1634000000000,"state":"active","ping":111},{"user_id":295,"name":"⸸ gaige ⛧","steam_id":76561198090576796,"connected_time":428000000000,"state":"active","ping":59},{"user_id":276,"name":"Minecraft®CrashReport","steam_id":76561198096313046,"connected_time":1298000000000,"state":"active","ping":64},{"user_id":229,"name":"Eiss","steam_id":76561198343183806,"connected_time":3348000000000,"state":"active","ping":69},{"user_id":296,"name":"Thairin","steam_id":76561198043810991,"connected_time":410000000000,"state":"active","ping":73},{"user_id":297,"name":"Meem","steam_id":76561198185311398,"connected_time":406000000000,"state":"active","ping":45},{"user_id":262,"name":"checkswing","steam_id":76561198999816132,"connected_time":2020000000000,"state":"active","ping":74},{"user_id":280,"name":"GoldtoothFour","steam_id":76561198055529332,"connected_time":1040000000000,"state":"active","ping":44},{"user_id":298,"name":"Kurama","steam_id":76561198137649711,"connected_time":373000000000,"state":"active","ping":128},{"user_id":257,"name":"Olitude","steam_id":76561199238964574,"connected_time":2552000000000,"state":"active","ping":75},{"user_id":282,"name":"Goredude","steam_id":76561198041048764,"connected_time":981000000000,"state":"active","ping":60},{"user_id":301,"name":"goonhooren","steam_id":76561198101840527,"connected_time":56000000000,"state":"active","ping":105},{"user_id":263,"name":"Burny Sanders","steam_id":76561197961879048,"connected_time":1966000000000,"state":"active","ping":71},{"user_id":272,"name":"ShaiKai","steam_id":76561198333319986,"connected_time":1602000000000,"state":"active","ping":68},{"user_id":260,"name":"toastman","steam_id":76561198207073088,"connected_time":2335000000000,"state":"active","ping":68},{"user_id":248,"name":"...","steam_id":76561198054390505,"connected_time":2847000000000,"state":"active","ping":54},{"user_id":292,"name":"Shrebbie","steam_id":76561198875230824,"connected_time":644000000000,"state":"active","ping":59},{"user_id":251,"name":"Blank_sicon","steam_id":76561198887041407,"connected_time":2801000000000,"state":"active","ping":79},{"user_id":299,"name":"ZENSANITY","steam_id":76561198112430870,"connected_time":369000000000,"state":"active","ping":71},{"user_id":258,"name":"Season Leaf","steam_id":76561198133121805,"connected_time":2543000000000,"state":"active","ping":65},{"user_id":253,"name":"Inevitable","steam_id":76561198210050169,"connected_time":2783000000000,"state":"active","ping":72},{"user_id":290,"name":"sheeesh","steam_id":76561198038080028,"connected_time":691000000000,"state":"active","ping":104}]},{"server_id":38,"name":"Uncletopia | Chicago | 7 | Stopwatch","name_short":"chi-7","host":"chi-2.us.uncletopia.com","port":27035,"enabled":true,"region":"us-central","cc":"us","latitude":41.881832,"longitude":-87.62318,"reserved":0,"last_update":"0001-01-01T00:00:00Z","name_a2s":"Uncletopia | Chicago | 7 | Stopwatch","protocol":17,"map":"pl_upward","folder":"tf","game":"Team Fortress","app_id":440,"player_count":13,"max_players":24,"Bots":0,"server_type":"Dedicated","server_os":"Linux","password":true,"vac":true,"version":"7961495","steam_id":85568392924866364,"keywords":["nocrits","nodmgspread","payload","uncletopia"],"game_id":440,"stv_port":27036,"stv_name":"Uncletopia | Chicago | 7 | Stopwatch | STV","players":[{"user_id":134,"name":"Josh","steam_id":76561198155863376,"connected_time":76000000000,"state":"active","ping":60},{"user_id":87,"name":"Albert Salavan","steam_id":76561199152398906,"connected_time":1804000000000,"state":"active","ping":165},{"user_id":131,"name":"sunny4182","steam_id":76561198069380992,"connected_time":301000000000,"state":"active","ping":80},{"user_id":133,"name":"numa","steam_id":76561198856016840,"connected_time":183000000000,"state":"active","ping":66},{"user_id":107,"name":"caspian","steam_id":76561197985724357,"connected_time":1227000000000,"state":"active","ping":102},{"user_id":86,"name":"Rere Rose","steam_id":76561199171290605,"connected_time":1880000000000,"state":"active","ping":58},{"user_id":135,"name":"MochaPunk","steam_id":76561198139613126,"connected_time":16000000000,"state":"active","ping":62},{"user_id":84,"name":"MakutaArty1987","steam_id":76561199048865492,"connected_time":1971000000000,"state":"active","ping":33},{"user_id":96,"name":"Catgirl Explise","steam_id":76561198044413891,"connected_time":1519000000000,"state":"active","ping":108},{"user_id":88,"name":"lunamoon250","steam_id":76561199122331888,"connected_time":1780000000000,"state":"active","ping":34},{"user_id":90,"name":"canadian boy (derogatory)","steam_id":76561198812820921,"connected_time":1720000000000,"state":"active","ping":74},{"user_id":130,"name":"WALLOP","steam_id":76561198280098491,"connected_time":357000000000,"state":"active","ping":44},{"user_id":116,"name":"cognitiveAfflatus","steam_id":76561198295181426,"connected_time":616000000000,"state":"active","ping":72}]},{"server_id":39,"name":"Uncletopia | Chicago | 8 | Community","name_short":"chi-8","host":"chi-2.us.uncletopia.com","port":27045,"enabled":true,"region":"us-central","cc":"us","latitude":41.881832,"longitude":-87.62318,"reserved":0,"last_update":"0001-01-01T00:00:00Z","name_a2s":"Uncletopia | Chicago | 8 | Community","protocol":17,"map":"workshop/pl_badwater_pro_v12.ugc2142942074","folder":"tf","game":"Team Fortress","app_id":440,"player_count":24,"max_players":24,"Bots":0,"server_type":"Dedicated","server_os":"Linux","password":true,"vac":true,"version":"7961495","steam_id":85568392924866365,"keywords":["nocrits","nodmgspread","payload","uncletopia"],"game_id":440,"stv_port":27046,"stv_name":"Uncletopia | Chicago | 8 | Community | STV","players":[{"user_id":428,"name":"Preston","steam_id":76561198335444084,"connected_time":5083000000000,"state":"active","ping":90},{"user_id":424,"name":"yuumi...! ♡","steam_id":76561198084708100,"connected_time":5446000000000,"state":"active","ping":89},{"user_id":484,"name":"Siopao","steam_id":76561198254089497,"connected_time":1011000000000,"state":"active","ping":84},{"user_id":481,"name":"Captain Salsa","steam_id":76561199241376243,"connected_time":1259000000000,"state":"active","ping":101},{"user_id":492,"name":"chickenenthusiast427","steam_id":76561198909415646,"connected_time":222000000000,"state":"active","ping":79},{"user_id":497,"name":"TTV/YT hunter","steam_id":76561198115812405,"connected_time":107000000000,"state":"active","ping":64},{"user_id":485,"name":"GuyGoom","steam_id":76561198254522178,"connected_time":953000000000,"state":"active","ping":103},{"user_id":493,"name":"Virtual-Gamer","steam_id":76561198046628392,"connected_time":159000000000,"state":"active","ping":90},{"user_id":477,"name":"concreteeater22","steam_id":76561198250042710,"connected_time":2613000000000,"state":"active","ping":72},{"user_id":423,"name":"Meo","steam_id":76561198406809330,"connected_time":5601000000000,"state":"active","ping":95},{"user_id":429,"name":"Koipetal","steam_id":76561198445464412,"connected_time":5073000000000,"state":"active","ping":73},{"user_id":448,"name":"The Nikocado Enjoyer","steam_id":76561198263154374,"connected_time":4258000000000,"state":"active","ping":67},{"user_id":474,"name":"ez$ airballer","steam_id":76561198165899125,"connected_time":2943000000000,"state":"active","ping":61},{"user_id":486,"name":"the.land.of.avalon","steam_id":76561198245431668,"connected_time":938000000000,"state":"active","ping":157},{"user_id":495,"name":"StudioMania (#SAVETF2)","steam_id":76561198211315795,"connected_time":124000000000,"state":"active","ping":55},{"user_id":431,"name":"(TTV) The_Astrum_Guardian","steam_id":76561198130134103,"connected_time":4994000000000,"state":"active","ping":68},{"user_id":498,"name":"Beans","steam_id":76561198066692286,"connected_time":44000000000,"state":"spawning","ping":330},{"user_id":434,"name":"GoGo is a Drunk Slut","steam_id":76561198023080645,"connected_time":4746000000000,"state":"active","ping":74},{"user_id":487,"name":"HiddenEgg","steam_id":76561199045105518,"connected_time":909000000000,"state":"active","ping":105},{"user_id":480,"name":"Chagalicious","steam_id":76561198044128240,"connected_time":1749000000000,"state":"active","ping":86},{"user_id":499,"name":"TheShindigWagon","steam_id":76561198147780134,"connected_time":4000000000,"state":"spawning","ping":45},{"user_id":439,"name":"gulch","steam_id":76561199227946025,"connected_time":4620000000000,"state":"active","ping":60},{"user_id":444,"name":"Muffin","steam_id":76561198111403028,"connected_time":4366000000000,"state":"active","ping":56},{"user_id":491,"name":"Echo","steam_id":76561199165491231,"connected_time":510000000000,"state":"active","ping":48}]},{"server_id":8,"name":"Uncletopia | Dallas | 1 | All Maps","name_short":"dal-1","host":"dal-1.us.uncletopia.com","port":27015,"enabled":true,"region":"us-central","cc":"us","latitude":32.779167,"longitude":-96.80889,"reserved":0,"last_update":"0001-01-01T00:00:00Z","name_a2s":"Uncletopia | Dallas | 1 | All Maps","protocol":17,"map":"pl_enclosure_final","folder":"tf","game":"Team Fortress","app_id":440,"player_count":24,"max_players":24,"Bots":0,"server_type":"Dedicated","server_os":"Linux","password":true,"vac":true,"version":"7961495","steam_id":85568392924469986,"keywords":["nocrits","nodmgspread","payload","uncletopia"],"game_id":440,"stv_port":27016,"stv_name":"Uncletopia | Dallas | 1 | All Maps | STV","players":[{"user_id":280,"name":"ChimpusGaming","steam_id":76561198060954715,"connected_time":4645000000000,"state":"active","ping":60},{"user_id":278,"name":"S    P    I    C    Y","steam_id":76561198054756954,"connected_time":4771000000000,"state":"active","ping":74},{"user_id":315,"name":"Luna","steam_id":76561198023352750,"connected_time":897000000000,"state":"active","ping":92},{"user_id":268,"name":"techdeck","steam_id":76561199022751661,"connected_time":5404000000000,"state":"active","ping":58},{"user_id":303,"name":"An Engineer","steam_id":76561198110381643,"connected_time":2211000000000,"state":"active","ping":45},{"user_id":240,"name":"SAGE(सगे*)","steam_id":76561198811114074,"connected_time":8170000000000,"state":"active","ping":74},{"user_id":271,"name":"ZestyTrev","steam_id":76561198253391039,"connected_time":4882000000000,"state":"active","ping":57},{"user_id":310,"name":"Sweet Tooth","steam_id":76561198830158092,"connected_time":1222000000000,"state":"active","ping":73},{"user_id":295,"name":"TechnoBear2099","steam_id":76561198238863596,"connected_time":2908000000000,"state":"active","ping":48},{"user_id":316,"name":"Kantamoe","steam_id":76561198046661611,"connected_time":517000000000,"state":"active","ping":85},{"user_id":311,"name":"Potato Cheeks","steam_id":76561198143094826,"connected_time":1189000000000,"state":"active","ping":83},{"user_id":288,"name":"FiddyFoMike","steam_id":76561198057072581,"connected_time":3315000000000,"state":"active","ping":90},{"user_id":223,"name":"Rob","steam_id":76561199187786660,"connected_time":8790000000000,"state":"active","ping":44},{"user_id":269,"name":"errant","steam_id":76561197961758410,"connected_time":5198000000000,"state":"active","ping":43},{"user_id":314,"name":"Enfield","steam_id":76561197961097111,"connected_time":955000000000,"state":"active","ping":82},{"user_id":313,"name":"ChaGuy105","steam_id":76561198886907576,"connected_time":1171000000000,"state":"active","ping":121},{"user_id":286,"name":"Fizzle","steam_id":76561199466859396,"connected_time":4072000000000,"state":"active","ping":55},{"user_id":318,"name":"Glühbirne","steam_id":76561198189278869,"connected_time":24000000000,"state":"spawning","ping":62},{"user_id":317,"name":"CALL OF DUTY BLACKOPPS","steam_id":76561198262422184,"connected_time":143000000000,"state":"active","ping":54},{"user_id":283,"name":"Frontier Psychiatrist","steam_id":76561198038689088,"connected_time":4544000000000,"state":"active","ping":85},{"user_id":307,"name":"Hawkborne","steam_id":76561198107249245,"connected_time":2164000000000,"state":"active","ping":73},{"user_id":309,"name":"TOASTEngineer","steam_id":76561198004890916,"connected_time":1232000000000,"state":"active","ping":86},{"user_id":298,"name":"Wooden E","steam_id":76561198020308956,"connected_time":2430000000000,"state":"active","ping":69},{"user_id":301,"name":"Spoobs Gohstly","steam_id":76561198042097530,"connected_time":2296000000000,"state":"active","ping":62}]},{"server_id":108,"name":"Uncletopia | Dallas | 2 | All Maps","name_short":"dal-2","host":"dal-1.us.uncletopia.com","port":27025,"enabled":true,"region":"us-central","cc":"us","latitude":32.779167,"longitude":-96.80889,"reserved":0,"last_update":"0001-01-01T00:00:00Z","name_a2s":"Uncletopia | Dallas | 2 | All Maps","protocol":17,"map":"pl_swiftwater_final1","folder":"tf","game":"Team Fortress","app_id":440,"player_count":23,"max_players":24,"Bots":0,"server_type":"Dedicated","server_os":"Linux","password":true,"vac":true,"version":"7961495","steam_id":85568392924469988,"keywords":["nocrits","nodmgspread","payload","uncletopia"],"game_id":440,"stv_port":27026,"stv_name":"Uncletopia | Dallas | 2 | All Maps | STV","players":[{"user_id":363,"name":"Dragorf2010","steam_id":76561199238402270,"connected_time":1753000000000,"state":"active","ping":75},{"user_id":364,"name":"Lettuce_Plays","steam_id":76561198872255639,"connected_time":1698000000000,"state":"active","ping":76},{"user_id":376,"name":"Napkin","steam_id":76561198148083449,"connected_time":583000000000,"state":"active","ping":86},{"user_id":371,"name":"Chicken Golem","steam_id":76561198138995247,"connected_time":1101000000000,"state":"active","ping":97},{"user_id":350,"name":"Big Boy Beni","steam_id":76561197995469460,"connected_time":2884000000000,"state":"active","ping":71},{"user_id":370,"name":"Punk Bitch","steam_id":76561198111259720,"connected_time":1124000000000,"state":"active","ping":86},{"user_id":337,"name":"MeMyBongusAndTheGreatOutdoors","steam_id":76561198097708978,"connected_time":3930000000000,"state":"active","ping":60},{"user_id":386,"name":"turnip","steam_id":76561197999375941,"connected_time":333000000000,"state":"active","ping":60},{"user_id":357,"name":"Le Meilleur","steam_id":76561198054581325,"connected_time":2623000000000,"state":"active","ping":73},{"user_id":373,"name":"Cat doin laundry","steam_id":76561198063895852,"connected_time":929000000000,"state":"active","ping":52},{"user_id":377,"name":"AWGER (don't uber)","steam_id":76561198284683624,"connected_time":553000000000,"state":"active","ping":95},{"user_id":34,"name":"Moonflower ✦","steam_id":76561198191782483,"connected_time":23046000000000,"state":"active","ping":53},{"user_id":381,"name":"THIRDPIERCE","steam_id":76561198405366314,"connected_time":468000000000,"state":"active","ping":63},{"user_id":379,"name":"TacoMan4Life","steam_id":76561198832562728,"connected_time":489000000000,"state":"active","ping":80},{"user_id":346,"name":"Agent Bowtie","steam_id":76561198175839279,"connected_time":3040000000000,"state":"active","ping":48},{"user_id":367,"name":"living room set $799","steam_id":76561198142602211,"connected_time":1416000000000,"state":"active","ping":44},{"user_id":380,"name":"Dabbledornk","steam_id":76561198065241300,"connected_time":482000000000,"state":"active","ping":75},{"user_id":358,"name":"pablonchas","steam_id":76561198825922892,"connected_time":2465000000000,"state":"active","ping":62},{"user_id":382,"name":"astrobob911","steam_id":76561199099110654,"connected_time":427000000000,"state":"active","ping":102},{"user_id":383,"name":"CALsHero09","steam_id":76561198155881095,"connected_time":426000000000,"state":"active","ping":116},{"user_id":384,"name":"Tea Leaf","steam_id":76561198123549027,"connected_time":400000000000,"state":"active","ping":60},{"user_id":385,"name":"wistful autumn","steam_id":76561198045810207,"connected_time":373000000000,"state":"active","ping":85},{"user_id":387,"name":"Cosmolian","steam_id":76561199178160545,"connected_time":320000000000,"state":"active","ping":87}]},{"server_id":404,"name":"Uncletopia | Dallas | 3 | All Maps","name_short":"dal-3","host":"dal-1.us.uncletopia.com","port":27035,"enabled":true,"region":"us-central","cc":"us","latitude":32.779167,"longitude":-96.80889,"reserved":0,"last_update":"0001-01-01T00:00:00Z","name_a2s":"Uncletopia | Dallas | 3 | All Maps","protocol":17,"map":"pl_pier","folder":"tf","game":"Team Fortress","app_id":440,"player_count":23,"max_players":24,"Bots":0,"server_type":"Dedicated","server_os":"Linux","password":true,"vac":true,"version":"7961495","steam_id":85568392924515219,"keywords":["nocrits","nodmgspread","payload","uncletopia"],"game_id":440,"stv_port":27036,"stv_name":"Uncletopia | Dallas | 3 | All Maps | STV","players":[{"user_id":187,"name":"Certified Hood Classic","steam_id":76561199086159354,"connected_time":4253000000000,"state":"active","ping":45},{"user_id":226,"name":"BLØRG","steam_id":76561198036126673,"connected_time":1271000000000,"state":"active","ping":74},{"user_id":219,"name":"Emnize","steam_id":76561198330950019,"connected_time":1401000000000,"state":"active","ping":66},{"user_id":237,"name":"Skillins","steam_id":76561198024939275,"connected_time":766000000000,"state":"active","ping":72},{"user_id":236,"name":"sim0n","steam_id":76561198198137847,"connected_time":870000000000,"state":"active","ping":85},{"user_id":207,"name":"Major Woody","steam_id":76561198835541533,"connected_time":2742000000000,"state":"active","ping":62},{"user_id":235,"name":"TheInvader01","steam_id":76561198197140935,"connected_time":915000000000,"state":"active","ping":68},{"user_id":220,"name":"Average Pinkerton Enjoyer","steam_id":76561199376462977,"connected_time":1364000000000,"state":"active","ping":75},{"user_id":218,"name":"Texan texting","steam_id":76561198833868695,"connected_time":1417000000000,"state":"active","ping":76},{"user_id":221,"name":"Streetwise","steam_id":76561197971684268,"connected_time":1353000000000,"state":"active","ping":120},{"user_id":223,"name":"SaaxoM","steam_id":76561198208256603,"connected_time":1333000000000,"state":"active","ping":85},{"user_id":222,"name":"gritty 2024","steam_id":76561198165567310,"connected_time":1346000000000,"state":"active","ping":83},{"user_id":185,"name":"Jousty","steam_id":76561199162677853,"connected_time":4276000000000,"state":"active","ping":99},{"user_id":238,"name":"Rix FPV","steam_id":76561198299320893,"connected_time":696000000000,"state":"active","ping":74},{"user_id":199,"name":"PiolaCat","steam_id":76561199100535345,"connected_time":3958000000000,"state":"active","ping":84},{"user_id":213,"name":"Juturna","steam_id":76561198300226970,"connected_time":1655000000000,"state":"active","ping":62},{"user_id":227,"name":"Lumberjane37 (She/Her)","steam_id":76561198014841793,"connected_time":1240000000000,"state":"active","ping":76},{"user_id":242,"name":"-W3E- grim10465","steam_id":76561198045698581,"connected_time":450000000000,"state":"active","ping":85},{"user_id":230,"name":"Gnaash","steam_id":76561198940657194,"connected_time":1157000000000,"state":"active","ping":52},{"user_id":240,"name":"jamlsal","steam_id":76561198965364083,"connected_time":669000000000,"state":"active","ping":56},{"user_id":202,"name":"lustful for Pokémon","steam_id":76561198063713049,"connected_time":3554000000000,"state":"active","ping":46},{"user_id":135,"name":"stefy","steam_id":76561199227702824,"connected_time":8027000000000,"state":"active","ping":82},{"user_id":215,"name":"RickDaglessMD","steam_id":76561197985875169,"connected_time":1618000000000,"state":"active","ping":96}]},{"server_id":405,"name":"Uncletopia | Dallas | 4 | Community","name_short":"dal-4","host":"dal-1.us.uncletopia.com","port":27045,"enabled":true,"region":"us-central","cc":"us","latitude":32.779167,"longitude":-96.80889,"reserved":0,"last_update":"0001-01-01T00:00:00Z","name_a2s":"Uncletopia | Dallas | 4 | Community","protocol":17,"map":"workshop/koth_ashville_final.ugc2130459942","folder":"tf","game":"Team Fortress","app_id":440,"player_count":0,"max_players":24,"Bots":0,"server_type":"Dedicated","server_os":"Linux","password":true,"vac":true,"version":"7961495","steam_id":85568392924515220,"keywords":["cp","nocrits","nodmgspread","uncletopia"],"game_id":440,"stv_port":27046,"stv_name":"Uncletopia | Dallas | 4 | Community | STV","players":null},{"server_id":5,"name":"Uncletopia | Frankfurt | 1 | All Maps","name_short":"frk-1","host":"frk-1.de.uncletopia.com","port":27015,"enabled":true,"region":"eu","cc":"de","latitude":50.110924,"longitude":8.682127,"reserved":0,"last_update":"0001-01-01T00:00:00Z","name_a2s":"Uncletopia | Frankfurt | 1 | All Maps","protocol":17,"map":"pl_pier","folder":"tf","game":"Team Fortress","app_id":440,"player_count":0,"max_players":24,"Bots":0,"server_type":"Dedicated","server_os":"Linux","password":true,"vac":true,"version":"7961495","steam_id":85568392924469989,"keywords":["nocrits","nodmgspread","payload","uncletopia"],"game_id":440,"stv_port":27016,"stv_name":"Uncletopia | Frankfurt | 1 | All Maps | STV","players":null},{"server_id":110,"name":"Uncletopia | Frankfurt | 2 | All Maps","name_short":"frk-2","host":"frk-1.de.uncletopia.com","port":27025,"enabled":true,"region":"eu","cc":"de","latitude":50.110924,"longitude":8.682127,"reserved":0,"last_update":"0001-01-01T00:00:00Z","name_a2s":"Uncletopia | Frankfurt | 2 | All Maps","protocol":17,"map":"koth_viaduct","folder":"tf","game":"Team Fortress","app_id":440,"player_count":0,"max_players":24,"Bots":0,"server_type":"Dedicated","server_os":"Linux","password":true,"vac":true,"version":"7961495","steam_id":85568392924469990,"keywords":["cp","nocrits","nodmgspread","uncletopia"],"game_id":440,"stv_port":27026,"stv_name":"Uncletopia | Frankfurt | 2 | All Maps | STV","players":null},{"server_id":308,"name":"Uncletopia | Frankfurt | 3 | All Maps","name_short":"frk-3","host":"frk-1.de.uncletopia.com","port":27035,"enabled":true,"region":"eu","cc":"de","latitude":50.110924,"longitude":8.682127,"reserved":0,"last_update":"0001-01-01T00:00:00Z","name_a2s":"Uncletopia | Frankfurt | 3 | All Maps","protocol":17,"map":"cp_snakewater_final1","folder":"tf","game":"Team Fortress","app_id":440,"player_count":0,"max_players":24,"Bots":0,"server_type":"Dedicated","server_os":"Linux","password":true,"vac":true,"version":"7961495","steam_id":85568392924504274,"keywords":["cp","nocrits","nodmgspread","uncletopia"],"game_id":440,"stv_port":27036,"stv_name":"Uncletopia | Frankfurt | 3 | All Maps | STV","players":null},{"server_id":309,"name":"Uncletopia | Frankfurt | 4 | All Maps","name_short":"frk-4","host":"frk-1.de.uncletopia.com","port":27045,"enabled":true,"region":"eu","cc":"de","latitude":50.110924,"longitude":8.682127,"reserved":0,"last_update":"0001-01-01T00:00:00Z","name_a2s":"Uncletopia | Frankfurt | 4 | All Maps","protocol":17,"map":"koth_lakeside_final","folder":"tf","game":"Team Fortress","app_id":440,"player_count":0,"max_players":24,"Bots":0,"server_type":"Dedicated","server_os":"Linux","password":true,"vac":true,"version":"7961495","steam_id":85568392924504275,"keywords":["cp","nocrits","nodmgspread","uncletopia"],"game_id":440,"stv_port":27046,"stv_name":"Uncletopia | Frankfurt | 4 | All Maps | STV","players":null},{"server_id":310,"name":"Uncletopia | Frankfurt | 5 | All Maps","name_short":"frk-5","host":"frk-1.de.uncletopia.com","port":27055,"enabled":true,"region":"eu","cc":"de","latitude":50.110924,"longitude":8.682127,"reserved":0,"last_update":"0001-01-01T00:00:00Z","name_a2s":"Uncletopia | Frankfurt | 5 | All Maps","protocol":17,"map":"koth_harvest_final","folder":"tf","game":"Team Fortress","app_id":440,"player_count":2,"max_players":24,"Bots":0,"server_type":"Dedicated","server_os":"Linux","password":true,"vac":true,"version":"7961495","steam_id":85568392924504277,"keywords":["cp","nocrits","nodmgspread","uncletopia"],"game_id":440,"stv_port":27056,"stv_name":"Uncletopia | Frankfurt | 5 | All Maps | STV","players":[{"user_id":687,"name":"Nyhde","steam_id":76561198012771416,"connected_time":3767000000000,"state":"active","ping":82},{"user_id":690,"name":"GibbusGod","steam_id":76561199232436690,"connected_time":2097000000000,"state":"active","ping":142}]},{"server_id":311,"name":"Uncletopia | Frankfurt | 6 | All Maps","name_short":"frk-6","host":"frk-1.de.uncletopia.com","port":27065,"enabled":true,"region":"eu","cc":"de","latitude":50.110924,"longitude":8.682127,"reserved":0,"last_update":"0001-01-01T00:00:00Z","name_a2s":"Uncletopia | Frankfurt | 6 | All Maps","protocol":17,"map":"cp_mountainlab","folder":"tf","game":"Team Fortress","app_id":440,"player_count":0,"max_players":24,"Bots":0,"server_type":"Dedicated","server_os":"Linux","password":true,"vac":true,"version":"7961495","steam_id":85568392924504278,"keywords":["cp","nocrits","nodmgspread","uncletopia"],"game_id":440,"stv_port":27066,"stv_name":"Uncletopia | Frankfurt | 6 | All Maps | STV","players":null},{"server_id":23,"name":"Uncletopia | Frankfurt | 7 | Stopwatch","name_short":"frk-7","host":"frk-1.de.uncletopia.com","port":27075,"enabled":true,"region":"eu","cc":"de","latitude":50.110924,"longitude":8.682127,"reserved":0,"last_update":"0001-01-01T00:00:00Z","name_a2s":"Uncletopia | Frankfurt | 7 | Stopwatch","protocol":17,"map":"workshop/koth_ashville_final.ugc2130459942","folder":"tf","game":"Team Fortress","app_id":440,"player_count":0,"max_players":24,"Bots":0,"server_type":"Dedicated","server_os":"Linux","password":true,"vac":true,"version":"7961495","steam_id":85568392924742827,"keywords":["cp","nocrits","nodmgspread","uncletopia"],"game_id":440,"stv_port":27076,"stv_name":"Uncletopia | Frankfurt | 7 | Stopwatch | STV","players":null},{"server_id":24,"name":"Uncletopia | Frankfurt | 8 | Community","name_short":"frk-8","host":"frk-1.de.uncletopia.com","port":27085,"enabled":true,"region":"eu","cc":"de","latitude":50.110924,"longitude":8.682127,"reserved":0,"last_update":"0001-01-01T00:00:00Z","name_a2s":"Uncletopia | Frankfurt | 8 | Community","protocol":17,"map":"workshop/pl_vigil_rc10.ugc1266210012","folder":"tf","game":"Team Fortress","app_id":440,"player_count":0,"max_players":24,"Bots":0,"server_type":"Dedicated","server_os":"Linux","password":true,"vac":true,"version":"7961495","steam_id":85568392924742828,"keywords":["nocrits","nodmgspread","payload","uncletopia"],"game_id":440,"stv_port":27086,"stv_name":"Uncletopia | Frankfurt | 8 | Community | STV","players":null},{"server_id":202,"name":"Uncletopia | Hong Kong | 1 | All Maps","name_short":"hgk-1","host":"hgk-1.hk.uncletopia.com","port":27015,"enabled":true,"region":"asia","cc":"hk","latitude":22.302711,"longitude":114.177216,"reserved":0,"last_update":"0001-01-01T00:00:00Z","name_a2s":"Uncletopia | Hong Kong | 1 | All Maps","protocol":17,"map":"koth_highpass","folder":"tf","game":"Team Fortress","app_id":440,"player_count":0,"max_players":24,"Bots":0,"server_type":"Dedicated","server_os":"Linux","password":true,"vac":true,"version":"7961495","steam_id":85568392924494504,"keywords":["cp","nocrits","nodmgspread","uncletopia"],"game_id":440,"stv_port":27016,"stv_name":"Uncletopia | Hong Kong | 1 | All Maps | STV","players":null},{"server_id":1,"name":"Uncletopia | Los Angeles | 1 | All Maps","name_short":"lax-1","host":"lax-1.us.uncletopia.com","port":27015,"enabled":true,"region":"us-west","cc":"us","latitude":33.94279,"longitude":-118.41004,"reserved":0,"last_update":"0001-01-01T00:00:00Z","name_a2s":"Uncletopia | Los Angeles | 1 | All Maps","protocol":17,"map":"pl_frontier_final","folder":"tf","game":"Team Fortress","app_id":440,"player_count":24,"max_players":24,"Bots":0,"server_type":"Dedicated","server_os":"Linux","password":true,"vac":true,"version":"7961495","steam_id":85568392924469991,"keywords":["nocrits","nodmgspread","payload","uncletopia"],"game_id":440,"stv_port":27016,"stv_name":"Uncletopia | Los Angeles | 1 | All Maps | STV","players":[{"user_id":118,"name":"lker","steam_id":76561197976975075,"connected_time":5791000000000,"state":"active","ping":84},{"user_id":198,"name":"PhaserLazer","steam_id":76561198407341298,"connected_time":239000000000,"state":"active","ping":67},{"user_id":199,"name":"oh my god bruh what the hell","steam_id":76561198385887698,"connected_time":221000000000,"state":"active","ping":69},{"user_id":205,"name":"Mango","steam_id":76561198452667571,"connected_time":154000000000,"state":"active","ping":35},{"user_id":185,"name":"esotEric","steam_id":76561198046184742,"connected_time":1423000000000,"state":"active","ping":48},{"user_id":178,"name":"a chicken","steam_id":76561198313121580,"connected_time":2210000000000,"state":"active","ping":55},{"user_id":147,"name":"Perfume Department","steam_id":76561198128299594,"connected_time":3966000000000,"state":"active","ping":60},{"user_id":204,"name":"Dr. Bodacious","steam_id":76561199122205825,"connected_time":164000000000,"state":"active","ping":50},{"user_id":179,"name":"Ethanol Buttchugger","steam_id":76561199127590316,"connected_time":2071000000000,"state":"active","ping":36},{"user_id":166,"name":"Schnitz","steam_id":76561198265484253,"connected_time":3329000000000,"state":"active","ping":58},{"user_id":186,"name":"SoCal Kaizer","steam_id":76561198334361081,"connected_time":1423000000000,"state":"active","ping":57},{"user_id":165,"name":"WiteBord","steam_id":76561198891799301,"connected_time":3381000000000,"state":"active","ping":99},{"user_id":200,"name":"Igrium","steam_id":76561198119549811,"connected_time":202000000000,"state":"active","ping":56},{"user_id":182,"name":"darren","steam_id":76561199050155136,"connected_time":1568000000000,"state":"active","ping":45},{"user_id":197,"name":"Beanz :)","steam_id":76561199434233117,"connected_time":389000000000,"state":"active","ping":71},{"user_id":207,"name":"a highly probable flip","steam_id":76561198045964573,"connected_time":29000000000,"state":"active","ping":37},{"user_id":187,"name":"Greenmax9","steam_id":76561198056050329,"connected_time":1421000000000,"state":"active","ping":105},{"user_id":206,"name":"Big Chad","steam_id":76561198015304658,"connected_time":108000000000,"state":"active","ping":98},{"user_id":180,"name":"jadene11","steam_id":76561199369221113,"connected_time":1869000000000,"state":"active","ping":31},{"user_id":183,"name":"usedhalfcart","steam_id":76561198072621852,"connected_time":1566000000000,"state":"active","ping":94},{"user_id":194,"name":"Wendall555","steam_id":76561198985637603,"connected_time":884000000000,"state":"active","ping":60},{"user_id":203,"name":"Chi-Chia","steam_id":76561198067955987,"connected_time":182000000000,"state":"active","ping":85},{"user_id":167,"name":"Spicy Churro","steam_id":76561197992913147,"connected_time":3277000000000,"state":"active","ping":46},{"user_id":175,"name":"gatorbelt","steam_id":76561198145784505,"connected_time":2370000000000,"state":"active","ping":45}]},{"server_id":112,"name":"Uncletopia | Los Angeles | 2 | All Maps","name_short":"lax-2","host":"lax-1.us.uncletopia.com","port":27025,"enabled":true,"region":"us-west","cc":"us","latitude":33.94279,"longitude":-118.41004,"reserved":0,"last_update":"0001-01-01T00:00:00Z","name_a2s":"Uncletopia | Los Angeles | 2 | All Maps","protocol":17,"map":"cp_altitude","folder":"tf","game":"Team Fortress","app_id":440,"player_count":3,"max_players":24,"Bots":0,"server_type":"Dedicated","server_os":"Linux","password":true,"vac":true,"version":"7961495","steam_id":85568392924469992,"keywords":["cp","nocrits","nodmgspread","uncletopia"],"game_id":440,"stv_port":27026,"stv_name":"Uncletopia | Los Angeles | 2 | All Maps | STV","players":[{"user_id":179,"name":"DoctorZer0","steam_id":76561199109330187,"connected_time":499000000000,"state":"active","ping":94},{"user_id":180,"name":"Dot-JASON","steam_id":76561198990298757,"connected_time":450000000000,"state":"active","ping":98},{"user_id":182,"name":"Da Floppa","steam_id":76561198317716165,"connected_time":213000000000,"state":"active","ping":45}]},{"server_id":324,"name":"Uncletopia | Los Angeles | 3 | All Maps","name_short":"lax-3","host":"lax-1.us.uncletopia.com","port":27035,"enabled":true,"region":"us-west","cc":"us","latitude":33.94279,"longitude":-118.41004,"reserved":0,"last_update":"0001-01-01T00:00:00Z","name_a2s":"Uncletopia | Los Angeles | 3 | All Maps","protocol":17,"map":"cp_gorge","folder":"tf","game":"Team Fortress","app_id":440,"player_count":0,"max_players":24,"Bots":0,"server_type":"Dedicated","server_os":"Linux","password":true,"vac":true,"version":"7961495","steam_id":85568392924510198,"keywords":["cp","nocrits","nodmgspread","uncletopia"],"game_id":440,"stv_port":27036,"stv_name":"Uncletopia | Los Angeles | 3 | All Maps | STV","players":null},{"server_id":25,"name":"Uncletopia | Los Angeles | 4 | Stopwatch","name_short":"lax-4","host":"lax-1.us.uncletopia.com","port":27045,"enabled":true,"region":"us-west","cc":"us","latitude":33.94279,"longitude":-118.41004,"reserved":0,"last_update":"0001-01-01T00:00:00Z","name_a2s":"Uncletopia | Los Angeles | 4 | Stopwatch","protocol":17,"map":"workshop/koth_product_final.ugc454272353","folder":"tf","game":"Team Fortress","app_id":440,"player_count":0,"max_players":24,"Bots":0,"server_type":"Dedicated","server_os":"Linux","password":true,"vac":true,"version":"7961495","steam_id":85568392924510199,"keywords":["cp","nocrits","nodmgspread","uncletopia"],"game_id":440,"stv_port":27046,"stv_name":"Uncletopia | Los Angeles | 4 | Stopwatch | STV","players":null},{"server_id":11,"name":"Uncletopia | London | 1 | All Maps","name_short":"lon-1","host":"lon-1.uk.uncletopia.com","port":27015,"enabled":true,"region":"eu","cc":"gb","latitude":51.509865,"longitude":-0.118092,"reserved":0,"last_update":"0001-01-01T00:00:00Z","name_a2s":"Uncletopia | London | 1 | All Maps","protocol":17,"map":"pl_upward","folder":"tf","game":"Team Fortress","app_id":440,"player_count":14,"max_players":24,"Bots":0,"server_type":"Dedicated","server_os":"Linux","password":true,"vac":true,"version":"7961495","steam_id":85568392924367362,"keywords":["nocrits","nodmgspread","payload","uncletopia"],"game_id":440,"stv_port":27016,"stv_name":"Uncletopia | London | 1 | All Maps | STV","players":[{"user_id":892,"name":"cool_mike2013","steam_id":76561199062433944,"connected_time":5524000000000,"state":"active","ping":125},{"user_id":927,"name":"Nomakh","steam_id":76561198096414653,"connected_time":2314000000000,"state":"active","ping":92},{"user_id":914,"name":"Summer ♥","steam_id":76561198047723907,"connected_time":3600000000000,"state":"active","ping":31},{"user_id":897,"name":"The New Bob","steam_id":76561199122072556,"connected_time":5245000000000,"state":"active","ping":143},{"user_id":926,"name":"chillrend_morphs_high_lod6","steam_id":76561198452963141,"connected_time":2325000000000,"state":"active","ping":88},{"user_id":928,"name":"CumbustiblePunda","steam_id":76561197974274677,"connected_time":2305000000000,"state":"active","ping":54},{"user_id":938,"name":"⛧ AlphaSatanOmega ⛧","steam_id":76561198035125511,"connected_time":1380000000000,"state":"active","ping":119},{"user_id":919,"name":"Bobirulez","steam_id":76561198009125458,"connected_time":3282000000000,"state":"active","ping":72},{"user_id":948,"name":"jonbob","steam_id":76561197963506620,"connected_time":544000000000,"state":"active","ping":42},{"user_id":942,"name":"Arkainiel Silver","steam_id":76561198188302519,"connected_time":1068000000000,"state":"active","ping":63},{"user_id":925,"name":"Nittugai","steam_id":76561198067366462,"connected_time":2521000000000,"state":"active","ping":60},{"user_id":895,"name":"Marcel","steam_id":76561198348686648,"connected_time":5279000000000,"state":"active","ping":37},{"user_id":921,"name":"George W Bush","steam_id":76561198846784757,"connected_time":3071000000000,"state":"active","ping":44},{"user_id":923,"name":"skelebin","steam_id":76561199480942903,"connected_time":2961000000000,"state":"active","ping":75}]},{"server_id":114,"name":"Uncletopia | London | 2 | All Maps","name_short":"lon-2","host":"lon-1.uk.uncletopia.com","port":27025,"enabled":true,"region":"eu","cc":"gb","latitude":51.509865,"longitude":-0.118092,"reserved":0,"last_update":"0001-01-01T00:00:00Z","name_a2s":"Uncletopia | London | 2 | All Maps","protocol":17,"map":"cp_mountainlab","folder":"tf","game":"Team Fortress","app_id":440,"player_count":0,"max_players":24,"Bots":0,"server_type":"Dedicated","server_os":"Linux","password":true,"vac":true,"version":"7961495","steam_id":85568392924470941,"keywords":["cp","nocrits","nodmgspread","uncletopia"],"game_id":440,"stv_port":27026,"stv_name":"Uncletopia | London | 2 | All Maps | STV","players":null},{"server_id":320,"name":"Uncletopia | London | 3 | All Maps","name_short":"lon-3","host":"lon-1.uk.uncletopia.com","port":27035,"enabled":true,"region":"eu","cc":"gb","latitude":51.509865,"longitude":-0.118092,"reserved":0,"last_update":"0001-01-01T00:00:00Z","name_a2s":"Uncletopia | London | 3 | All Maps","protocol":17,"map":"cp_sunshine","folder":"tf","game":"Team Fortress","app_id":440,"player_count":0,"max_players":24,"Bots":0,"server_type":"Dedicated","server_os":"Linux","password":true,"vac":true,"version":"7961495","steam_id":85568392924510192,"keywords":["cp","nocrits","nodmgspread","uncletopia"],"game_id":440,"stv_port":27036,"stv_name":"Uncletopia | London | 3 | All Maps | STV","players":null},{"server_id":321,"name":"Uncletopia | London | 4 | All Maps","name_short":"lon-4","host":"lon-1.uk.uncletopia.com","port":27045,"enabled":true,"region":"eu","cc":"gb","latitude":51.509865,"longitude":-0.118092,"reserved":0,"last_update":"0001-01-01T00:00:00Z","name_a2s":"Uncletopia | London | 4 | All Maps","protocol":17,"map":"pl_badwater","folder":"tf","game":"Team Fortress","app_id":440,"player_count":0,"max_players":24,"Bots":0,"server_type":"Dedicated","server_os":"Linux","password":true,"vac":true,"version":"7961495","steam_id":85568392924510193,"keywords":["nocrits","nodmgspread","payload","uncletopia"],"game_id":440,"stv_port":27046,"stv_name":"Uncletopia | London | 4 | All Maps | STV","players":null},{"server_id":21,"name":"Uncletopia | London | 5 | All Maps","name_short":"lon-5","host":"lon-1.uk.uncletopia.com","port":27055,"enabled":true,"region":"eu","cc":"gb","latitude":51.509865,"longitude":-0.118092,"reserved":0,"last_update":"0001-01-01T00:00:00Z","name_a2s":"Uncletopia | London | 5 | All Maps","protocol":17,"map":"pl_badwater","folder":"tf","game":"Team Fortress","app_id":440,"player_count":0,"max_players":24,"Bots":0,"server_type":"Dedicated","server_os":"Linux","password":true,"vac":true,"version":"7961495","steam_id":85568392924742829,"keywords":["nocrits","nodmgspread","payload","uncletopia"],"game_id":440,"stv_port":27056,"stv_name":"Uncletopia | London | 5 | All Maps | STV","players":null},{"server_id":22,"name":"Uncletopia | London | 6 | All Maps","name_short":"lon-6","host":"lon-1.uk.uncletopia.com","port":27065,"enabled":true,"region":"eu","cc":"gb","latitude":51.509865,"longitude":-0.118092,"reserved":0,"last_update":"0001-01-01T00:00:00Z","name_a2s":"Uncletopia | London | 6 | All Maps","protocol":17,"map":"pl_badwater","folder":"tf","game":"Team Fortress","app_id":440,"player_count":0,"max_players":24,"Bots":0,"server_type":"Dedicated","server_os":"Linux","password":true,"vac":true,"version":"7961495","steam_id":85568392924742830,"keywords":["nocrits","nodmgspread","payload","uncletopia"],"game_id":440,"stv_port":27066,"stv_name":"Uncletopia | London | 6 | All Maps | STV","players":null},{"server_id":40,"name":"Uncletopia | London | 7 | Stopwatch","name_short":"lon-7","host":"lon-1.uk.uncletopia.com","port":27075,"enabled":true,"region":"eu","cc":"gb","latitude":51.509865,"longitude":-0.118092,"reserved":0,"last_update":"0001-01-01T00:00:00Z","name_a2s":"Uncletopia | London | 7 | Stopwatch","protocol":17,"map":"koth_lakeside_final","folder":"tf","game":"Team Fortress","app_id":440,"player_count":0,"max_players":24,"Bots":0,"server_type":"Dedicated","server_os":"Linux","password":true,"vac":true,"version":"7961495","steam_id":85568392924964314,"keywords":["cp","nocrits","nodmgspread","uncletopia"],"game_id":440,"stv_port":27076,"stv_name":"Uncletopia | London | 7 | Stopwatch | STV","players":null},{"server_id":41,"name":"Uncletopia | London | 8 | Community","name_short":"lon-8","host":"lon-1.uk.uncletopia.com","port":27085,"enabled":true,"region":"eu","cc":"gb","latitude":51.509865,"longitude":-0.118092,"reserved":0,"last_update":"0001-01-01T00:00:00Z","name_a2s":"Uncletopia | London | 8 | Community","protocol":17,"map":"workshop/pl_corrode_rc2.ugc546577989","folder":"tf","game":"Team Fortress","app_id":440,"player_count":0,"max_players":24,"Bots":0,"server_type":"Dedicated","server_os":"Linux","password":true,"vac":true,"version":"7961495","steam_id":85568392924964315,"keywords":["nocrits","nodmgspread","payload","uncletopia"],"game_id":440,"stv_port":27086,"stv_name":"Uncletopia | London | 8 | Community | STV","players":null},{"server_id":300,"name":"Uncletopia | Montréal | 1 | One Thousand Uncles","name_short":"mtl-1","host":"mtl-1.ca.uncletopia.com","port":27015,"enabled":true,"region":"us-east","cc":"ca","latitude":45.50889,"longitude":-73.56167,"reserved":0,"last_update":"0001-01-01T00:00:00Z","name_a2s":"Uncletopia | Montréal | 1 | One Thousand Uncles","protocol":17,"map":"cp_dustbowl","folder":"tf","game":"Team Fortress","app_id":440,"player_count":24,"max_players":32,"Bots":16,"server_type":"Dedicated","server_os":"Linux","password":true,"vac":true,"version":"7961495","steam_id":85568392924500087,"keywords":["alltalk","bots","cp","danepve","increased_maxplayers","norespawntime","uncletopia"],"game_id":440,"stv_port":0,"stv_name":"","players":[{"user_id":295,"name":"heavy jumpscare","steam_id":76561198376752965,"connected_time":16321000000000,"state":"active","ping":55},{"user_id":505,"name":"Lots0","steam_id":76561198043143145,"connected_time":1548000000000,"state":"active","ping":101},{"user_id":508,"name":"Satchamo","steam_id":76561198012968239,"connected_time":259000000000,"state":"active","ping":88},{"user_id":506,"name":"triangleman","steam_id":76561198972733542,"connected_time":1525000000000,"state":"active","ping":76},{"user_id":507,"name":"pyro amiguinho","steam_id":76561198101726963,"connected_time":870000000000,"state":"active","ping":159},{"user_id":504,"name":"Why not Zoidberg?","steam_id":76561197982207556,"connected_time":1967000000000,"state":"active","ping":76},{"user_id":509,"name":"Keyboardbreaker","steam_id":76561198372836132,"connected_time":197000000000,"state":"active","ping":114},{"user_id":477,"name":"The Anomaly TF2","steam_id":76561198834819021,"connected_time":4476000000000,"state":"active","ping":31}]},{"server_id":301,"name":"Uncletopia | Montréal | 2 | One Thousand Uncles","name_short":"mtl-2","host":"mtl-1.ca.uncletopia.com","port":27025,"enabled":true,"region":"us-east","cc":"ca","latitude":45.50889,"longitude":-73.56167,"reserved":0,"last_update":"0001-01-01T00:00:00Z","name_a2s":"Uncletopia | Montréal | 2 | One Thousand Uncles","protocol":17,"map":"pl_chilly","folder":"tf","game":"Team Fortress","app_id":440,"player_count":0,"max_players":32,"Bots":0,"server_type":"Dedicated","server_os":"Linux","password":true,"vac":true,"version":"7961495","steam_id":85568392924500088,"keywords":["alltalk","danepve","increased_maxplayers","norespawntime","payload","uncletopia"],"game_id":440,"stv_port":0,"stv_name":"","players":null},{"server_id":302,"name":"Uncletopia | Montréal | 3 | One Thousand Uncles","name_short":"mtl-3","host":"mtl-1.ca.uncletopia.com","port":27035,"enabled":true,"region":"us-east","cc":"ca","latitude":45.50889,"longitude":-73.56167,"reserved":0,"last_update":"0001-01-01T00:00:00Z","name_a2s":"Uncletopia | Montréal | 3 | One Thousand Uncles","protocol":17,"map":"pl_pier","folder":"tf","game":"Team Fortress","app_id":440,"player_count":0,"max_players":32,"Bots":0,"server_type":"Dedicated","server_os":"Linux","password":true,"vac":true,"version":"7961495","steam_id":85568392924500089,"keywords":["alltalk","danepve","increased_maxplayers","norespawntime","payload","uncletopia"],"game_id":440,"stv_port":0,"stv_name":"","players":null},{"server_id":13,"name":"Uncletopia | New York City | 1 | All Maps","name_short":"nyc-1","host":"nyc-1.us.uncletopia.com","port":27015,"enabled":true,"region":"us-east","cc":"us","latitude":40.73061,"longitude":-73.93524,"reserved":0,"last_update":"0001-01-01T00:00:00Z","name_a2s":"Uncletopia | New York City | 1 | All Maps","protocol":17,"map":"pl_pier","folder":"tf","game":"Team Fortress","app_id":440,"player_count":24,"max_players":24,"Bots":0,"server_type":"Dedicated","server_os":"Linux","password":true,"vac":true,"version":"7961495","steam_id":85568392924469993,"keywords":["nocrits","nodmgspread","payload","uncletopia"],"game_id":440,"stv_port":27016,"stv_name":"Uncletopia | New York City | 1 | All Maps | STV","players":[{"user_id":404,"name":"That Sentry Is A Spy!","steam_id":76561198069395625,"connected_time":4627000000000,"state":"active","ping":50},{"user_id":459,"name":"Shirt","steam_id":76561198082386564,"connected_time":795000000000,"state":"active","ping":64},{"user_id":457,"name":"ToyBox","steam_id":76561199074735423,"connected_time":859000000000,"state":"active","ping":56},{"user_id":474,"name":"lcy13vv","steam_id":76561197995997446,"connected_time":109000000000,"state":"active","ping":59},{"user_id":450,"name":"Remix.SMG","steam_id":76561198052895933,"connected_time":1755000000000,"state":"active","ping":71},{"user_id":420,"name":"DriftingOne","steam_id":76561198044836619,"connected_time":3561000000000,"state":"active","ping":66},{"user_id":460,"name":"Spyperz","steam_id":76561198150003505,"connected_time":781000000000,"state":"active","ping":61},{"user_id":424,"name":"ndvr (femboy (REAL))","steam_id":76561199379200102,"connected_time":3340000000000,"state":"active","ping":45},{"user_id":437,"name":"HalfDead","steam_id":76561198049700226,"connected_time":2585000000000,"state":"active","ping":60},{"user_id":453,"name":"mostly ham","steam_id":76561199479937232,"connected_time":1241000000000,"state":"active","ping":66},{"user_id":461,"name":"cupcup","steam_id":76561198116227192,"connected_time":682000000000,"state":"active","ping":87},{"user_id":454,"name":"Two-Teste Tommy","steam_id":76561198064308936,"connected_time":946000000000,"state":"active","ping":60},{"user_id":462,"name":"Johnny Lawrence #JohnnyMaxxing","steam_id":76561199367141671,"connected_time":591000000000,"state":"active","ping":46},{"user_id":463,"name":"1st place love live fan","steam_id":76561198037951506,"connected_time":582000000000,"state":"active","ping":60},{"user_id":471,"name":"Draco6257","steam_id":76561199147322448,"connected_time":444000000000,"state":"active","ping":36},{"user_id":452,"name":"A_Happy_Fellow","steam_id":76561199229475610,"connected_time":1262000000000,"state":"active","ping":114},{"user_id":469,"name":"yari","steam_id":76561198410899308,"connected_time":509000000000,"state":"active","ping":53},{"user_id":386,"name":"Juan Pablo Gonzalez 2023","steam_id":76561199197961413,"connected_time":5987000000000,"state":"active","ping":45},{"user_id":394,"name":"Cellus","steam_id":76561198067204847,"connected_time":5559000000000,"state":"active","ping":59},{"user_id":451,"name":"Ball Sniffer 23","steam_id":76561198272318229,"connected_time":1367000000000,"state":"active","ping":72},{"user_id":419,"name":"Yuzu","steam_id":76561198417913035,"connected_time":3565000000000,"state":"active","ping":63},{"user_id":444,"name":"MasterAmongRust","steam_id":76561198010160233,"connected_time":2496000000000,"state":"active","ping":83},{"user_id":449,"name":"GamingTNT","steam_id":76561198164384967,"connected_time":1759000000000,"state":"active","ping":54},{"user_id":475,"name":"Remis","steam_id":76561198282267073,"connected_time":60000000000,"state":"active","ping":65}]},{"server_id":14,"name":"Uncletopia | New York City | 2 | All Maps","name_short":"nyc-2","host":"nyc-1.us.uncletopia.com","port":27025,"enabled":true,"region":"us-east","cc":"us","latitude":40.73061,"longitude":-73.93524,"reserved":0,"last_update":"0001-01-01T00:00:00Z","name_a2s":"Uncletopia | New York City | 2 | All Maps","protocol":17,"map":"koth_badlands","folder":"tf","game":"Team Fortress","app_id":440,"player_count":24,"max_players":24,"Bots":0,"server_type":"Dedicated","server_os":"Linux","password":true,"vac":true,"version":"7961495","steam_id":85568392924469994,"keywords":["cp","nocrits","nodmgspread","uncletopia"],"game_id":440,"stv_port":27026,"stv_name":"Uncletopia | New York City | 2 | All Maps | STV","players":[{"user_id":517,"name":"stormfoam","steam_id":76561198936871387,"connected_time":4623000000000,"state":"active","ping":73},{"user_id":568,"name":"eipi","steam_id":76561199084492097,"connected_time":849000000000,"state":"active","ping":56},{"user_id":560,"name":"Kirby","steam_id":76561199161858008,"connected_time":1383000000000,"state":"active","ping":73},{"user_id":530,"name":"John Fortnite","steam_id":76561198076608253,"connected_time":3151000000000,"state":"active","ping":46},{"user_id":503,"name":"Baron von Whoopsie","steam_id":76561197996691013,"connected_time":5712000000000,"state":"active","ping":39},{"user_id":567,"name":"Prsm","steam_id":76561198053344995,"connected_time":936000000000,"state":"active","ping":33},{"user_id":569,"name":"Spooni_Boi","steam_id":76561198308140374,"connected_time":849000000000,"state":"active","ping":43},{"user_id":581,"name":"Jeffery Jitterson","steam_id":76561199021400714,"connected_time":159000000000,"state":"active","ping":45},{"user_id":561,"name":"Fish Fisherman","steam_id":76561198018656022,"connected_time":1371000000000,"state":"active","ping":54},{"user_id":549,"name":"space creep","steam_id":76561198025668545,"connected_time":2268000000000,"state":"active","ping":46},{"user_id":559,"name":"Big Daddy Brick","steam_id":76561198170244047,"connected_time":1450000000000,"state":"active","ping":60},{"user_id":562,"name":"PurPle","steam_id":76561198050393396,"connected_time":1365000000000,"state":"active","ping":56},{"user_id":544,"name":"Rat Queen Emily","steam_id":76561198232446788,"connected_time":2598000000000,"state":"active","ping":66},{"user_id":566,"name":"Windup Monkey in a Human Suit","steam_id":76561198119501444,"connected_time":1074000000000,"state":"active","ping":74},{"user_id":575,"name":"Noid","steam_id":76561197980496241,"connected_time":564000000000,"state":"active","ping":75},{"user_id":576,"name":"mmmmmmmmmmms","steam_id":76561198043702963,"connected_time":552000000000,"state":"active","ping":73},{"user_id":582,"name":"bigo9913","steam_id":76561199013131930,"connected_time":154000000000,"state":"active","ping":98},{"user_id":573,"name":"cyrus!","steam_id":76561198344500089,"connected_time":746000000000,"state":"active","ping":50},{"user_id":548,"name":"Caelestis","steam_id":76561198026481161,"connected_time":2312000000000,"state":"active","ping":54},{"user_id":551,"name":"Takeover","steam_id":76561197996081461,"connected_time":2047000000000,"state":"active","ping":47},{"user_id":563,"name":"Rock Kickass","steam_id":76561198450510841,"connected_time":1362000000000,"state":"active","ping":150},{"user_id":580,"name":"chunger","steam_id":76561198107931997,"connected_time":303000000000,"state":"active","ping":60},{"user_id":534,"name":"Snugboo","steam_id":76561198147970327,"connected_time":2837000000000,"state":"active","ping":47},{"user_id":546,"name":"Typh","steam_id":76561198315344079,"connected_time":2562000000000,"state":"active","ping":74}]},{"server_id":15,"name":"Uncletopia | New York City | 3 | Stopwatch","name_short":"nyc-3","host":"nyc-1.us.uncletopia.com","port":27035,"enabled":true,"region":"us-east","cc":"us","latitude":40.73061,"longitude":-73.93524,"reserved":0,"last_update":"0001-01-01T00:00:00Z","name_a2s":"Uncletopia | New York City | 3 | Stopwatch","protocol":17,"map":"koth_highpass","folder":"tf","game":"Team Fortress","app_id":440,"player_count":0,"max_players":24,"Bots":0,"server_type":"Dedicated","server_os":"Linux","password":true,"vac":true,"version":"7961495","steam_id":85568392924742820,"keywords":["cp","nocrits","nodmgspread","uncletopia"],"game_id":440,"stv_port":27036,"stv_name":"Uncletopia | New York City | 3 | Stopwatch | STV","players":null},{"server_id":16,"name":"Uncletopia | New York City | 4 | Community","name_short":"nyc-4","host":"nyc-1.us.uncletopia.com","port":27045,"enabled":true,"region":"us-east","cc":"us","latitude":40.73061,"longitude":-73.93524,"reserved":0,"last_update":"0001-01-01T00:00:00Z","name_a2s":"Uncletopia | New York City | 4 | Community","protocol":17,"map":"workshop/cp_indulge.ugc528106646","folder":"tf","game":"Team Fortress","app_id":440,"player_count":0,"max_players":24,"Bots":0,"server_type":"Dedicated","server_os":"Linux","password":true,"vac":true,"version":"7961495","steam_id":85568392924742821,"keywords":["cp","nocrits","nodmgspread","uncletopia"],"game_id":440,"stv_port":27046,"stv_name":"Uncletopia | New York City | 4 | Community | STV","players":null},{"server_id":142,"name":"Uncletopia | São Paulo | 1 | All Maps","name_short":"sao-1","host":"sao-1.br.uncletopia.com","port":27015,"enabled":true,"region":"sa","cc":"br","latitude":-23.533773,"longitude":-46.62529,"reserved":0,"last_update":"0001-01-01T00:00:00Z","name_a2s":"Uncletopia | São Paulo | 1 | All Maps","protocol":17,"map":"koth_viaduct","folder":"tf","game":"Team Fortress","app_id":440,"player_count":0,"max_players":24,"Bots":0,"server_type":"Dedicated","server_os":"Linux","password":true,"vac":true,"version":"7961495","steam_id":85568392924469996,"keywords":["cp","nocrits","nodmgspread","uncletopia"],"game_id":440,"stv_port":27016,"stv_name":"Uncletopia | São Paulo | 1 | All Maps | STV","players":null},{"server_id":143,"name":"Uncletopia | São Paulo | 2 | Community","name_short":"sao-2","host":"sao-2.br.uncletopia.com","port":27015,"enabled":true,"region":"sa","cc":"br","latitude":-23.533773,"longitude":-46.62529,"reserved":0,"last_update":"0001-01-01T00:00:00Z","name_a2s":"Uncletopia | São Paulo | 2 | Community","protocol":17,"map":"workshop/koth_product_final.ugc454272353","folder":"tf","game":"Team Fortress","app_id":440,"player_count":0,"max_players":24,"Bots":0,"server_type":"Dedicated","server_os":"Linux","password":true,"vac":true,"version":"7961495","steam_id":85568392924485349,"keywords":["cp","nocrits","nodmgspread","uncletopia"],"game_id":440,"stv_port":27016,"stv_name":"Uncletopia | São Paulo | 2 | Community | STV","players":null},{"server_id":7,"name":"Uncletopia | Seattle | 1 | All Maps","name_short":"sea-1","host":"sea-1.us.uncletopia.com","port":27015,"enabled":true,"region":"us-west","cc":"us","latitude":47.608013,"longitude":-122.33517,"reserved":0,"last_update":"0001-01-01T00:00:00Z","name_a2s":"Uncletopia | Seattle | 1 | All Maps","protocol":17,"map":"pl_goldrush","folder":"tf","game":"Team Fortress","app_id":440,"player_count":24,"max_players":24,"Bots":0,"server_type":"Dedicated","server_os":"Linux","password":true,"vac":true,"version":"7961495","steam_id":85568392924469997,"keywords":["nocrits","nodmgspread","payload","uncletopia"],"game_id":440,"stv_port":27016,"stv_name":"Uncletopia | Seattle | 1 | All Maps | STV","players":[{"user_id":588,"name":"جرو","steam_id":76561198016562343,"connected_time":201000000000,"state":"active","ping":111},{"user_id":581,"name":"TheBrocklobster","steam_id":76561198039682984,"connected_time":698000000000,"state":"active","ping":84},{"user_id":567,"name":"Ugzugzug The Bucket Mann","steam_id":76561198836624330,"connected_time":1332000000000,"state":"active","ping":90},{"user_id":577,"name":"Lane (She/Her)","steam_id":76561199048555878,"connected_time":1011000000000,"state":"active","ping":45},{"user_id":371,"name":"Nom Skirrett","steam_id":76561198014600788,"connected_time":18927000000000,"state":"active","ping":70},{"user_id":583,"name":"uh pew pew","steam_id":76561198110661425,"connected_time":534000000000,"state":"active","ping":46},{"user_id":590,"name":"Jpzarde","steam_id":76561197978240364,"connected_time":88000000000,"state":"active","ping":85},{"user_id":568,"name":"Amateur Glaswegian","steam_id":76561198030851956,"connected_time":1294000000000,"state":"active","ping":46},{"user_id":550,"name":"wpn_denyselect.wav","steam_id":76561198847372026,"connected_time":3001000000000,"state":"active","ping":51},{"user_id":563,"name":"Tardigrada","steam_id":76561198038936691,"connected_time":1577000000000,"state":"active","ping":45},{"user_id":531,"name":"TROY","steam_id":76561197983852176,"connected_time":4353000000000,"state":"active","ping":76},{"user_id":584,"name":"MONKEY | videogamer1002","steam_id":76561198157110599,"connected_time":497000000000,"state":"active","ping":53},{"user_id":565,"name":"tmm (theManMan)","steam_id":76561199488457138,"connected_time":1365000000000,"state":"active","ping":57},{"user_id":569,"name":"BasedGod","steam_id":76561198061177973,"connected_time":1276000000000,"state":"active","ping":61},{"user_id":589,"name":"Sniff","steam_id":76561198010270922,"connected_time":118000000000,"state":"active","ping":45},{"user_id":586,"name":"V@nn1e","steam_id":76561199099194994,"connected_time":343000000000,"state":"active","ping":113},{"user_id":574,"name":"Arc","steam_id":76561199190149290,"connected_time":1230000000000,"state":"active","ping":48},{"user_id":566,"name":"A bendy straw in disguise","steam_id":76561198257743986,"connected_time":1365000000000,"state":"active","ping":79},{"user_id":533,"name":"jb","steam_id":76561198038607085,"connected_time":4313000000000,"state":"active","ping":121},{"user_id":575,"name":"turtlemanwes","steam_id":76561199119234005,"connected_time":1204000000000,"state":"active","ping":95},{"user_id":587,"name":"BreadQuest","steam_id":76561198082425960,"connected_time":314000000000,"state":"active","ping":45},{"user_id":573,"name":"CreamFreaker","steam_id":76561198320293423,"connected_time":1251000000000,"state":"active","ping":41},{"user_id":579,"name":"RiceFarmer","steam_id":76561198869180993,"connected_time":902000000000,"state":"active","ping":46},{"user_id":580,"name":"HexienRoyal","steam_id":76561199152819830,"connected_time":812000000000,"state":"active","ping":87}]},{"server_id":119,"name":"Uncletopia | Seattle | 2 | All Maps","name_short":"sea-2","host":"sea-1.us.uncletopia.com","port":27025,"enabled":true,"region":"us-west","cc":"us","latitude":47.608013,"longitude":-122.33517,"reserved":0,"last_update":"0001-01-01T00:00:00Z","name_a2s":"Uncletopia | Seattle | 2 | All Maps","protocol":17,"map":"koth_lakeside_final","folder":"tf","game":"Team Fortress","app_id":440,"player_count":23,"max_players":24,"Bots":0,"server_type":"Dedicated","server_os":"Linux","password":true,"vac":true,"version":"7961495","steam_id":85568392924469998,"keywords":["cp","nocrits","nodmgspread","uncletopia"],"game_id":440,"stv_port":27026,"stv_name":"Uncletopia | Seattle | 2 | All Maps | STV","players":[{"user_id":59,"name":"BONER MAN","steam_id":76561198043251593,"connected_time":2387000000000,"state":"active","ping":68},{"user_id":82,"name":"The Horny","steam_id":76561198863639459,"connected_time":487000000000,"state":"active","ping":91},{"user_id":94,"name":"moopmop","steam_id":76561198065224965,"connected_time":167000000000,"state":"active","ping":61},{"user_id":62,"name":"Lyn","steam_id":76561198009656676,"connected_time":2205000000000,"state":"active","ping":65},{"user_id":63,"name":"ThePriceIsRice","steam_id":76561198079069543,"connected_time":2134000000000,"state":"active","ping":60},{"user_id":64,"name":"Weed Pyro (real)","steam_id":76561199388058358,"connected_time":2059000000000,"state":"active","ping":56},{"user_id":65,"name":"[DATS➡] Sugar Meowth","steam_id":76561197995251793,"connected_time":2012000000000,"state":"active","ping":41},{"user_id":67,"name":"dogerich404","steam_id":76561199124102546,"connected_time":1948000000000,"state":"active","ping":78},{"user_id":73,"name":"kiara takanashi","steam_id":76561198110701224,"connected_time":1560000000000,"state":"active","ping":78},{"user_id":75,"name":"GoblinActual","steam_id":76561198330743199,"connected_time":1390000000000,"state":"active","ping":75},{"user_id":89,"name":"Meatball Obsessed Demoman","steam_id":76561198253325844,"connected_time":231000000000,"state":"active","ping":52},{"user_id":71,"name":"CrazyCow","steam_id":76561198097431272,"connected_time":1614000000000,"state":"active","ping":116},{"user_id":77,"name":":(){ :|:\u0026 };:","steam_id":76561198115242460,"connected_time":1119000000000,"state":"active","ping":53},{"user_id":80,"name":"Lonestar827","steam_id":76561198035533639,"connected_time":927000000000,"state":"active","ping":41},{"user_id":85,"name":"A UsedNom","steam_id":76561198402832756,"connected_time":308000000000,"state":"active","ping":61},{"user_id":90,"name":"acornman316","steam_id":76561199159835595,"connected_time":215000000000,"state":"active","ping":122},{"user_id":93,"name":"Ninja_Pandaz","steam_id":76561198387462360,"connected_time":189000000000,"state":"active","ping":97},{"user_id":98,"name":"Nurf_H3rd3r125","steam_id":76561198354783221,"connected_time":123000000000,"state":"active","ping":59},{"user_id":96,"name":"EnragedWaters","steam_id":76561198317135757,"connected_time":145000000000,"state":"active","ping":76},{"user_id":97,"name":"cielael","steam_id":76561198043971956,"connected_time":142000000000,"state":"active","ping":76},{"user_id":99,"name":"chair_sniffer_2004","steam_id":76561197972601902,"connected_time":81000000000,"state":"active","ping":87},{"user_id":100,"name":"PoisonNatascha","steam_id":76561198101353460,"connected_time":65000000000,"state":"active","ping":91},{"user_id":101,"name":"big guapo","steam_id":76561197974493959,"connected_time":9000000000,"state":"spawning","ping":116}]},{"server_id":406,"name":"Uncletopia | Seattle | 3 | Stopwatch","name_short":"sea-3","host":"sea-1.us.uncletopia.com","port":27035,"enabled":true,"region":"us-west","cc":"us","latitude":47.608013,"longitude":-122.33517,"reserved":0,"last_update":"0001-01-01T00:00:00Z","name_a2s":"Uncletopia | Seattle | 3 | Stopwatch","protocol":17,"map":"workshop/koth_ashville_final.ugc2130459942","folder":"tf","game":"Team Fortress","app_id":440,"player_count":0,"max_players":24,"Bots":0,"server_type":"Dedicated","server_os":"Linux","password":true,"vac":true,"version":"7961495","steam_id":85568392924515217,"keywords":["cp","nocrits","nodmgspread","uncletopia"],"game_id":440,"stv_port":27036,"stv_name":"Uncletopia | Seattle | 3 | Stopwatch | STV","players":null},{"server_id":17,"name":"Uncletopia | San Francisco | 1 | All Maps","name_short":"sfo-1","host":"sfo-1.us.uncletopia.com","port":27015,"enabled":true,"region":"us-west","cc":"us","latitude":37.77397,"longitude":-122.4313,"reserved":0,"last_update":"0001-01-01T00:00:00Z","name_a2s":"Uncletopia | San Francisco | 1 | All Maps","protocol":17,"map":"ctf_2fort","folder":"tf","game":"Team Fortress","app_id":440,"player_count":19,"max_players":24,"Bots":0,"server_type":"Dedicated","server_os":"Linux","password":true,"vac":true,"version":"7961495","steam_id":85568392924469999,"keywords":["ctf","nocrits","nodmgspread","uncletopia"],"game_id":440,"stv_port":27016,"stv_name":"Uncletopia | San Francisco | 1 | All Maps | STV","players":[{"user_id":71,"name":"dry itchy scalp","steam_id":76561199132075025,"connected_time":1946000000000,"state":"active","ping":46},{"user_id":82,"name":"mr.edderkopper","steam_id":76561198152614478,"connected_time":684000000000,"state":"active","ping":88},{"user_id":81,"name":"SunkenSole9132","steam_id":76561198359562446,"connected_time":951000000000,"state":"active","ping":75},{"user_id":83,"name":"knatspray","steam_id":76561198832507482,"connected_time":319000000000,"state":"active","ping":65},{"user_id":23,"name":"Kepa","steam_id":76561198091975728,"connected_time":5244000000000,"state":"active","ping":78},{"user_id":59,"name":"PlasticPepsiCan","steam_id":76561199226783116,"connected_time":2966000000000,"state":"active","ping":50},{"user_id":27,"name":"CInnabitch","steam_id":76561198913057497,"connected_time":5034000000000,"state":"active","ping":62},{"user_id":91,"name":"TalphaLL","steam_id":76561198071786358,"connected_time":132000000000,"state":"active","ping":78},{"user_id":88,"name":"Jacob Hornberger 2016","steam_id":76561198204549723,"connected_time":269000000000,"state":"active","ping":91},{"user_id":89,"name":"day6","steam_id":76561198168492250,"connected_time":243000000000,"state":"active","ping":64},{"user_id":37,"name":"liftin'","steam_id":76561199089515791,"connected_time":4351000000000,"state":"active","ping":59},{"user_id":58,"name":"Meh","steam_id":76561198078187920,"connected_time":2990000000000,"state":"active","ping":116},{"user_id":77,"name":"bart","steam_id":76561199100261307,"connected_time":1518000000000,"state":"active","ping":99},{"user_id":69,"name":"-={o.W.n.}=- Dark Murkrow 3","steam_id":76561198174432643,"connected_time":2072000000000,"state":"active","ping":58},{"user_id":90,"name":"greenboy","steam_id":76561199195588623,"connected_time":216000000000,"state":"active","ping":64},{"user_id":65,"name":"GoodleShoes/ttv","steam_id":76561198030993521,"connected_time":2627000000000,"state":"active","ping":108},{"user_id":74,"name":"FALRayne","steam_id":76561198113348816,"connected_time":1664000000000,"state":"active","ping":80},{"user_id":67,"name":"Commander Shrekard","steam_id":76561198124066405,"connected_time":2269000000000,"state":"active","ping":60},{"user_id":48,"name":"medd","steam_id":76561198078238722,"connected_time":3798000000000,"state":"active","ping":67}]},{"server_id":18,"name":"Uncletopia | San Francisco | 2 | All Maps","name_short":"sfo-2","host":"sfo-1.us.uncletopia.com","port":27025,"enabled":true,"region":"us-west","cc":"us","latitude":37.77397,"longitude":-122.4313,"reserved":0,"last_update":"0001-01-01T00:00:00Z","name_a2s":"Uncletopia | San Francisco | 2 | All Maps","protocol":17,"map":"cp_freight_final1","folder":"tf","game":"Team Fortress","app_id":440,"player_count":0,"max_players":24,"Bots":0,"server_type":"Dedicated","server_os":"Linux","password":true,"vac":true,"version":"7961495","steam_id":85568392924470000,"keywords":["cp","nocrits","nodmgspread","uncletopia"],"game_id":440,"stv_port":27026,"stv_name":"Uncletopia | San Francisco | 2 | All Maps | STV","players":null},{"server_id":19,"name":"Uncletopia | San Francisco | 3 | Stopwatch","name_short":"sfo-3","host":"sfo-1.us.uncletopia.com","port":27035,"enabled":true,"region":"us-west","cc":"us","latitude":37.77397,"longitude":-122.4313,"reserved":0,"last_update":"0001-01-01T00:00:00Z","name_a2s":"Uncletopia | San Francisco | 3 | Stopwatch","protocol":17,"map":"workshop/koth_jamram_rc1a.ugc2964065613","folder":"tf","game":"Team Fortress","app_id":440,"player_count":0,"max_players":24,"Bots":0,"server_type":"Dedicated","server_os":"Linux","password":true,"vac":true,"version":"7961495","steam_id":85568392924742824,"keywords":["cp","nocrits","nodmgspread","uncletopia"],"game_id":440,"stv_port":27036,"stv_name":"Uncletopia | San Francisco | 3 | Stopwatch | STV","players":null},{"server_id":20,"name":"Uncletopia | San Francisco | 4 | Community","name_short":"sfo-4","host":"sfo-1.us.uncletopia.com","port":27045,"enabled":true,"region":"us-west","cc":"us","latitude":37.77397,"longitude":-122.4313,"reserved":0,"last_update":"0001-01-01T00:00:00Z","name_a2s":"Uncletopia | San Francisco | 4 | Community","protocol":17,"map":"workshop/pl_cactuscanyon_redux_final2.ugc2579644293","folder":"tf","game":"Team Fortress","app_id":440,"player_count":0,"max_players":24,"Bots":0,"server_type":"Dedicated","server_os":"Linux","password":true,"vac":true,"version":"7961495","steam_id":85568392924742826,"keywords":["nocrits","nodmgspread","payload","uncletopia"],"game_id":440,"stv_port":27046,"stv_name":"Uncletopia | San Francisco | 4 | Community | STV","players":null},{"server_id":141,"name":"Uncletopia | Sydney | 1 | All Maps","name_short":"syd-1","host":"syd-1.au.uncletopia.com","port":27015,"enabled":true,"region":"au","cc":"au","latitude":-33.865143,"longitude":151.2099,"reserved":0,"last_update":"0001-01-01T00:00:00Z","name_a2s":"Uncletopia | Sydney | 1 | All Maps","protocol":17,"map":"koth_nucleus","folder":"tf","game":"Team Fortress","app_id":440,"player_count":0,"max_players":24,"Bots":0,"server_type":"Dedicated","server_os":"Linux","password":true,"vac":true,"version":"7961495","steam_id":85568392924470001,"keywords":["cp","nocrits","nodmgspread","uncletopia"],"game_id":440,"stv_port":27016,"stv_name":"Uncletopia | Sydney | 1 | All Maps | STV","players":null},{"server_id":123,"name":"Uncletopia | Sydney | 2 | All Maps","name_short":"syd-2","host":"syd-1.au.uncletopia.com","port":27025,"enabled":true,"region":"au","cc":"au","latitude":-33.865143,"longitude":151.2099,"reserved":0,"last_update":"0001-01-01T00:00:00Z","name_a2s":"Uncletopia | Sydney | 2 | All Maps","protocol":17,"map":"pl_frontier_final","folder":"tf","game":"Team Fortress","app_id":440,"player_count":0,"max_players":24,"Bots":0,"server_type":"Dedicated","server_os":"Linux","password":true,"vac":true,"version":"7961495","steam_id":85568392924470002,"keywords":["nocrits","nodmgspread","payload","uncletopia"],"game_id":440,"stv_port":27026,"stv_name":"Uncletopia | Sydney | 2 | All Maps | STV","players":null},{"server_id":395,"name":"Uncletopia | Sydney | 3 | All Maps","name_short":"syd-3","host":"syd-1.au.uncletopia.com","port":27035,"enabled":true,"region":"au","cc":"au","latitude":-33.865143,"longitude":151.2099,"reserved":0,"last_update":"0001-01-01T00:00:00Z","name_a2s":"Uncletopia | Sydney | 3 | All Maps","protocol":17,"map":"cp_metalworks","folder":"tf","game":"Team Fortress","app_id":440,"player_count":0,"max_players":24,"Bots":0,"server_type":"Dedicated","server_os":"Linux","password":true,"vac":true,"version":"7961495","steam_id":85568392925194467,"keywords":["cp","nocrits","nodmgspread","uncletopia"],"game_id":440,"stv_port":27036,"stv_name":"Uncletopia | Sydney | 3 | All Maps | STV","players":null},{"server_id":396,"name":"Uncletopia | Sydney | 4 | All Maps","name_short":"syd-4","host":"syd-1.au.uncletopia.com","port":27045,"enabled":true,"region":"au","cc":"au","latitude":-33.865143,"longitude":151.2099,"reserved":0,"last_update":"0001-01-01T00:00:00Z","name_a2s":"Uncletopia | Sydney | 4 | All Maps","protocol":17,"map":"koth_cascade","folder":"tf","game":"Team Fortress","app_id":440,"player_count":0,"max_players":24,"Bots":0,"server_type":"Dedicated","server_os":"Linux","password":true,"vac":true,"version":"7961495","steam_id":85568392925397958,"keywords":["cp","nocrits","nodmgspread","uncletopia"],"game_id":440,"stv_port":27046,"stv_name":"Uncletopia | Sydney | 4 | All Maps | STV","players":null},{"server_id":58,"name":"Uncletopia | Sydney | 5 | Stopwatch","name_short":"syd-5","host":"syd-1.au.uncletopia.com","port":27055,"enabled":true,"region":"au","cc":"au","latitude":-33.865143,"longitude":151.2099,"reserved":0,"last_update":"0001-01-01T00:00:00Z","name_a2s":"Uncletopia | Sydney | 5 | Stopwatch","protocol":17,"map":"workshop/koth_product_final.ugc454272353","folder":"tf","game":"Team Fortress","app_id":440,"player_count":0,"max_players":24,"Bots":0,"server_type":"Dedicated","server_os":"Linux","password":true,"vac":true,"version":"7961495","steam_id":85568392925397959,"keywords":["cp","nocrits","nodmgspread","uncletopia"],"game_id":440,"stv_port":27056,"stv_name":"Uncletopia | Sydney | 5 | Stopwatch | STV","players":null},{"server_id":59,"name":"Uncletopia | Sydney | 6 | Community","name_short":"syd-6","host":"syd-1.au.uncletopia.com","port":27065,"enabled":true,"region":"au","cc":"au","latitude":-33.865143,"longitude":151.2099,"reserved":0,"last_update":"0001-01-01T00:00:00Z","name_a2s":"Uncletopia | Sydney | 6 | Community","protocol":17,"map":"workshop/koth_trenchfoot_ab1.ugc731436616","folder":"tf","game":"Team Fortress","app_id":440,"player_count":0,"max_players":24,"Bots":0,"server_type":"Dedicated","server_os":"Linux","password":true,"vac":true,"version":"7961495","steam_id":85568392925397960,"keywords":["cp","nocrits","nodmgspread","uncletopia"],"game_id":440,"stv_port":27066,"stv_name":"Uncletopia | Sydney | 6 | Community | STV","players":null},{"server_id":49,"name":"Uncletopia | Warsaw | 1 | One Thousand Uncles","name_short":"waw-1","host":"waw-1.pl.uncletopia.com","port":27015,"enabled":true,"region":"eu","cc":"pl","latitude":52.2297,"longitude":21.017532,"reserved":0,"last_update":"0001-01-01T00:00:00Z","name_a2s":"Uncletopia | Warsaw | 1 | One Thousand Uncles","protocol":17,"map":"pl_badwater","folder":"tf","game":"Team Fortress","app_id":440,"player_count":0,"max_players":32,"Bots":0,"server_type":"Dedicated","server_os":"Linux","password":true,"vac":true,"version":"7961495","steam_id":85568392925397850,"keywords":["alltalk","danepve","increased_maxplayers","norespawntime","payload","uncletopia"],"game_id":440,"stv_port":0,"stv_name":"","players":null},{"server_id":50,"name":"Uncletopia | Warsaw | 2 | One Thousand Uncles","name_short":"waw-2","host":"waw-1.pl.uncletopia.com","port":27025,"enabled":true,"region":"eu","cc":"pl","latitude":52.2297,"longitude":21.017532,"reserved":0,"last_update":"0001-01-01T00:00:00Z","name_a2s":"Uncletopia | Warsaw | 2 | One Thousand Uncles","protocol":17,"map":"pl_upward","folder":"tf","game":"Team Fortress","app_id":440,"player_count":0,"max_players":32,"Bots":0,"server_type":"Dedicated","server_os":"Linux","password":true,"vac":true,"version":"7961495","steam_id":85568392925397851,"keywords":["alltalk","danepve","increased_maxplayers","norespawntime","payload","uncletopia"],"game_id":440,"stv_port":0,"stv_name":"","players":null},{"server_id":51,"name":"Uncletopia | Warsaw | 3 | All Maps","name_short":"waw-3","host":"waw-1.pl.uncletopia.com","port":27035,"enabled":true,"region":"eu","cc":"pl","latitude":52.2297,"longitude":21.017532,"reserved":0,"last_update":"0001-01-01T00:00:00Z","name_a2s":"Uncletopia | Warsaw | 3 | All Maps","protocol":17,"map":"cp_sunshine","folder":"tf","game":"Team Fortress","app_id":440,"player_count":0,"max_players":24,"Bots":0,"server_type":"Dedicated","server_os":"Linux","password":true,"vac":true,"version":"7961495","steam_id":85568392925397852,"keywords":["cp","nocrits","nodmgspread","uncletopia"],"game_id":440,"stv_port":27036,"stv_name":"Uncletopia | Warsaw | 3 | All Maps | STV","players":null},{"server_id":52,"name":"Uncletopia | Warsaw | 4 | All Maps","name_short":"waw-4","host":"waw-1.pl.uncletopia.com","port":27045,"enabled":true,"region":"eu","cc":"pl","latitude":52.2297,"longitude":21.017532,"reserved":0,"last_update":"0001-01-01T00:00:00Z","name_a2s":"Uncletopia | Warsaw | 4 | All Maps","protocol":17,"map":"cp_snakewater_final1","folder":"tf","game":"Team Fortress","app_id":440,"player_count":0,"max_players":24,"Bots":0,"server_type":"Dedicated","server_os":"Linux","password":true,"vac":true,"version":"7961495","steam_id":85568392925397853,"keywords":["cp","nocrits","nodmgspread","uncletopia"],"game_id":440,"stv_port":27046,"stv_name":"Uncletopia | Warsaw | 4 | All Maps | STV","players":null},{"server_id":53,"name":"Uncletopia | Warsaw | 5 | Stopwatch","name_short":"waw-5","host":"waw-1.pl.uncletopia.com","port":27055,"enabled":true,"region":"eu","cc":"pl","latitude":52.2297,"longitude":21.017532,"reserved":0,"last_update":"0001-01-01T00:00:00Z","name_a2s":"Uncletopia | Warsaw | 5 | Stopwatch","protocol":17,"map":"workshop/koth_product_final.ugc454272353","folder":"tf","game":"Team Fortress","app_id":440,"player_count":0,"max_players":24,"Bots":0,"server_type":"Dedicated","server_os":"Linux","password":true,"vac":true,"version":"7961495","steam_id":85568392925397854,"keywords":["cp","nocrits","nodmgspread","uncletopia"],"game_id":440,"stv_port":27056,"stv_name":"Uncletopia | Warsaw | 5 | Stopwatch | STV","players":null},{"server_id":54,"name":"Uncletopia | Warsaw | 6 | Community","name_short":"waw-6","host":"waw-1.pl.uncletopia.com","port":27065,"enabled":true,"region":"eu","cc":"pl","latitude":52.2297,"longitude":21.017532,"reserved":0,"last_update":"0001-01-01T00:00:00Z","name_a2s":"Uncletopia | Warsaw | 6 | Community","protocol":17,"map":"workshop/pl_corrode_rc2.ugc546577989","folder":"tf","game":"Team Fortress","app_id":440,"player_count":0,"max_players":24,"Bots":0,"server_type":"Dedicated","server_os":"Linux","password":true,"vac":true,"version":"7961495","steam_id":85568392925397856,"keywords":["nocrits","nodmgspread","payload","uncletopia"],"game_id":440,"stv_port":27066,"stv_name":"Uncletopia | Warsaw | 6 | Community | STV","players":null}]}