{"status":true,"message":"","result":[{"server_id":9,"name":"Uncletopia | Atlanta | 1 | All Maps","name_short":"atl-1","host":"atl-1.us.uncletopia.com","port":27015,"enabled":true,"region":"us-east","cc":"us","latitude":33.753746,"longitude":-84.38633,"reserved":0,"last_update":"0001-01-01T00:00:00Z","name_a2s":"Uncletopia | Atlanta | 1 | All Maps","protocol":17,"map":"pl_badwater","folder":"tf","game":"Team Fortress","app_id":440,"player_count":24,"max_players":24,"Bots":0,"server_type":"Dedicated","server_os":"Linux","password":true,"vac":true,"version":"7757534","steam_id":85568392924469982,"keywords":["nocrits","nodmgspread","payload","uncletopia"],"game_id":440,"stv_port":27016,"stv_name":"Uncletopia | Atlanta | 1 | All Maps | STV","players":[{"user_id":54,"name":"mos","steam_id":76561198146126212,"connected_time":521000000000,"state":"active","ping":54},{"user_id":5,"name":"Quillz","steam_id":76561197996567754,"connected_time":4584000000000,"state":"active","ping":61},{"user_id":37,"name":"OrangeGlazer","steam_id":76561198127358240,"connected_time":2047000000000,"state":"active","ping":61},{"user_id":52,"name":"Nico","steam_id":76561198125701869,"connected_time":664000000000,"state":"active","ping":70},{"user_id":17,"name":"Bagel","steam_id":76561198167747447,"connected_time":2937000000000,"state":"active","ping":86},{"user_id":58,"name":"Violet42","steam_id":76561198072927887,"connected_time":484000000000,"state":"active","ping":65},{"user_id":46,"name":"BLU1 l Epifiny","steam_id":76561198027958086,"connected_time":1598000000000,"state":"active","ping":85},{"user_id":51,"name":"waltuh...","steam_id":76561198085571748,"connected_time":1120000000000,"state":"active","ping":60},{"user_id":19,"name":"shooty","steam_id":76561198128485603,"connected_time":2886000000000,"state":"active","ping":55},{"user_id":22,"name":"Walmart Employee","steam_id":76561198840373909,"connected_time":2547000000000,"state":"active","ping":74},{"user_id":34,"name":"oopsboom24","steam_id":76561199105248648,"connected_time":2086000000000,"state":"active","ping":58},{"user_id":23,"name":"bred","steam_id":76561198063116981,"connected_time":2518000000000,"state":"active","ping":85},{"user_id":25,"name":"TeamWorkOPVolvoleaseNerf","steam_id":76561198135906446,"connected_time":2393000000000,"state":"active","ping":112},{"user_id":48,"name":"Plato the Battle Philosopher","steam_id":76561198000299187,"connected_time":1461000000000,"state":"active","ping":85},{"user_id":32,"name":"X0X2","steam_id":76561198418503762,"connected_time":2109000000000,"state":"active","ping":115},{"user_id":59,"name":"oopsssuck","steam_id":76561199017625000,"connected_time":442000000000,"state":"active","ping":72},{"user_id":29,"name":"WhoWee!","steam_id":76561198269471732,"connected_time":2196000000000,"state":"active","ping":66},{"user_id":30,"name":"conscripted monk","steam_id":76561199029246232,"connected_time":2184000000000,"state":"active","ping":60},{"user_id":45,"name":"Allegedly Angry Adam","steam_id":76561198449656454,"connected_time":1608000000000,"state":"active","ping":80},{"user_id":39,"name":"Zubats |TAOZ|","steam_id":76561198041819445,"connected_time":2020000000000,"state":"active","ping":76},{"user_id":57,"name":"matt","steam_id":76561198151093701,"connected_time":497000000000,"state":"active","ping":88},{"user_id":36,"name":"Pugzilla","steam_id":76561198108088960,"connected_time":2064000000000,"state":"active","ping":48},{"user_id":40,"name":"Jahrris","steam_id":76561198379314675,"connected_time":2011000000000,"state":"active","ping":75},{"user_id":60,"name":"ap","steam_id":76561198202273263,"connected_time":394000000000,"state":"active","ping":64}]},{"server_id":400,"name":"Uncletopia | Atlanta | 3 | Stopwatch Beta","name_short":"atl-3","host":"atl-1.us.uncletopia.com","port":27035,"enabled":true,"region":"us-east","cc":"us","latitude":33.753746,"longitude":-84.38633,"reserved":0,"last_update":"0001-01-01T00:00:00Z","name_a2s":"Uncletopia | Atlanta | 3 | Stopwatch Beta","protocol":17,"map":"pl_upward","folder":"tf","game":"Team Fortress","app_id":440,"player_count":0,"max_players":24,"Bots":0,"server_type":"Dedicated","server_os":"Linux","password":true,"vac":true,"version":"7757534","steam_id":85568392924515187,"keywords":["nocrits","nodmgspread","payload","uncletopia"],"game_id":440,"stv_port":27036,"stv_name":"Uncletopia | Atlanta | 3 | Stopwatch Beta | STV","players":null},{"server_id":401,"name":"Uncletopia | Atlanta | 4 | No Payload","name_short":"atl-4","host":"atl-1.us.uncletopia.com","port":27045,"enabled":true,"region":"us-east","cc":"us","latitude":33.753746,"longitude":-84.38633,"reserved":0,"last_update":"0001-01-01T00:00:00Z","name_a2s":"Uncletopia | Atlanta | 4 | No Payload","protocol":17,"map":"pl_pier","folder":"tf","game":"Team Fortress","app_id":440,"player_count":0,"max_players":24,"Bots":0,"server_type":"Dedicated","server_os":"Linux","password":true,"vac":true,"version":"7723704","steam_id":85568392924515188,"keywords":["nocrits","nodmgspread","payload","uncletopia"],"game_id":440,"stv_port":27046,"stv_name":"Uncletopia | Atlanta | 4 | No Payload | STV","players":null},{"server_id":2,"name":"Uncletopia | Chicago | 1 | All Maps","name_short":"chi-1","host":"chi-1.us.uncletopia.com","port":27015,"enabled":true,"region":"us-central","cc":"us","latitude":41.881832,"longitude":-87.62318,"reserved":0,"last_update":"0001-01-01T00:00:00Z","name_a2s":"Uncletopia | Chicago | 1 | All Maps","protocol":17,"map":"cp_dustbowl","folder":"tf","game":"Team Fortress","app_id":440,"player_count":0,"max_players":24,"Bots":0,"server_type":"Dedicated","server_os":"Linux","password":true,"vac":true,"version":"7757534","steam_id":85568392924469984,"keywords":["cp","nocrits","nodmgspread","uncletopia"],"game_id":440,"stv_port":27016,"stv_name":"Uncletopia | Chicago | 1 | All Maps | STV","players":null},{"server_id":106,"name":"Uncletopia | Chicago | 2 | All Maps","name_short":"chi-2","host":"chi-1.us.uncletopia.com","port":27025,"enabled":true,"region":"us-central","cc":"us","latitude":41.881832,"longitude":-87.62318,"reserved":0,"last_update":"0001-01-01T00:00:00Z","name_a2s":"Uncletopia | Chicago | 2 | All Maps","protocol":17,"map":"pl_badwater","folder":"tf","game":"Team Fortress","app_id":440,"player_count":24,"max_players":24,"Bots":0,"server_type":"Dedicated","server_os":"Linux","password":true,"vac":true,"version":"7757534","steam_id":85568392924469985,"keywords":["nocrits","nodmgspread","payload","uncletopia"],"game_id":440,"stv_port":27026,"stv_name":"Uncletopia | Chicago | 2 | All Maps | STV","players":[{"user_id":143,"name":"M.L.JEW","steam_id":76561198997375055,"connected_time":501000000000,"state":"active","ping":75},{"user_id":130,"name":"Chase McCain","steam_id":76561198314538469,"connected_time":1013000000000,"state":"active","ping":84},{"user_id":144,"name":"wobba wobba","steam_id":76561198249206656,"connected_time":410000000000,"state":"active","ping":61},{"user_id":68,"name":"Provocator","steam_id":76561197961830410,"connected_time":2654000000000,"state":"active","ping":70},{"user_id":122,"name":"azzy","steam_id":76561198127332138,"connected_time":1522000000000,"state":"active","ping":65},{"user_id":135,"name":"Cool Nihilism","steam_id":76561198137000655,"connected_time":741000000000,"state":"active","ping":86},{"user_id":136,"name":"dmdr1969","steam_id":76561198080469611,"connected_time":736000000000,"state":"active","ping":70},{"user_id":71,"name":"indi","steam_id":76561198045917538,"connected_time":2604000000000,"state":"active","ping":45},{"user_id":138,"name":"CurtKrazy","steam_id":76561198058985224,"connected_time":724000000000,"state":"active","ping":106},{"user_id":127,"name":"High Plains Drifter","steam_id":76561198047398433,"connected_time":1208000000000,"state":"active","ping":61},{"user_id":46,"name":"trippingbull419","steam_id":76561199111639935,"connected_time":2943000000000,"state":"active","ping":80},{"user_id":48,"name":"_Lusty_","steam_id":76561198876948142,"connected_time":2919000000000,"state":"active","ping":65},{"user_id":49,"name":"atlas","steam_id":76561198398383076,"connected_time":2917000000000,"state":"active","ping":80},{"user_id":146,"name":"Spearmint","steam_id":76561198134215373,"connected_time":250000000000,"state":"active","ping":77},{"user_id":139,"name":"LiquidDip","steam_id":76561198090529456,"connected_time":708000000000,"state":"active","ping":76},{"user_id":110,"name":"Fuegan Ra","steam_id":76561198287923849,"connected_time":1991000000000,"state":"active","ping":52},{"user_id":102,"name":"Im High","steam_id":76561198049954886,"connected_time":2120000000000,"state":"active","ping":80},{"user_id":140,"name":"PeopleOrderOurPatties","steam_id":76561198323144922,"connected_time":684000000000,"state":"active","ping":58},{"user_id":141,"name":"QuiMoJo","steam_id":76561198122707574,"connected_time":550000000000,"state":"active","ping":84},{"user_id":121,"name":"Mara Roo","steam_id":76561198279341789,"connected_time":1773000000000,"state":"active","ping":70},{"user_id":142,"name":"Boulgus  ᗜˬᗜ","steam_id":76561198149170934,"connected_time":545000000000,"state":"active","ping":61},{"user_id":150,"name":"Turbo Sun Geyser","steam_id":76561198013975080,"connected_time":21000000000,"state":"active","ping":79},{"user_id":129,"name":"LARGE","steam_id":76561198124583948,"connected_time":1193000000000,"state":"active","ping":85},{"user_id":132,"name":"Padre Pat","steam_id":76561198392985381,"connected_time":940000000000,"state":"active","ping":111}]},{"server_id":402,"name":"Uncletopia | Chicago | 3 | All Maps","name_short":"chi-3","host":"chi-1.us.uncletopia.com","port":27035,"enabled":true,"region":"us-central","cc":"us","latitude":41.881832,"longitude":-87.62318,"reserved":0,"last_update":"0001-01-01T00:00:00Z","name_a2s":"Uncletopia | Chicago | 3 | All Maps","protocol":17,"map":"cp_mountainlab","folder":"tf","game":"Team Fortress","app_id":440,"player_count":0,"max_players":24,"Bots":0,"server_type":"Dedicated","server_os":"Linux","password":true,"vac":true,"version":"7757534","steam_id":85568392924515191,"keywords":["cp","nocrits","nodmgspread","uncletopia"],"game_id":440,"stv_port":27036,"stv_name":"Uncletopia | Chicago | 3 | All Maps | STV","players":null},{"server_id":403,"name":"Uncletopia | Chicago | 4 | All Maps","name_short":"chi-4","host":"chi-1.us.uncletopia.com","port":27045,"enabled":true,"region":"us-central","cc":"us","latitude":41.881832,"longitude":-87.62318,"reserved":0,"last_update":"0001-01-01T00:00:00Z","name_a2s":"Uncletopia | Chicago | 4 | All Maps","protocol":17,"map":"pl_borneo","folder":"tf","game":"Team Fortress","app_id":440,"player_count":0,"max_players":24,"Bots":0,"server_type":"Dedicated","server_os":"Linux","password":true,"vac":true,"version":"7757534","steam_id":85568392924515193,"keywords":["nocrits","nodmgspread","payload","uncletopia"],"game_id":440,"stv_port":27046,"stv_name":"Uncletopia | Chicago | 4 | All Maps | STV","players":null},{"server_id":36,"name":"Uncletopia | Chicago | 5 | All Maps","name_short":"chi-5","host":"chi-2.us.uncletopia.com","port":27015,"enabled":true,"region":"us-central","cc":"us","latitude":41.881832,"longitude":-87.62318,"reserved":0,"last_update":"0001-01-01T00:00:00Z","name_a2s":"Uncletopia | Chicago | 5 | All Maps","protocol":17,"map":"koth_cascade","folder":"tf","game":"Team Fortress","app_id":440,"player_count":0,"max_players":24,"Bots":0,"server_type":"Dedicated","server_os":"Linux","password":true,"vac":true,"version":"7757534","steam_id":85568392924866362,"keywords":["cp","nocrits","nodmgspread","uncletopia"],"game_id":440,"stv_port":27016,"stv_name":"Uncletopia | Chicago | 5 | All Maps | STV","players":null},{"server_id":37,"name":"Uncletopia | Chicago | 6 | All Maps","name_short":"chi-6","host":"chi-2.us.uncletopia.com","port":27025,"enabled":true,"region":"us-central","cc":"us","latitude":41.881832,"longitude":-87.62318,"reserved":0,"last_update":"0001-01-01T00:00:00Z","name_a2s":"Uncletopia | Chicago | 6 | All Maps","protocol":17,"map":"cp_mountainlab","folder":"tf","game":"Team Fortress","app_id":440,"player_count":0,"max_players":24,"Bots":0,"server_type":"Dedicated","server_os":"Linux","password":true,"vac":true,"version":"7757534","steam_id":85568392924866363,"keywords":["cp","nocrits","nodmgspread","uncletopia"],"game_id":440,"stv_port":27026,"stv_name":"Uncletopia | Chicago | 6 | All Maps | STV","players":null},{"server_id":38,"name":"Uncletopia | Chicago | 7 | Stopwatch Beta","name_short":"chi-7","host":"chi-2.us.uncletopia.com","port":27035,"enabled":true,"region":"us-central","cc":"us","latitude":41.881832,"longitude":-87.62318,"reserved":0,"last_update":"0001-01-01T00:00:00Z","name_a2s":"Uncletopia | Chicago | 7 | Stopwatch Beta","protocol":17,"map":"cp_sunshine","folder":"tf","game":"Team Fortress","app_id":440,"player_count":0,"max_players":24,"Bots":0,"server_type":"Dedicated","server_os":"Linux","password":true,"vac":true,"version":"7757534","steam_id":85568392924866364,"keywords":["cp","nocrits","nodmgspread","uncletopia"],"game_id":440,"stv_port":27036,"stv_name":"Uncletopia | Chicago | 7 | Stopwatch Beta | STV","players":null},{"server_id":39,"name":"Uncletopia | Chicago | 8 | Community","name_short":"chi-8","host":"chi-2.us.uncletopia.com","port":27045,"enabled":true,"region":"us-central","cc":"us","latitude":41.881832,"longitude":-87.62318,"reserved":0,"last_update":"0001-01-01T00:00:00Z","name_a2s":"Uncletopia | Chicago | 8 | Community","protocol":17,"map":"pl_pier","folder":"tf","game":"Team Fortress","app_id":440,"player_count":0,"max_players":24,"Bots":0,"server_type":"Dedicated","server_os":"Linux","password":true,"vac":true,"version":"7757534","steam_id":85568392924866365,"keywords":["nocrits","nodmgspread","payload","uncletopia"],"game_id":440,"stv_port":27046,"stv_name":"Uncletopia | Chicago | 8 | Community | STV","players":null},{"server_id":8,"name":"Uncletopia | Dallas | 1 | All Maps","name_short":"dal-1","host":"dal-1.us.uncletopia.com","port":27015,"enabled":true,"region":"us-central","cc":"us","latitude":32.779167,"longitude":-96.80889,"reserved":0,"last_update":"0001-01-01T00:00:00Z","name_a2s":"Uncletopia | Dallas | 1 | All Maps","protocol":17,"map":"pl_badwater","folder":"tf","game":"Team Fortress","app_id":440,"player_count":0,"max_players":24,"Bots":0,"server_type":"Dedicated","server_os":"Linux","password":true,"vac":true,"version":"7757534","steam_id":85568392924469986,"keywords":["nocrits","nodmgspread","payload","uncletopia"],"game_id":440,"stv_port":27016,"stv_name":"Uncletopia | Dallas | 1 | All Maps | STV","players":null},{"server_id":108,"name":"Uncletopia | Dallas | 2 | All Maps","name_short":"dal-2","host":"dal-1.us.uncletopia.com","port":27025,"enabled":true,"region":"us-central","cc":"us","latitude":32.779167,"longitude":-96.80889,"reserved":0,"last_update":"0001-01-01T00:00:00Z","name_a2s":"Uncletopia | Dallas | 2 | All Maps","protocol":17,"map":"koth_highpass","folder":"tf","game":"Team Fortress","app_id":440,"player_count":0,"max_players":24,"Bots":0,"server_type":"Dedicated","server_os":"Linux","password":true,"vac":true,"version":"7757534","steam_id":85568392924469988,"keywords":["cp","nocrits","nodmgspread","uncletopia"],"game_id":440,"stv_port":27026,"stv_name":"Uncletopia | Dallas | 2 | All Maps | STV","players":null},{"server_id":5,"name":"Uncletopia | Frankfurt | 1 | All Maps","name_short":"frk-1","host":"frk-1.de.uncletopia.com","port":27015,"enabled":true,"region":"eu","cc":"de","latitude":50.110924,"longitude":8.682127,"reserved":0,"last_update":"0001-01-01T00:00:00Z","name_a2s":"Uncletopia | Frankfurt | 1 | All Maps","protocol":17,"map":"koth_lakeside_final","folder":"tf","game":"Team Fortress","app_id":440,"player_count":0,"max_players":24,"Bots":0,"server_type":"Dedicated","server_os":"Linux","password":true,"vac":true,"version":"7757534","steam_id":85568392924469989,"keywords":["cp","nocrits","nodmgspread","uncletopia"],"game_id":440,"stv_port":27016,"stv_name":"Uncletopia | Frankfurt | 1 | All Maps | STV","players":null},{"server_id":110,"name":"Uncletopia | Frankfurt | 2 | All Maps","name_short":"frk-2","host":"frk-1.de.uncletopia.com","port":27025,"enabled":true,"region":"eu","cc":"de","latitude":50.110924,"longitude":8.682127,"reserved":0,"last_update":"0001-01-01T00:00:00Z","name_a2s":"Uncletopia | Frankfurt | 2 | All Maps","protocol":17,"map":"pl_borneo","folder":"tf","game":"Team Fortress","app_id":440,"player_count":24,"max_players":24,"Bots":0,"server_type":"Dedicated","server_os":"Linux","password":true,"vac":true,"version":"7757534","steam_id":85568392924469990,"keywords":["nocrits","nodmgspread","payload","uncletopia"],"game_id":440,"stv_port":27026,"stv_name":"Uncletopia | Frankfurt | 2 | All Maps | STV","players":[{"user_id":158,"name":"Hedgehog_TV","steam_id":76561199142334511,"connected_time":551000000000,"state":"active","ping":61},{"user_id":159,"name":"Korrwus","steam_id":76561198099710300,"connected_time":519000000000,"state":"active","ping":72},{"user_id":166,"name":"The Sexiest Frenchman","steam_id":76561199137416250,"connected_time":336000000000,"state":"active","ping":59},{"user_id":152,"name":"☢ Stalker ☢","steam_id":76561198147879113,"connected_time":1049000000000,"state":"active","ping":68},{"user_id":95,"name":"SirBacon","steam_id":76561198152177773,"connected_time":4931000000000,"state":"active","ping":71},{"user_id":164,"name":"wertiop","steam_id":76561198260627072,"connected_time":401000000000,"state":"active","ping":97},{"user_id":122,"name":"NIKITA","steam_id":76561197992927989,"connected_time":3385000000000,"state":"active","ping":90},{"user_id":101,"name":"Littleyoshifan","steam_id":76561198445491045,"connected_time":4661000000000,"state":"active","ping":53},{"user_id":142,"name":"MSPaintbrush","steam_id":76561198119987705,"connected_time":1684000000000,"state":"active","ping":62},{"user_id":160,"name":"Fizzing Fool","steam_id":76561198425415033,"connected_time":502000000000,"state":"active","ping":104},{"user_id":73,"name":"Penis Contortionist","steam_id":76561198073663784,"connected_time":7282000000000,"state":"active","ping":49},{"user_id":128,"name":"I-I","steam_id":76561198267969436,"connected_time":2943000000000,"state":"active","ping":67},{"user_id":167,"name":"Germanium_Ge","steam_id":76561198130561775,"connected_time":22000000000,"state":"active","ping":64},{"user_id":165,"name":"SODA!!!!!!!","steam_id":76561198107362485,"connected_time":346000000000,"state":"active","ping":61},{"user_id":154,"name":"Taez","steam_id":76561198261820803,"connected_time":728000000000,"state":"active","ping":74},{"user_id":161,"name":"Guwop","steam_id":76561197970425737,"connected_time":484000000000,"state":"active","ping":166},{"user_id":153,"name":"KeanuCheems","steam_id":76561198145580689,"connected_time":1004000000000,"state":"active","ping":70},{"user_id":109,"name":"estrogen deliver","steam_id":76561198190259726,"connected_time":4610000000000,"state":"active","ping":81},{"user_id":140,"name":"Albon","steam_id":76561198060378881,"connected_time":1785000000000,"state":"active","ping":58},{"user_id":90,"name":"Banana","steam_id":76561198155118706,"connected_time":6174000000000,"state":"active","ping":105},{"user_id":148,"name":"fallingpencil","steam_id":76561199230233148,"connected_time":1493000000000,"state":"active","ping":68},{"user_id":76,"name":"Melon","steam_id":76561198150893860,"connected_time":7070000000000,"state":"active","ping":63},{"user_id":108,"name":"kbbq","steam_id":76561198346638308,"connected_time":4616000000000,"state":"active","ping":59},{"user_id":147,"name":"ToniGAM3S","steam_id":76561198128605351,"connected_time":1570000000000,"state":"active","ping":60}]},{"server_id":308,"name":"Uncletopia | Frankfurt | 3 | All Maps","name_short":"frk-3","host":"frk-1.de.uncletopia.com","port":27035,"enabled":true,"region":"eu","cc":"de","latitude":50.110924,"longitude":8.682127,"reserved":0,"last_update":"0001-01-01T00:00:00Z","name_a2s":"Uncletopia | Frankfurt | 3 | All Maps","protocol":17,"map":"koth_lakeside_final","folder":"tf","game":"Team Fortress","app_id":440,"player_count":0,"max_players":24,"Bots":0,"server_type":"Dedicated","server_os":"Linux","password":true,"vac":true,"version":"7757534","steam_id":85568392924504274,"keywords":["cp","nocrits","nodmgspread","uncletopia"],"game_id":440,"stv_port":27036,"stv_name":"Uncletopia | Frankfurt | 3 | All Maps | STV","players":null},{"server_id":309,"name":"Uncletopia | Frankfurt | 4 | All Maps","name_short":"frk-4","host":"frk-1.de.uncletopia.com","port":27045,"enabled":true,"region":"eu","cc":"de","latitude":50.110924,"longitude":8.682127,"reserved":0,"last_update":"0001-01-01T00:00:00Z","name_a2s":"Uncletopia | Frankfurt | 4 | All Maps","protocol":17,"map":"pl_badwater","folder":"tf","game":"Team Fortress","app_id":440,"player_count":24,"max_players":24,"Bots":0,"server_type":"Dedicated","server_os":"Linux","password":true,"vac":true,"version":"7757534","steam_id":85568392924504275,"keywords":["nocrits","nodmgspread","payload","uncletopia"],"game_id":440,"stv_port":27046,"stv_name":"Uncletopia | Frankfurt | 4 | All Maps | STV","players":[{"user_id":272,"name":"2D","steam_id":76561199113659141,"connected_time":129000000000,"state":"active","ping":153},{"user_id":267,"name":"disaster girl","steam_id":76561198058012525,"connected_time":563000000000,"state":"active","ping":68},{"user_id":229,"name":"Petroklos","steam_id":76561198002093325,"connected_time":3759000000000,"state":"active","ping":91},{"user_id":253,"name":"Rainlamp @SaveTF2","steam_id":76561198007394958,"connected_time":2452000000000,"state":"active","ping":69},{"user_id":271,"name":"somehow danced","steam_id":76561198128250460,"connected_time":142000000000,"state":"active","ping":100},{"user_id":235,"name":"big hoops","steam_id":76561198004703799,"connected_time":3645000000000,"state":"active","ping":52},{"user_id":217,"name":"MAJAX","steam_id":76561198254828632,"connected_time":4330000000000,"state":"active","ping":48},{"user_id":264,"name":"oepidus","steam_id":76561198963841479,"connected_time":680000000000,"state":"active","ping":78},{"user_id":214,"name":"sysanin","steam_id":76561198056649495,"connected_time":4781000000000,"state":"active","ping":86},{"user_id":270,"name":"timmyhennessy87","steam_id":76561199468142263,"connected_time":158000000000,"state":"active","ping":579},{"user_id":256,"name":"giorno giovanna","steam_id":76561198993161087,"connected_time":1806000000000,"state":"active","ping":47},{"user_id":234,"name":"Greenmaker","steam_id":76561198060466591,"connected_time":3678000000000,"state":"active","ping":76},{"user_id":248,"name":"Sarge","steam_id":76561198045435543,"connected_time":3031000000000,"state":"active","ping":70},{"user_id":273,"name":"KajaStorm","steam_id":76561199215842872,"connected_time":128000000000,"state":"active","ping":155},{"user_id":255,"name":"Krauserik7","steam_id":76561198263204577,"connected_time":2188000000000,"state":"active","ping":83},{"user_id":274,"name":"Soulman25 (FIN)","steam_id":76561198103611974,"connected_time":78000000000,"state":"active","ping":98},{"user_id":242,"name":"Bullet","steam_id":76561198827294634,"connected_time":3499000000000,"state":"active","ping":63},{"user_id":260,"name":"ALARM","steam_id":76561198120686521,"connected_time":1094000000000,"state":"active","ping":48},{"user_id":245,"name":"lyudmilakh","steam_id":76561198362779878,"connected_time":3359000000000,"state":"active","ping":88},{"user_id":262,"name":"Pipper","steam_id":76561197970326616,"connected_time":991000000000,"state":"active","ping":49},{"user_id":176,"name":"dirty","steam_id":76561197995572935,"connected_time":7768000000000,"state":"active","ping":79},{"user_id":247,"name":"Bogdan Evercursed","steam_id":76561198091945707,"connected_time":3170000000000,"state":"active","ping":69},{"user_id":218,"name":"Homosapien","steam_id":76561197972035953,"connected_time":4329000000000,"state":"active","ping":44},{"user_id":268,"name":"Kruthal","steam_id":76561198245726582,"connected_time":561000000000,"state":"active","ping":74}]},{"server_id":310,"name":"Uncletopia | Frankfurt | 5 | All Maps","name_short":"frk-5","host":"frk-1.de.uncletopia.com","port":27055,"enabled":true,"region":"eu","cc":"de","latitude":50.110924,"longitude":8.682127,"reserved":0,"last_update":"0001-01-01T00:00:00Z","name_a2s":"Uncletopia | Frankfurt | 5 | All Maps","protocol":17,"map":"plr_pipeline","folder":"tf","game":"Team Fortress","app_id":440,"player_count":22,"max_players":24,"Bots":0,"server_type":"Dedicated","server_os":"Linux","password":true,"vac":true,"version":"7757534","steam_id":85568392924504277,"keywords":["nocrits","nodmgspread","payload","uncletopia"],"game_id":440,"stv_port":27056,"stv_name":"Uncletopia | Frankfurt | 5 | All Maps | STV","players":[{"user_id":93,"name":"AtaTheMen","steam_id":76561199310425804,"connected_time":104000000000,"state":"active","ping":177},{"user_id":13,"name":"blurst of times","steam_id":76561197972325640,"connected_time":4400000000000,"state":"active","ping":55},{"user_id":50,"name":"Alegz","steam_id":76561198287810139,"connected_time":2910000000000,"state":"active","ping":53},{"user_id":86,"name":"Aqua188","steam_id":76561198817772963,"connected_time":222000000000,"state":"active","ping":113},{"user_id":88,"name":"Dispenser (Lopata)","steam_id":76561198820264239,"connected_time":204000000000,"state":"active","ping":83},{"user_id":89,"name":"coPe","steam_id":76561198869055760,"connected_time":203000000000,"state":"active","ping":611},{"user_id":90,"name":"clipsy11","steam_id":76561199185851191,"connected_time":196000000000,"state":"active","ping":64},{"user_id":71,"name":"Exe_Red","steam_id":76561198154952759,"connected_time":887000000000,"state":"active","ping":75},{"user_id":91,"name":"the real lancer from deltarune","steam_id":76561199078505144,"connected_time":182000000000,"state":"active","ping":76},{"user_id":94,"name":"jr_rusty","steam_id":76561198313937899,"connected_time":82000000000,"state":"active","ping":248},{"user_id":82,"name":"chr","steam_id":76561198073016365,"connected_time":408000000000,"state":"active","ping":75},{"user_id":66,"name":"Sylbar","steam_id":76561198065379590,"connected_time":1109000000000,"state":"active","ping":61},{"user_id":62,"name":"Acidpets","steam_id":76561198875421227,"connected_time":1338000000000,"state":"active","ping":60},{"user_id":76,"name":"Laki","steam_id":76561198126078953,"connected_time":580000000000,"state":"active","ping":104},{"user_id":40,"name":"gay","steam_id":76561198145288109,"connected_time":3179000000000,"state":"active","ping":84},{"user_id":41,"name":"Braciola","steam_id":76561198036779196,"connected_time":3164000000000,"state":"active","ping":81},{"user_id":74,"name":"w4gthp0h","steam_id":76561198133193445,"connected_time":601000000000,"state":"active","ping":82},{"user_id":83,"name":"Fuf!k ღ","steam_id":76561198082899416,"connected_time":395000000000,"state":"active","ping":69},{"user_id":95,"name":"HeloOo_per The Communist","steam_id":76561199099995357,"connected_time":30000000000,"state":"spawning","ping":64},{"user_id":96,"name":"Hangaro","steam_id":76561198045849684,"connected_time":2000000000,"state":"spawning","ping":84},{"user_id":81,"name":"eSmiley","steam_id":76561198362878801,"connected_time":428000000000,"state":"active","ping":136},{"user_id":70,"name":"clems17","steam_id":76561199420685482,"connected_time":984000000000,"state":"active","ping":59}]},{"server_id":311,"name":"Uncletopia | Frankfurt | 6 | All Maps","name_short":"frk-6","host":"frk-1.de.uncletopia.com","port":27065,"enabled":true,"region":"eu","cc":"de","latitude":50.110924,"longitude":8.682127,"reserved":0,"last_update":"0001-01-01T00:00:00Z","name_a2s":"Uncletopia | Frankfurt | 6 | All Maps","protocol":17,"map":"koth_highpass","folder":"tf","game":"Team Fortress","app_id":440,"player_count":0,"max_players":24,"Bots":0,"server_type":"Dedicated","server_os":"Linux","password":true,"vac":true,"version":"7757534","steam_id":85568392924504278,"keywords":["cp","nocrits","nodmgspread","uncletopia"],"game_id":440,"stv_port":27066,"stv_name":"Uncletopia | Frankfurt | 6 | All Maps | STV","players":null},{"server_id":23,"name":"Uncletopia | Frankfurt | 7 | Stopwatch Beta","name_short":"frk-7","host":"frk-1.de.uncletopia.com","port":27075,"enabled":true,"region":"eu","cc":"de","latitude":50.110924,"longitude":8.682127,"reserved":0,"last_update":"0001-01-01T00:00:00Z","name_a2s":"Uncletopia | Frankfurt | 7 | Stopwatch Beta","protocol":17,"map":"pl_borneo","folder":"tf","game":"Team Fortress","app_id":440,"player_count":0,"max_players":24,"Bots":0,"server_type":"Dedicated","server_os":"Linux","password":true,"vac":true,"version":"7757534","steam_id":85568392924742827,"keywords":["nocrits","nodmgspread","payload","uncletopia"],"game_id":440,"stv_port":27076,"stv_name":"Uncletopia | Frankfurt | 7 | Stopwatch Beta | STV","players":null},{"server_id":24,"name":"Uncletopia | Frankfurt | 8 | Community","name_short":"frk-8","host":"frk-1.de.uncletopia.com","port":27085,"enabled":true,"region":"eu","cc":"de","latitude":50.110924,"longitude":8.682127,"reserved":0,"last_update":"0001-01-01T00:00:00Z","name_a2s":"Uncletopia | Frankfurt | 8 | Community","protocol":17,"map":"koth_cascade","folder":"tf","game":"Team Fortress","app_id":440,"player_count":0,"max_players":24,"Bots":0,"server_type":"Dedicated","server_os":"Linux","password":true,"vac":true,"version":"7757534","steam_id":85568392924742828,"keywords":["cp","nocrits","nodmgspread","uncletopia"],"game_id":440,"stv_port":27086,"stv_name":"Uncletopia | Frankfurt | 8 | Community | STV","players":null},{"server_id":202,"name":"Uncletopia | Hong Kong | 1 | All Maps","name_short":"hgk-1","host":"hgk-1.hk.uncletopia.com","port":27015,"enabled":true,"region":"asia","cc":"hk","latitude":22.302711,"longitude":114.177216,"reserved":0,"last_update":"0001-01-01T00:00:00Z","name_a2s":"Uncletopia | Hong Kong | 1 | All Maps","protocol":17,"map":"pl_badwater","folder":"tf","game":"Team Fortress","app_id":440,"player_count":11,"max_players":24,"Bots":0,"server_type":"Dedicated","server_os":"Linux","password":true,"vac":true,"version":"7757534","steam_id":85568392924494504,"keywords":["nocrits","nodmgspread","payload","uncletopia"],"game_id":440,"stv_port":27016,"stv_name":"Uncletopia | Hong Kong | 1 | All Maps | STV","players":[{"user_id":399,"name":"cucumber","steam_id":76561198157549908,"connected_time":160000000000,"state":"active","ping":102},{"user_id":396,"name":"Nice","steam_id":76561199180653046,"connected_time":651000000000,"state":"active","ping":127},{"user_id":388,"name":"why must you treat me this way","steam_id":76561199146847474,"connected_time":1784000000000,"state":"active","ping":66},{"user_id":398,"name":"Pizza_Jammies1345","steam_id":76561199228950246,"connected_time":208000000000,"state":"active","ping":160},{"user_id":363,"name":"Talkk More","steam_id":76561198305424433,"connected_time":4747000000000,"state":"active","ping":97},{"user_id":362,"name":"Bertengkar","steam_id":76561198213031155,"connected_time":4768000000000,"state":"active","ping":93},{"user_id":317,"name":"Vortex Morez","steam_id":76561198833527091,"connected_time":9871000000000,"state":"active","ping":100},{"user_id":395,"name":"moguizhong","steam_id":76561198152588681,"connected_time":814000000000,"state":"active","ping":90},{"user_id":384,"name":"killman47","steam_id":76561198348487408,"connected_time":2946000000000,"state":"active","ping":39},{"user_id":385,"name":"calebisjk","steam_id":76561198380010286,"connected_time":2943000000000,"state":"active","ping":65},{"user_id":386,"name":"母の肉団子","steam_id":76561198069561896,"connected_time":2301000000000,"state":"active","ping":32}]},{"server_id":1,"name":"Uncletopia | Los Angeles | 1 | All Maps","name_short":"lax-1","host":"lax-1.us.uncletopia.com","port":27015,"enabled":true,"region":"us-west","cc":"us","latitude":33.94279,"longitude":-118.41004,"reserved":0,"last_update":"0001-01-01T00:00:00Z","name_a2s":"Uncletopia | Los Angeles | 1 | All Maps","protocol":17,"map":"pl_swiftwater_final1","folder":"tf","game":"Team Fortress","app_id":440,"player_count":0,"max_players":24,"Bots":0,"server_type":"Dedicated","server_os":"Linux","password":true,"vac":true,"version":"7757534","steam_id":85568392924469991,"keywords":["nocrits","nodmgspread","payload","uncletopia"],"game_id":440,"stv_port":27016,"stv_name":"Uncletopia | Los Angeles | 1 | All Maps | STV","players":null},{"server_id":112,"name":"Uncletopia | Los Angeles | 2 | All Maps","name_short":"lax-2","host":"lax-1.us.uncletopia.com","port":27025,"enabled":true,"region":"us-west","cc":"us","latitude":33.94279,"longitude":-118.41004,"reserved":0,"last_update":"0001-01-01T00:00:00Z","name_a2s":"Uncletopia | Los Angeles | 2 | All Maps","protocol":17,"map":"cp_mountainlab","folder":"tf","game":"Team Fortress","app_id":440,"player_count":0,"max_players":24,"Bots":0,"server_type":"Dedicated","server_os":"Linux","password":true,"vac":true,"version":"7757534","steam_id":85568392924469992,"keywords":["cp","nocrits","nodmgspread","uncletopia"],"game_id":440,"stv_port":27026,"stv_name":"Uncletopia | Los Angeles | 2 | All Maps | STV","players":null},{"server_id":324,"name":"Uncletopia | Los Angeles | 3 | All Maps","name_short":"lax-3","host":"lax-1.us.uncletopia.com","port":27035,"enabled":true,"region":"us-west","cc":"us","latitude":33.94279,"longitude":-118.41004,"reserved":0,"last_update":"0001-01-01T00:00:00Z","name_a2s":"Uncletopia | Los Angeles | 3 | All Maps","protocol":17,"map":"cp_mountainlab","folder":"tf","game":"Team Fortress","app_id":440,"player_count":0,"max_players":24,"Bots":0,"server_type":"Dedicated","server_os":"Linux","password":true,"vac":true,"version":"7757534","steam_id":85568392924510198,"keywords":["cp","nocrits","nodmgspread","uncletopia"],"game_id":440,"stv_port":27036,"stv_name":"Uncletopia | Los Angeles | 3 | All Maps | STV","players":null},{"server_id":25,"name":"Uncletopia | Los Angeles | 4 | Stopwatch Beta","name_short":"lax-4","host":"lax-1.us.uncletopia.com","port":27045,"enabled":true,"region":"us-west","cc":"us","latitude":33.94279,"longitude":-118.41004,"reserved":0,"last_update":"0001-01-01T00:00:00Z","name_a2s":"Uncletopia | Los Angeles | 4 | Stopwatch Beta","protocol":17,"map":"koth_viaduct","folder":"tf","game":"Team Fortress","app_id":440,"player_count":0,"max_players":24,"Bots":0,"server_type":"Dedicated","server_os":"Linux","password":true,"vac":true,"version":"7757534","steam_id":85568392924510199,"keywords":["cp","nocrits","nodmgspread","uncletopia"],"game_id":440,"stv_port":27046,"stv_name":"Uncletopia | Los Angeles | 4 | Stopwatch Beta | STV","players":null},{"server_id":11,"name":"Uncletopia | London | 1 | All Maps","name_short":"lon-1","host":"lon-1.uk.uncletopia.com","port":27015,"enabled":true,"region":"eu","cc":"gb","latitude":51.509865,"longitude":-0.118092,"reserved":0,"last_update":"0001-01-01T00:00:00Z","name_a2s":"Uncletopia | London | 1 | All Maps","protocol":17,"map":"pl_borneo","folder":"tf","game":"Team Fortress","app_id":440,"player_count":24,"max_players":24,"Bots":0,"server_type":"Dedicated","server_os":"Linux","password":true,"vac":true,"version":"7757534","steam_id":85568392924367362,"keywords":["nocrits","nodmgspread","payload","uncletopia"],"game_id":440,"stv_port":27016,"stv_name":"Uncletopia | London | 1 | All Maps | STV","players":[{"user_id":573,"name":"Oak","steam_id":76561198067315672,"connected_time":2467000000000,"state":"active","ping":44},{"user_id":599,"name":"N3Q","steam_id":76561198992326520,"connected_time":168000000000,"state":"active","ping":61},{"user_id":598,"name":"1couver","steam_id":76561198168553215,"connected_time":249000000000,"state":"active","ping":100},{"user_id":594,"name":"0","steam_id":76561198267909207,"connected_time":714000000000,"state":"active","ping":91},{"user_id":593,"name":"Neko-femboy Maid","steam_id":76561198445739792,"connected_time":1132000000000,"state":"active","ping":130},{"user_id":555,"name":"✪ qua ✪","steam_id":76561198066408333,"connected_time":4442000000000,"state":"active","ping":80},{"user_id":586,"name":"Rambi","steam_id":76561199058078505,"connected_time":1336000000000,"state":"active","ping":170},{"user_id":589,"name":"Datenegassie","steam_id":76561198089417032,"connected_time":1273000000000,"state":"active","ping":57},{"user_id":575,"name":"big retard player","steam_id":76561198342570528,"connected_time":2170000000000,"state":"active","ping":67},{"user_id":558,"name":"Zombi3","steam_id":76561198326290621,"connected_time":4345000000000,"state":"active","ping":61},{"user_id":596,"name":"Nifi","steam_id":76561198102682566,"connected_time":271000000000,"state":"active","ping":75},{"user_id":585,"name":"Jack","steam_id":76561198325505238,"connected_time":1421000000000,"state":"active","ping":85},{"user_id":561,"name":"Bostrash641","steam_id":76561199447225685,"connected_time":4074000000000,"state":"active","ping":73},{"user_id":570,"name":"ciliorkun18","steam_id":76561198228942500,"connected_time":2891000000000,"state":"active","ping":102},{"user_id":603,"name":"Whizzo","steam_id":76561198058762428,"connected_time":40000000000,"state":"active","ping":56},{"user_id":571,"name":"Rops","steam_id":76561198031608011,"connected_time":2736000000000,"state":"active","ping":91},{"user_id":549,"name":"Sneaky boi","steam_id":76561199195985387,"connected_time":4984000000000,"state":"active","ping":93},{"user_id":597,"name":"Jag är ett anka","steam_id":76561198059978438,"connected_time":259000000000,"state":"active","ping":51},{"user_id":590,"name":"blue","steam_id":76561198216200092,"connected_time":1255000000000,"state":"active","ping":47},{"user_id":556,"name":"nudjura","steam_id":76561198281986139,"connected_time":4441000000000,"state":"active","ping":45},{"user_id":601,"name":"Accident","steam_id":76561198115160396,"connected_time":153000000000,"state":"active","ping":74},{"user_id":604,"name":"joe","steam_id":76561198026484403,"connected_time":24000000000,"state":"spawning","ping":59},{"user_id":552,"name":"Wuffington","steam_id":76561198033762881,"connected_time":4468000000000,"state":"active","ping":35}]},{"server_id":114,"name":"Uncletopia | London | 2 | All Maps","name_short":"lon-2","host":"lon-1.uk.uncletopia.com","port":27025,"enabled":true,"region":"eu","cc":"gb","latitude":51.509865,"longitude":-0.118092,"reserved":0,"last_update":"0001-01-01T00:00:00Z","name_a2s":"Uncletopia | London | 2 | All Maps","protocol":17,"map":"pl_upward","folder":"tf","game":"Team Fortress","app_id":440,"player_count":24,"max_players":24,"Bots":0,"server_type":"Dedicated","server_os":"Linux","password":true,"vac":true,"version":"7757534","steam_id":85568392924470941,"keywords":["nocrits","nodmgspread","payload","uncletopia"],"game_id":440,"stv_port":27026,"stv_name":"Uncletopia | London | 2 | All Maps | STV","players":[{"user_id":453,"name":"JeanCorben","steam_id":76561197965133561,"connected_time":1124000000000,"state":"active","ping":39},{"user_id":471,"name":"spy","steam_id":76561198364943570,"connected_time":69000000000,"state":"active","ping":131},{"user_id":390,"name":"Vampire tampon","steam_id":76561198042593027,"connected_time":5756000000000,"state":"active","ping":97},{"user_id":468,"name":"Mb","steam_id":76561197988871428,"connected_time":233000000000,"state":"active","ping":44},{"user_id":458,"name":"Literally a Trans Woman","steam_id":76561198054639925,"connected_time":484000000000,"state":"active","ping":104},{"user_id":455,"name":"CoZzH","steam_id":76561198818045037,"connected_time":590000000000,"state":"active","ping":56},{"user_id":440,"name":"majora's boostio","steam_id":76561198392628642,"connected_time":1977000000000,"state":"active","ping":34},{"user_id":456,"name":"homeinvasion$","steam_id":76561199111905021,"connected_time":589000000000,"state":"active","ping":114},{"user_id":459,"name":"ショタコン","steam_id":76561198260285179,"connected_time":465000000000,"state":"active","ping":93},{"user_id":470,"name":"Noob_with_source","steam_id":76561198870362103,"connected_time":182000000000,"state":"active","ping":59},{"user_id":460,"name":"fregaropa","steam_id":76561198150806166,"connected_time":448000000000,"state":"active","ping":87},{"user_id":434,"name":"Shadowlenox","steam_id":76561198061332068,"connected_time":2582000000000,"state":"active","ping":68},{"user_id":450,"name":"Nish","steam_id":76561197996068735,"connected_time":1355000000000,"state":"active","ping":79},{"user_id":467,"name":"fmdi","steam_id":76561199433879329,"connected_time":324000000000,"state":"active","ping":72},{"user_id":452,"name":"iuSDIB8+ ň7","steam_id":76561198363768590,"connected_time":1322000000000,"state":"active","ping":76},{"user_id":462,"name":"generic alias","steam_id":76561198271607226,"connected_time":392000000000,"state":"active","ping":86},{"user_id":442,"name":"jill valentine","steam_id":76561198075068529,"connected_time":1919000000000,"state":"active","ping":67},{"user_id":447,"name":"loveless","steam_id":76561198142256651,"connected_time":1547000000000,"state":"active","ping":84},{"user_id":443,"name":"E1s (Neo-Kemalist)","steam_id":76561198894958917,"connected_time":1855000000000,"state":"active","ping":45},{"user_id":363,"name":"tactical783","steam_id":76561199051688560,"connected_time":7927000000000,"state":"active","ping":67},{"user_id":463,"name":"Michael","steam_id":76561198003146906,"connected_time":388000000000,"state":"active","ping":38},{"user_id":465,"name":"Nanitus","steam_id":76561198241772340,"connected_time":369000000000,"state":"active","ping":112},{"user_id":472,"name":"Dark Souls Reference","steam_id":76561198094102747,"connected_time":29000000000,"state":"active","ping":63},{"user_id":420,"name":"Melon","steam_id":76561198085630318,"connected_time":3277000000000,"state":"active","ping":46}]},{"server_id":320,"name":"Uncletopia | London | 3 | All Maps","name_short":"lon-3","host":"lon-1.uk.uncletopia.com","port":27035,"enabled":true,"region":"eu","cc":"gb","latitude":51.509865,"longitude":-0.118092,"reserved":0,"last_update":"0001-01-01T00:00:00Z","name_a2s":"Uncletopia | London | 3 | All Maps","protocol":17,"map":"pl_barnblitz","folder":"tf","game":"Team Fortress","app_id":440,"player_count":23,"max_players":24,"Bots":0,"server_type":"Dedicated","server_os":"Linux","password":true,"vac":true,"version":"7757534","steam_id":85568392924510192,"keywords":["nocrits","nodmgspread","payload","uncletopia"],"game_id":440,"stv_port":27036,"stv_name":"Uncletopia | London | 3 | All Maps | STV","players":[{"user_id":313,"name":"Dooble donk man look at me donk","steam_id":76561198225523596,"connected_time":755000000000,"state":"active","ping":55},{"user_id":297,"name":"Muffin Queen","steam_id":76561198057836492,"connected_time":1740000000000,"state":"active","ping":53},{"user_id":317,"name":"Plubu","steam_id":76561198082511092,"connected_time":82000000000,"state":"active","ping":109},{"user_id":299,"name":"Aerox","steam_id":76561198871081935,"connected_time":1673000000000,"state":"active","ping":164},{"user_id":231,"name":"rat performance","steam_id":76561198065854668,"connected_time":6163000000000,"state":"active","ping":44},{"user_id":306,"name":"Sniffz_2","steam_id":76561199433459491,"connected_time":1345000000000,"state":"active","ping":70},{"user_id":300,"name":"Zy","steam_id":76561198402301900,"connected_time":1640000000000,"state":"active","ping":61},{"user_id":318,"name":"I SEE THE GIRLS WALK BY","steam_id":76561198058656179,"connected_time":51000000000,"state":"active","ping":49},{"user_id":256,"name":"Cazulas","steam_id":76561198027460283,"connected_time":4925000000000,"state":"active","ping":68},{"user_id":305,"name":"Sanderooh","steam_id":76561198091515832,"connected_time":1392000000000,"state":"active","ping":69},{"user_id":316,"name":"Sotviing","steam_id":76561198154311159,"connected_time":202000000000,"state":"active","ping":75},{"user_id":281,"name":"Sodsboy","steam_id":76561198030482006,"connected_time":3495000000000,"state":"active","ping":44},{"user_id":295,"name":"big noob","steam_id":76561198281332748,"connected_time":1963000000000,"state":"active","ping":75},{"user_id":308,"name":"amjadgx9","steam_id":76561199388681087,"connected_time":1127000000000,"state":"active","ping":162},{"user_id":251,"name":"Arturias","steam_id":76561198188720263,"connected_time":5157000000000,"state":"active","ping":59},{"user_id":303,"name":"Making Coffee","steam_id":76561198138281039,"connected_time":1502000000000,"state":"active","ping":79},{"user_id":287,"name":"Xie Xil Ling","steam_id":76561198053394831,"connected_time":3204000000000,"state":"active","ping":73},{"user_id":307,"name":"tanyathsus","steam_id":76561198089522447,"connected_time":1225000000000,"state":"active","ping":60},{"user_id":288,"name":"Qwerty","steam_id":76561198023525894,"connected_time":3141000000000,"state":"active","ping":86},{"user_id":304,"name":"BLÅHAJ","steam_id":76561199353672293,"connected_time":1471000000000,"state":"active","ping":57},{"user_id":310,"name":"Dude Time","steam_id":76561198092991160,"connected_time":1106000000000,"state":"active","ping":159},{"user_id":184,"name":"Dolcelatte","steam_id":76561198038501770,"connected_time":10635000000000,"state":"active","ping":61},{"user_id":311,"name":"Fridge","steam_id":76561198071665589,"connected_time":1106000000000,"state":"active","ping":99}]},{"server_id":321,"name":"Uncletopia | London | 4 | All Maps","name_short":"lon-4","host":"lon-1.uk.uncletopia.com","port":27045,"enabled":true,"region":"eu","cc":"gb","latitude":51.509865,"longitude":-0.118092,"reserved":0,"last_update":"0001-01-01T00:00:00Z","name_a2s":"Uncletopia | London | 4 | All Maps","protocol":17,"map":"pl_snowycoast","folder":"tf","game":"Team Fortress","app_id":440,"player_count":0,"max_players":24,"Bots":0,"server_type":"Dedicated","server_os":"Linux","password":true,"vac":true,"version":"7757534","steam_id":85568392924510193,"keywords":["nocrits","nodmgspread","payload","uncletopia"],"game_id":440,"stv_port":27046,"stv_name":"Uncletopia | London | 4 | All Maps | STV","players":null},{"server_id":21,"name":"Uncletopia | London | 5 | All Maps","name_short":"lon-5","host":"lon-1.uk.uncletopia.com","port":27055,"enabled":true,"region":"eu","cc":"gb","latitude":51.509865,"longitude":-0.118092,"reserved":0,"last_update":"0001-01-01T00:00:00Z","name_a2s":"Uncletopia | London | 5 | All Maps","protocol":17,"map":"cp_mountainlab","folder":"tf","game":"Team Fortress","app_id":440,"player_count":22,"max_players":24,"Bots":0,"server_type":"Dedicated","server_os":"Linux","password":true,"vac":true,"version":"7757534","steam_id":85568392924742829,"keywords":["cp","nocrits","nodmgspread","uncletopia"],"game_id":440,"stv_port":27056,"stv_name":"Uncletopia | London | 5 | All Maps | STV","players":[{"user_id":53,"name":"weaponised autism","steam_id":76561199223139797,"connected_time":741000000000,"state":"active","ping":55},{"user_id":54,"name":"desnot","steam_id":76561198862581894,"connected_time":730000000000,"state":"active","ping":71},{"user_id":42,"name":"[CiC] FU2Max","steam_id":76561197960282327,"connected_time":1265000000000,"state":"active","ping":36},{"user_id":61,"name":"l3on4rd010pro","steam_id":76561199231610919,"connected_time":468000000000,"state":"active","ping":105},{"user_id":56,"name":"sabaka jebanoia","steam_id":76561198147249160,"connected_time":567000000000,"state":"active","ping":112},{"user_id":57,"name":"TK","steam_id":76561199384193338,"connected_time":557000000000,"state":"active","ping":64},{"user_id":44,"name":"LimpbizkitFan99","steam_id":76561198307382591,"connected_time":1193000000000,"state":"active","ping":47},{"user_id":58,"name":"kotamine","steam_id":76561198068907991,"connected_time":536000000000,"state":"active","ping":73},{"user_id":59,"name":"dømelis","steam_id":76561199029754222,"connected_time":523000000000,"state":"active","ping":92},{"user_id":45,"name":"Avastbro\"PIWO?\"","steam_id":76561198292235505,"connected_time":1180000000000,"state":"active","ping":129},{"user_id":30,"name":"DumbPocket","steam_id":76561199040037873,"connected_time":1567000000000,"state":"active","ping":69},{"user_id":27,"name":"Elemant","steam_id":76561198112990658,"connected_time":1750000000000,"state":"active","ping":60},{"user_id":46,"name":"marcus","steam_id":76561198865936010,"connected_time":1173000000000,"state":"active","ping":58},{"user_id":33,"name":"❖ RazzorBee","steam_id":76561198092493838,"connected_time":1369000000000,"state":"active","ping":105},{"user_id":34,"name":"Ledze Shuns Dope","steam_id":76561198049945010,"connected_time":1365000000000,"state":"active","ping":45},{"user_id":35,"name":"Haghehog","steam_id":76561198075729793,"connected_time":1364000000000,"state":"active","ping":130},{"user_id":36,"name":"Uwannahaveago","steam_id":76561198294686298,"connected_time":1349000000000,"state":"active","ping":52},{"user_id":37,"name":"The Allstar","steam_id":76561198127552935,"connected_time":1348000000000,"state":"active","ping":52},{"user_id":48,"name":"Cubwyn","steam_id":76561198873710099,"connected_time":1079000000000,"state":"active","ping":60},{"user_id":39,"name":"Max","steam_id":76561198029412126,"connected_time":1335000000000,"state":"active","ping":69},{"user_id":40,"name":"Enigmus","steam_id":76561197994063627,"connected_time":1329000000000,"state":"active","ping":90},{"user_id":60,"name":"hud_saytext_time 0","steam_id":76561198010327228,"connected_time":479000000000,"state":"active","ping":68}]},{"server_id":22,"name":"Uncletopia | London | 6 | All Maps","name_short":"lon-6","host":"lon-1.uk.uncletopia.com","port":27065,"enabled":true,"region":"eu","cc":"gb","latitude":51.509865,"longitude":-0.118092,"reserved":0,"last_update":"0001-01-01T00:00:00Z","name_a2s":"Uncletopia | London | 6 | All Maps","protocol":17,"map":"pl_badwater","folder":"tf","game":"Team Fortress","app_id":440,"player_count":0,"max_players":24,"Bots":0,"server_type":"Dedicated","server_os":"Linux","password":true,"vac":true,"version":"7757534","steam_id":85568392924742830,"keywords":["nocrits","nodmgspread","payload","uncletopia"],"game_id":440,"stv_port":27066,"stv_name":"Uncletopia | London | 6 | All Maps | STV","players":null},{"server_id":40,"name":"Uncletopia | London | 7 | No Payload","name_short":"lon-7","host":"lon-1.uk.uncletopia.com","port":27075,"enabled":true,"region":"eu","cc":"gb","latitude":51.509865,"longitude":-0.118092,"reserved":0,"last_update":"0001-01-01T00:00:00Z","name_a2s":"Uncletopia | London | 7 | No Payload","protocol":17,"map":"cp_steel","folder":"tf","game":"Team Fortress","app_id":440,"player_count":23,"max_players":24,"Bots":0,"server_type":"Dedicated","server_os":"Linux","password":true,"vac":true,"version":"7757534","steam_id":85568392924964314,"keywords":["cp","nocrits","nodmgspread","uncletopia"],"game_id":440,"stv_port":27076,"stv_name":"Uncletopia | London | 7 | No Payload | STV","players":[{"user_id":166,"name":"Feelin' Supersonic","steam_id":76561198005738407,"connected_time":1174000000000,"state":"active","ping":86},{"user_id":168,"name":"ArikMor","steam_id":76561199124472513,"connected_time":1040000000000,"state":"active","ping":132},{"user_id":169,"name":"frosty.","steam_id":76561198822290056,"connected_time":977000000000,"state":"active","ping":120},{"user_id":174,"name":"rebooted","steam_id":76561198295414098,"connected_time":790000000000,"state":"active","ping":73},{"user_id":182,"name":"Owlet","steam_id":76561198065613974,"connected_time":18000000000,"state":"spawning","ping":97},{"user_id":175,"name":"Cosmetic brain","steam_id":76561198055936410,"connected_time":768000000000,"state":"active","ping":82},{"user_id":176,"name":"Mraptkibbles","steam_id":76561198874227493,"connected_time":761000000000,"state":"active","ping":116},{"user_id":155,"name":"Icetanker","steam_id":76561198094189764,"connected_time":2696000000000,"state":"active","ping":52},{"user_id":145,"name":"Welder","steam_id":76561198355300561,"connected_time":3759000000000,"state":"active","ping":68},{"user_id":158,"name":"drew","steam_id":76561198012304706,"connected_time":2628000000000,"state":"active","ping":105},{"user_id":125,"name":"Zerzark","steam_id":76561198070118903,"connected_time":4873000000000,"state":"active","ping":55},{"user_id":135,"name":"BalSock","steam_id":76561198165339392,"connected_time":4264000000000,"state":"active","ping":96},{"user_id":141,"name":"fume.","steam_id":76561197960476801,"connected_time":4011000000000,"state":"active","ping":59},{"user_id":183,"name":"RocketBoy08","steam_id":76561198833978944,"connected_time":4000000000,"state":"spawning","ping":89},{"user_id":164,"name":"'n'","steam_id":76561199004236625,"connected_time":1194000000000,"state":"active","ping":144},{"user_id":119,"name":"Pain in a Box","steam_id":76561197990777173,"connected_time":5148000000000,"state":"active","ping":76},{"user_id":162,"name":"F0restFerret","steam_id":76561199112458876,"connected_time":1812000000000,"state":"active","ping":114},{"user_id":181,"name":"Topme","steam_id":76561198091734693,"connected_time":328000000000,"state":"active","ping":76},{"user_id":178,"name":"Smack Dadde","steam_id":76561198137863947,"connected_time":721000000000,"state":"active","ping":76},{"user_id":159,"name":"Spetse","steam_id":76561197990649972,"connected_time":2621000000000,"state":"active","ping":90},{"user_id":180,"name":"Cu713","steam_id":76561198175463442,"connected_time":578000000000,"state":"active","ping":100},{"user_id":146,"name":"SexyHotChocolate","steam_id":76561198164087698,"connected_time":3730000000000,"state":"active","ping":92},{"user_id":121,"name":"Memesus","steam_id":76561199362236174,"connected_time":5064000000000,"state":"active","ping":72}]},{"server_id":41,"name":"Uncletopia | London | 8 | Community","name_short":"lon-8","host":"lon-1.uk.uncletopia.com","port":27085,"enabled":true,"region":"eu","cc":"gb","latitude":51.509865,"longitude":-0.118092,"reserved":0,"last_update":"0001-01-01T00:00:00Z","name_a2s":"Uncletopia | London | 8 | Community","protocol":17,"map":"workshop/koth_synthetic_rc6a.ugc1549817316","folder":"tf","game":"Team Fortress","app_id":440,"player_count":0,"max_players":24,"Bots":0,"server_type":"Dedicated","server_os":"Linux","password":true,"vac":true,"version":"7757534","steam_id":85568392924964315,"keywords":["cp","nocrits","nodmgspread","uncletopia"],"game_id":440,"stv_port":27086,"stv_name":"Uncletopia | London | 8 | Community | STV","players":null},{"server_id":300,"name":"Uncletopia | Montréal | 1 | All Maps","name_short":"mtl-1","host":"mtl-1.ca.uncletopia.com","port":27015,"enabled":true,"region":"us-east","cc":"ca","latitude":45.50889,"longitude":-73.56167,"reserved":0,"last_update":"0001-01-01T00:00:00Z","name_a2s":"Uncletopia | Montréal | 1 | All Maps","protocol":17,"map":"koth_cascade","folder":"tf","game":"Team Fortress","app_id":440,"player_count":0,"max_players":24,"Bots":0,"server_type":"Dedicated","server_os":"Linux","password":true,"vac":true,"version":"7757534","steam_id":85568392924500087,"keywords":["cp","nocrits","nodmgspread","uncletopia"],"game_id":440,"stv_port":27016,"stv_name":"Uncletopia | Montréal | 1 | All Maps | STV","players":null},{"server_id":301,"name":"Uncletopia | Montréal | 2 | All Maps","name_short":"mtl-2","host":"mtl-1.ca.uncletopia.com","port":27025,"enabled":true,"region":"us-east","cc":"ca","latitude":45.50889,"longitude":-73.56167,"reserved":0,"last_update":"0001-01-01T00:00:00Z","name_a2s":"Uncletopia | Montréal | 2 | All Maps","protocol":17,"map":"pl_borneo","folder":"tf","game":"Team Fortress","app_id":440,"player_count":0,"max_players":24,"Bots":0,"server_type":"Dedicated","server_os":"Linux","password":true,"vac":true,"version":"7757534","steam_id":85568392924500088,"keywords":["nocrits","nodmgspread","payload","uncletopia"],"game_id":440,"stv_port":27026,"stv_name":"Uncletopia | Montréal | 2 | All Maps | STV","players":null},{"server_id":302,"name":"Uncletopia | Montréal | 3 | All Maps","name_short":"mtl-3","host":"mtl-1.ca.uncletopia.com","port":27035,"enabled":true,"region":"us-east","cc":"ca","latitude":45.50889,"longitude":-73.56167,"reserved":0,"last_update":"0001-01-01T00:00:00Z","name_a2s":"Uncletopia | Montréal | 3 | All Maps","protocol":17,"map":"cp_sunshine","folder":"tf","game":"Team Fortress","app_id":440,"player_count":0,"max_players":24,"Bots":0,"server_type":"Dedicated","server_os":"Linux","password":true,"vac":true,"version":"7757534","steam_id":85568392924500089,"keywords":["cp","nocrits","nodmgspread","uncletopia"],"game_id":440,"stv_port":27036,"stv_name":"Uncletopia | Montréal | 3 | All Maps | STV","players":null},{"server_id":303,"name":"Uncletopia | Montréal | 4 | No Payload","name_short":"mtl-4","host":"mtl-1.ca.uncletopia.com","port":27045,"enabled":true,"region":"us-east","cc":"ca","latitude":45.50889,"longitude":-73.56167,"reserved":0,"last_update":"0001-01-01T00:00:00Z","name_a2s":"Uncletopia | Montréal | 4 | No Payload","protocol":17,"map":"koth_lakeside_final","folder":"tf","game":"Team Fortress","app_id":440,"player_count":0,"max_players":24,"Bots":0,"server_type":"Dedicated","server_os":"Linux","password":true,"vac":true,"version":"7757534","steam_id":85568392924500090,"keywords":["cp","nocrits","nodmgspread","uncletopia"],"game_id":440,"stv_port":27046,"stv_name":"Uncletopia | Montréal | 4 | No Payload | STV","players":null},{"server_id":13,"name":"Uncletopia | New York City | 1 | All Maps","name_short":"nyc-1","host":"nyc-1.us.uncletopia.com","port":27015,"enabled":true,"region":"us-east","cc":"us","latitude":40.73061,"longitude":-73.93524,"reserved":0,"last_update":"0001-01-01T00:00:00Z","name_a2s":"Uncletopia | New York City | 1 | All Maps","protocol":17,"map":"pl_borneo","folder":"tf","game":"Team Fortress","app_id":440,"player_count":0,"max_players":24,"Bots":0,"server_type":"Dedicated","server_os":"Linux","password":true,"vac":true,"version":"7757534","steam_id":85568392924469993,"keywords":["nocrits","nodmgspread","payload","uncletopia"],"game_id":440,"stv_port":27016,"stv_name":"Uncletopia | New York City | 1 | All Maps | STV","players":null},{"server_id":14,"name":"Uncletopia | New York City | 2 | All Maps","name_short":"nyc-2","host":"nyc-1.us.uncletopia.com","port":27025,"enabled":true,"region":"us-east","cc":"us","latitude":40.73061,"longitude":-73.93524,"reserved":0,"last_update":"0001-01-01T00:00:00Z","name_a2s":"Uncletopia | New York City | 2 | All Maps","protocol":17,"map":"pl_frontier_final","folder":"tf","game":"Team Fortress","app_id":440,"player_count":0,"max_players":24,"Bots":0,"server_type":"Dedicated","server_os":"Linux","password":true,"vac":true,"version":"7757534","steam_id":85568392924469994,"keywords":["nocrits","nodmgspread","payload","uncletopia"],"game_id":440,"stv_port":27026,"stv_name":"Uncletopia | New York City | 2 | All Maps | STV","players":null},{"server_id":15,"name":"Uncletopia | New York City | 3 | Stopwatch Beta","name_short":"nyc-3","host":"nyc-1.us.uncletopia.com","port":27035,"enabled":true,"region":"us-east","cc":"us","latitude":40.73061,"longitude":-73.93524,"reserved":0,"last_update":"0001-01-01T00:00:00Z","name_a2s":"Uncletopia | New York City | 3 | Stopwatch Beta","protocol":17,"map":"koth_lakeside_final","folder":"tf","game":"Team Fortress","app_id":440,"player_count":0,"max_players":24,"Bots":0,"server_type":"Dedicated","server_os":"Linux","password":true,"vac":true,"version":"7757534","steam_id":85568392924742820,"keywords":["cp","nocrits","nodmgspread","uncletopia"],"game_id":440,"stv_port":27036,"stv_name":"Uncletopia | New York City | 3 | Stopwatch Beta | STV","players":null},{"server_id":16,"name":"Uncletopia | New York City | 4 | Community","name_short":"nyc-4","host":"nyc-1.us.uncletopia.com","port":27045,"enabled":true,"region":"us-east","cc":"us","latitude":40.73061,"longitude":-73.93524,"reserved":0,"last_update":"0001-01-01T00:00:00Z","name_a2s":"Uncletopia | New York City | 4 | Community","protocol":17,"map":"workshop/pl_cactuscanyon_redux_rc4b.ugc2579644293","folder":"tf","game":"Team Fortress","app_id":440,"player_count":0,"max_players":24,"Bots":0,"server_type":"Dedicated","server_os":"Linux","password":true,"vac":true,"version":"7757534","steam_id":85568392924742821,"keywords":["nocrits","nodmgspread","payload","uncletopia"],"game_id":440,"stv_port":27046,"stv_name":"Uncletopia | New York City | 4 | Community | STV","players":null},{"server_id":142,"name":"Uncletopia | São Paulo | 1 | All Maps","name_short":"sao-1","host":"sao-1.br.uncletopia.com","port":27015,"enabled":true,"region":"sa","cc":"br","latitude":-23.533773,"longitude":-46.62529,"reserved":0,"last_update":"0001-01-01T00:00:00Z","name_a2s":"Uncletopia | São Paulo | 1 | All Maps","protocol":17,"map":"pl_frontier_final","folder":"tf","game":"Team Fortress","app_id":440,"player_count":0,"max_players":24,"Bots":0,"server_type":"Dedicated","server_os":"Linux","password":true,"vac":true,"version":"7757534","steam_id":85568392924469996,"keywords":["nocrits","nodmgspread","payload","uncletopia"],"game_id":440,"stv_port":27016,"stv_name":"Uncletopia | São Paulo | 1 | All Maps | STV","players":null},{"server_id":143,"name":"Uncletopia | São Paulo | 2 | All Maps","name_short":"sao-2","host":"sao-2.br.uncletopia.com","port":27015,"enabled":true,"region":"sa","cc":"br","latitude":-23.533773,"longitude":-46.62529,"reserved":0,"last_update":"0001-01-01T00:00:00Z","name_a2s":"Uncletopia | São Paulo | 2 | All Maps","protocol":17,"map":"koth_highpass","folder":"tf","game":"Team Fortress","app_id":440,"player_count":0,"max_players":24,"Bots":0,"server_type":"Dedicated","server_os":"Linux","password":true,"vac":true,"version":"7757534","steam_id":85568392924485349,"keywords":["cp","nocrits","nodmgspread","uncletopia"],"game_id":440,"stv_port":27016,"stv_name":"Uncletopia | São Paulo | 2 | All Maps | STV","players":null},{"server_id":7,"name":"Uncletopia | Seattle | 1 | All Maps","name_short":"sea-1","host":"sea-1.us.uncletopia.com","port":27015,"enabled":true,"region":"us-west","cc":"us","latitude":47.608013,"longitude":-122.33517,"reserved":0,"last_update":"0001-01-01T00:00:00Z","name_a2s":"Uncletopia | Seattle | 1 | All Maps","protocol":17,"map":"koth_suijin","folder":"tf","game":"Team Fortress","app_id":440,"player_count":24,"max_players":24,"Bots":0,"server_type":"Dedicated","server_os":"Linux","password":true,"vac":true,"version":"7757534","steam_id":85568392924469997,"keywords":["cp","nocrits","nodmgspread","uncletopia"],"game_id":440,"stv_port":27016,"stv_name":"Uncletopia | Seattle | 1 | All Maps | STV","players":[{"user_id":3,"name":"f1bg","steam_id":76561199107952644,"connected_time":6715000000000,"state":"active","ping":74},{"user_id":99,"name":"Pink Strange Beard Man","steam_id":76561198817302192,"connected_time":695000000000,"state":"active","ping":43},{"user_id":98,"name":"Peri","steam_id":76561198255311543,"connected_time":767000000000,"state":"active","ping":108},{"user_id":113,"name":"DualiTea","steam_id":76561198081733870,"connected_time":22000000000,"state":"active","ping":115},{"user_id":72,"name":"LazyDoll","steam_id":76561198053186338,"connected_time":2730000000000,"state":"active","ping":74},{"user_id":9,"name":"ＳＬＶＴＣＨＡＭＰ","steam_id":76561198883157736,"connected_time":6692000000000,"state":"active","ping":60},{"user_id":80,"name":"Miramar","steam_id":76561198022057653,"connected_time":1874000000000,"state":"active","ping":130},{"user_id":107,"name":"Sloppy John (Extra Sauce)","steam_id":76561198359703432,"connected_time":358000000000,"state":"active","ping":75},{"user_id":104,"name":"〣dust〣 -she/her-","steam_id":76561198045218909,"connected_time":584000000000,"state":"active","ping":44},{"user_id":84,"name":"duraxxus","steam_id":76561198044007219,"connected_time":1432000000000,"state":"active","ping":86},{"user_id":15,"name":"Daz","steam_id":76561198041431938,"connected_time":6659000000000,"state":"active","ping":124},{"user_id":111,"name":"scrapheap","steam_id":76561198202407087,"connected_time":101000000000,"state":"active","ping":119},{"user_id":110,"name":"Prestoneon003","steam_id":76561198348279581,"connected_time":147000000000,"state":"active","ping":103},{"user_id":95,"name":"KingTinkerer","steam_id":76561198226856548,"connected_time":998000000000,"state":"active","ping":74},{"user_id":109,"name":"-TL- $W4RM","steam_id":76561198019435762,"connected_time":163000000000,"state":"active","ping":60},{"user_id":73,"name":"Idealists","steam_id":76561198829068222,"connected_time":2727000000000,"state":"active","ping":99},{"user_id":112,"name":"Kvlt Leader","steam_id":76561198063449953,"connected_time":78000000000,"state":"active","ping":106},{"user_id":102,"name":"Cloudswallower","steam_id":76561198167583291,"connected_time":633000000000,"state":"active","ping":101},{"user_id":67,"name":"spider_murphy","steam_id":76561198079057101,"connected_time":3473000000000,"state":"active","ping":90},{"user_id":103,"name":"DK360","steam_id":76561198796783094,"connected_time":624000000000,"state":"active","ping":54},{"user_id":105,"name":"MrEnderman320","steam_id":76561198286568264,"connected_time":576000000000,"state":"active","ping":50},{"user_id":106,"name":"swag","steam_id":76561198094615739,"connected_time":557000000000,"state":"active","ping":84},{"user_id":94,"name":"BigBubble42","steam_id":76561198136286123,"connected_time":1135000000000,"state":"active","ping":79},{"user_id":46,"name":"Grassman (Cc)","steam_id":76561198026488532,"connected_time":4740000000000,"state":"active","ping":66}]},{"server_id":119,"name":"Uncletopia | Seattle | 2 | All Maps","name_short":"sea-2","host":"sea-1.us.uncletopia.com","port":27025,"enabled":true,"region":"us-west","cc":"us","latitude":47.608013,"longitude":-122.33517,"reserved":0,"last_update":"0001-01-01T00:00:00Z","name_a2s":"Uncletopia | Seattle | 2 | All Maps","protocol":17,"map":"cp_process_final","folder":"tf","game":"Team Fortress","app_id":440,"player_count":0,"max_players":24,"Bots":0,"server_type":"Dedicated","server_os":"Linux","password":true,"vac":true,"version":"7757534","steam_id":85568392924469998,"keywords":["cp","nocrits","nodmgspread","uncletopia"],"game_id":440,"stv_port":27026,"stv_name":"Uncletopia | Seattle | 2 | All Maps | STV","players":null},{"server_id":406,"name":"Uncletopia | Seattle | 3 | Stopwatch Beta","name_short":"sea-3","host":"sea-1.us.uncletopia.com","port":27035,"enabled":true,"region":"us-west","cc":"us","latitude":47.608013,"longitude":-122.33517,"reserved":0,"last_update":"0001-01-01T00:00:00Z","name_a2s":"Uncletopia | Seattle | 3 | Stopwatch Beta","protocol":17,"map":"cp_sunshine","folder":"tf","game":"Team Fortress","app_id":440,"player_count":0,"max_players":24,"Bots":0,"server_type":"Dedicated","server_os":"Linux","password":true,"vac":true,"version":"7757534","steam_id":85568392924515217,"keywords":["cp","nocrits","nodmgspread","uncletopia"],"game_id":440,"stv_port":27036,"stv_name":"Uncletopia | Seattle | 3 | Stopwatch Beta | STV","players":null},{"server_id":17,"name":"Uncletopia | San Francisco | 1 | All Maps","name_short":"sfo-1","host":"sfo-1.us.uncletopia.com","port":27015,"enabled":true,"region":"us-west","cc":"us","latitude":37.77397,"longitude":-122.4313,"reserved":0,"last_update":"0001-01-01T00:00:00Z","name_a2s":"Uncletopia | San Francisco | 1 | All Maps","protocol":17,"map":"pl_pier","folder":"tf","game":"Team Fortress","app_id":440,"player_count":0,"max_players":24,"Bots":0,"server_type":"Dedicated","server_os":"Linux","password":true,"vac":true,"version":"7757534","steam_id":85568392924469999,"keywords":["nocrits","nodmgspread","payload","uncletopia"],"game_id":440,"stv_port":27016,"stv_name":"Uncletopia | San Francisco | 1 | All Maps | STV","players":null},{"server_id":18,"name":"Uncletopia | San Francisco | 2 | All Maps","name_short":"sfo-2","host":"sfo-1.us.uncletopia.com","port":27025,"enabled":true,"region":"us-west","cc":"us","latitude":37.77397,"longitude":-122.4313,"reserved":0,"last_update":"0001-01-01T00:00:00Z","name_a2s":"Uncletopia | San Francisco | 2 | All Maps","protocol":17,"map":"cp_mountainlab","folder":"tf","game":"Team Fortress","app_id":440,"player_count":0,"max_players":24,"Bots":0,"server_type":"Dedicated","server_os":"Linux","password":true,"vac":true,"version":"7757534","steam_id":85568392924470000,"keywords":["cp","nocrits","nodmgspread","uncletopia"],"game_id":440,"stv_port":27026,"stv_name":"Uncletopia | San Francisco | 2 | All Maps | STV","players":null},{"server_id":19,"name":"Uncletopia | San Francisco | 3 | Stopwatch Beta","name_short":"sfo-3","host":"sfo-1.us.uncletopia.com","port":27035,"enabled":true,"region":"us-west","cc":"us","latitude":37.77397,"longitude":-122.4313,"reserved":0,"last_update":"0001-01-01T00:00:00Z","name_a2s":"Uncletopia | San Francisco | 3 | Stopwatch Beta","protocol":17,"map":"koth_viaduct","folder":"tf","game":"Team Fortress","app_id":440,"player_count":0,"max_players":24,"Bots":0,"server_type":"Dedicated","server_os":"Linux","password":true,"vac":true,"version":"7757534","steam_id":85568392924742824,"keywords":["cp","nocrits","nodmgspread","uncletopia"],"game_id":440,"stv_port":27036,"stv_name":"Uncletopia | San Francisco | 3 | Stopwatch Beta | STV","players":null},{"server_id":20,"name":"Uncletopia | San Francisco | 4 | Community","name_short":"sfo-4","host":"sfo-1.us.uncletopia.com","port":27045,"enabled":true,"region":"us-west","cc":"us","latitude":37.77397,"longitude":-122.4313,"reserved":0,"last_update":"0001-01-01T00:00:00Z","name_a2s":"Uncletopia | San Francisco | 4 | Community","protocol":17,"map":"pl_borneo","folder":"tf","game":"Team Fortress","app_id":440,"player_count":0,"max_players":24,"Bots":0,"server_type":"Dedicated","server_os":"Linux","password":true,"vac":true,"version":"7757534","steam_id":85568392924742826,"keywords":["nocrits","nodmgspread","payload","uncletopia"],"game_id":440,"stv_port":27046,"stv_name":"Uncletopia | San Francisco | 4 | Community | STV","players":null},{"server_id":141,"name":"Uncletopia | Sydney | 1 | All Maps","name_short":"syd-1","host":"syd-1.au.uncletopia.com","port":27015,"enabled":true,"region":"au","cc":"au","latitude":-33.865143,"longitude":151.2099,"reserved":0,"last_update":"0001-01-01T00:00:00Z","name_a2s":"Uncletopia | Sydney | 1 | All Maps","protocol":17,"map":"cp_process_final","folder":"tf","game":"Team Fortress","app_id":440,"player_count":0,"max_players":24,"Bots":0,"server_type":"Dedicated","server_os":"Linux","password":true,"vac":true,"version":"7757534","steam_id":85568392924470001,"keywords":["cp","nocrits","nodmgspread","uncletopia"],"game_id":440,"stv_port":27016,"stv_name":"Uncletopia | Sydney | 1 | All Maps | STV","players":null},{"server_id":123,"name":"Uncletopia | Sydney | 2 | All Maps","name_short":"syd-2","host":"syd-1.au.uncletopia.com","port":27025,"enabled":true,"region":"au","cc":"au","latitude":-33.865143,"longitude":151.2099,"reserved":0,"last_update":"0001-01-01T00:00:00Z","name_a2s":"Uncletopia | Sydney | 2 | All Maps","protocol":17,"map":"pl_frontier_final","folder":"tf","game":"Team Fortress","app_id":440,"player_count":0,"max_players":24,"Bots":0,"server_type":"Dedicated","server_os":"Linux","password":true,"vac":true,"version":"7757534","steam_id":85568392924470002,"keywords":["nocrits","nodmgspread","payload","uncletopia"],"game_id":440,"stv_port":27026,"stv_name":"Uncletopia | Sydney | 2 | All Maps | STV","players":null},{"server_id":395,"name":"Uncletopia | Sydney | 3 | All Maps","name_short":"syd-3","host":"syd-1.au.uncletopia.com","port":27035,"enabled":true,"region":"au","cc":"au","latitude":-33.865143,"longitude":151.2099,"reserved":0,"last_update":"0001-01-01T00:00:00Z","name_a2s":"Uncletopia | Sydney | 3 | All Maps","protocol":17,"map":"koth_cascade","folder":"tf","game":"Team Fortress","app_id":440,"player_count":0,"max_players":24,"Bots":0,"server_type":"Dedicated","server_os":"Linux","password":true,"vac":true,"version":"7757534","steam_id":85568392925194467,"keywords":["cp","nocrits","nodmgspread","uncletopia"],"game_id":440,"stv_port":27036,"stv_name":"Uncletopia | Sydney | 3 | All Maps | STV","players":null},{"server_id":396,"name":"Uncletopia | Sydney | 4 | All Maps","name_short":"syd-4","host":"syd-1.au.uncletopia.com","port":27045,"enabled":true,"region":"au","cc":"au","latitude":-33.865143,"longitude":151.2099,"reserved":0,"last_update":"0001-01-01T00:00:00Z","name_a2s":"Uncletopia | Sydney | 4 | All Maps","protocol":17,"map":"koth_cascade","folder":"tf","game":"Team Fortress","app_id":440,"player_count":0,"max_players":24,"Bots":0,"server_type":"Dedicated","server_os":"Linux","password":true,"vac":true,"version":"7757534","steam_id":85568392925397958,"keywords":["cp","nocrits","nodmgspread","uncletopia"],"game_id":440,"stv_port":27046,"stv_name":"Uncletopia | Sydney | 4 | All Maps | STV","players":null},{"server_id":58,"name":"Uncletopia | Sydney | 5 | Stopwatch Beta","name_short":"syd-5","host":"syd-1.au.uncletopia.com","port":27055,"enabled":true,"region":"au","cc":"au","latitude":-33.865143,"longitude":151.2099,"reserved":0,"last_update":"0001-01-01T00:00:00Z","name_a2s":"Uncletopia | Sydney | 5 | Stopwatch Beta","protocol":17,"map":"pl_upward","folder":"tf","game":"Team Fortress","app_id":440,"player_count":0,"max_players":24,"Bots":0,"server_type":"Dedicated","server_os":"Linux","password":true,"vac":true,"version":"7757534","steam_id":85568392925397959,"keywords":["nocrits","nodmgspread","payload","uncletopia"],"game_id":440,"stv_port":27056,"stv_name":"Uncletopia | Sydney | 5 | Stopwatch Beta | STV","players":null},{"server_id":59,"name":"Uncletopia | Sydney | 6 | Community","name_short":"syd-6","host":"syd-1.au.uncletopia.com","port":27065,"enabled":true,"region":"au","cc":"au","latitude":-33.865143,"longitude":151.2099,"reserved":0,"last_update":"0001-01-01T00:00:00Z","name_a2s":"Uncletopia | Sydney | 6 | Community","protocol":17,"map":"workshop/cp_reckoner_rc6.ugc674719999","folder":"tf","game":"Team Fortress","app_id":440,"player_count":0,"max_players":24,"Bots":0,"server_type":"Dedicated","server_os":"Linux","password":true,"vac":true,"version":"7757534","steam_id":85568392925397960,"keywords":["cp","nocrits","nodmgspread","uncletopia"],"game_id":440,"stv_port":27066,"stv_name":"Uncletopia | Sydney | 6 | Community | STV","players":null},{"server_id":49,"name":"Uncletopia | Warsaw | 1 | All Maps","name_short":"waw-1","host":"waw-1.pl.uncletopia.com","port":27015,"enabled":true,"region":"eu","cc":"pl","latitude":52.2297,"longitude":21.017532,"reserved":0,"last_update":"0001-01-01T00:00:00Z","name_a2s":"","protocol":0,"map":"","folder":"","game":"","app_id":0,"player_count":0,"max_players":0,"Bots":0,"server_type":"","server_os":"","password":false,"vac":false,"version":"","steam_id":0,"keywords":null,"game_id":0,"stv_port":0,"stv_name":"","players":null},{"server_id":50,"name":"Uncletopia | Warsaw | 2 | All Maps","name_short":"waw-2","host":"waw-1.pl.uncletopia.com","port":27025,"enabled":true,"region":"eu","cc":"pl","latitude":52.2297,"longitude":21.017532,"reserved":0,"last_update":"0001-01-01T00:00:00Z","name_a2s":"Uncletopia | Warsaw | 2 | All Maps","protocol":17,"map":"cp_sunshine","folder":"tf","game":"Team Fortress","app_id":440,"player_count":0,"max_players":24,"Bots":0,"server_type":"Dedicated","server_os":"Linux","password":true,"vac":true,"version":"7757534","steam_id":85568392925397851,"keywords":["cp","nocrits","nodmgspread","uncletopia"],"game_id":440,"stv_port":27026,"stv_name":"Uncletopia | Warsaw | 2 | All Maps | STV","players":null},{"server_id":51,"name":"Uncletopia | Warsaw | 3 | All Maps","name_short":"waw-3","host":"waw-1.pl.uncletopia.com","port":27035,"enabled":true,"region":"eu","cc":"pl","latitude":52.2297,"longitude":21.017532,"reserved":0,"last_update":"0001-01-01T00:00:00Z","name_a2s":"Uncletopia | Warsaw | 3 | All Maps","protocol":17,"map":"pl_upward","folder":"tf","game":"Team Fortress","app_id":440,"player_count":14,"max_players":24,"Bots":0,"server_type":"Dedicated","server_os":"Linux","password":true,"vac":true,"version":"7757534","steam_id":85568392925397852,"keywords":["nocrits","nodmgspread","payload","uncletopia"],"game_id":440,"stv_port":27036,"stv_name":"Uncletopia | Warsaw | 3 | All Maps | STV","players":[{"user_id":170,"name":"drippin jimmy","steam_id":76561198219243969,"connected_time":2751000000000,"state":"active","ping":66},{"user_id":216,"name":"Gaia","steam_id":76561199027683913,"connected_time":10000000000,"state":"spawning","ping":99},{"user_id":215,"name":"Chopperson_","steam_id":76561198873728497,"connected_time":398000000000,"state":"active","ping":108},{"user_id":174,"name":"Fish 'n' Chips","steam_id":76561198033476886,"connected_time":2633000000000,"state":"active","ping":64},{"user_id":175,"name":"Prinz Eugen","steam_id":76561198129154766,"connected_time":2607000000000,"state":"active","ping":83},{"user_id":153,"name":"jabar7","steam_id":76561198055137986,"connected_time":4223000000000,"state":"active","ping":27},{"user_id":194,"name":"nigilist","steam_id":76561198388456046,"connected_time":1514000000000,"state":"active","ping":141},{"user_id":203,"name":"0xdeadbeef | riegls","steam_id":76561198845572553,"connected_time":1192000000000,"state":"active","ping":38},{"user_id":159,"name":"KyraMelody","steam_id":76561198030308767,"connected_time":3884000000000,"state":"active","ping":62},{"user_id":207,"name":"dreamySylph","steam_id":76561199000573308,"connected_time":1065000000000,"state":"active","ping":141},{"user_id":214,"name":"Michamya","steam_id":76561198116338844,"connected_time":624000000000,"state":"active","ping":54},{"user_id":198,"name":"Aeglos","steam_id":76561198248698294,"connected_time":1387000000000,"state":"active","ping":72},{"user_id":202,"name":"Hi","steam_id":76561198104448019,"connected_time":1267000000000,"state":"active","ping":100},{"user_id":182,"name":"Gempooh","steam_id":76561198098463950,"connected_time":2470000000000,"state":"active","ping":97}]},{"server_id":52,"name":"Uncletopia | Warsaw | 4 | All Maps","name_short":"waw-4","host":"waw-1.pl.uncletopia.com","port":27045,"enabled":true,"region":"eu","cc":"pl","latitude":52.2297,"longitude":21.017532,"reserved":0,"last_update":"0001-01-01T00:00:00Z","name_a2s":"Uncletopia | Warsaw | 4 | All Maps","protocol":17,"map":"cp_process_final","folder":"tf","game":"Team Fortress","app_id":440,"player_count":1,"max_players":24,"Bots":0,"server_type":"Dedicated","server_os":"Linux","password":true,"vac":true,"version":"7757534","steam_id":85568392925397853,"keywords":["cp","nocrits","nodmgspread","uncletopia"],"game_id":440,"stv_port":27046,"stv_name":"Uncletopia | Warsaw | 4 | All Maps | STV","players":[{"user_id":7,"name":"crankenstein","steam_id":76561198836526350,"connected_time":803000000000,"state":"active","ping":203}]},{"server_id":53,"name":"Uncletopia | Warsaw | 5 | Stopwatch Beta","name_short":"waw-5","host":"waw-1.pl.uncletopia.com","port":27055,"enabled":true,"region":"eu","cc":"pl","latitude":52.2297,"longitude":21.017532,"reserved":0,"last_update":"0001-01-01T00:00:00Z","name_a2s":"Uncletopia | Warsaw | 5 | Stopwatch Beta","protocol":17,"map":"pl_upward","folder":"tf","game":"Team Fortress","app_id":440,"player_count":0,"max_players":24,"Bots":0,"server_type":"Dedicated","server_os":"Linux","password":true,"vac":true,"version":"7757534","steam_id":85568392925397854,"keywords":["nocrits","nodmgspread","payload","uncletopia"],"game_id":440,"stv_port":27056,"stv_name":"Uncletopia | Warsaw | 5 | Stopwatch Beta | STV","players":null},{"server_id":54,"name":"Uncletopia | Warsaw | 6 | Community","name_short":"waw-6","host":"waw-1.pl.uncletopia.com","port":27065,"enabled":true,"region":"eu","cc":"pl","latitude":52.2297,"longitude":21.017532,"reserved":0,"last_update":"0001-01-01T00:00:00Z","name_a2s":"Uncletopia | Warsaw | 6 | Community","protocol":17,"map":"pl_barnblitz","folder":"tf","game":"Team Fortress","app_id":440,"player_count":0,"max_players":24,"Bots":0,"server_type":"Dedicated","server_os":"Linux","password":true,"vac":true,"version":"7757534","steam_id":85568392925397856,"keywords":["nocrits","nodmgspread","payload","uncletopia"],"game_id":440,"stv_port":27066,"stv_name":"Uncletopia | Warsaw | 6 | Community | STV","players":null}]}