{"status":true,"message":"","result":[{"server_id":9,"name":"Uncletopia | Atlanta | 1 | All Maps","name_short":"atl-1","host":"atl-1.us.uncletopia.com","port":27015,"enabled":true,"region":"us-east","cc":"us","latitude":33.753746,"longitude":-84.38633,"reserved":0,"last_update":"0001-01-01T00:00:00Z","name_a2s":"Uncletopia | Atlanta | 1 | All Maps","protocol":17,"map":"pl_upward","folder":"tf","game":"Team Fortress","app_id":440,"player_count":24,"max_players":24,"Bots":0,"server_type":"Dedicated","server_os":"Linux","password":true,"vac":true,"version":"7708610","steam_id":85568392924469982,"keywords":["nocrits","nodmgspread","payload","uncletopia"],"game_id":440,"stv_port":27016,"stv_name":"Uncletopia | Atlanta | 1 | All Maps | STV","players":[{"user_id":427,"name":"Stampdawg","steam_id":76561198050500060,"connected_time":1740000000000,"state":"active","ping":82},{"user_id":414,"name":"Bee_Pirate","steam_id":76561199000599111,"connected_time":2306000000000,"state":"active","ping":74},{"user_id":354,"name":"ATL1 | on my hunting trip","steam_id":76561198315341646,"connected_time":8232000000000,"state":"active","ping":59},{"user_id":433,"name":"Eins","steam_id":76561199030343810,"connected_time":1437000000000,"state":"active","ping":40},{"user_id":425,"name":"jeremy elbertson","steam_id":76561198044420428,"connected_time":1869000000000,"state":"active","ping":45},{"user_id":409,"name":"NoClutch","steam_id":76561198013677277,"connected_time":2388000000000,"state":"active","ping":90},{"user_id":388,"name":"christmas.jimmy.2014","steam_id":76561199177672325,"connected_time":4434000000000,"state":"active","ping":43},{"user_id":440,"name":"atlas","steam_id":76561198184893754,"connected_time":460000000000,"state":"active","ping":62},{"user_id":444,"name":"Chubbles","steam_id":76561198237619472,"connected_time":73000000000,"state":"active","ping":65},{"user_id":443,"name":"Louie","steam_id":76561198376181001,"connected_time":390000000000,"state":"active","ping":39},{"user_id":438,"name":"Temina","steam_id":76561198978778718,"connected_time":515000000000,"state":"active","ping":129},{"user_id":437,"name":"chexo4","steam_id":76561198150532531,"connected_time":1170000000000,"state":"active","ping":50},{"user_id":334,"name":"V!CT!M","steam_id":76561198962721502,"connected_time":10162000000000,"state":"active","ping":79},{"user_id":436,"name":"Mercury","steam_id":76561198072263852,"connected_time":1254000000000,"state":"active","ping":64},{"user_id":442,"name":"LeTonzy","steam_id":76561198005806699,"connected_time":425000000000,"state":"active","ping":117},{"user_id":415,"name":"ShofaX","steam_id":76561198199768014,"connected_time":2285000000000,"state":"active","ping":79},{"user_id":356,"name":"Young-OG","steam_id":76561198058800479,"connected_time":8223000000000,"state":"active","ping":66},{"user_id":426,"name":"Nodspine","steam_id":76561198253579994,"connected_time":1780000000000,"state":"active","ping":119},{"user_id":430,"name":"shaderoses","steam_id":76561198070800500,"connected_time":1551000000000,"state":"active","ping":64},{"user_id":431,"name":"TheGhostThatWas","steam_id":76561198055836483,"connected_time":1541000000000,"state":"active","ping":59},{"user_id":393,"name":"sansa musa","steam_id":76561198163723555,"connected_time":4136000000000,"state":"active","ping":75},{"user_id":441,"name":"MOTORTREND TRUCK OF THE YEAR","steam_id":76561198077654131,"connected_time":460000000000,"state":"active","ping":62},{"user_id":405,"name":"Mr.Mug (Festive)","steam_id":76561199282207802,"connected_time":2487000000000,"state":"active","ping":79},{"user_id":390,"name":"Angel","steam_id":76561198175654911,"connected_time":4168000000000,"state":"active","ping":77}]},{"server_id":400,"name":"Uncletopia | Atlanta | 3 | All Maps","name_short":"atl-3","host":"atl-1.us.uncletopia.com","port":27035,"enabled":true,"region":"us-east","cc":"us","latitude":33.753746,"longitude":-84.38633,"reserved":0,"last_update":"0001-01-01T00:00:00Z","name_a2s":"Uncletopia | Atlanta | 3 | All Maps","protocol":17,"map":"pl_upward","folder":"tf","game":"Team Fortress","app_id":440,"player_count":24,"max_players":24,"Bots":0,"server_type":"Dedicated","server_os":"Linux","password":true,"vac":true,"version":"7708610","steam_id":85568392924515187,"keywords":["nocrits","nodmgspread","payload","uncletopia"],"game_id":440,"stv_port":27036,"stv_name":"Uncletopia | Atlanta | 3 | All Maps | STV","players":[{"user_id":299,"name":"xenolith","steam_id":76561198041496496,"connected_time":2358000000000,"state":"active","ping":80},{"user_id":316,"name":"johngaming220","steam_id":76561199119202785,"connected_time":1265000000000,"state":"active","ping":70},{"user_id":327,"name":"tame","steam_id":76561198925005855,"connected_time":969000000000,"state":"active","ping":182},{"user_id":329,"name":"Pablo Gonzales The Destroyer","steam_id":76561198415988881,"connected_time":907000000000,"state":"active","ping":100},{"user_id":292,"name":"Dun","steam_id":76561198819723394,"connected_time":3158000000000,"state":"active","ping":69},{"user_id":326,"name":"swan","steam_id":76561198012569200,"connected_time":1016000000000,"state":"active","ping":99},{"user_id":315,"name":"Wso1123","steam_id":76561198048040111,"connected_time":1275000000000,"state":"active","ping":97},{"user_id":332,"name":"mop","steam_id":76561198083853538,"connected_time":287000000000,"state":"active","ping":68},{"user_id":331,"name":"wes","steam_id":76561198273536400,"connected_time":315000000000,"state":"active","ping":63},{"user_id":305,"name":"BrawlingBuckaroo","steam_id":76561199067026847,"connected_time":1880000000000,"state":"active","ping":77},{"user_id":330,"name":"Good Child Syndrome","steam_id":76561198394787270,"connected_time":339000000000,"state":"active","ping":79},{"user_id":333,"name":"BurgerPizza","steam_id":76561198151256410,"connected_time":6000000000,"state":"spawning","ping":148},{"user_id":308,"name":"PHISH","steam_id":76561199121918806,"connected_time":1639000000000,"state":"active","ping":75},{"user_id":319,"name":"Nevu","steam_id":76561198378240571,"connected_time":1184000000000,"state":"active","ping":104},{"user_id":320,"name":"Skippies","steam_id":76561198131280715,"connected_time":1179000000000,"state":"active","ping":73},{"user_id":277,"name":"$200 Shirt","steam_id":76561197977329534,"connected_time":4645000000000,"state":"active","ping":78},{"user_id":322,"name":"Mythic","steam_id":76561198028616665,"connected_time":1146000000000,"state":"active","ping":63},{"user_id":323,"name":"Mortimer Khan","steam_id":76561197968829990,"connected_time":1146000000000,"state":"active","ping":72},{"user_id":309,"name":"Zeemii","steam_id":76561198809299581,"connected_time":1628000000000,"state":"active","ping":57},{"user_id":324,"name":"floppy muppet","steam_id":76561198003076261,"connected_time":1124000000000,"state":"active","ping":69},{"user_id":325,"name":"Aria of The Soul","steam_id":76561198025668771,"connected_time":1116000000000,"state":"active","ping":118},{"user_id":311,"name":"Fatcat.win(false) ;","steam_id":76561198069007806,"connected_time":1599000000000,"state":"active","ping":62},{"user_id":312,"name":"gordon freeman christmas","steam_id":76561198367735460,"connected_time":1590000000000,"state":"active","ping":66},{"user_id":313,"name":"Fausto Murillo","steam_id":76561198936120487,"connected_time":1493000000000,"state":"active","ping":118}]},{"server_id":401,"name":"Uncletopia | Atlanta | 4 | No Payload","name_short":"atl-4","host":"atl-1.us.uncletopia.com","port":27045,"enabled":true,"region":"us-east","cc":"us","latitude":33.753746,"longitude":-84.38633,"reserved":0,"last_update":"0001-01-01T00:00:00Z","name_a2s":"Uncletopia | Atlanta | 4 | No Payload","protocol":17,"map":"koth_harvest_final","folder":"tf","game":"Team Fortress","app_id":440,"player_count":0,"max_players":24,"Bots":0,"server_type":"Dedicated","server_os":"Linux","password":true,"vac":true,"version":"7708610","steam_id":85568392924515188,"keywords":["cp","nocrits","nodmgspread","uncletopia"],"game_id":440,"stv_port":27046,"stv_name":"Uncletopia | Atlanta | 4 | No Payload | STV","players":null},{"server_id":2,"name":"Uncletopia | Chicago | 1 | All Maps","name_short":"chi-1","host":"chi-1.us.uncletopia.com","port":27015,"enabled":true,"region":"us-central","cc":"us","latitude":41.881832,"longitude":-87.62318,"reserved":0,"last_update":"0001-01-01T00:00:00Z","name_a2s":"Uncletopia | Chicago | 1 | All Maps","protocol":17,"map":"pl_upward","folder":"tf","game":"Team Fortress","app_id":440,"player_count":24,"max_players":24,"Bots":0,"server_type":"Dedicated","server_os":"Linux","password":true,"vac":true,"version":"7708610","steam_id":85568392924469984,"keywords":["nocrits","nodmgspread","payload","uncletopia"],"game_id":440,"stv_port":27016,"stv_name":"Uncletopia | Chicago | 1 | All Maps | STV","players":[{"user_id":514,"name":"jingle.JIFF","steam_id":76561198045181760,"connected_time":3794000000000,"state":"active","ping":55},{"user_id":516,"name":"OldManHenderson1976","steam_id":76561198148713751,"connected_time":3691000000000,"state":"active","ping":96},{"user_id":539,"name":"Ye (I Love Hitler) West","steam_id":76561198068830312,"connected_time":1124000000000,"state":"active","ping":45},{"user_id":528,"name":"cop037","steam_id":76561199085470647,"connected_time":2145000000000,"state":"active","ping":61},{"user_id":530,"name":"debin","steam_id":76561198070711217,"connected_time":2124000000000,"state":"active","ping":57},{"user_id":380,"name":"Chode Mode","steam_id":76561198353840477,"connected_time":13205000000000,"state":"active","ping":45},{"user_id":541,"name":"Mr. Tickle","steam_id":76561198126684647,"connected_time":928000000000,"state":"active","ping":61},{"user_id":518,"name":"Heti","steam_id":76561197972832497,"connected_time":3664000000000,"state":"active","ping":58},{"user_id":531,"name":"slep.py","steam_id":76561197988287144,"connected_time":2120000000000,"state":"active","ping":56},{"user_id":505,"name":"Slot #deletepyro","steam_id":76561198119483989,"connected_time":4450000000000,"state":"active","ping":78},{"user_id":536,"name":"Gordan Timlothle","steam_id":76561198272013678,"connected_time":1538000000000,"state":"active","ping":66},{"user_id":544,"name":"Fancyassasin","steam_id":76561198331864258,"connected_time":348000000000,"state":"active","ping":50},{"user_id":460,"name":"tingle shitmouth","steam_id":76561198055109192,"connected_time":8264000000000,"state":"active","ping":70},{"user_id":529,"name":"floof","steam_id":76561198167756375,"connected_time":2145000000000,"state":"active","ping":94},{"user_id":545,"name":"THRILLHO","steam_id":76561198371663047,"connected_time":346000000000,"state":"active","ping":66},{"user_id":534,"name":"sara","steam_id":76561198283462369,"connected_time":2037000000000,"state":"active","ping":104},{"user_id":542,"name":"nauts salt","steam_id":76561198045832398,"connected_time":890000000000,"state":"active","ping":76},{"user_id":537,"name":"Thatoneguybunchanumbers","steam_id":76561198028039160,"connected_time":1169000000000,"state":"active","ping":79},{"user_id":500,"name":"bob","steam_id":76561199033536567,"connected_time":4994000000000,"state":"active","ping":76},{"user_id":493,"name":"a real gummy krabby patty","steam_id":76561198238842076,"connected_time":5313000000000,"state":"active","ping":75},{"user_id":535,"name":"2spooky","steam_id":76561198094747637,"connected_time":1937000000000,"state":"active","ping":102},{"user_id":547,"name":"CrankShaft","steam_id":76561197970750813,"connected_time":229000000000,"state":"active","ping":59},{"user_id":548,"name":"CyberZayne","steam_id":76561198002351356,"connected_time":102000000000,"state":"active","ping":78},{"user_id":526,"name":"Lia_Reindeer","steam_id":76561198151569597,"connected_time":2448000000000,"state":"active","ping":147}]},{"server_id":106,"name":"Uncletopia | Chicago | 2 | All Maps","name_short":"chi-2","host":"chi-1.us.uncletopia.com","port":27025,"enabled":true,"region":"us-central","cc":"us","latitude":41.881832,"longitude":-87.62318,"reserved":0,"last_update":"0001-01-01T00:00:00Z","name_a2s":"Uncletopia | Chicago | 2 | All Maps","protocol":17,"map":"pl_badwater","folder":"tf","game":"Team Fortress","app_id":440,"player_count":23,"max_players":24,"Bots":0,"server_type":"Dedicated","server_os":"Linux","password":true,"vac":true,"version":"7708610","steam_id":85568392924469985,"keywords":["nocrits","nodmgspread","payload","uncletopia"],"game_id":440,"stv_port":27026,"stv_name":"Uncletopia | Chicago | 2 | All Maps | STV","players":[{"user_id":417,"name":"Sprinklingmydoughnut","steam_id":76561198168009092,"connected_time":638000000000,"state":"active","ping":64},{"user_id":391,"name":"XxX_Yung_XxX_Pr0d1gy_XxX","steam_id":76561198076367669,"connected_time":2653000000000,"state":"active","ping":67},{"user_id":393,"name":"PlatinumYeti","steam_id":76561198427937434,"connected_time":2277000000000,"state":"active","ping":70},{"user_id":368,"name":"cyro","steam_id":76561199168009558,"connected_time":4262000000000,"state":"active","ping":68},{"user_id":380,"name":"Discourse","steam_id":76561198984286678,"connected_time":3207000000000,"state":"active","ping":51},{"user_id":385,"name":"A Hard Boiled Egg","steam_id":76561197979078330,"connected_time":3185000000000,"state":"active","ping":60},{"user_id":407,"name":"chad","steam_id":76561198216109017,"connected_time":989000000000,"state":"active","ping":69},{"user_id":370,"name":"Totouri","steam_id":76561198004229789,"connected_time":4009000000000,"state":"active","ping":58},{"user_id":413,"name":"nines","steam_id":76561198078992548,"connected_time":918000000000,"state":"active","ping":75},{"user_id":373,"name":"MasterSheep","steam_id":76561198082157948,"connected_time":3635000000000,"state":"active","ping":63},{"user_id":375,"name":"Clear Fyre","steam_id":76561198355393542,"connected_time":3406000000000,"state":"active","ping":61},{"user_id":405,"name":"Merchants of Misery","steam_id":76561199188142396,"connected_time":1254000000000,"state":"active","ping":78},{"user_id":384,"name":"Fuzzy Toast","steam_id":76561198028067781,"connected_time":3188000000000,"state":"active","ping":43},{"user_id":418,"name":"no","steam_id":76561198248853140,"connected_time":324000000000,"state":"active","ping":76},{"user_id":403,"name":"Cooldude_15","steam_id":76561198346713382,"connected_time":1616000000000,"state":"active","ping":43},{"user_id":270,"name":"Fudgely","steam_id":76561198039425862,"connected_time":10371000000000,"state":"active","ping":76},{"user_id":394,"name":"asfd","steam_id":76561198012566405,"connected_time":2210000000000,"state":"active","ping":64},{"user_id":408,"name":"Txhiggins","steam_id":76561198117531009,"connected_time":984000000000,"state":"active","ping":67},{"user_id":422,"name":"Nate","steam_id":76561198068225765,"connected_time":93000000000,"state":"active","ping":57},{"user_id":410,"name":"Lullaby","steam_id":76561198061103166,"connected_time":970000000000,"state":"active","ping":60},{"user_id":412,"name":"R0cksf0rd7","steam_id":76561198041637759,"connected_time":966000000000,"state":"active","ping":45},{"user_id":401,"name":"jae are (f2p)","steam_id":76561198027906463,"connected_time":2109000000000,"state":"active","ping":45},{"user_id":404,"name":"♡ horny femboy ♡","steam_id":76561198248636560,"connected_time":1460000000000,"state":"active","ping":77}]},{"server_id":402,"name":"Uncletopia | Chicago | 3 | All Maps","name_short":"chi-3","host":"chi-1.us.uncletopia.com","port":27035,"enabled":true,"region":"us-central","cc":"us","latitude":41.881832,"longitude":-87.62318,"reserved":0,"last_update":"0001-01-01T00:00:00Z","name_a2s":"Uncletopia | Chicago | 3 | All Maps","protocol":17,"map":"ctf_2fort","folder":"tf","game":"Team Fortress","app_id":440,"player_count":22,"max_players":24,"Bots":0,"server_type":"Dedicated","server_os":"Linux","password":true,"vac":true,"version":"7708610","steam_id":85568392924515191,"keywords":["ctf","nocrits","nodmgspread","uncletopia"],"game_id":440,"stv_port":27036,"stv_name":"Uncletopia | Chicago | 3 | All Maps | STV","players":[{"user_id":114,"name":"therizzmaster7421","steam_id":76561197989592141,"connected_time":719000000000,"state":"active","ping":53},{"user_id":118,"name":"Rex","steam_id":76561198138365053,"connected_time":204000000000,"state":"active","ping":126},{"user_id":38,"name":"Rugbmilk","steam_id":76561199389283507,"connected_time":4565000000000,"state":"active","ping":61},{"user_id":117,"name":"BOB","steam_id":76561198282965733,"connected_time":221000000000,"state":"active","ping":69},{"user_id":24,"name":"BIGGEST MAC","steam_id":76561198847517098,"connected_time":6106000000000,"state":"active","ping":77},{"user_id":119,"name":"Smiles","steam_id":76561199229626037,"connected_time":201000000000,"state":"active","ping":100},{"user_id":120,"name":"Throckmorton","steam_id":76561198083636412,"connected_time":198000000000,"state":"active","ping":61},{"user_id":47,"name":"Quebec","steam_id":76561198857673882,"connected_time":3916000000000,"state":"active","ping":85},{"user_id":72,"name":"VanillaFoam","steam_id":76561198987085493,"connected_time":3507000000000,"state":"active","ping":79},{"user_id":48,"name":"The Hamburger Helper","steam_id":76561199043015346,"connected_time":3908000000000,"state":"active","ping":45},{"user_id":51,"name":"TexNG","steam_id":76561197976341487,"connected_time":3842000000000,"state":"active","ping":69},{"user_id":109,"name":"BIG LION","steam_id":76561198091880358,"connected_time":1926000000000,"state":"active","ping":53},{"user_id":89,"name":"Kocka Sq.","steam_id":76561198817722020,"connected_time":2847000000000,"state":"active","ping":70},{"user_id":121,"name":"スパイク","steam_id":76561199417277716,"connected_time":189000000000,"state":"active","ping":62},{"user_id":56,"name":"ultralisk52","steam_id":76561198051666604,"connected_time":3760000000000,"state":"active","ping":66},{"user_id":71,"name":"smooth !","steam_id":76561198909291667,"connected_time":3520000000000,"state":"active","ping":85},{"user_id":125,"name":"Asura","steam_id":76561199026590878,"connected_time":59000000000,"state":"spawning","ping":191},{"user_id":60,"name":"Sickmind33","steam_id":76561198036248611,"connected_time":3690000000000,"state":"active","ping":50},{"user_id":123,"name":"Kurizu","steam_id":76561198042678399,"connected_time":133000000000,"state":"active","ping":64},{"user_id":62,"name":"silly","steam_id":76561199009200975,"connected_time":3643000000000,"state":"active","ping":81},{"user_id":63,"name":"_Lusty_","steam_id":76561198876948142,"connected_time":3633000000000,"state":"active","ping":67},{"user_id":64,"name":"neeko","steam_id":76561198354256072,"connected_time":3597000000000,"state":"active","ping":36}]},{"server_id":403,"name":"Uncletopia | Chicago | 4 | All Maps","name_short":"chi-4","host":"chi-1.us.uncletopia.com","port":27045,"enabled":true,"region":"us-central","cc":"us","latitude":41.881832,"longitude":-87.62318,"reserved":0,"last_update":"0001-01-01T00:00:00Z","name_a2s":"Uncletopia | Chicago | 4 | All Maps","protocol":17,"map":"pl_borneo","folder":"tf","game":"Team Fortress","app_id":440,"player_count":24,"max_players":24,"Bots":0,"server_type":"Dedicated","server_os":"Linux","password":true,"vac":true,"version":"7708610","steam_id":85568392924515193,"keywords":["nocrits","nodmgspread","payload","uncletopia"],"game_id":440,"stv_port":27046,"stv_name":"Uncletopia | Chicago | 4 | All Maps | STV","players":[{"user_id":76,"name":"Acid_Logan","steam_id":76561198882525179,"connected_time":299000000000,"state":"active","ping":86},{"user_id":75,"name":"Logan The Lemon","steam_id":76561198816048002,"connected_time":327000000000,"state":"active","ping":65},{"user_id":24,"name":"Aerguera","steam_id":76561198117613222,"connected_time":4439000000000,"state":"active","ping":65},{"user_id":25,"name":"BongWater","steam_id":76561198082351263,"connected_time":4360000000000,"state":"active","ping":69},{"user_id":27,"name":"Bucket of Spaghetti","steam_id":76561198126680822,"connected_time":3163000000000,"state":"active","ping":64},{"user_id":30,"name":"That Dude","steam_id":76561198980486227,"connected_time":2812000000000,"state":"active","ping":119},{"user_id":29,"name":"CIDVONDRAX","steam_id":76561198330855481,"connected_time":3075000000000,"state":"active","ping":71},{"user_id":60,"name":"DJ Chalice","steam_id":76561197974872458,"connected_time":1909000000000,"state":"active","ping":55},{"user_id":71,"name":"Phillip Jeffries","steam_id":76561198064052174,"connected_time":702000000000,"state":"active","ping":59},{"user_id":69,"name":"gabby's kryptonite","steam_id":76561198196769297,"connected_time":971000000000,"state":"active","ping":59},{"user_id":70,"name":"zacksofplymouth #PLAYOFFSMODE","steam_id":76561198119679320,"connected_time":866000000000,"state":"active","ping":47},{"user_id":62,"name":"kilroy_39","steam_id":76561198205173325,"connected_time":1837000000000,"state":"active","ping":91},{"user_id":36,"name":"Whyamidoingthisaaaa","steam_id":76561199168837342,"connected_time":2553000000000,"state":"active","ping":59},{"user_id":39,"name":"Mina's Ninas","steam_id":76561198046502179,"connected_time":2436000000000,"state":"active","ping":94},{"user_id":38,"name":"THE CHAMP","steam_id":76561198328256922,"connected_time":2481000000000,"state":"active","ping":40},{"user_id":73,"name":"CF-166 (CF-TF2 on YT)","steam_id":76561198145893044,"connected_time":410000000000,"state":"active","ping":75},{"user_id":74,"name":"batheman63","steam_id":76561198881818552,"connected_time":345000000000,"state":"active","ping":61},{"user_id":77,"name":"dragonofbananas","steam_id":76561198978966358,"connected_time":272000000000,"state":"active","ping":58},{"user_id":44,"name":"Armoreddude","steam_id":76561198058739073,"connected_time":2393000000000,"state":"active","ping":49},{"user_id":81,"name":"Bondrewd (Best Anime Dad)","steam_id":76561198115278249,"connected_time":61000000000,"state":"active","ping":83},{"user_id":78,"name":"Seller of Waffles","steam_id":76561198296018138,"connected_time":269000000000,"state":"active","ping":46},{"user_id":66,"name":"2cats_2curious","steam_id":76561198027143149,"connected_time":1228000000000,"state":"active","ping":41},{"user_id":80,"name":"Minus","steam_id":76561198037887887,"connected_time":248000000000,"state":"active","ping":60},{"user_id":68,"name":"Wild_Rumpus","steam_id":76561198066393719,"connected_time":1050000000000,"state":"active","ping":59}]},{"server_id":36,"name":"Uncletopia | Chicago | 5 | All Maps","name_short":"chi-5","host":"chi-2.us.uncletopia.com","port":27015,"enabled":true,"region":"us-central","cc":"us","latitude":41.881832,"longitude":-87.62318,"reserved":0,"last_update":"0001-01-01T00:00:00Z","name_a2s":"Uncletopia | Chicago | 5 | All Maps","protocol":17,"map":"pl_swiftwater_final1","folder":"tf","game":"Team Fortress","app_id":440,"player_count":24,"max_players":24,"Bots":0,"server_type":"Dedicated","server_os":"Linux","password":true,"vac":true,"version":"7708610","steam_id":85568392924866362,"keywords":["nocrits","nodmgspread","payload","uncletopia"],"game_id":440,"stv_port":27016,"stv_name":"Uncletopia | Chicago | 5 | All Maps | STV","players":[{"user_id":361,"name":"Stafuu","steam_id":76561198065624594,"connected_time":195000000000,"state":"active","ping":69},{"user_id":335,"name":"Dick \"Magic Ears\" Knubbler","steam_id":76561197999169635,"connected_time":1444000000000,"state":"active","ping":52},{"user_id":362,"name":"clumpofblankets","steam_id":76561199223085255,"connected_time":161000000000,"state":"active","ping":161},{"user_id":346,"name":"Cleric","steam_id":76561198045887994,"connected_time":1095000000000,"state":"active","ping":47},{"user_id":317,"name":"fi_ji","steam_id":76561198126087725,"connected_time":2572000000000,"state":"active","ping":74},{"user_id":347,"name":"Oscidor","steam_id":76561198362839738,"connected_time":1038000000000,"state":"active","ping":76},{"user_id":355,"name":"rainingmudkips","steam_id":76561198018010854,"connected_time":247000000000,"state":"active","ping":62},{"user_id":320,"name":"CassandraRC7","steam_id":76561198094123940,"connected_time":2539000000000,"state":"active","ping":47},{"user_id":255,"name":"Monkey","steam_id":76561198031015186,"connected_time":7561000000000,"state":"active","ping":73},{"user_id":340,"name":"craf","steam_id":76561198163535075,"connected_time":1365000000000,"state":"active","ping":76},{"user_id":360,"name":"Epic Cleveland","steam_id":76561198079468469,"connected_time":206000000000,"state":"active","ping":60},{"user_id":349,"name":"Question Mark","steam_id":76561199433313023,"connected_time":917000000000,"state":"active","ping":99},{"user_id":354,"name":"Knifeagent701","steam_id":76561198080002386,"connected_time":272000000000,"state":"active","ping":74},{"user_id":357,"name":"Rex The Mouse","steam_id":76561197995569428,"connected_time":236000000000,"state":"active","ping":71},{"user_id":308,"name":"matkaster","steam_id":76561197998546486,"connected_time":4457000000000,"state":"active","ping":64},{"user_id":352,"name":"toq","steam_id":76561198400316620,"connected_time":623000000000,"state":"active","ping":99},{"user_id":328,"name":"Fall from Grace!!","steam_id":76561198124695376,"connected_time":2131000000000,"state":"active","ping":73},{"user_id":319,"name":"Lone Dancer","steam_id":76561199096241116,"connected_time":2558000000000,"state":"active","ping":60},{"user_id":311,"name":"❤ Ashley ❤","steam_id":76561198056428303,"connected_time":4369000000000,"state":"active","ping":107},{"user_id":325,"name":"jacix3 [gay wolfgirl]{she/it}","steam_id":76561198205004165,"connected_time":2336000000000,"state":"active","ping":117},{"user_id":358,"name":"Fredfredfood","steam_id":76561198072824802,"connected_time":216000000000,"state":"active","ping":51},{"user_id":339,"name":"jnn","steam_id":76561198078395002,"connected_time":1387000000000,"state":"active","ping":69},{"user_id":359,"name":"DeathToCats","steam_id":76561198092238353,"connected_time":211000000000,"state":"active","ping":75},{"user_id":344,"name":"sys","steam_id":76561198300912581,"connected_time":1314000000000,"state":"active","ping":98}]},{"server_id":37,"name":"Uncletopia | Chicago | 6 | All Maps","name_short":"chi-6","host":"chi-2.us.uncletopia.com","port":27025,"enabled":true,"region":"us-central","cc":"us","latitude":41.881832,"longitude":-87.62318,"reserved":0,"last_update":"0001-01-01T00:00:00Z","name_a2s":"Uncletopia | Chicago | 6 | All Maps","protocol":17,"map":"koth_cascade","folder":"tf","game":"Team Fortress","app_id":440,"player_count":0,"max_players":24,"Bots":0,"server_type":"Dedicated","server_os":"Linux","password":true,"vac":true,"version":"7708610","steam_id":85568392924866363,"keywords":["cp","nocrits","nodmgspread","uncletopia"],"game_id":440,"stv_port":0,"stv_name":"","players":null},{"server_id":38,"name":"Uncletopia | Chicago | 7 | No Payload","name_short":"chi-7","host":"chi-2.us.uncletopia.com","port":27035,"enabled":true,"region":"us-central","cc":"us","latitude":41.881832,"longitude":-87.62318,"reserved":0,"last_update":"0001-01-01T00:00:00Z","name_a2s":"Uncletopia | Chicago | 7 | No Payload","protocol":17,"map":"koth_viaduct","folder":"tf","game":"Team Fortress","app_id":440,"player_count":0,"max_players":24,"Bots":0,"server_type":"Dedicated","server_os":"Linux","password":true,"vac":true,"version":"7708610","steam_id":85568392924866364,"keywords":["cp","nocrits","nodmgspread","uncletopia"],"game_id":440,"stv_port":0,"stv_name":"","players":null},{"server_id":39,"name":"Uncletopia | Chicago | 8 | Community","name_short":"chi-8","host":"chi-2.us.uncletopia.com","port":27045,"enabled":true,"region":"us-central","cc":"us","latitude":41.881832,"longitude":-87.62318,"reserved":0,"last_update":"0001-01-01T00:00:00Z","name_a2s":"Uncletopia | Chicago | 8 | Community","protocol":17,"map":"pl_pier","folder":"tf","game":"Team Fortress","app_id":440,"player_count":0,"max_players":24,"Bots":0,"server_type":"Dedicated","server_os":"Linux","password":true,"vac":true,"version":"7708610","steam_id":85568392924866365,"keywords":["nocrits","nodmgspread","payload","uncletopia"],"game_id":440,"stv_port":0,"stv_name":"","players":null},{"server_id":8,"name":"Uncletopia | Dallas | 1 | All Maps","name_short":"dal-1","host":"dal-1.us.uncletopia.com","port":27015,"enabled":true,"region":"us-central","cc":"us","latitude":32.779167,"longitude":-96.80889,"reserved":0,"last_update":"0001-01-01T00:00:00Z","name_a2s":"Uncletopia | Dallas | 1 | All Maps","protocol":17,"map":"pl_swiftwater_final1","folder":"tf","game":"Team Fortress","app_id":440,"player_count":24,"max_players":24,"Bots":0,"server_type":"Dedicated","server_os":"Linux","password":true,"vac":true,"version":"7708610","steam_id":85568392924469986,"keywords":["nocrits","nodmgspread","payload","uncletopia"],"game_id":440,"stv_port":27016,"stv_name":"Uncletopia | Dallas | 1 | All Maps | STV","players":[{"user_id":145,"name":"iluvtoust","steam_id":76561198869269207,"connected_time":315000000000,"state":"active","ping":54},{"user_id":120,"name":"DRI","steam_id":76561198157076858,"connected_time":2091000000000,"state":"active","ping":80},{"user_id":130,"name":"Tuvok Shakur","steam_id":76561198018875334,"connected_time":959000000000,"state":"active","ping":99},{"user_id":128,"name":"The Punk","steam_id":76561198079451856,"connected_time":1021000000000,"state":"active","ping":70},{"user_id":103,"name":"El Doktor","steam_id":76561198413013439,"connected_time":3741000000000,"state":"active","ping":61},{"user_id":129,"name":"legalize nuclear bombs","steam_id":76561199105606956,"connected_time":1013000000000,"state":"active","ping":80},{"user_id":131,"name":",","steam_id":76561199174579733,"connected_time":935000000000,"state":"active","ping":100},{"user_id":121,"name":"dobby","steam_id":76561198012274834,"connected_time":1984000000000,"state":"active","ping":60},{"user_id":96,"name":"John F. Kennedy","steam_id":76561198068825962,"connected_time":4235000000000,"state":"active","ping":79},{"user_id":42,"name":"Tommy Provolone","steam_id":76561198170062377,"connected_time":7157000000000,"state":"active","ping":67},{"user_id":138,"name":"thelazydog","steam_id":76561198947215423,"connected_time":700000000000,"state":"active","ping":53},{"user_id":132,"name":"D3AC0N 44","steam_id":76561198115695203,"connected_time":918000000000,"state":"active","ping":57},{"user_id":133,"name":"Wahooka (Manrobics Instructor)","steam_id":76561197962240925,"connected_time":898000000000,"state":"active","ping":80},{"user_id":124,"name":"valtiel","steam_id":76561198165212575,"connected_time":1612000000000,"state":"active","ping":78},{"user_id":140,"name":"Abbreviated","steam_id":76561198088423054,"connected_time":576000000000,"state":"active","ping":75},{"user_id":135,"name":"Ping","steam_id":76561199206514106,"connected_time":871000000000,"state":"active","ping":64},{"user_id":137,"name":"fudo myoo","steam_id":76561198456258164,"connected_time":720000000000,"state":"active","ping":75},{"user_id":139,"name":"Michaelpc1","steam_id":76561198088365519,"connected_time":695000000000,"state":"active","ping":88},{"user_id":119,"name":"AlvWhispery","steam_id":76561198850017423,"connected_time":2149000000000,"state":"active","ping":75},{"user_id":141,"name":"just lookin around","steam_id":76561198967441167,"connected_time":532000000000,"state":"active","ping":46},{"user_id":142,"name":"Renecup","steam_id":76561199021666883,"connected_time":530000000000,"state":"active","ping":60},{"user_id":143,"name":"Rhutebeer","steam_id":76561198018302761,"connected_time":525000000000,"state":"active","ping":78},{"user_id":65,"name":"-BRH- Tangled up in Bluegrass","steam_id":76561197987181139,"connected_time":6815000000000,"state":"active","ping":88},{"user_id":144,"name":"Kronk","steam_id":76561198063092125,"connected_time":513000000000,"state":"active","ping":94}]},{"server_id":108,"name":"Uncletopia | Dallas | 2 | All Maps","name_short":"dal-2","host":"dal-1.us.uncletopia.com","port":27025,"enabled":true,"region":"us-central","cc":"us","latitude":32.779167,"longitude":-96.80889,"reserved":0,"last_update":"0001-01-01T00:00:00Z","name_a2s":"Uncletopia | Dallas | 2 | All Maps","protocol":17,"map":"cp_dustbowl","folder":"tf","game":"Team Fortress","app_id":440,"player_count":9,"max_players":24,"Bots":0,"server_type":"Dedicated","server_os":"Linux","password":true,"vac":true,"version":"7708610","steam_id":85568392924469988,"keywords":["cp","nocrits","nodmgspread","uncletopia"],"game_id":440,"stv_port":27026,"stv_name":"Uncletopia | Dallas | 2 | All Maps | STV","players":[{"user_id":182,"name":"corygaming","steam_id":76561198035669409,"connected_time":161000000000,"state":"active","ping":110},{"user_id":183,"name":"squishy","steam_id":76561198015034116,"connected_time":159000000000,"state":"active","ping":64},{"user_id":169,"name":"JobsDone2","steam_id":76561198159158870,"connected_time":1785000000000,"state":"active","ping":84},{"user_id":173,"name":"CrackedSanity","steam_id":76561198279841251,"connected_time":1424000000000,"state":"active","ping":73},{"user_id":152,"name":"Jorks","steam_id":76561198163510446,"connected_time":3034000000000,"state":"active","ping":46},{"user_id":170,"name":"Captain Sum Ting Wong","steam_id":76561198354553041,"connected_time":1751000000000,"state":"active","ping":98},{"user_id":176,"name":"xX_matias.gamer_Xx","steam_id":76561199187226776,"connected_time":645000000000,"state":"active","ping":48},{"user_id":184,"name":"Yayifications","steam_id":76561198066227208,"connected_time":155000000000,"state":"active","ping":64},{"user_id":185,"name":"Emma","steam_id":76561198318093783,"connected_time":87000000000,"state":"active","ping":53}]},{"server_id":5,"name":"Uncletopia | Frankfurt | 1 | All Maps","name_short":"frk-1","host":"frk-1.de.uncletopia.com","port":27015,"enabled":true,"region":"eu","cc":"de","latitude":50.110924,"longitude":8.682127,"reserved":0,"last_update":"0001-01-01T00:00:00Z","name_a2s":"Uncletopia | Frankfurt | 1 | All Maps","protocol":17,"map":"pl_borneo","folder":"tf","game":"Team Fortress","app_id":440,"player_count":24,"max_players":24,"Bots":0,"server_type":"Dedicated","server_os":"Linux","password":true,"vac":true,"version":"7708610","steam_id":85568392924469989,"keywords":["nocrits","nodmgspread","payload","uncletopia"],"game_id":440,"stv_port":27016,"stv_name":"Uncletopia | Frankfurt | 1 | All Maps | STV","players":[{"user_id":639,"name":"333","steam_id":76561198029805235,"connected_time":2725000000000,"state":"active","ping":64},{"user_id":669,"name":"outin","steam_id":76561198137734730,"connected_time":431000000000,"state":"active","ping":73},{"user_id":670,"name":"OREO","steam_id":76561198017080006,"connected_time":425000000000,"state":"active","ping":106},{"user_id":644,"name":"Festive Maya","steam_id":76561198128616615,"connected_time":1943000000000,"state":"active","ping":61},{"user_id":612,"name":"lettuce at 58p","steam_id":76561199401283123,"connected_time":6116000000000,"state":"active","ping":61},{"user_id":664,"name":"insanitY","steam_id":76561198055666742,"connected_time":683000000000,"state":"active","ping":115},{"user_id":652,"name":"DocTwoEight","steam_id":76561198153488940,"connected_time":1877000000000,"state":"active","ping":62},{"user_id":657,"name":"POW!","steam_id":76561198438343751,"connected_time":1571000000000,"state":"active","ping":58},{"user_id":481,"name":"Pico","steam_id":76561198063552545,"connected_time":17638000000000,"state":"active","ping":101},{"user_id":647,"name":"Mango","steam_id":76561198139555709,"connected_time":1926000000000,"state":"active","ping":45},{"user_id":617,"name":"cat (they/them)","steam_id":76561198416657815,"connected_time":5684000000000,"state":"active","ping":71},{"user_id":621,"name":"merry beebo","steam_id":76561199120277007,"connected_time":4711000000000,"state":"active","ping":54},{"user_id":659,"name":"average demoman","steam_id":76561197961707932,"connected_time":1464000000000,"state":"active","ping":53},{"user_id":665,"name":"Cormaus","steam_id":76561198104254899,"connected_time":629000000000,"state":"active","ping":84},{"user_id":637,"name":"Bl3ss","steam_id":76561197965895821,"connected_time":2905000000000,"state":"active","ping":59},{"user_id":658,"name":"Bob_Tostas","steam_id":76561198249006560,"connected_time":1568000000000,"state":"active","ping":86},{"user_id":629,"name":"Krismas","steam_id":76561198021772843,"connected_time":3465000000000,"state":"active","ping":51},{"user_id":668,"name":"Lewylow","steam_id":76561198005425686,"connected_time":501000000000,"state":"active","ping":69},{"user_id":667,"name":"1oko","steam_id":76561198258675383,"connected_time":564000000000,"state":"active","ping":60},{"user_id":642,"name":"nudjura","steam_id":76561198281986139,"connected_time":2503000000000,"state":"active","ping":53},{"user_id":660,"name":"azzy","steam_id":76561198061293740,"connected_time":1401000000000,"state":"active","ping":81},{"user_id":661,"name":"Iru","steam_id":76561198077602040,"connected_time":1398000000000,"state":"active","ping":60},{"user_id":624,"name":"filo","steam_id":76561198103633797,"connected_time":3754000000000,"state":"active","ping":85},{"user_id":601,"name":"Acid","steam_id":76561198102110680,"connected_time":7758000000000,"state":"active","ping":94}]},{"server_id":110,"name":"Uncletopia | Frankfurt | 2 | All Maps","name_short":"frk-2","host":"frk-1.de.uncletopia.com","port":27025,"enabled":true,"region":"eu","cc":"de","latitude":50.110924,"longitude":8.682127,"reserved":0,"last_update":"0001-01-01T00:00:00Z","name_a2s":"Uncletopia | Frankfurt | 2 | All Maps","protocol":17,"map":"koth_cascade","folder":"tf","game":"Team Fortress","app_id":440,"player_count":0,"max_players":24,"Bots":0,"server_type":"Dedicated","server_os":"Linux","password":true,"vac":true,"version":"7708610","steam_id":85568392924469990,"keywords":["cp","nocrits","nodmgspread","uncletopia"],"game_id":440,"stv_port":27026,"stv_name":"Uncletopia | Frankfurt | 2 | All Maps | STV","players":null},{"server_id":308,"name":"Uncletopia | Frankfurt | 3 | All Maps","name_short":"frk-3","host":"frk-1.de.uncletopia.com","port":27035,"enabled":true,"region":"eu","cc":"de","latitude":50.110924,"longitude":8.682127,"reserved":0,"last_update":"0001-01-01T00:00:00Z","name_a2s":"Uncletopia | Frankfurt | 3 | All Maps","protocol":17,"map":"koth_highpass","folder":"tf","game":"Team Fortress","app_id":440,"player_count":2,"max_players":24,"Bots":0,"server_type":"Dedicated","server_os":"Linux","password":true,"vac":true,"version":"7708610","steam_id":85568392924504274,"keywords":["cp","nocrits","nodmgspread","uncletopia"],"game_id":440,"stv_port":27036,"stv_name":"Uncletopia | Frankfurt | 3 | All Maps | STV","players":[{"user_id":329,"name":"CloutyiliaS","steam_id":76561198868490066,"connected_time":193000000000,"state":"active","ping":75},{"user_id":330,"name":"Sdude123 #SaveTF2","steam_id":76561198302325770,"connected_time":172000000000,"state":"active","ping":85}]},{"server_id":309,"name":"Uncletopia | Frankfurt | 4 | All Maps","name_short":"frk-4","host":"frk-1.de.uncletopia.com","port":27045,"enabled":true,"region":"eu","cc":"de","latitude":50.110924,"longitude":8.682127,"reserved":0,"last_update":"0001-01-01T00:00:00Z","name_a2s":"Uncletopia | Frankfurt | 4 | All Maps","protocol":17,"map":"cp_snakewater_final1","folder":"tf","game":"Team Fortress","app_id":440,"player_count":0,"max_players":24,"Bots":0,"server_type":"Dedicated","server_os":"Linux","password":true,"vac":true,"version":"7708610","steam_id":85568392924504275,"keywords":["cp","nocrits","nodmgspread","uncletopia"],"game_id":440,"stv_port":27046,"stv_name":"Uncletopia | Frankfurt | 4 | All Maps | STV","players":null},{"server_id":310,"name":"Uncletopia | Frankfurt | 5 | All Maps","name_short":"frk-5","host":"frk-1.de.uncletopia.com","port":27055,"enabled":true,"region":"eu","cc":"de","latitude":50.110924,"longitude":8.682127,"reserved":0,"last_update":"0001-01-01T00:00:00Z","name_a2s":"Uncletopia | Frankfurt | 5 | All Maps","protocol":17,"map":"koth_lakeside_final","folder":"tf","game":"Team Fortress","app_id":440,"player_count":0,"max_players":24,"Bots":0,"server_type":"Dedicated","server_os":"Linux","password":true,"vac":true,"version":"7708610","steam_id":85568392924504277,"keywords":["cp","nocrits","nodmgspread","uncletopia"],"game_id":440,"stv_port":27056,"stv_name":"Uncletopia | Frankfurt | 5 | All Maps | STV","players":null},{"server_id":311,"name":"Uncletopia | Frankfurt | 6 | All Maps","name_short":"frk-6","host":"frk-1.de.uncletopia.com","port":27065,"enabled":true,"region":"eu","cc":"de","latitude":50.110924,"longitude":8.682127,"reserved":0,"last_update":"0001-01-01T00:00:00Z","name_a2s":"Uncletopia | Frankfurt | 6 | All Maps","protocol":17,"map":"cp_altitude","folder":"tf","game":"Team Fortress","app_id":440,"player_count":15,"max_players":24,"Bots":0,"server_type":"Dedicated","server_os":"Linux","password":true,"vac":true,"version":"7708610","steam_id":85568392924504278,"keywords":["cp","nocrits","nodmgspread","uncletopia"],"game_id":440,"stv_port":27066,"stv_name":"Uncletopia | Frankfurt | 6 | All Maps | STV","players":[{"user_id":504,"name":"WolfTamer282","steam_id":76561199354180722,"connected_time":89000000000,"state":"active","ping":169},{"user_id":414,"name":"Mari_Kross","steam_id":76561198130863086,"connected_time":8104000000000,"state":"active","ping":75},{"user_id":465,"name":"New","steam_id":76561198402195911,"connected_time":3762000000000,"state":"active","ping":107},{"user_id":499,"name":"Tamakeri","steam_id":76561198261676534,"connected_time":352000000000,"state":"active","ping":72},{"user_id":505,"name":"Wheatley","steam_id":76561199059006203,"connected_time":83000000000,"state":"active","ping":176},{"user_id":470,"name":"giclure :;","steam_id":76561197986362828,"connected_time":3385000000000,"state":"active","ping":53},{"user_id":502,"name":"still overextending?","steam_id":76561198073639489,"connected_time":284000000000,"state":"active","ping":53},{"user_id":503,"name":"ULTIMATE_GORDON","steam_id":76561198044470038,"connected_time":164000000000,"state":"active","ping":48},{"user_id":494,"name":"Hannü","steam_id":76561197969886128,"connected_time":1665000000000,"state":"active","ping":60},{"user_id":484,"name":"agent youppii","steam_id":76561198055264447,"connected_time":2806000000000,"state":"active","ping":69},{"user_id":480,"name":"xavier_xylophone_2001","steam_id":76561198076494034,"connected_time":2823000000000,"state":"active","ping":58},{"user_id":490,"name":"Kolar","steam_id":76561198108583895,"connected_time":2012000000000,"state":"active","ping":58},{"user_id":475,"name":"nedilya","steam_id":76561198039692077,"connected_time":3261000000000,"state":"active","ping":58},{"user_id":498,"name":"Abstruse","steam_id":76561198084806733,"connected_time":394000000000,"state":"active","ping":72},{"user_id":483,"name":"Vershal Smershal","steam_id":76561198116223995,"connected_time":2818000000000,"state":"active","ping":60}]},{"server_id":23,"name":"Uncletopia | Frankfurt | 7 | No Payload","name_short":"frk-7","host":"frk-1.de.uncletopia.com","port":27075,"enabled":true,"region":"eu","cc":"de","latitude":50.110924,"longitude":8.682127,"reserved":0,"last_update":"0001-01-01T00:00:00Z","name_a2s":"Uncletopia | Frankfurt | 7 | No Payload","protocol":17,"map":"cp_granary","folder":"tf","game":"Team Fortress","app_id":440,"player_count":0,"max_players":24,"Bots":0,"server_type":"Dedicated","server_os":"Linux","password":true,"vac":true,"version":"7708610","steam_id":85568392924742827,"keywords":["cp","nocrits","nodmgspread","uncletopia"],"game_id":440,"stv_port":27076,"stv_name":"Uncletopia | Frankfurt | 7 | No Payload | STV","players":null},{"server_id":24,"name":"Uncletopia | Frankfurt | 8 | Community","name_short":"frk-8","host":"frk-1.de.uncletopia.com","port":27085,"enabled":true,"region":"eu","cc":"de","latitude":50.110924,"longitude":8.682127,"reserved":0,"last_update":"0001-01-01T00:00:00Z","name_a2s":"Uncletopia | Frankfurt | 8 | Community","protocol":17,"map":"workshop/koth_ramjam_v2_b2.ugc2865676487","folder":"tf","game":"Team Fortress","app_id":440,"player_count":0,"max_players":24,"Bots":0,"server_type":"Dedicated","server_os":"Linux","password":true,"vac":true,"version":"7708610","steam_id":85568392924742828,"keywords":["cp","nocrits","nodmgspread","uncletopia"],"game_id":440,"stv_port":27086,"stv_name":"Uncletopia | Frankfurt | 8 | Community | STV","players":null},{"server_id":202,"name":"Uncletopia | Hong Kong | 1 | All Maps","name_short":"hgk-1","host":"hgk-1.hk.uncletopia.com","port":27015,"enabled":true,"region":"asia","cc":"hk","latitude":22.302711,"longitude":114.177216,"reserved":0,"last_update":"0001-01-01T00:00:00Z","name_a2s":"Uncletopia | Hong Kong | 1 | All Maps","protocol":17,"map":"pl_upward","folder":"tf","game":"Team Fortress","app_id":440,"player_count":0,"max_players":24,"Bots":0,"server_type":"Dedicated","server_os":"Linux","password":true,"vac":true,"version":"7708610","steam_id":85568392924494504,"keywords":["nocrits","nodmgspread","payload","uncletopia"],"game_id":440,"stv_port":0,"stv_name":"","players":null},{"server_id":1,"name":"Uncletopia | Los Angeles | 1 | All Maps","name_short":"lax-1","host":"lax-1.us.uncletopia.com","port":27015,"enabled":true,"region":"us-west","cc":"us","latitude":33.94279,"longitude":-118.41004,"reserved":0,"last_update":"0001-01-01T00:00:00Z","name_a2s":"Uncletopia | Los Angeles | 1 | All Maps","protocol":17,"map":"pl_pier","folder":"tf","game":"Team Fortress","app_id":440,"player_count":4,"max_players":24,"Bots":0,"server_type":"Dedicated","server_os":"Linux","password":true,"vac":true,"version":"7708610","steam_id":85568392924469991,"keywords":["nocrits","nodmgspread","payload","uncletopia"],"game_id":440,"stv_port":27016,"stv_name":"Uncletopia | Los Angeles | 1 | All Maps | STV","players":[{"user_id":10,"name":"Valory","steam_id":76561199112052118,"connected_time":371000000000,"state":"active","ping":76},{"user_id":11,"name":"Haxboi","steam_id":76561198380180584,"connected_time":355000000000,"state":"active","ping":83},{"user_id":12,"name":"Ian","steam_id":76561198159334435,"connected_time":100000000000,"state":"active","ping":165},{"user_id":13,"name":"lulypuca6","steam_id":76561199050982610,"connected_time":8000000000,"state":"spawning","ping":264}]},{"server_id":112,"name":"Uncletopia | Los Angeles | 2 | All Maps","name_short":"lax-2","host":"lax-1.us.uncletopia.com","port":27025,"enabled":true,"region":"us-west","cc":"us","latitude":33.94279,"longitude":-118.41004,"reserved":0,"last_update":"0001-01-01T00:00:00Z","name_a2s":"Uncletopia | Los Angeles | 2 | All Maps","protocol":17,"map":"cp_altitude","folder":"tf","game":"Team Fortress","app_id":440,"player_count":0,"max_players":24,"Bots":0,"server_type":"Dedicated","server_os":"Linux","password":true,"vac":true,"version":"7708610","steam_id":85568392924469992,"keywords":["cp","nocrits","nodmgspread","uncletopia"],"game_id":440,"stv_port":0,"stv_name":"","players":null},{"server_id":324,"name":"Uncletopia | Los Angeles | 3 | All Maps","name_short":"lax-3","host":"lax-1.us.uncletopia.com","port":27035,"enabled":true,"region":"us-west","cc":"us","latitude":33.94279,"longitude":-118.41004,"reserved":0,"last_update":"0001-01-01T00:00:00Z","name_a2s":"Uncletopia | Los Angeles | 3 | All Maps","protocol":17,"map":"cp_sunshine","folder":"tf","game":"Team Fortress","app_id":440,"player_count":0,"max_players":24,"Bots":0,"server_type":"Dedicated","server_os":"Linux","password":true,"vac":true,"version":"7708610","steam_id":85568392924510198,"keywords":["cp","nocrits","nodmgspread","uncletopia"],"game_id":440,"stv_port":27036,"stv_name":"Uncletopia | Los Angeles | 3 | All Maps | STV","players":null},{"server_id":25,"name":"Uncletopia | Los Angeles | 4 | No Payload","name_short":"lax-4","host":"lax-1.us.uncletopia.com","port":27045,"enabled":true,"region":"us-west","cc":"us","latitude":33.94279,"longitude":-118.41004,"reserved":0,"last_update":"0001-01-01T00:00:00Z","name_a2s":"Uncletopia | Los Angeles | 4 | No Payload","protocol":17,"map":"koth_lazarus","folder":"tf","game":"Team Fortress","app_id":440,"player_count":0,"max_players":24,"Bots":0,"server_type":"Dedicated","server_os":"Linux","password":true,"vac":true,"version":"7708610","steam_id":85568392924510199,"keywords":["cp","nocrits","nodmgspread","uncletopia"],"game_id":440,"stv_port":27046,"stv_name":"Uncletopia | Los Angeles | 4 | No Payload | STV","players":null},{"server_id":11,"name":"Uncletopia | London | 1 | All Maps","name_short":"lon-1","host":"lon-1.uk.uncletopia.com","port":27015,"enabled":true,"region":"eu","cc":"gb","latitude":51.509865,"longitude":-0.118092,"reserved":0,"last_update":"0001-01-01T00:00:00Z","name_a2s":"Uncletopia | London | 1 | All Maps","protocol":17,"map":"pl_pier","folder":"tf","game":"Team Fortress","app_id":440,"player_count":0,"max_players":24,"Bots":0,"server_type":"Dedicated","server_os":"Linux","password":true,"vac":true,"version":"7708610","steam_id":85568392924367362,"keywords":["nocrits","nodmgspread","payload","uncletopia"],"game_id":440,"stv_port":27016,"stv_name":"Uncletopia | London | 1 | All Maps | STV","players":null},{"server_id":114,"name":"Uncletopia | London | 2 | All Maps","name_short":"lon-2","host":"lon-1.uk.uncletopia.com","port":27025,"enabled":true,"region":"eu","cc":"gb","latitude":51.509865,"longitude":-0.118092,"reserved":0,"last_update":"0001-01-01T00:00:00Z","name_a2s":"Uncletopia | London | 2 | All Maps","protocol":17,"map":"pl_wutville_event","folder":"tf","game":"Team Fortress","app_id":440,"player_count":22,"max_players":24,"Bots":0,"server_type":"Dedicated","server_os":"Linux","password":true,"vac":true,"version":"7708610","steam_id":85568392924470941,"keywords":["nocrits","nodmgspread","payload","uncletopia"],"game_id":440,"stv_port":27026,"stv_name":"Uncletopia | London | 2 | All Maps | STV","players":[{"user_id":646,"name":"Godot Game Engine","steam_id":76561198274861098,"connected_time":1179000000000,"state":"active","ping":82},{"user_id":585,"name":"Man O' Steel","steam_id":76561198108612758,"connected_time":7651000000000,"state":"active","ping":53},{"user_id":631,"name":"Aquatical","steam_id":76561198097333170,"connected_time":2538000000000,"state":"active","ping":80},{"user_id":620,"name":"Swayer","steam_id":76561198056192460,"connected_time":3609000000000,"state":"active","ping":56},{"user_id":574,"name":"Pumpkin Tutter","steam_id":76561198039725179,"connected_time":8532000000000,"state":"active","ping":50},{"user_id":642,"name":"Mopo","steam_id":76561198068929700,"connected_time":1332000000000,"state":"active","ping":78},{"user_id":649,"name":"Candy Mann From Brooklyn","steam_id":76561198251655918,"connected_time":923000000000,"state":"active","ping":110},{"user_id":650,"name":"Geihval","steam_id":76561199440799610,"connected_time":914000000000,"state":"active","ping":83},{"user_id":624,"name":"Valfezant","steam_id":76561199063983797,"connected_time":2862000000000,"state":"active","ping":59},{"user_id":640,"name":"coach","steam_id":76561198064775867,"connected_time":1926000000000,"state":"active","ping":77},{"user_id":657,"name":"Moxxin","steam_id":76561198303638434,"connected_time":119000000000,"state":"active","ping":40},{"user_id":655,"name":"WarpdriveEngineer","steam_id":76561198073530973,"connected_time":181000000000,"state":"active","ping":126},{"user_id":641,"name":"CAKIR69","steam_id":76561198089560908,"connected_time":1905000000000,"state":"active","ping":92},{"user_id":551,"name":"pryate","steam_id":76561198135960359,"connected_time":11206000000000,"state":"active","ping":46},{"user_id":651,"name":"Sachi","steam_id":76561198165977063,"connected_time":908000000000,"state":"active","ping":58},{"user_id":622,"name":"ducks","steam_id":76561198166148685,"connected_time":3592000000000,"state":"active","ping":36},{"user_id":639,"name":"Musallatr","steam_id":76561199316310715,"connected_time":1960000000000,"state":"active","ping":94},{"user_id":652,"name":"вальяжная выпь vac","steam_id":76561198036114001,"connected_time":757000000000,"state":"active","ping":92},{"user_id":653,"name":"Deltoid-Detlef","steam_id":76561198039886379,"connected_time":676000000000,"state":"active","ping":56},{"user_id":637,"name":"Davidoff","steam_id":76561199099163283,"connected_time":2083000000000,"state":"active","ping":69},{"user_id":644,"name":"install gentoo","steam_id":76561198185257982,"connected_time":1288000000000,"state":"active","ping":70},{"user_id":638,"name":"Artemis","steam_id":76561198049253962,"connected_time":2003000000000,"state":"active","ping":100}]},{"server_id":320,"name":"Uncletopia | London | 3 | All Maps","name_short":"lon-3","host":"lon-1.uk.uncletopia.com","port":27035,"enabled":true,"region":"eu","cc":"gb","latitude":51.509865,"longitude":-0.118092,"reserved":0,"last_update":"0001-01-01T00:00:00Z","name_a2s":"Uncletopia | London | 3 | All Maps","protocol":17,"map":"pl_borneo","folder":"tf","game":"Team Fortress","app_id":440,"player_count":23,"max_players":24,"Bots":0,"server_type":"Dedicated","server_os":"Linux","password":true,"vac":true,"version":"7708610","steam_id":85568392924510192,"keywords":["nocrits","nodmgspread","payload","uncletopia"],"game_id":440,"stv_port":27036,"stv_name":"Uncletopia | London | 3 | All Maps | STV","players":[{"user_id":540,"name":"Standingo","steam_id":76561198035642311,"connected_time":1209000000000,"state":"active","ping":97},{"user_id":525,"name":"fr*nch","steam_id":76561198846784757,"connected_time":1834000000000,"state":"active","ping":47},{"user_id":514,"name":"Tj0ckis","steam_id":76561198108854226,"connected_time":2590000000000,"state":"active","ping":63},{"user_id":549,"name":"my mom","steam_id":76561199225201569,"connected_time":303000000000,"state":"active","ping":116},{"user_id":488,"name":"SuntanPikachu","steam_id":76561198121242476,"connected_time":3953000000000,"state":"active","ping":97},{"user_id":548,"name":"NonProphet","steam_id":76561198280149820,"connected_time":320000000000,"state":"active","ping":58},{"user_id":500,"name":"joethefool","steam_id":76561199015436319,"connected_time":3145000000000,"state":"active","ping":125},{"user_id":547,"name":"vuggie","steam_id":76561198042227249,"connected_time":602000000000,"state":"active","ping":45},{"user_id":550,"name":"cinny","steam_id":76561198832112629,"connected_time":288000000000,"state":"active","ping":81},{"user_id":545,"name":"Bones","steam_id":76561198065081225,"connected_time":793000000000,"state":"active","ping":31},{"user_id":551,"name":"maxxxon","steam_id":76561198161504434,"connected_time":231000000000,"state":"active","ping":84},{"user_id":556,"name":"dat mann","steam_id":76561198260496395,"connected_time":34000000000,"state":"active","ping":157},{"user_id":532,"name":"Bart simpson","steam_id":76561198380666998,"connected_time":1619000000000,"state":"active","ping":143},{"user_id":524,"name":"ff:ff:ff:ff:ff:ff","steam_id":76561198072122983,"connected_time":1852000000000,"state":"active","ping":70},{"user_id":552,"name":"ashley","steam_id":76561198448551449,"connected_time":229000000000,"state":"active","ping":34},{"user_id":538,"name":"dairy","steam_id":76561198117033273,"connected_time":1350000000000,"state":"active","ping":61},{"user_id":544,"name":"Glocket","steam_id":76561198068460684,"connected_time":827000000000,"state":"active","ping":58},{"user_id":553,"name":"Riske","steam_id":76561198115840568,"connected_time":197000000000,"state":"active","ping":135},{"user_id":517,"name":"Roman Polansky","steam_id":76561198108321988,"connected_time":2458000000000,"state":"active","ping":70},{"user_id":554,"name":"Coganada","steam_id":76561198094114158,"connected_time":186000000000,"state":"active","ping":42},{"user_id":555,"name":"Him","steam_id":76561198155314925,"connected_time":113000000000,"state":"active","ping":59},{"user_id":557,"name":"round object","steam_id":76561198136239861,"connected_time":19000000000,"state":"active","ping":50},{"user_id":543,"name":"Shynii","steam_id":76561198194682105,"connected_time":1028000000000,"state":"active","ping":62}]},{"server_id":321,"name":"Uncletopia | London | 4 | All Maps","name_short":"lon-4","host":"lon-1.uk.uncletopia.com","port":27045,"enabled":true,"region":"eu","cc":"gb","latitude":51.509865,"longitude":-0.118092,"reserved":0,"last_update":"0001-01-01T00:00:00Z","name_a2s":"Uncletopia | London | 4 | All Maps","protocol":17,"map":"cp_sunshine","folder":"tf","game":"Team Fortress","app_id":440,"player_count":0,"max_players":24,"Bots":0,"server_type":"Dedicated","server_os":"Linux","password":true,"vac":true,"version":"7708610","steam_id":85568392924510193,"keywords":["cp","nocrits","nodmgspread","uncletopia"],"game_id":440,"stv_port":27046,"stv_name":"Uncletopia | London | 4 | All Maps | STV","players":null},{"server_id":21,"name":"Uncletopia | London | 5 | All Maps","name_short":"lon-5","host":"lon-1.uk.uncletopia.com","port":27055,"enabled":true,"region":"eu","cc":"gb","latitude":51.509865,"longitude":-0.118092,"reserved":0,"last_update":"0001-01-01T00:00:00Z","name_a2s":"Uncletopia | London | 5 | All Maps","protocol":17,"map":"koth_lakeside_final","folder":"tf","game":"Team Fortress","app_id":440,"player_count":0,"max_players":24,"Bots":0,"server_type":"Dedicated","server_os":"Linux","password":true,"vac":true,"version":"7708610","steam_id":85568392924742829,"keywords":["cp","nocrits","nodmgspread","uncletopia"],"game_id":440,"stv_port":0,"stv_name":"","players":null},{"server_id":22,"name":"Uncletopia | London | 6 | All Maps","name_short":"lon-6","host":"lon-1.uk.uncletopia.com","port":27065,"enabled":true,"region":"eu","cc":"gb","latitude":51.509865,"longitude":-0.118092,"reserved":0,"last_update":"0001-01-01T00:00:00Z","name_a2s":"Uncletopia | London | 6 | All Maps","protocol":17,"map":"cp_snakewater_final1","folder":"tf","game":"Team Fortress","app_id":440,"player_count":0,"max_players":24,"Bots":0,"server_type":"Dedicated","server_os":"Linux","password":true,"vac":true,"version":"7708610","steam_id":85568392924742830,"keywords":["cp","nocrits","nodmgspread","uncletopia"],"game_id":440,"stv_port":27066,"stv_name":"Uncletopia | London | 6 | All Maps | STV","players":null},{"server_id":40,"name":"Uncletopia | London | 7 | No Payload","name_short":"lon-7","host":"lon-1.uk.uncletopia.com","port":27075,"enabled":true,"region":"eu","cc":"gb","latitude":51.509865,"longitude":-0.118092,"reserved":0,"last_update":"0001-01-01T00:00:00Z","name_a2s":"Uncletopia | London | 7 | No Payload","protocol":17,"map":"plr_hightower","folder":"tf","game":"Team Fortress","app_id":440,"player_count":0,"max_players":24,"Bots":0,"server_type":"Dedicated","server_os":"Linux","password":true,"vac":true,"version":"7708610","steam_id":85568392924964314,"keywords":["nocrits","nodmgspread","payload","uncletopia"],"game_id":440,"stv_port":27076,"stv_name":"Uncletopia | London | 7 | No Payload | STV","players":null},{"server_id":41,"name":"Uncletopia | London | 8 | Community","name_short":"lon-8","host":"lon-1.uk.uncletopia.com","port":27085,"enabled":true,"region":"eu","cc":"gb","latitude":51.509865,"longitude":-0.118092,"reserved":0,"last_update":"0001-01-01T00:00:00Z","name_a2s":"Uncletopia | London | 8 | Community","protocol":17,"map":"workshop/cp_reckoner_rc6.ugc674719999","folder":"tf","game":"Team Fortress","app_id":440,"player_count":0,"max_players":24,"Bots":0,"server_type":"Dedicated","server_os":"Linux","password":true,"vac":true,"version":"7708610","steam_id":85568392924964315,"keywords":["cp","nocrits","nodmgspread","uncletopia"],"game_id":440,"stv_port":27086,"stv_name":"Uncletopia | London | 8 | Community | STV","players":null},{"server_id":300,"name":"Uncletopia | Montréal | 1 | All Maps","name_short":"mtl-1","host":"mtl-1.ca.uncletopia.com","port":27015,"enabled":true,"region":"us-east","cc":"ca","latitude":45.50889,"longitude":-73.56167,"reserved":0,"last_update":"0001-01-01T00:00:00Z","name_a2s":"Uncletopia | Montréal | 1 | All Maps","protocol":17,"map":"pl_badwater","folder":"tf","game":"Team Fortress","app_id":440,"player_count":0,"max_players":24,"Bots":0,"server_type":"Dedicated","server_os":"Linux","password":true,"vac":true,"version":"7708610","steam_id":85568392924500087,"keywords":["nocrits","nodmgspread","payload","uncletopia"],"game_id":440,"stv_port":27016,"stv_name":"Uncletopia | Montréal | 1 | All Maps | STV","players":null},{"server_id":301,"name":"Uncletopia | Montréal | 2 | All Maps","name_short":"mtl-2","host":"mtl-1.ca.uncletopia.com","port":27025,"enabled":true,"region":"us-east","cc":"ca","latitude":45.50889,"longitude":-73.56167,"reserved":0,"last_update":"0001-01-01T00:00:00Z","name_a2s":"Uncletopia | Montréal | 2 | All Maps","protocol":17,"map":"cp_process_final","folder":"tf","game":"Team Fortress","app_id":440,"player_count":0,"max_players":24,"Bots":0,"server_type":"Dedicated","server_os":"Linux","password":true,"vac":true,"version":"7708610","steam_id":85568392924500088,"keywords":["cp","nocrits","nodmgspread","uncletopia"],"game_id":440,"stv_port":27026,"stv_name":"Uncletopia | Montréal | 2 | All Maps | STV","players":null},{"server_id":302,"name":"Uncletopia | Montréal | 3 | All Maps","name_short":"mtl-3","host":"mtl-1.ca.uncletopia.com","port":27035,"enabled":true,"region":"us-east","cc":"ca","latitude":45.50889,"longitude":-73.56167,"reserved":0,"last_update":"0001-01-01T00:00:00Z","name_a2s":"Uncletopia | Montréal | 3 | All Maps","protocol":17,"map":"koth_highpass","folder":"tf","game":"Team Fortress","app_id":440,"player_count":0,"max_players":24,"Bots":0,"server_type":"Dedicated","server_os":"Linux","password":true,"vac":true,"version":"7708610","steam_id":85568392924500089,"keywords":["cp","nocrits","nodmgspread","uncletopia"],"game_id":440,"stv_port":27036,"stv_name":"Uncletopia | Montréal | 3 | All Maps | STV","players":null},{"server_id":303,"name":"Uncletopia | Montréal | 4 | No Payload","name_short":"mtl-4","host":"mtl-1.ca.uncletopia.com","port":27045,"enabled":true,"region":"us-east","cc":"ca","latitude":45.50889,"longitude":-73.56167,"reserved":0,"last_update":"0001-01-01T00:00:00Z","name_a2s":"Uncletopia | Montréal | 4 | No Payload","protocol":17,"map":"ctf_sawmill","folder":"tf","game":"Team Fortress","app_id":440,"player_count":0,"max_players":24,"Bots":0,"server_type":"Dedicated","server_os":"Linux","password":true,"vac":true,"version":"7708610","steam_id":85568392924500090,"keywords":["ctf","nocrits","nodmgspread","uncletopia"],"game_id":440,"stv_port":27046,"stv_name":"Uncletopia | Montréal | 4 | No Payload | STV","players":null},{"server_id":13,"name":"Uncletopia | New York City | 1 | All Maps","name_short":"nyc-1","host":"nyc-1.us.uncletopia.com","port":27015,"enabled":true,"region":"us-east","cc":"us","latitude":40.73061,"longitude":-73.93524,"reserved":0,"last_update":"0001-01-01T00:00:00Z","name_a2s":"Uncletopia | New York City | 1 | All Maps","protocol":17,"map":"koth_harvest_final","folder":"tf","game":"Team Fortress","app_id":440,"player_count":23,"max_players":24,"Bots":0,"server_type":"Dedicated","server_os":"Linux","password":true,"vac":true,"version":"7708610","steam_id":85568392924469993,"keywords":["cp","nocrits","nodmgspread","uncletopia"],"game_id":440,"stv_port":27016,"stv_name":"Uncletopia | New York City | 1 | All Maps | STV","players":[{"user_id":102,"name":"FestivePug","steam_id":76561198049093575,"connected_time":300000000000,"state":"active","ping":77},{"user_id":103,"name":"Tyco","steam_id":76561197978414167,"connected_time":34000000000,"state":"active","ping":85},{"user_id":20,"name":"Bastion","steam_id":76561198213161383,"connected_time":4934000000000,"state":"active","ping":79},{"user_id":21,"name":"Secace","steam_id":76561198132838705,"connected_time":4926000000000,"state":"active","ping":71},{"user_id":83,"name":"brook","steam_id":76561199227651503,"connected_time":2039000000000,"state":"active","ping":30},{"user_id":85,"name":"thomasdee725","steam_id":76561199189526173,"connected_time":2002000000000,"state":"active","ping":57},{"user_id":51,"name":"A Can of Arizona Green Tea","steam_id":76561198062481133,"connected_time":4099000000000,"state":"active","ping":94},{"user_id":90,"name":"sensitive mothefucker","steam_id":76561198110314362,"connected_time":1865000000000,"state":"active","ping":74},{"user_id":77,"name":"Fat Man","steam_id":76561198118957055,"connected_time":2544000000000,"state":"active","ping":38},{"user_id":81,"name":"Atrain_","steam_id":76561198097007668,"connected_time":2155000000000,"state":"active","ping":50},{"user_id":98,"name":"Korriu","steam_id":76561198246881314,"connected_time":667000000000,"state":"active","ping":60},{"user_id":97,"name":"space mann","steam_id":76561198174447043,"connected_time":923000000000,"state":"active","ping":41},{"user_id":57,"name":"lancelotdude","steam_id":76561199438197994,"connected_time":3847000000000,"state":"active","ping":123},{"user_id":63,"name":"tofu yum yum","steam_id":76561198026589960,"connected_time":3271000000000,"state":"active","ping":73},{"user_id":72,"name":"Dylanxp300","steam_id":76561198271974937,"connected_time":2622000000000,"state":"active","ping":56},{"user_id":95,"name":"SirTaxEvasion","steam_id":76561199117781098,"connected_time":1515000000000,"state":"active","ping":90},{"user_id":82,"name":"CrunchCisco","steam_id":76561199162724832,"connected_time":2086000000000,"state":"active","ping":83},{"user_id":91,"name":"the biggest boy","steam_id":76561198061768122,"connected_time":1851000000000,"state":"active","ping":81},{"user_id":101,"name":"puer aeternus","steam_id":76561198034560063,"connected_time":410000000000,"state":"active","ping":62},{"user_id":70,"name":"Zigadox","steam_id":76561198079813479,"connected_time":2711000000000,"state":"active","ping":72},{"user_id":100,"name":"dry","steam_id":76561198008899411,"connected_time":505000000000,"state":"active","ping":89},{"user_id":92,"name":"Iggy!","steam_id":76561198035671259,"connected_time":1848000000000,"state":"active","ping":80},{"user_id":49,"name":"MILF Gaming","steam_id":76561198155378170,"connected_time":4264000000000,"state":"active","ping":58}]},{"server_id":14,"name":"Uncletopia | New York City | 2 | All Maps","name_short":"nyc-2","host":"nyc-1.us.uncletopia.com","port":27025,"enabled":true,"region":"us-east","cc":"us","latitude":40.73061,"longitude":-73.93524,"reserved":0,"last_update":"0001-01-01T00:00:00Z","name_a2s":"Uncletopia | New York City | 2 | All Maps","protocol":17,"map":"pl_swiftwater_final1","folder":"tf","game":"Team Fortress","app_id":440,"player_count":24,"max_players":24,"Bots":0,"server_type":"Dedicated","server_os":"Linux","password":true,"vac":true,"version":"7708610","steam_id":85568392924469994,"keywords":["nocrits","nodmgspread","payload","uncletopia"],"game_id":440,"stv_port":27026,"stv_name":"Uncletopia | New York City | 2 | All Maps | STV","players":[{"user_id":253,"name":"ObiWonJacobi","steam_id":76561198041921071,"connected_time":2645000000000,"state":"active","ping":83},{"user_id":282,"name":"Seico Bass","steam_id":76561198123498500,"connected_time":51000000000,"state":"spawning","ping":107},{"user_id":252,"name":"Mr. Soupman","steam_id":76561198021649598,"connected_time":2684000000000,"state":"active","ping":45},{"user_id":264,"name":"Fribas","steam_id":76561198138502813,"connected_time":1498000000000,"state":"active","ping":66},{"user_id":280,"name":"Kzjytsugn","steam_id":76561198130241974,"connected_time":460000000000,"state":"active","ping":104},{"user_id":260,"name":"Ferg","steam_id":76561198119013119,"connected_time":2131000000000,"state":"active","ping":74},{"user_id":283,"name":"mr.edderkopper","steam_id":76561198152614478,"connected_time":2000000000,"state":"spawning","ping":54},{"user_id":105,"name":"BeerPowder","steam_id":76561198058129400,"connected_time":10456000000000,"state":"active","ping":49},{"user_id":270,"name":"chapamander","steam_id":76561198065315089,"connected_time":1455000000000,"state":"active","ping":90},{"user_id":273,"name":"Ejej","steam_id":76561198986313007,"connected_time":1298000000000,"state":"active","ping":60},{"user_id":261,"name":"CANDICE","steam_id":76561198208496036,"connected_time":1754000000000,"state":"active","ping":62},{"user_id":266,"name":"Nachos from 7/11","steam_id":76561198011603359,"connected_time":1495000000000,"state":"active","ping":60},{"user_id":164,"name":"big guapo","steam_id":76561198103228695,"connected_time":6368000000000,"state":"active","ping":52},{"user_id":258,"name":"Hoodiealpha","steam_id":76561198054381453,"connected_time":2432000000000,"state":"active","ping":120},{"user_id":229,"name":"A Puppy","steam_id":76561198828184456,"connected_time":4166000000000,"state":"active","ping":47},{"user_id":278,"name":"Brendan","steam_id":76561198041079914,"connected_time":630000000000,"state":"active","ping":53},{"user_id":281,"name":"DOCFinch","steam_id":76561198024520891,"connected_time":434000000000,"state":"active","ping":69},{"user_id":274,"name":"Hawkborne","steam_id":76561198107249245,"connected_time":1296000000000,"state":"active","ping":95},{"user_id":269,"name":"Muffin","steam_id":76561199156302434,"connected_time":1480000000000,"state":"active","ping":59},{"user_id":244,"name":"eeveethecomic66","steam_id":76561199013856854,"connected_time":3352000000000,"state":"active","ping":73},{"user_id":279,"name":"pomp","steam_id":76561198387521850,"connected_time":483000000000,"state":"active","ping":51},{"user_id":256,"name":"blob","steam_id":76561198122375328,"connected_time":2633000000000,"state":"active","ping":62},{"user_id":272,"name":"Polygunner","steam_id":76561199165741650,"connected_time":1369000000000,"state":"active","ping":57},{"user_id":125,"name":"Shuual","steam_id":76561198004395256,"connected_time":9610000000000,"state":"active","ping":79}]},{"server_id":15,"name":"Uncletopia | New York City | 3 | All Maps","name_short":"nyc-3","host":"nyc-1.us.uncletopia.com","port":27035,"enabled":true,"region":"us-east","cc":"us","latitude":40.73061,"longitude":-73.93524,"reserved":0,"last_update":"0001-01-01T00:00:00Z","name_a2s":"Uncletopia | New York City | 3 | All Maps","protocol":17,"map":"koth_lakeside_final","folder":"tf","game":"Team Fortress","app_id":440,"player_count":24,"max_players":24,"Bots":0,"server_type":"Dedicated","server_os":"Linux","password":true,"vac":true,"version":"7708610","steam_id":85568392924742820,"keywords":["cp","nocrits","nodmgspread","uncletopia"],"game_id":440,"stv_port":27036,"stv_name":"Uncletopia | New York City | 3 | All Maps | STV","players":[{"user_id":263,"name":"GOATC mahik","steam_id":76561198012270322,"connected_time":1150000000000,"state":"active","ping":49},{"user_id":180,"name":"Dihsar","steam_id":76561198065169821,"connected_time":7436000000000,"state":"active","ping":52},{"user_id":255,"name":"footoftheday","steam_id":76561198052712449,"connected_time":1748000000000,"state":"active","ping":74},{"user_id":273,"name":"Heartgold","steam_id":76561199062592062,"connected_time":486000000000,"state":"active","ping":42},{"user_id":228,"name":"Drago","steam_id":76561199059927824,"connected_time":3112000000000,"state":"active","ping":29},{"user_id":243,"name":"Ed Santos","steam_id":76561198237997622,"connected_time":2339000000000,"state":"active","ping":159},{"user_id":250,"name":"Notorious_Pat","steam_id":76561198092348214,"connected_time":2025000000000,"state":"active","ping":72},{"user_id":275,"name":"Shmiel","steam_id":76561198175734166,"connected_time":87000000000,"state":"active","ping":75},{"user_id":262,"name":"ExtraSoap","steam_id":76561198008712409,"connected_time":1158000000000,"state":"active","ping":46},{"user_id":231,"name":"ButtholeMagic","steam_id":76561198865971290,"connected_time":3011000000000,"state":"active","ping":82},{"user_id":271,"name":"parsee","steam_id":76561198095139889,"connected_time":722000000000,"state":"active","ping":50},{"user_id":270,"name":"nack_swam","steam_id":76561198446423541,"connected_time":750000000000,"state":"active","ping":55},{"user_id":244,"name":"fezmaster","steam_id":76561199013845648,"connected_time":2333000000000,"state":"active","ping":89},{"user_id":247,"name":"RaPids","steam_id":76561198082496100,"connected_time":2162000000000,"state":"active","ping":70},{"user_id":274,"name":"SEWER RODENT","steam_id":76561198858984051,"connected_time":165000000000,"state":"active","ping":49},{"user_id":258,"name":"harry","steam_id":76561198365118514,"connected_time":1190000000000,"state":"active","ping":57},{"user_id":203,"name":"holden ford","steam_id":76561198124810219,"connected_time":5986000000000,"state":"active","ping":56},{"user_id":220,"name":"Beanboi","steam_id":76561198977881677,"connected_time":3881000000000,"state":"active","ping":67},{"user_id":272,"name":"Dewgong (real)","steam_id":76561198045999391,"connected_time":653000000000,"state":"active","ping":81},{"user_id":237,"name":"Normalux","steam_id":76561198293891426,"connected_time":2875000000000,"state":"active","ping":74},{"user_id":253,"name":"demoknight tf2","steam_id":76561198070393998,"connected_time":1997000000000,"state":"active","ping":87},{"user_id":204,"name":"SE X","steam_id":76561198094525829,"connected_time":5930000000000,"state":"active","ping":114},{"user_id":254,"name":"drezz","steam_id":76561198028444359,"connected_time":1755000000000,"state":"active","ping":146},{"user_id":268,"name":"japanese cowboy","steam_id":76561198072105269,"connected_time":931000000000,"state":"active","ping":44}]},{"server_id":16,"name":"Uncletopia | New York City | 4 | Community","name_short":"nyc-4","host":"nyc-1.us.uncletopia.com","port":27045,"enabled":true,"region":"us-east","cc":"us","latitude":40.73061,"longitude":-73.93524,"reserved":0,"last_update":"0001-01-01T00:00:00Z","name_a2s":"Uncletopia | New York City | 4 | Community","protocol":17,"map":"workshop/koth_ramjam_v2_b2.ugc2865676487","folder":"tf","game":"Team Fortress","app_id":440,"player_count":0,"max_players":24,"Bots":0,"server_type":"Dedicated","server_os":"Linux","password":true,"vac":true,"version":"7708610","steam_id":85568392924742821,"keywords":["cp","nocrits","nodmgspread","uncletopia"],"game_id":440,"stv_port":27046,"stv_name":"Uncletopia | New York City | 4 | Community | STV","players":null},{"server_id":142,"name":"Uncletopia | São Paulo | 1 | All Maps","name_short":"sao-1","host":"sao-1.br.uncletopia.com","port":27015,"enabled":true,"region":"sa","cc":"br","latitude":-23.533773,"longitude":-46.62529,"reserved":0,"last_update":"0001-01-01T00:00:00Z","name_a2s":"Uncletopia | São Paulo | 1 | All Maps","protocol":17,"map":"cp_dustbowl","folder":"tf","game":"Team Fortress","app_id":440,"player_count":21,"max_players":24,"Bots":0,"server_type":"Dedicated","server_os":"Linux","password":true,"vac":true,"version":"7708610","steam_id":85568392924469996,"keywords":["cp","nocrits","nodmgspread","uncletopia"],"game_id":440,"stv_port":27016,"stv_name":"Uncletopia | São Paulo | 1 | All Maps | STV","players":[{"user_id":516,"name":"gibo gabo","steam_id":76561198348787458,"connected_time":472000000000,"state":"active","ping":53},{"user_id":455,"name":"Zoom!","steam_id":76561198289562649,"connected_time":2875000000000,"state":"active","ping":44},{"user_id":483,"name":"Cara da Old Spice(Old Spice Guy","steam_id":76561198081925177,"connected_time":1674000000000,"state":"active","ping":57},{"user_id":484,"name":"brunotakeo12","steam_id":76561198449353746,"connected_time":1633000000000,"state":"active","ping":45},{"user_id":529,"name":"ayumi","steam_id":76561197977365746,"connected_time":115000000000,"state":"active","ping":46},{"user_id":400,"name":"Yrk","steam_id":76561198332577325,"connected_time":5157000000000,"state":"active","ping":46},{"user_id":525,"name":"Appollo","steam_id":76561199441662625,"connected_time":227000000000,"state":"spawning","ping":393},{"user_id":530,"name":"Architect","steam_id":76561198895061602,"connected_time":5000000000,"state":"spawning","ping":118},{"user_id":487,"name":"Kaiser","steam_id":76561199168194896,"connected_time":1430000000000,"state":"active","ping":59},{"user_id":383,"name":"your motivational man","steam_id":76561199063498193,"connected_time":6186000000000,"state":"active","ping":46},{"user_id":480,"name":"Tleilaxu","steam_id":76561198063141232,"connected_time":1912000000000,"state":"active","ping":54},{"user_id":488,"name":"bellaraujo","steam_id":76561199222624576,"connected_time":1267000000000,"state":"active","ping":49},{"user_id":489,"name":":)","steam_id":76561198401283683,"connected_time":1254000000000,"state":"active","ping":46},{"user_id":490,"name":"MMXXIII chico","steam_id":76561198113465470,"connected_time":1178000000000,"state":"active","ping":39},{"user_id":491,"name":"padero","steam_id":76561198097431370,"connected_time":1166000000000,"state":"active","ping":89},{"user_id":471,"name":"mvfm™","steam_id":76561198126068677,"connected_time":2308000000000,"state":"active","ping":62},{"user_id":495,"name":"polaco","steam_id":76561198002562184,"connected_time":952000000000,"state":"active","ping":48},{"user_id":468,"name":"ddddavi","steam_id":76561198004606025,"connected_time":2389000000000,"state":"active","ping":53},{"user_id":482,"name":"Jaxon","steam_id":76561199144114653,"connected_time":1762000000000,"state":"active","ping":43},{"user_id":416,"name":"Max IA","steam_id":76561198120219866,"connected_time":4216000000000,"state":"active","ping":45},{"user_id":523,"name":"Jetronic","steam_id":76561198031892355,"connected_time":272000000000,"state":"active","ping":55}]},{"server_id":143,"name":"Uncletopia | São Paulo | 2 | All Maps","name_short":"sao-2","host":"sao-2.br.uncletopia.com","port":27015,"enabled":true,"region":"sa","cc":"br","latitude":-23.533773,"longitude":-46.62529,"reserved":0,"last_update":"0001-01-01T00:00:00Z","name_a2s":"Uncletopia | São Paulo | 2 | All Maps","protocol":17,"map":"pl_badwater","folder":"tf","game":"Team Fortress","app_id":440,"player_count":10,"max_players":24,"Bots":0,"server_type":"Dedicated","server_os":"Linux","password":true,"vac":true,"version":"7708610","steam_id":85568392924485349,"keywords":["nocrits","nodmgspread","payload","uncletopia"],"game_id":440,"stv_port":27016,"stv_name":"Uncletopia | São Paulo | 2 | All Maps | STV","players":[{"user_id":56,"name":"Just Frisk808","steam_id":76561198246588288,"connected_time":1091000000000,"state":"active","ping":176},{"user_id":57,"name":"Carbonado Julpoly","steam_id":76561198884259199,"connected_time":1072000000000,"state":"active","ping":61},{"user_id":58,"name":"Los que vieron el cielo","steam_id":76561198947247770,"connected_time":1065000000000,"state":"active","ping":58},{"user_id":59,"name":"cocklarry 3","steam_id":76561198276113571,"connected_time":559000000000,"state":"active","ping":31},{"user_id":63,"name":"umagarrafade51","steam_id":76561199389592168,"connected_time":290000000000,"state":"active","ping":87},{"user_id":68,"name":"Fenzin664","steam_id":76561199008484283,"connected_time":134000000000,"state":"active","ping":41},{"user_id":65,"name":"Netre que pinta toda la casa","steam_id":76561198302870271,"connected_time":249000000000,"state":"active","ping":67},{"user_id":66,"name":"MathyG","steam_id":76561198825900597,"connected_time":209000000000,"state":"active","ping":80},{"user_id":67,"name":"Netre","steam_id":76561198145332676,"connected_time":196000000000,"state":"active","ping":72},{"user_id":69,"name":"ǝɹʇǝu lıʌǝ","steam_id":76561198208421807,"connected_time":119000000000,"state":"active","ping":75}]},{"server_id":7,"name":"Uncletopia | Seattle | 1 | All Maps","name_short":"sea-1","host":"sea-1.us.uncletopia.com","port":27015,"enabled":true,"region":"us-west","cc":"us","latitude":47.608013,"longitude":-122.33517,"reserved":0,"last_update":"0001-01-01T00:00:00Z","name_a2s":"Uncletopia | Seattle | 1 | All Maps","protocol":17,"map":"pl_frontier_final","folder":"tf","game":"Team Fortress","app_id":440,"player_count":24,"max_players":24,"Bots":0,"server_type":"Dedicated","server_os":"Linux","password":true,"vac":true,"version":"7708610","steam_id":85568392924469997,"keywords":["nocrits","nodmgspread","payload","uncletopia"],"game_id":440,"stv_port":27016,"stv_name":"Uncletopia | Seattle | 1 | All Maps | STV","players":[{"user_id":187,"name":"Avem","steam_id":76561198058763710,"connected_time":433000000000,"state":"active","ping":77},{"user_id":183,"name":"Techo","steam_id":76561199169405285,"connected_time":640000000000,"state":"active","ping":53},{"user_id":151,"name":"ham bone","steam_id":76561198351143785,"connected_time":2989000000000,"state":"active","ping":109},{"user_id":157,"name":"MCman","steam_id":76561198412110305,"connected_time":2814000000000,"state":"active","ping":79},{"user_id":97,"name":"dodecadron","steam_id":76561198027397222,"connected_time":6621000000000,"state":"active","ping":66},{"user_id":161,"name":"Fajita Master","steam_id":76561198329150962,"connected_time":1958000000000,"state":"active","ping":76},{"user_id":188,"name":"Punished Jඞff #NeverSimpAgain","steam_id":76561198304252584,"connected_time":344000000000,"state":"active","ping":72},{"user_id":190,"name":"Crybora","steam_id":76561198129067449,"connected_time":241000000000,"state":"active","ping":47},{"user_id":181,"name":"trackpad gaming | f2p","steam_id":76561198840414371,"connected_time":789000000000,"state":"active","ping":130},{"user_id":158,"name":"Corbe","steam_id":76561198353893927,"connected_time":2787000000000,"state":"active","ping":89},{"user_id":172,"name":"ChickenManPhil","steam_id":76561199139508332,"connected_time":1242000000000,"state":"active","ping":136},{"user_id":163,"name":"kebo","steam_id":76561198237159430,"connected_time":1782000000000,"state":"active","ping":86},{"user_id":170,"name":"hypotenuse","steam_id":76561198062479158,"connected_time":1403000000000,"state":"active","ping":55},{"user_id":192,"name":"Red Soldier","steam_id":76561198169484186,"connected_time":96000000000,"state":"active","ping":38},{"user_id":186,"name":"Big Jums","steam_id":76561198026601028,"connected_time":490000000000,"state":"active","ping":100},{"user_id":164,"name":"wubber","steam_id":76561198286627157,"connected_time":1776000000000,"state":"active","ping":88},{"user_id":106,"name":"ZEKKER","steam_id":76561197967968980,"connected_time":6362000000000,"state":"active","ping":49},{"user_id":144,"name":"TimTam Tom","steam_id":76561198045988062,"connected_time":4071000000000,"state":"active","ping":99},{"user_id":173,"name":"mrs. business","steam_id":76561198025454291,"connected_time":1233000000000,"state":"active","ping":35},{"user_id":93,"name":"GameGuru the Green Gryphon","steam_id":76561198118495354,"connected_time":7052000000000,"state":"active","ping":60},{"user_id":189,"name":"Ψ","steam_id":76561198293893486,"connected_time":342000000000,"state":"active","ping":135},{"user_id":184,"name":"DORATHEEXPLORER","steam_id":76561198124773931,"connected_time":624000000000,"state":"active","ping":83},{"user_id":133,"name":"chimplicity","steam_id":76561198012097062,"connected_time":4817000000000,"state":"active","ping":90},{"user_id":90,"name":"Shooon","steam_id":76561198006107947,"connected_time":7380000000000,"state":"active","ping":69}]},{"server_id":119,"name":"Uncletopia | Seattle | 2 | All Maps","name_short":"sea-2","host":"sea-1.us.uncletopia.com","port":27025,"enabled":true,"region":"us-west","cc":"us","latitude":47.608013,"longitude":-122.33517,"reserved":0,"last_update":"0001-01-01T00:00:00Z","name_a2s":"Uncletopia | Seattle | 2 | All Maps","protocol":17,"map":"cp_snakewater_final1","folder":"tf","game":"Team Fortress","app_id":440,"player_count":24,"max_players":24,"Bots":0,"server_type":"Dedicated","server_os":"Linux","password":true,"vac":true,"version":"7708610","steam_id":85568392924469998,"keywords":["cp","nocrits","nodmgspread","uncletopia"],"game_id":440,"stv_port":27026,"stv_name":"Uncletopia | Seattle | 2 | All Maps | STV","players":[{"user_id":65,"name":"Genius Meme","steam_id":76561198162911254,"connected_time":2346000000000,"state":"active","ping":96},{"user_id":63,"name":"TothBrush","steam_id":76561198028254471,"connected_time":2678000000000,"state":"active","ping":55},{"user_id":76,"name":"lag","steam_id":76561197963872739,"connected_time":1056000000000,"state":"active","ping":55},{"user_id":58,"name":"WINNNNNIE","steam_id":76561198286650322,"connected_time":2771000000000,"state":"active","ping":57},{"user_id":66,"name":"RuckiC","steam_id":76561198253391237,"connected_time":2322000000000,"state":"active","ping":85},{"user_id":81,"name":"DrD","steam_id":76561198067266383,"connected_time":870000000000,"state":"active","ping":26},{"user_id":64,"name":"Ngsterson","steam_id":76561198162108154,"connected_time":2423000000000,"state":"active","ping":51},{"user_id":84,"name":"friend of the crows","steam_id":76561198146228439,"connected_time":193000000000,"state":"active","ping":53},{"user_id":57,"name":"Dosario","steam_id":76561198298095535,"connected_time":2844000000000,"state":"active","ping":54},{"user_id":72,"name":"Saint Laurent Don","steam_id":76561198116820706,"connected_time":1258000000000,"state":"active","ping":74},{"user_id":74,"name":"kramer","steam_id":76561198117761965,"connected_time":1196000000000,"state":"active","ping":123},{"user_id":60,"name":"corbenis","steam_id":76561199012442511,"connected_time":2716000000000,"state":"active","ping":87},{"user_id":35,"name":"Frongus","steam_id":76561197979056451,"connected_time":3555000000000,"state":"active","ping":47},{"user_id":75,"name":"TüCold","steam_id":76561198111278197,"connected_time":1173000000000,"state":"active","ping":60},{"user_id":77,"name":"Pyrolimited","steam_id":76561198195455657,"connected_time":1035000000000,"state":"active","ping":48},{"user_id":78,"name":"Steiner","steam_id":76561198030457066,"connected_time":1001000000000,"state":"active","ping":122},{"user_id":83,"name":"qt wavyz","steam_id":76561199060668138,"connected_time":338000000000,"state":"active","ping":112},{"user_id":49,"name":"oil","steam_id":76561198099980149,"connected_time":3166000000000,"state":"active","ping":78},{"user_id":45,"name":"no vc no c","steam_id":76561197989503095,"connected_time":3281000000000,"state":"active","ping":158},{"user_id":46,"name":"☆Atomic Waffle☆","steam_id":76561198100385184,"connected_time":3246000000000,"state":"active","ping":84},{"user_id":52,"name":"ejschild745","steam_id":76561199013388867,"connected_time":3137000000000,"state":"active","ping":64},{"user_id":80,"name":"Cash Money Dolla Bills","steam_id":76561198020270981,"connected_time":947000000000,"state":"active","ping":128},{"user_id":54,"name":"Mr walter","steam_id":76561199225449305,"connected_time":3130000000000,"state":"active","ping":107},{"user_id":86,"name":"Day Man","steam_id":76561198067154807,"connected_time":27000000000,"state":"active","ping":52}]},{"server_id":17,"name":"Uncletopia | San Francisco | 1 | All Maps","name_short":"sfo-1","host":"sfo-1.us.uncletopia.com","port":27015,"enabled":true,"region":"us-west","cc":"us","latitude":37.77397,"longitude":-122.4313,"reserved":0,"last_update":"0001-01-01T00:00:00Z","name_a2s":"Uncletopia | San Francisco | 1 | All Maps","protocol":17,"map":"koth_highpass","folder":"tf","game":"Team Fortress","app_id":440,"player_count":0,"max_players":24,"Bots":0,"server_type":"Dedicated","server_os":"Linux","password":true,"vac":true,"version":"7708610","steam_id":85568392924469999,"keywords":["cp","nocrits","nodmgspread","uncletopia"],"game_id":440,"stv_port":27016,"stv_name":"Uncletopia | San Francisco | 1 | All Maps | STV","players":null},{"server_id":18,"name":"Uncletopia | San Francisco | 2 | All Maps","name_short":"sfo-2","host":"sfo-1.us.uncletopia.com","port":27025,"enabled":true,"region":"us-west","cc":"us","latitude":37.77397,"longitude":-122.4313,"reserved":0,"last_update":"0001-01-01T00:00:00Z","name_a2s":"Uncletopia | San Francisco | 2 | All Maps","protocol":17,"map":"koth_cascade","folder":"tf","game":"Team Fortress","app_id":440,"player_count":0,"max_players":24,"Bots":0,"server_type":"Dedicated","server_os":"Linux","password":true,"vac":true,"version":"7708610","steam_id":85568392924470000,"keywords":["cp","nocrits","nodmgspread","uncletopia"],"game_id":440,"stv_port":0,"stv_name":"","players":null},{"server_id":19,"name":"Uncletopia | San Francisco | 3 | No Payload","name_short":"sfo-3","host":"sfo-1.us.uncletopia.com","port":27035,"enabled":true,"region":"us-west","cc":"us","latitude":37.77397,"longitude":-122.4313,"reserved":0,"last_update":"0001-01-01T00:00:00Z","name_a2s":"Uncletopia | San Francisco | 3 | No Payload","protocol":17,"map":"cp_dustbowl","folder":"tf","game":"Team Fortress","app_id":440,"player_count":11,"max_players":24,"Bots":0,"server_type":"Dedicated","server_os":"Linux","password":true,"vac":true,"version":"7708610","steam_id":85568392924742824,"keywords":["cp","nocrits","nodmgspread","uncletopia"],"game_id":440,"stv_port":27036,"stv_name":"Uncletopia | San Francisco | 3 | No Payload | STV","players":[{"user_id":36,"name":"Sabaman55","steam_id":76561198212267979,"connected_time":1345000000000,"state":"active","ping":86},{"user_id":29,"name":"Sean","steam_id":76561199367470003,"connected_time":1654000000000,"state":"active","ping":60},{"user_id":17,"name":"JoshIsABot4168","steam_id":76561198452047234,"connected_time":2422000000000,"state":"active","ping":93},{"user_id":38,"name":"Spare(8)Ball","steam_id":76561197982432995,"connected_time":1048000000000,"state":"active","ping":46},{"user_id":20,"name":"fucking batman","steam_id":76561198419896433,"connected_time":2102000000000,"state":"active","ping":60},{"user_id":21,"name":"The Assistant Regional Manager","steam_id":76561199221484936,"connected_time":2079000000000,"state":"active","ping":57},{"user_id":23,"name":"krootonitron","steam_id":76561198114113037,"connected_time":2010000000000,"state":"active","ping":37},{"user_id":33,"name":"Amogous Supreme","steam_id":76561198025476774,"connected_time":1514000000000,"state":"active","ping":47},{"user_id":34,"name":"Sliced_Kiwi","steam_id":76561198245104568,"connected_time":1468000000000,"state":"active","ping":79},{"user_id":39,"name":"BlockBurst","steam_id":76561199220851075,"connected_time":859000000000,"state":"active","ping":53},{"user_id":41,"name":"Yeetus_McBeatus_420","steam_id":76561199249073539,"connected_time":608000000000,"state":"active","ping":129}]},{"server_id":20,"name":"Uncletopia | San Francisco | 4 | Community","name_short":"sfo-4","host":"sfo-1.us.uncletopia.com","port":27045,"enabled":true,"region":"us-west","cc":"us","latitude":37.77397,"longitude":-122.4313,"reserved":0,"last_update":"0001-01-01T00:00:00Z","name_a2s":"Uncletopia | San Francisco | 4 | Community","protocol":17,"map":"workshop/cp_caldera_rc2.ugc2834196889","folder":"tf","game":"Team Fortress","app_id":440,"player_count":0,"max_players":24,"Bots":0,"server_type":"Dedicated","server_os":"Linux","password":true,"vac":true,"version":"7708610","steam_id":85568392924742826,"keywords":["cp","nocrits","nodmgspread","uncletopia"],"game_id":440,"stv_port":27046,"stv_name":"Uncletopia | San Francisco | 4 | Community | STV","players":null},{"server_id":141,"name":"Uncletopia | Sydney | 1 | All Maps","name_short":"syd-1","host":"syd-1.au.uncletopia.com","port":27015,"enabled":true,"region":"au","cc":"au","latitude":-33.865143,"longitude":151.2099,"reserved":0,"last_update":"0001-01-01T00:00:00Z","name_a2s":"Uncletopia | Sydney | 1 | All Maps","protocol":17,"map":"koth_viaduct","folder":"tf","game":"Team Fortress","app_id":440,"player_count":0,"max_players":24,"Bots":0,"server_type":"Dedicated","server_os":"Linux","password":true,"vac":true,"version":"7708610","steam_id":85568392924470001,"keywords":["cp","nocrits","nodmgspread","uncletopia"],"game_id":440,"stv_port":27016,"stv_name":"Uncletopia | Sydney | 1 | All Maps | STV","players":null},{"server_id":123,"name":"Uncletopia | Sydney | 2 | All Maps","name_short":"syd-2","host":"syd-1.au.uncletopia.com","port":27025,"enabled":true,"region":"au","cc":"au","latitude":-33.865143,"longitude":151.2099,"reserved":0,"last_update":"0001-01-01T00:00:00Z","name_a2s":"Uncletopia | Sydney | 2 | All Maps","protocol":17,"map":"koth_viaduct","folder":"tf","game":"Team Fortress","app_id":440,"player_count":0,"max_players":24,"Bots":0,"server_type":"Dedicated","server_os":"Linux","password":true,"vac":true,"version":"7708610","steam_id":85568392924470002,"keywords":["cp","nocrits","nodmgspread","uncletopia"],"game_id":440,"stv_port":27026,"stv_name":"Uncletopia | Sydney | 2 | All Maps | STV","players":null},{"server_id":395,"name":"Uncletopia | Sydney | 3 | All Maps","name_short":"syd-3","host":"syd-1.au.uncletopia.com","port":27035,"enabled":true,"region":"au","cc":"au","latitude":-33.865143,"longitude":151.2099,"reserved":0,"last_update":"0001-01-01T00:00:00Z","name_a2s":"Uncletopia | Sydney | 3 | All Maps","protocol":17,"map":"koth_cascade","folder":"tf","game":"Team Fortress","app_id":440,"player_count":0,"max_players":24,"Bots":0,"server_type":"Dedicated","server_os":"Linux","password":true,"vac":true,"version":"7708610","steam_id":85568392925194467,"keywords":["cp","nocrits","nodmgspread","uncletopia"],"game_id":440,"stv_port":27036,"stv_name":"Uncletopia | Sydney | 3 | All Maps | STV","players":null},{"server_id":396,"name":"Uncletopia | Sydney | 4 | All Maps","name_short":"syd-4","host":"syd-1.au.uncletopia.com","port":27045,"enabled":true,"region":"au","cc":"au","latitude":-33.865143,"longitude":151.2099,"reserved":0,"last_update":"0001-01-01T00:00:00Z","name_a2s":"Uncletopia | Sydney | 4 | All Maps","protocol":17,"map":"koth_lakeside_final","folder":"tf","game":"Team Fortress","app_id":440,"player_count":0,"max_players":24,"Bots":0,"server_type":"Dedicated","server_os":"Linux","password":true,"vac":true,"version":"7708610","steam_id":85568392925397958,"keywords":["cp","nocrits","nodmgspread","uncletopia"],"game_id":440,"stv_port":0,"stv_name":"","players":null},{"server_id":58,"name":"Uncletopia | Sydney | 5 | No Payload","name_short":"syd-5","host":"syd-1.au.uncletopia.com","port":27055,"enabled":true,"region":"au","cc":"au","latitude":-33.865143,"longitude":151.2099,"reserved":0,"last_update":"0001-01-01T00:00:00Z","name_a2s":"Uncletopia | Sydney | 5 | No Payload","protocol":17,"map":"koth_cascade","folder":"tf","game":"Team Fortress","app_id":440,"player_count":0,"max_players":24,"Bots":0,"server_type":"Dedicated","server_os":"Linux","password":true,"vac":true,"version":"7708610","steam_id":85568392925397959,"keywords":["cp","nocrits","nodmgspread","uncletopia"],"game_id":440,"stv_port":0,"stv_name":"","players":null},{"server_id":59,"name":"Uncletopia | Sydney | 6 | Community","name_short":"syd-6","host":"syd-1.au.uncletopia.com","port":27065,"enabled":true,"region":"au","cc":"au","latitude":-33.865143,"longitude":151.2099,"reserved":0,"last_update":"0001-01-01T00:00:00Z","name_a2s":"Uncletopia | Sydney | 6 | Community","protocol":17,"map":"pl_borneo","folder":"tf","game":"Team Fortress","app_id":440,"player_count":0,"max_players":24,"Bots":0,"server_type":"Dedicated","server_os":"Linux","password":true,"vac":true,"version":"7708610","steam_id":85568392925397960,"keywords":["nocrits","nodmgspread","payload","uncletopia"],"game_id":440,"stv_port":0,"stv_name":"","players":null},{"server_id":49,"name":"Uncletopia | Warsaw | 1 | All Maps","name_short":"waw-1","host":"waw-1.pl.uncletopia.com","port":27015,"enabled":true,"region":"eu","cc":"pl","latitude":52.2297,"longitude":21.017532,"reserved":0,"last_update":"0001-01-01T00:00:00Z","name_a2s":"Uncletopia | Warsaw | 1 | All Maps","protocol":17,"map":"pl_pier","folder":"tf","game":"Team Fortress","app_id":440,"player_count":0,"max_players":24,"Bots":0,"server_type":"Dedicated","server_os":"Linux","password":true,"vac":true,"version":"7708610","steam_id":85568392925397850,"keywords":["nocrits","nodmgspread","payload","uncletopia"],"game_id":440,"stv_port":27016,"stv_name":"Uncletopia | Warsaw | 1 | All Maps | STV","players":null},{"server_id":50,"name":"Uncletopia | Warsaw | 2 | All Maps","name_short":"waw-2","host":"waw-1.pl.uncletopia.com","port":27025,"enabled":true,"region":"eu","cc":"pl","latitude":52.2297,"longitude":21.017532,"reserved":0,"last_update":"0001-01-01T00:00:00Z","name_a2s":"Uncletopia | Warsaw | 2 | All Maps","protocol":17,"map":"cp_mountainlab","folder":"tf","game":"Team Fortress","app_id":440,"player_count":0,"max_players":24,"Bots":0,"server_type":"Dedicated","server_os":"Linux","password":true,"vac":true,"version":"7708610","steam_id":85568392925397851,"keywords":["cp","nocrits","nodmgspread","uncletopia"],"game_id":440,"stv_port":27026,"stv_name":"Uncletopia | Warsaw | 2 | All Maps | STV","players":null},{"server_id":51,"name":"Uncletopia | Warsaw | 3 | All Maps","name_short":"waw-3","host":"waw-1.pl.uncletopia.com","port":27035,"enabled":true,"region":"eu","cc":"pl","latitude":52.2297,"longitude":21.017532,"reserved":0,"last_update":"0001-01-01T00:00:00Z","name_a2s":"Uncletopia | Warsaw | 3 | All Maps","protocol":17,"map":"koth_cascade","folder":"tf","game":"Team Fortress","app_id":440,"player_count":0,"max_players":24,"Bots":0,"server_type":"Dedicated","server_os":"Linux","password":true,"vac":true,"version":"7708610","steam_id":85568392925397852,"keywords":["cp","nocrits","nodmgspread","uncletopia"],"game_id":440,"stv_port":0,"stv_name":"","players":null},{"server_id":52,"name":"Uncletopia | Warsaw | 4 | All Maps","name_short":"waw-4","host":"waw-1.pl.uncletopia.com","port":27045,"enabled":true,"region":"eu","cc":"pl","latitude":52.2297,"longitude":21.017532,"reserved":0,"last_update":"0001-01-01T00:00:00Z","name_a2s":"Uncletopia | Warsaw | 4 | All Maps","protocol":17,"map":"pl_badwater","folder":"tf","game":"Team Fortress","app_id":440,"player_count":0,"max_players":24,"Bots":0,"server_type":"Dedicated","server_os":"Linux","password":true,"vac":true,"version":"7708610","steam_id":85568392925397853,"keywords":["nocrits","nodmgspread","payload","uncletopia"],"game_id":440,"stv_port":27046,"stv_name":"Uncletopia | Warsaw | 4 | All Maps | STV","players":null},{"server_id":53,"name":"Uncletopia | Warsaw | 5 | No Payload","name_short":"waw-5","host":"waw-1.pl.uncletopia.com","port":27055,"enabled":true,"region":"eu","cc":"pl","latitude":52.2297,"longitude":21.017532,"reserved":0,"last_update":"0001-01-01T00:00:00Z","name_a2s":"Uncletopia | Warsaw | 5 | No Payload","protocol":17,"map":"cp_dustbowl","folder":"tf","game":"Team Fortress","app_id":440,"player_count":0,"max_players":24,"Bots":0,"server_type":"Dedicated","server_os":"Linux","password":true,"vac":true,"version":"7708610","steam_id":85568392925397854,"keywords":["cp","nocrits","nodmgspread","uncletopia"],"game_id":440,"stv_port":0,"stv_name":"","players":null},{"server_id":54,"name":"Uncletopia | Warsaw | 6 | Community","name_short":"waw-6","host":"waw-1.pl.uncletopia.com","port":27065,"enabled":true,"region":"eu","cc":"pl","latitude":52.2297,"longitude":21.017532,"reserved":0,"last_update":"0001-01-01T00:00:00Z","name_a2s":"Uncletopia | Warsaw | 6 | Community","protocol":17,"map":"koth_highpass","folder":"tf","game":"Team Fortress","app_id":440,"player_count":0,"max_players":24,"Bots":0,"server_type":"Dedicated","server_os":"Linux","password":true,"vac":true,"version":"7708610","steam_id":85568392925397856,"keywords":["cp","nocrits","nodmgspread","uncletopia"],"game_id":440,"stv_port":0,"stv_name":"","players":null}]}